$GNTXT,01,01,01,More than 100 frame errors, UART RX was disabled*70
b0@hX
@@Y,r7>9N@{4V_:R 
Y|1A)BG.CH)SMKxLA
M&3WcX,kbhXr9$GNRMC,072623.00,A,0419.80765,S,05539.88492,E,0.460,,230525,,,A*75
$GNVTG,,T,,M,0.460,N,0.852,K,A*30
$GNGNS,072623.00,0419.80765,S,05539.88492,E,AA,16,0.69,17.1,-47.6,,*65
$GNGGA,072623.00,0419.80765,S,05539.88492,E,1,12,0.69,17.1,M,-47.6,M,,*4B
$GNGSA,A,3,24,05,13,15,10,12,29,18,25,23,,,1.24,0.69,1.03*15
$GNGSA,A,3,75,71,72,76,65,77,,,,,,,1.24,0.69,1.03*15
$GPGSV,4,1,16,05,23,029,29,10,20,216,22,12,64,135,30,13,11,089,20*7D
$GPGSV,4,2,16,15,44,114,29,18,27,311,23,23,62,229,25,24,25,162,29*79
$GPGSV,4,3,16,25,78,320,17,28,09,275,,29,21,001,20,36,52,277,*7E
$GPGSV,4,4,16,40,86,351,,41,58,082,,49,32,274,,50,10,089,*79
$GLGSV,3,1,09,65,41,165,19,66,05,200,,71,06,046,11,72,41,083,20*6E
$GLGSV,3,2,09,75,21,165,18,76,65,230,27,77,38,307,17,87,07,355,*63
$GLGSV,3,3,09,88,03,300,*5C
$GNGLL,0419.80765,S,05539.88492,E,072623.00,A,A*6D
$GNGRS,072623.00,1,-4.5,-0.9,-10.2,-5.1,-1.9,3.8,-3.8,-6.2,4.7,0.0,,*4F
$GNGRS,072623.00,1,-14.2,33.9,-1.8,9.1,10.0,-3.1,,,,,,*43
$GNGST,072623.00,2973941,,,,3.6,4.1,7.7*78
$GNZDA,072623.00,23,05,2025,00,00*7B
$GNGBS,072623.00,3.6,4.1,7.7,,,,*5D
$GNTXT,01,01,01,More than 100 frame errors, UART RX was disabled*70
b0@PXV
y@Y,rv7(>N@N{4V_:R 
Y|yA)BG.5H)S:KLA\
M
&3WcX,bPXr=s$GNRMC,072624.00,A,0419.80763,S,05539.88493,E,0.114,,230525,,,A*73
$GNVTG,,T,,M,0.114,N,0.211,K,A*3B
$GNGNS,072624.00,0419.80763,S,05539.88493,E,AA,16,0.68,17.4,-47.6,,*61
$GNGGA,072624.00,0419.80763,S,05539.88493,E,1,12,0.68,17.4,M,-47.6,M,,*4F
$GNGSA,A,3,24,05,13,15,10,12,29,18,25,23,,,1.25,0.68,1.05*13
$GNGSA,A,3,75,71,72,76,65,77,,,,,,,1.25,0.68,1.05*13
$GPGSV,4,1,16,05,23,029,30,10,20,216,19,12,64,135,31,13,11,089,20*7C
$GPGSV,4,2,16,15,44,114,29,18,27,311,22,23,62,229,25,24,25,162,30*70
$GPGSV,4,3,16,25,78,320,15,28,09,275,,29,21,001,19,36,52,277,*76
$GPGSV,4,4,16,40,86,351,,41,58,082,,49,32,274,,50,10,089,*79
$GLGSV,3,1,09,65,41,165,18,66,05,200,,71,06,046,09,72,41,083,20*66
$GLGSV,3,2,09,75,21,165,19,76,65,230,25,77,38,307,10,87,07,355,*67
$GLGSV,3,3,09,88,03,300,*5C
$GNGLL,0419.80763,S,05539.88493,E,072624.00,A,A*6D
$GNGRS,072624.00,1,-2.8,-1.7,-10.3,-3.9,-1.4,2.4,-4.3,-7.3,5.2,0.1,,*4A
$GNGRS,072624.00,1,-13.2,13.3,-2.0,3.5,12.5,-0.5,,,,,,*4E
$GNGST,072624.00,54,,,,3.6,4.1,7.7*4D
$GNZDA,072624.00,23,05,2025,00,00*7C
$GNGBS,072624.00,3.6,4.1,7.7,,,,*5A
$GNTXT,01,01,01,More than 100 frame errors, UART RX was disabled*70
$GNTXT,01,01,01,More than 100 frame errors, UART RX was disabled*70
b0@X
@YE,r7>nPN@pr{4V_:R 
Y|A)BG.)H)SKyLA
M&3WcX-bXr}M$GNRMC,072628.00,A,0419.80758,S,05539.88479,E,0.192,,230525,,,A*7D
$GNVTG,,T,,M,0.192,N,0.356,K,A*37
$GNGNS,072628.00,0419.80758,S,05539.88479,E,AA,16,0.70,18.5,-47.6,,*66
$GNGGA,072628.00,0419.80758,S,05539.88479,E,1,12,0.70,18.5,M,-47.6,M,,*48
$GNGSA,A,3,24,05,13,15,10,12,29,18,25,23,,,1.32,0.70,1.11*19
$GNGSA,A,3,75,71,72,76,65,77,,,,,,,1.32,0.70,1.11*19
$GPGSV,4,1,16,05,23,029,31,10,20,216,20,12,64,135,31,13,11,089,19*7D
$GPGSV,4,2,16,15,44,114,30,18,27,311,20,23,62,229,26,24,25,162,31*78
$GPGSV,4,3,16,25,78,320,23,28,09,275,,29,21,001,15,36,52,277,*7F
$GPGSV,4,4,16,40,86,351,,41,58,082,,49,32,274,,50,10,089,*79
$GLGSV,3,1,09,65,41,165,21,66,05,200,,71,06,046,12,72,41,083,21*67
$GLGSV,3,2,09,75,21,165,22,76,65,230,27,77,38,307,21,87,07,355,*6F
$GLGSV,3,3,09,88,03,301,*5D
$GNGLL,0419.80758,S,05539.88479,E,072628.00,A,A*6D
$GNGRS,072628.00,1,3.4,2.8,-14.7,-2.6,-5.3,-0.9,-1.4,-11.1,3.7,-1.5,,*74
$GNGRS,072628.00,1,-6.5,33.7,-8.2,7.9,13.0,-0.6,,,,,,*70
$GNGST,072628.00,42,,,,3.5,4.2,7.6*47
$GNZDA,072628.00,23,05,2025,00,00*70
$GNGBS,072628.00,3.5,4.2,7.6,,,,*57
$GNTXT,01,01,01,More than 100 frame errors, UART RX was disabled*70
b0@X
;@Y!,r7s>cN@.{4V_:R 
Y|A)~BG
.?H)SLKLAX
M&3!WcX-bXreQl$GNRMC,072629.00,A,0419.80760,S,05539.88476,E,0.079,,230525,,,A*7C
$GNVTG,,T,,M,0.079,N,0.146,K,A*30
$GNGNS,072629.00,0419.80760,S,05539.88476,E,AA,16,0.70,18.6,-47.6,,*60
$GNGGA,072629.00,0419.80760,S,05539.88476,E,1,12,0.70,18.6,M,-47.6,M,,*4E
$GNGSA,A,3,24,05,13,15,10,12,29,18,25,23,,,1.32,0.70,1.11*19
$GNGSA,A,3,75,71,72,76,65,77,,,,,,,1.32,0.70,1.11*19
$GPGSV,4,1,16,05,23,029,31,10,20,216,20,12,64,135,31,13,11,089,19*7D
$GPGSV,4,2,16,15,44,114,30,18,27,311,19,23,62,229,26,24,25,162,30*73
$GPGSV,4,3,16,25,78,320,25,28,09,275,,29,21,001,16,36,52,277,*7A
$GPGSV,4,4,16,40,86,351,,41,58,082,,49,32,274,,50,10,089,*79
$GLGSV,3,1,09,65,41,165,22,66,05,200,,71,06,046,10,72,41,083,20*67
$GLGSV,3,2,09,75,21,165,23,76,65,230,26,77,38,307,21,87,07,355,*6F
$GLGSV,3,3,09,88,03,301,*5D
$GNGLL,0419.80760,S,05539.88476,E,072629.00,A,A*68
$GNGRS,072629.00,1,3.6,0.1,-12.5,-3.6,-7.1,-0.2,0.5,-11.7,2.3,-3.2,,*59
$GNGRS,072629.00,1,-5.6,33.9,-9.5,8.6,11.5,0.3,,,,,,*56
$GNGST,072629.00,42,,,,3.4,4.3,7.6*46
$GNZDA,072629.00,23,05,2025,00,00*71
$GNGBS,072629.00,3.4,4.3,7.6,,,,*56
$GNTXT,01,01,01,More than 100 frame errors, UART RX was disabled*70
b0@X 
v@Y9,r7>6N@{4V_:R 
Y|A)pBG.T
H)SKLA
M&3BWcX-NbXrMU$GNRMC,072630.00,A,0419.80761,S,05539.88478,E,0.065,,230525,,,A*76
$GNVTG,,T,,M,0.065,N,0.120,K,A*3D
$GNGNS,072630.00,0419.80761,S,05539.88478,E,AA,16,0.70,18.9,-47.6,,*68
$GNGGA,072630.00,0419.80761,S,05539.88478,E,1,12,0.70,18.9,M,-47.6,M,,*46
$GNGSA,A,3,24,05,13,15,10,12,29,18,25,23,,,1.32,0.70,1.11*19
$GNGSA,A,3,75,71,72,76,65,77,,,,,,,1.32,0.70,1.11*19
$GPGSV,4,1,16,05,23,029,32,10,20,216,21,12,64,135,30,13,11,089,18*7F
$GPGSV,4,2,16,15,44,114,30,18,27,311,18,23,62,229,25,24,25,162,29*79
$GPGSV,4,3,16,25,78,320,25,28,09,275,,29,21,001,18,36,52,277,*74
$GPGSV,4,4,16,40,86,351,,41,58,082,,49,32,274,,50,10,089,*79
$GLGSV,3,1,09,65,41,165,21,66,05,200,,71,06,046,18,72,41,083,21*6D
$GLGSV,3,2,09,75,21,165,23,76,65,230,27,77,38,307,22,87,07,355,*6D
$GLGSV,3,3,09,88,03,301,*5D
$GNGLL,0419.80761,S,05539.88478,E,072630.00,A,A*6F
$GNGRS,072630.00,1,0.5,-0.4,-12.2,0.1,-9.1,3.9,2.8,-11.4,3.8,-5.2,,*7C
$GNGRS,072630.00,1,-3.6,26.4,-11.3,9.5,11.4,3.2,,,,,,*6F
$GNGST,072630.00,43,,,,3.4,4.3,7.6*4F
$GNZDA,072630.00,23,05,2025,00,00*79
$GNGBS,072630.00,3.4,4.3,7.6,,,,*5E
b0@X!
@TY0,r7>N@z{4V_:R 
Y|9A)BG
. H)SK9LA
M&3QWcX-bXr5Yn<$GNRMC,072631.00,A,0419.80766,S,05539.88474,E,0.118,,230525,,,A*77
$GNVTG,,T,,M,0.118,N,0.219,K,A*3F
$GNGNS,072631.00,0419.80766,S,05539.88474,E,AA,16,0.70,19.0,-47.6,,*6A
$GNGGA,072631.00,0419.80766,S,05539.88474,E,1,12,0.70,19.0,M,-47.6,M,,*44
$GNGSA,A,3,24,05,13,15,10,12,29,18,25,23,,,1.32,0.70,1.11*19
$GNGSA,A,3,75,71,72,76,65,77,,,,,,,1.32,0.70,1.11*19
$GPGSV,4,1,16,05,23,029,33,10,20,216,22,12,64,135,31,13,11,089,19*7D
$GPGSV,4,2,16,15,44,114,30,18,27,311,17,23,62,229,23,24,25,162,29*70
$GPGSV,4,3,16,25,78,320,29,28,09,275,,29,21,001,19,36,52,277,*79
$GPGSV,4,4,16,40,86,351,,41,58,082,,49,32,274,,50,10,089,*79
$GLGSV,3,1,09,65,41,165,22,66,05,200,,71,06,046,10,72,41,083,25*62
$GLGSV,3,2,09,75,21,165,23,76,65,230,27,77,38,307,23,87,07,355,*6C
$GLGSV,3,3,09,88,03,301,*5D
$GNGLL,0419.80766,S,05539.88474,E,072631.00,A,A*65
$GNGRS,072631.00,1,6.8,-0.1,-12.3,4.1,-7.8,0.8,1.9,-9.9,1.2,-7.6,,*4B
$GNGRS,072631.00,1,-2.0,33.6,-12.5,9.2,10.0,3.4,,,,,,*6E
$GNGST,072631.00,40,,,,3.4,4.3,7.5*4E
$GNZDA,072631.00,23,05,2025,00,00*78
$GNGBS,072631.00,3.4,4.3,7.5,,,,*5C
$GNTXT,01,01,01,More than 100 frame errors, UART RX was disabled*70
b0@xX!
j@0Y,rD7g>D N@N{4V_:R 
Y|A)QBG
."H)S%KLAX
M&3WcX-fbxXra$GNRMC,072633.00,A,0419.80777,S,05539.88464,E,0.045,,230525,,,A*7D
$GNVTG,,T,,M,0.045,N,0.083,K,A*37
$GNGNS,072633.00,0419.80777,S,05539.88464,E,AA,16,0.70,18.9,-47.6,,*61
$GNGGA,072633.00,0419.80777,S,05539.88464,E,1,12,0.70,18.9,M,-47.6,M,,*4F
$GNGSA,A,3,24,05,13,15,10,12,29,18,25,23,,,1.32,0.70,1.11*19
$GNGSA,A,3,75,71,72,76,65,77,,,,,,,1.32,0.70,1.11*19
$GPGSV,4,1,16,05,23,029,33,10,20,216,25,12,64,135,29,13,11,089,21*78
$GPGSV,4,2,16,15,44,114,31,18,27,311,12,23,62,229,20,24,25,162,27*79
$GPGSV,4,3,16,25,78,320,29,28,09,275,,29,21,001,20,36,52,277,*73
$GPGSV,4,4,16,40,86,351,,41,58,082,,49,32,274,,50,10,089,*79
$GLGSV,3,1,09,65,41,165,20,66,05,200,,71,06,046,10,72,41,083,26*63
$GLGSV,3,2,09,75,21,165,26,76,65,230,24,77,38,307,24,87,07,355,*6D
$GLGSV,3,3,09,88,03,301,*5D
$GNGLL,0419.80777,S,05539.88464,E,072633.00,A,A*66
$GNGRS,072633.00,1,13.1,-1.1,-10.0,-4.4,-4.1,0.5,3.3,-11.8,1.7,-9.6,,*60
$GNGRS,072633.00,1,-0.7,89.0,-15.0,13.7,8.5,4.1,,,,,,*6C
$GNGST,072633.00,41,,,,3.3,4.3,7.4*4B
$GNZDA,072633.00,23,05,2025,00,00*7A
$GNGBS,072633.00,3.3,4.3,7.4,,,,*58
b0@`X!
@Y,r7>AN@''{4V_:R 
Y|#A)BG.9H)SKLAS
M&3;WcX-bb`Xrdq$GNRMC,072634.00,A,0419.80784,S,05539.88454,E,0.069,,230525,,,A*7B
$GNVTG,,T,,M,0.069,N,0.128,K,A*39
$GNGNS,072634.00,0419.80784,S,05539.88454,E,AA,15,0.70,19.0,-47.6,,*62
$GNGGA,072634.00,0419.80784,S,05539.88454,E,1,12,0.70,19.0,M,-47.6,M,,*4F
$GNGSA,A,3,24,05,13,15,10,12,29,18,25,23,,,1.32,0.70,1.11*19
$GNGSA,A,3,75,72,76,65,77,,,,,,,,1.32,0.70,1.11*1F
$GPGSV,4,1,16,05,23,029,33,10,20,216,25,12,64,135,27,13,11,089,21*76
$GPGSV,4,2,16,15,44,114,30,18,27,311,12,23,62,229,22,24,25,162,28*75
$GPGSV,4,3,16,25,78,320,29,28,09,275,,29,21,001,19,36,52,277,*79
$GPGSV,4,4,16,40,86,351,,41,58,082,,49,32,274,,50,10,089,*79
$GLGSV,3,1,09,65,41,165,18,66,05,200,,71,06,046,07,72,41,083,26*6E
$GLGSV,3,2,09,75,21,165,26,76,65,230,23,77,38,307,24,87,07,355,*6A
$GLGSV,3,3,09,88,03,301,*5D
$GNGLL,0419.80784,S,05539.88454,E,072634.00,A,A*6E
$GNGRS,072634.00,1,8.3,-3.1,-8.8,-3.5,-2.8,-0.2,5.5,-12.5,0.4,-8.4,,*40
$GNGRS,072634.00,1,-0.6,-12.8,13.6,9.6,3.2,,,,,,,*7D
$GNGST,072634.00,41,,,,3.3,4.3,7.4*4C
$GNZDA,072634.00,23,05,2025,00,00*7D
$GNGBS,072634.00,3.3,4.3,7.4,,,,*5F
b0@HX m
_@Y,r7>N@\{4V_:R 
Y|A)7BG.GH)SKLA
M&3WcX-.bHXrh$GNRMC,072635.00,A,0419.80787,S,05539.88442,E,0.118,,230525,,,A*79
$GNVTG,,T,,M,0.118,N,0.218,K,A*3E
$GNGNS,072635.00,0419.80787,S,05539.88442,E,AA,16,0.69,18.9,-47.6,,*64
$GNGGA,072635.00,0419.80787,S,05539.88442,E,1,12,0.69,18.9,M,-47.6,M,,*4A
$GNGSA,A,3,24,05,13,15,10,12,29,18,25,23,,,1.24,0.69,1.03*15
$GNGSA,A,3,75,71,72,76,65,77,,,,,,,1.24,0.69,1.03*15
$GPGSV,4,1,16,05,23,029,32,10,20,216,24,12,64,135,27,13,11,089,21*76
$GPGSV,4,2,16,15,44,114,30,18,27,311,16,23,62,229,24,24,25,162,29*76
$GPGSV,4,3,16,25,78,320,30,28,09,275,,29,21,001,17,36,52,277,*7F
$GPGSV,4,4,16,40,86,351,,41,58,082,,49,32,274,,50,10,089,*79
$GLGSV,3,1,09,65,41,165,18,66,05,200,,71,06,046,11,72,41,083,27*68
$GLGSV,3,2,09,75,21,165,25,76,65,230,23,77,38,307,24,87,07,355,*69
$GLGSV,3,3,09,88,03,301,*5D
$GNGLL,0419.80787,S,05539.88442,E,072635.00,A,A*6B
$GNGRS,072635.00,1,2.0,-1.5,-8.1,-3.2,-4.2,-0.1,5.4,-10.9,-1.6,-8.2,,*68
$GNGRS,072635.00,1,-0.9,34.0,-12.7,12.2,10.8,2.6,,,,,,*53
$GNGST,072635.00,45,,,,3.2,4.2,7.4*49
$GNZDA,072635.00,23,05,2025,00,00*7C
$GNGBS,072635.00,3.2,4.2,7.4,,,,*5E
b0@0X
R@.Y#,r7>N@#~{4V_:R 
Y|A)"BG.tH)SKLA
M&3WcX-b0XrlA$GNRMC,072636.00,A,0419.80788,S,05539.88440,E,0.115,,230525,,,A*7A
$GNVTG,,T,,M,0.115,N,0.213,K,A*38
$GNGNS,072636.00,0419.80788,S,05539.88440,E,AA,16,0.67,19.1,-47.6,,*6D
$GNGGA,072636.00,0419.80788,S,05539.88440,E,1,12,0.67,19.1,M,-47.6,M,,*43
$GNGSA,A,3,24,05,13,15,10,12,29,18,25,23,,,1.19,0.67,0.99*17
$GNGSA,A,3,75,71,72,76,65,77,,,,,,,1.19,0.67,0.99*17
$GPGSV,4,1,16,05,23,029,31,10,20,216,21,12,64,135,26,13,11,089,20*70
$GPGSV,4,2,16,15,44,114,30,18,27,311,18,23,62,229,25,24,25,162,27*77
$GPGSV,4,3,16,25,78,320,30,28,09,275,,29,21,001,14,36,52,277,*7C
$GPGSV,4,4,16,40,86,351,,41,58,082,,49,32,274,,50,10,089,*79
$GLGSV,3,1,09,65,41,165,16,66,05,200,,71,06,046,12,72,41,083,26*64
$GLGSV,3,2,09,75,21,165,23,76,65,230,22,77,38,307,22,87,07,355,*68
$GLGSV,3,3,09,88,03,301,*5D
$GNGLL,0419.80788,S,05539.88440,E,072636.00,A,A*65
$GNGRS,072636.00,1,0.3,-0.7,-7.3,-2.4,-1.7,0.5,1.3,-8.4,0.3,-6.0,,*58
$GNGRS,072636.00,1,0.1,-16.8,-10.8,12.8,8.0,3.9,,,,,,*68
$GNGST,072636.00,55,,,,3.2,4.3,7.4*4A
$GNZDA,072636.00,23,05,2025,00,00*7F
$GNGBS,072636.00,3.2,4.3,7.4,,,,*5C
$GNTXT,01,01,01,More than 100 frame errors, UART RX was disabled*70
b0@X
e@6YL,re71>4<N@8{4V_:R 
Y|A)BG.IH)SK1LA
M&3WcX-/bXrtU$GNRMC,072638.00,A,0419.80784,S,05539.88424,E,0.049,,230525,,,A*72
$GNVTG,,T,,M,0.049,N,0.090,K,A*39
$GNGNS,072638.00,0419.80784,S,05539.88424,E,AA,16,0.69,19.2,-47.6,,*60
$GNGGA,072638.00,0419.80784,S,05539.88424,E,1,12,0.69,19.2,M,-47.6,M,,*4E
$GNGSA,A,3,24,05,13,15,10,12,29,18,25,23,,,1.24,0.69,1.03*15
$GNGSA,A,3,75,71,72,76,65,77,,,,,,,1.24,0.69,1.03*15
$GPGSV,4,1,16,05,23,029,30,10,21,216,20,12,64,135,25,13,11,089,17*76
$GPGSV,4,2,16,15,44,114,30,18,27,311,17,23,62,229,26,24,25,162,27*7B
$GPGSV,4,3,16,25,78,320,28,28,09,275,,29,21,001,12,36,52,277,*73
$GPGSV,4,4,16,40,86,351,,41,58,082,,49,32,274,,50,10,089,*79
$GLGSV,3,1,09,65,41,165,16,66,05,200,,71,06,046,09,72,41,083,25*6D
$GLGSV,3,2,09,75,21,165,21,76,65,230,18,77,38,307,20,87,07,355,*61
$GLGSV,3,3,09,88,03,301,*5D
$GNGLL,0419.80784,S,05539.88424,E,072638.00,A,A*65
$GNGRS,072638.00,1,0.6,5.4,-6.9,-9.2,-4.1,-2.0,-0.9,-7.2,10.8,-4.6,,*46
$GNGRS,072638.00,1,-2.1,34.0,-11.3,10.0,7.7,2.3,,,,,,*6F
$GNGST,072638.00,74948,,,,3.2,4.3,7.4*72
$GNZDA,072638.00,23,05,2025,00,00*71
$GNGBS,072638.00,3.2,4.3,7.4,,,,*52
b0@X
@Y,rC7K> EN@
{4V_:R 
Y|BA)BG.'H)SKLAP
M&3;WcX-bXrux,jb0@Y
y@=Yo,r7p>gN@J{4V_:R 
Y|0A)BG
.H)SKL
A
M&3WcX-!bYr-$GNRMC,072642.00,A,0419.80767,S,05539.88392,E,0.167,,230525,,,A*75
$GNVTG,,T,,M,0.167,N,0.310,K,A*3F
$GNGNS,072642.00,0419.80767,S,05539.88392,E,AA,16,0.69,19.2,-47.6,,*6A
$GNGGA,072642.00,0419.80767,S,05539.88392,E,1,12,0.69,19.2,M,-47.6,M,,*44
$GNGSA,A,3,24,05,13,15,10,12,29,18,25,23,,,1.24,0.69,1.03*15
$GNGSA,A,3,75,71,72,76,65,77,,,,,,,1.24,0.69,1.03*15
$GPGSV,4,1,16,05,23,029,30,10,21,216,15,12,64,136,22,13,11,089,16*75
$GPGSV,4,2,16,15,44,114,28,18,27,311,09,23,62,229,21,24,25,162,23*7E
$GPGSV,4,3,16,25,78,320,29,28,09,275,,29,21,001,15,36,52,277,*75
$GPGSV,4,4,16,40,86,351,,41,58,082,,49,32,274,,50,10,089,*79
$GLGSV,3,1,09,65,41,165,14,66,05,200,,71,06,046,10,72,41,083,20*62
b0@Y 
@@Y,qi7j>!N@{4V_:R 
Y|A)BG.BH)S=KTL
A
M&3WcX-:bYr$GNRMC,072643.00,A,0419.80767,S,05539.88390,E,0.028,,230525,,,A*7C
$GNVTG,,T,,M,0.028,N,0.052,K,A*30
$GNGNS,072643.00,0419.80767,S,05539.88390,E,AA,15,0.71,19.2,-47.6,,*63
$GNGGA,072643.00,0419.80767,S,05539.88390,E,1,12,0.71,19.2,M,-47.6,M,,*4E
$GNGSA,A,3,24,05,13,15,10,12,29,18,25,23,,,1.37,0.71,1.17*1B
$GNGSA,A,3,75,71,72,65,77,,,,,,,,1.37,0.71,1.17*1A
$GPGSV,4,1,16,05,23,029,32,10,21,216,11,12,64,136,29,13,11,089,17*79
$GPGSV,4,2,16,15,44,113,29,18,27,311,16,23,62,229,22,24,25,162,23*75
$GPGSV,4,3,16,25,78,320,33,28,09,275,,29,21,001,21,36,52,277,*79
$GPGSV,4,4,16,40,86,351,,41,58,082,,49,32,274,,50,10,089,*79
$GLGSV,3,1,09,65,41,165,12,66,05,200,,71,06,046,09,72,41,083,21*6D
$GLGSV,3,2,09,75,21,165,22,76,65,230,10,77,38,307,21,87,07,355,*6B
$GLGSV,3,3,09,88,03,301,*5D
$GNGLL,0419.80767,S,05539.88390,E,072643.00,A,A*6C
$GNGRS,072643.00,1,2.2,-1.0,-8.0,-1.5,15.6,-1.9,16.9,-4.1,-0.9,-7.5,,*7E
$GNGRS,072643.00,1,6.0,33.9,-14.7,-7.6,7.7,,,,,,,*76
$GNGST,072643.00,4497604,,,,3.3,4.7,7.8*7D
$GNZDA,072643.00,23,05,2025,00,00*7D
$GNGBS,072643.00,3.3,4.7,7.8,,,,*57
)SKLA
M&32WcX-bpYrd}$GNRMC,072644.00,A,0419.80768,S,05539.88382,E,0.137,,230525,,,A*78
$GNVTG,,T,,M,0.137,N,0.253,K,A*3C
$GNGNS,072644.00,0419.80768,S,05539.88382,E,AA,16,0.70,19.1,-47.6,,*69
$GNGGA,072644.00,0419.80768,S,05539.88382,E,1,12,0.70,19.1,M,-47.6,M,,*47
$GNGSA,A,3,24,05,13,15,10,12,29,18,25,23,,,1.32,0.70,1.11*19
$GNGSA,A,3,75,71,72,76,65,77,,,,,,,1.32,0.70,1.11*19
$GPGSV,4,1,16,05,23,029,31,10,21,216,10,12,64,136,26,13,11,089,17*74
$GPGSV,4,2,16,15,44,113,28,18,27,311,09,23,62,229,19,24,25,162,22*73
$GPGSV,4,3,16,25,78,320,31,28,09,275,,29,21,001,18,36,52,277,*71
$GPGSV,4,4,16,40,86,351,,41,58,082,,49,32,274,,50,10,089,*79
$GLGSV,3,1,09,65,41,165,08,66,05,200,,71,06,046,08,72,41,083,20*66
$GLGSV,3,2,09,75,21,165,21,76,65,230,11,77,38,307,21,87,07,355,*69
$GLGSV,3,3,09,88,03,301,*5D
$GNGLL,0419.80768,S,05539.88382,E,072644.00,A,A*67
$GNGRS,072644.00,1,4.1,-1.5,-7.0,-6.2,15.2,-0.6,17.2,-4.5,0.8,-8.0,,*54
$GNGRS,072644.00,1,7.0,34.0,-13.6,11.9,-8.1,5.6,,,,,,*64
$GNGST,072644.00,3073423,,,,3.3,4.8,7.9*7A
$GNZDA,072644.00,23,05,2025,00,00*7A
$GNGBS,072644.00,3.3,4.8,7.9,,,,*5E
$GNTXT,01,01,01,More than 100 frame errors, UART RX was disabled*70
b0@XY
x@Y,q7>vN@!{4V_:R 
Y|A)BG.H)S7K LA
M&3WcX-;bXYr<$GNRMC,072645.00,A,0419.80769,S,05539.88381,E,0.182,,230525,,,A*75
$GNVTG,,T,,M,0.182,N,0.337,K,A*31
$GNGNS,072645.00,0419.80769,S,05539.88381,E,AA,16,0.70,19.3,-47.6,,*68
$GNGGA,072645.00,0419.80769,S,05539.88381,E,1,12,0.70,19.3,M,-47.6,M,,*46
$GNGSA,A,3,24,05,13,15,10,12,29,18,25,23,,,1.26,0.70,1.05*19
$GNGSA,A,3,75,71,72,76,65,77,,,,,,,1.26,0.70,1.05*19
$GPGSV,4,1,16,05,23,029,31,10,21,216,13,12,64,136,25,13,11,089,18*7B
$GPGSV,4,2,16,15,44,113,27,18,27,311,08,23,62,229,16,24,25,162,23*73
$GPGSV,4,3,16,25,78,320,30,28,09,275,,29,21,001,17,36,52,277,*7F
$GPGSV,4,4,16,40,86,351,,41,58,082,,49,32,274,,50,10,089,*79
$GLGSV,3,1,09,65,41,165,09,66,05,200,,71,06,046,11,72,41,083,20*6F
$GNTXT,01,01,01,More than 100 frame errors, UART RX was disabled*70
b0@@Yp
@^YZ,q
8>g,N@l]{4V_:R 
Y|A)}BG.?H)S]KLAy
M&3bWcX-b@YrM$GNRMC,072646.00,A,0419.80773,S,05539.88367,E,0.018,,230525,,,A*77
$GNVTG,,T,,M,0.018,N,0.033,K,A*34
$GNGNS,072646.00,0419.80773,S,05539.88367,E,AA,16,0.70,19.1,-47.6,,*6A
$GNGGA,072646.00,0419.80773,S,05539.88367,E,1,12,0.70,19.1,M,-47.6,M,,*44
$GNGSA,A,3,24,05,13,15,10,12,29,18,25,23,,,1.32,0.70,1.11*19
$GNGSA,A,3,75,71,72,76,65,77,,,,,,,1.32,0.70,1.11*19
$GPGSV,4,1,16,05,23,029,31,10,21,216,13,12,64,136,26,13,11,089,17*77
$GPGSV,4,2,16,15,44,113,27,18,27,312,10,23,62,229,08,24,25,162,22*77
$GPGSV,4,3,16,25,78,320,29,28,09,275,,29,21,001,16,36,52,277,*76
$GPGSV,4,4,16,40,86,351,,41,58,082,,49,32,274,,50,10,089,*79
$GLGSV,3,1,09,65,41,165,13,66,05,200,,71,06,046,08,72,41,083,21*6D
$GLGSV,3,2,09,75,21,165,22,76,65,230,20,77,38,307,23,87,07,355,*6A
$GLGSV,3,3,09,88,03,301,*5D
$GNGLL,0419.80773,S,05539.88367,E,072646.00,A,A*64
$GNGRS,072646.00,1,8.1,1.1,-9.3,-0.2,15.0,3.5,16.3,13.1,6.2,-9.2,,*47
$GNGRS,072646.00,1,10.2,33.9,-11.9,14.0,1.2,3.5,,,,,,*7F
$GNGST,072646.00,3076292,,,,3.4,5.0,8.1*78
$GNZDA,072646.00,23,05,2025,00,00*78
$GNGBS,072646.00,3.4,5.0,8.1,,,,*55
$GNTXT,01,01,01,More than 100 frame errors, UART RX was disabled*70
b0@(Y
@Yp,q*8>KN@{4V_:R 
Y|A)pBG.DH)S_K\LA
M&3`WcX-FNb(Yr$GNRMC,072647.00,A,0419.80778,S,05539.88357,E,0.063,,230525,,,A*72
$GNVTG,,T,,M,0.063,N,0.117,K,A*3F
$GNGNS,072647.00,0419.80778,S,05539.88357,E,AA,16,0.70,18.7,-47.6,,*64
$GNGGA,072647.00,0419.80778,S,05539.88357,E,1,12,0.70,18.7,M,-47.6,M,,*4A
$GNGSA,A,3,24,05,13,15,10,12,29,18,25,23,,,1.32,0.70,1.11*19
$GNGSA,A,3,75,71,72,76,65,77,,,,,,,1.32,0.70,1.11*19
$GPGSV,4,1,16,05,23,029,31,10,21,216,09,12,64,136,26,13,11,089,18*73
$GPGSV,4,2,16,15,44,113,26,18,27,312,11,23,62,229,13,24,25,162,22*7D
$GPGSV,4,3,16,25,78,320,31,28,09,275,,29,21,001,17,36,52,277,*7E
$GPGSV,4,4,16,40,86,351,,41,58,082,,49,32,274,,50,10,089,*79
$GLGSV,3,1,09,65,41,165,14,66,05,200,,71,06,046,15,72,41,083,22*65
$GLGSV,3,2,09,75,21,165,21,76,65,230,23,77,38,307,24,87,07,355,*6D
$GLGSV,3,3,09,88,03,301,*5D
$GNGLL,0419.80778,S,05539.88357,E,072647.00,A,A*6D
$GNGRS,072647.00,1,11.6,2.2,-9.1,0.4,14.5,3.9,16.8,12.6,-2.4,-9.5,,*7D
$GNGRS,072647.00,1,11.2,34.0,-11.8,12.3,1.1,3.5,,,,,,*76
$GNGST,072647.00,4345684,,,,3.5,5.1,8.3*7C
$GNTXT,01,01,01,More than 100 frame errors, UART RX was disabled*70
b0@!Y 
@#Y/,q8>z N@A{4V_:R 
Y|A)?BG.ZH)SKLAA
M&3WcX-bb!Yr$GNRMC,072648.00,A,0419.80781,S,05539.88343,E,0.061,,230525,,,A*7C
$GNVTG,,T,,M,0.061,N,0.113,K,A*39
$GNGNS,072648.00,0419.80781,S,05539.88343,E,AA,15,0.70,18.2,-47.6,,*6E
$GNGGA,072648.00,0419.80781,S,05539.88343,E,1,12,0.70,18.2,M,-47.6,M,,*43
$GNGSA,A,3,24,05,13,15,10,12,29,18,25,23,,,1.32,0.70,1.11*19
$GNGSA,A,3,75,72,76,65,77,,,,,,,,1.32,0.70,1.11*1F
$GPGSV,4,1,16,05,23,029,32,10,21,216,13,12,64,136,22,13,11,089,17*70
$GPGSV,4,2,16,15,44,113,31,18,27,312,16,23,62,229,16,24,25,162,21*7A
$GPGSV,4,3,16,25,78,320,32,28,09,275,,29,21,001,16,36,52,277,*7C
$GPGSV,4,4,16,40,86,351,,41,58,082,,49,32,274,,50,10,089,*79
$GLGSV,3,1,09,65,41,165,18,66,05,200,,71,06,046,07,72,41,083,23*6B
$GLGSV,3,2,09,75,21,165,21,76,65,230,22,77,38,307,24,87,07,355,*6C
$GLGSV,3,3,09,88,03,301,*5D
$GNGLL,0419.80781,S,05539.88343,E,072648.00,A,A*61
$GNGRS,072648.00,1,11.5,2.6,-9.8,-2.5,2.1,5.5,14.2,12.1,-4.5,-28.2,,*57
$GNGRS,072648.00,1,7.9,-10.7,13.5,0.6,3.9,,,,,,,*5F
$GNGST,072648.00,49,,,,3.5,5.1,8.3*42
$GNZDA,072648.00,23,05,2025,00,00*76
$GNGBS,072648.00,3.5,5.1,8.3,,,,*59
$GNTXT,01,01,01,More than 100 frame errors, UART RX was disabled*70
$GNTXT,01,01,01,More than 100 frame errors, UART RX was disabled*70
$GNTXT,01,01,01,More than 100 frame errors, UART RX was disabled*70
$GNGGA,072653.00,0419.80785,S,05539.88308,E,1,12,0.80,17.4,M,-47.6,M,,*44
$GNGSA,A,3,24,05,13,15,12,29,18,25,23,,,,1.48,0.80,1.25*1D
$GNGSA,A,3,75,71,72,76,65,77,,,,,,,1.48,0.80,1.25*1C
$GPGSV,4,1,16,05,23,029,32,10,21,216,22,12,64,136,26,13,11,089,17*76
$GPGSV,4,2,16,15,44,113,25,18,27,312,21,23,63,230,22,24,24,162,27*72
$GPGSV,4,3,16,25,78,318,30,28,09,275,,29,21,001,16,36,52,277,*75
$GPGSV,4,4,16,40,86,351,,41,58,082,,49,32,274,,50,10,089,*79
$GLGSV,3,1,09,65,41,165,14,66,05,200,,71,06,046,09,72,41,083,24*6E
$GLGSV,3,2,09,75,21,165,22,76,65,230,20,77,38,307,24,87,07,355,*6D
$GLGSV,3,3,09,88,03,301,*5D
$GNGLL,0419.80785,S,05539.88308,E,072653.00,A,A*60
$GNGRS,072653.00,1,7.3,-1.2,-6.6,4.8,8.2,8.7,1.3,-2.7,6.8,,,*51
$GNGRS,072653.00,1,4.5,34.0,-13.6,12.1,-7.7,5.0,,,,,,*60
$GNGST,072653.00,45,,,,3.7,5.3,8.6*41
$GNZDA,072653.00,23,05,2025,00,00*7C
$GNGBS,072653.00,3.7,5.3,8.6,,,,*56
$GNRMC,072654.00,A,0419.80797,S,05539.88297,E,0.116,,230525,,,A*7F
$GNVTG,,T,,M,0.116,N,0.215,K,A*3D
$GNGNS,072654.00,0419.80797,S,05539.88297,E,AA,16,0.70,16.9,-47.6,,*6A
$GNGGA,072654.00,0419.80797,S,05539.88297,E,1,12,0.70,16.9,M,-47.6,M,,*44
$GNGSA,A,3,24,05,13,15,10,12,29,18,25,23,,,1.32,0.70,1.11*19
$GNGSA,A,3,75,71,72,76,65,77,,,,,,,1.32,0.70,1.11*19
$GPGSV,4,1,16,05,23,029,32,10,21,216,25,12,64,136,23,13,11,089,16*75
$GPGSV,4,2,16,15,44,113,24,18,27,312,19,23,63,230,22,24,24,162,28*77
$GPGSV,4,3,16,25,78,318,30,28,09,275,,29,21,001,16,36,52,277,*75
$GPGSV,4,4,16,40,86,351,,41,58,082,,49,32,274,,50,10,089,*79
$GLGSV,3,1,09,65,41,165,13,66,05,200,,71,06,046,09,72,41,083,24*69
$GLGSV,3,2,09,75,21,165,24,76,65,230,20,77,38,307,25,87,07,355,*6A
$GLGSV,3,3,09,88,03,301,*5D
$GNGLL,0419.80797,S,05539.88297,E,072654.00,A,A*63
$GNGRS,072654.00,1,8.2,2.8,-6.2,2.8,-11.0,9.5,7.2,1.7,-5.3,5.2,,*4F
$GNGRS,072654.00,1,6.8,101,-14.9,11.8,-6.6,5.3,,,,,,*40
$GNGST,072654.00,49,,,,3.6,5.3,8.6*4B
$GNZDA,072654.00,23,05,2025,00,00*7B
$GNGBS,072654.00,3.6,5.3,8.6,,,,*50
b0@h<Y!
@@+Y,qd8?,N>{4V_:R 
Y|A)BG..H)SK1LA
M&3WcX-3bh<Yr$GNRMC,072655.00,A,0419.80800,S,05539.88283,E,0.073,,230525,,,A*78
$GNVTG,,T,,M,0.073,N,0.136,K,A*3D
$GNGNS,072655.00,0419.80800,S,05539.88283,E,AA,16,0.70,16.6,-47.6,,*60
$GNGGA,072655.00,0419.80800,S,05539.88283,E,1,12,0.70,16.6,M,-47.6,M,,*4E
$GNGSA,A,3,24,05,13,15,10,12,29,18,25,23,,,1.32,0.70,1.11*19
$GNGSA,A,3,75,71,72,76,65,77,,,,,,,1.32,0.70,1.11*19
$GPGSV,4,1,16,05,23,029,33,10,21,216,23,12,64,136,20,13,11,089,15*72
$GPGSV,4,2,16,15,44,113,22,18,27,312,20,23,63,230,21,24,24,162,29*79
$GPGSV,4,3,16,25,78,318,30,28,09,275,,29,21,001,14,36,52,277,*77
$GPGSV,4,4,16,40,86,351,,41,58,082,,49,32,274,,50,10,089,*79
$GLGSV,3,1,09,65,41,165,15,66,05,200,,71,06,046,13,72,41,083,21*61
$GLGSV,3,2,09,75,21,165,22,76,65,230,20,77,38,307,26,87,07,355,*6F
$GLGSV,3,3,09,88,03,301,*5D
$GNGLL,0419.80800,S,05539.88283,E,072655.00,A,A*66
$GNGRS,072655.00,1,6.4,3.9,-7.5,1.0,-17.3,13.2,9.2,0.0,1.6,3.0,,*52
$GNGRS,072655.00,1,8.2,33.7,-16.5,12.5,-3.6,6.4,,,,,,*6D
$GNGST,072655.00,48,,,,3.6,5.2,8.5*49
$GNZDA,072655.00,23,05,2025,00,00*7A
$GNGBS,072655.00,3.6,5.2,8.5,,,,*53
$GPGSV,4,3,16,25,78,318,30,28,09,275,,29,21,001,16,36,52,277,*75
$GPGSV,4,4,16,40,86,351,,41,58,082,,49,32,274,,50,10,089,*79
$GLGSV,3,1,09,65,41,165,14,66,05,200,,71,06,046,08,72,41,083,22*69
$GLGSV,3,2,09,75,21,165,19,76,65,230,22,77,38,307,26,87,07,355,*65
$GLGSV,3,3,09,88,03,301,*5D
$GNGLL,0419.80795,S,05539.88283,E,072656.00,A,A*66
$GNGRS,072656.00,1,3.4,0.8,-6.6,-1.4,-14.6,14.5,5.1,-1.8,5.3,3.4,,*55
$GNGRS,072656.00,1,9.2,33.7,-18.6,10.5,-1.5,5.8,,,,,,*6E
$GNGST,072656.00,47,,,,3.5,5.2,8.4*47
$GNZDA,072656.00,23,05,2025,00,00*79
$GNGBS,072656.00,3.5,5.2,8.4,,,,*52
$GPGSV,4,1,16,05,23,029,32,10,21,216,25,12,64,136,23,13,11,089,15*76
$GPGSV,4,2,16,15,44,113,26,18,27,312,22,23,63,230,19,24,24,162,27*7A
$GPGSV,4,3,16,25,78,318,30,28,09,275,,29,21,001,17,36,52,277,*74
$GPGSV,4,4,16,40,86,351,,41,58,082,,49,32,274,,50,10,089,*79
$GLGSV,3,1,09,65,41,165,15,66,05,200,,71,06,046,11,72,41,083,21*63
$GLGSV,3,2,09,75,21,165,18,76,65,230,24,77,38,307,26,87,07,355,*62
$GLGSV,3,3,09,88,03,301,*5D
$GNGLL,0419.80794,S,05539.88283,E,072657.00,A,A*66
$GNGRS,072657.00,1,4.7,-0.3,-6.2,-1.4,-11.0,14.0,2.9,-4.2,0.3,3.1,,*74
$GNGRS,072657.00,1,8.0,18.6,-18.6,9.8,-0.3,4.5,,,,,,*5A
$GNGST,072657.00,51,,,,3.5,5.1,8.4*42
$GNZDA,072657.00,23,05,2025,00,00*78
$GNGBS,072657.00,3.5,5.1,8.4,,,,*50
$GNGST,072658.00,47,,,,3.4,5.0,8.2*4C
$GNZDA,072658.00,23,05,2025,00,00*77
$GNGBS,072658.00,3.4,5.0,8.2,,,,*59
b0@LY! 
0@x
Y,q8?.N>{4V_:R 
Y|A)BG
.PH)SKhLA
M&3WcX-bLYr
$GNRMC,072659.00,A,0419.80797,S,05539.88280,E,0.238,,230525,,,A*7B
$GNVTG,,T,,M,0.238,N,0.441,K,A*35
$GNGNS,072659.00,0419.80797,S,05539.88280,E,AA,16,0.70,17.2,-47.6,,*6B
$GNGGA,072659.00,0419.80797,S,05539.88280,E,1,12,0.70,17.2,M,-47.6,M,,*45
$GNGSA,A,3,24,05,13,15,10,12,29,18,25,23,,,1.32,0.70,1.11*19
$GNGSA,A,3,75,71,72,76,65,77,,,,,,,1.32,0.70,1.11*19
$GPGSV,4,1,16,05,23,029,33,10,21,216,25,12,64,136,18,13,11,089,10*7A
$GPGSV,4,2,16,15,44,113,28,18,27,312,21,23,63,230,17,24,24,162,26*78
$GPGSV,4,3,16,25,78,318,31,28,09,275,,29,21,001,15,36,52,277,*77
$GPGSV,4,4,16,40,86,351,,41,58,082,,49,32,274,,50,10,089,*79
$GLGSV,3,1,09,65,41,165,15,66,05,200,,71,06,046,10,72,41,083,18*68
$GLGSV,3,2,09,75,21,165,18,76,65,230,22,77,38,307,25,87,07,355,*67
$GLGSV,3,3,09,88,03,301,*5D
$GNGLL,0419.80797,S,05539.88280,E,072659.00,A,A*68
$GNGRS,072659.00,1,10.7,0.3,1.5,-6.1,-12.3,14.0,2.6,-2.7,-0.6,4.5,,*6A
$GNGRS,072659.00,1,8.7,34.1,-16.4,7.5,-3.5,4.8,,,,,,*5D
$GNGST,072659.00,51,,,,3.4,4.9,8.2*42
$GNZDA,072659.00,23,05,2025,00,00*76
$GNGBS,072659.00,3.4,4.9,8.2,,,,*50
b0@OY!
@j
Y,q8x?FN>{4V_:R 
Y|A)BG.H)SKLA
M&3WcX-(bOYr}$GNRMC,072700.00,A,0419.80797,S,05539.88276,E,0.067,,230525,,,A*77
$GNVTG,,T,,M,0.067,N,0.124,K,A*3B
$GNGNS,072700.00,0419.80797,S,05539.88276,E,AA,16,0.70,17.2,-47.6,,*6F
$GNGGA,072700.00,0419.80797,S,05539.88276,E,1,12,0.70,17.2,M,-47.6,M,,*41
$GNGSA,A,3,24,05,13,15,10,12,29,18,25,23,,,1.32,0.70,1.11*19
$GNGSA,A,3,75,71,72,76,65,77,,,,,,,1.32,0.70,1.11*19
$GPGSV,4,1,16,05,23,029,33,10,21,216,24,12,64,136,17,13,11,089,10*74
$GPGSV,4,2,16,15,44,113,29,18,27,312,18,23,63,230,17,24,24,162,27*72
$GPGSV,4,3,16,25,78,318,31,28,09,275,,29,21,001,14,36,52,277,*76
$GPGSV,4,4,16,40,86,351,,41,58,082,,49,32,274,,50,10,089,*79
$GLGSV,3,1,09,65,41,165,18,66,05,200,,71,06,046,13,72,41,083,16*68
$GLGSV,3,2,09,75,21,165,18,76,65,230,20,77,38,307,25,87,07,355,*65
$GLGSV,3,3,09,88,03,301,*5D
$GNGLL,0419.80797,S,05539.88276,E,072700.00,A,A*6C
$GNGRS,072700.00,1,7.5,0.2,6.6,-8.0,-16.3,11.3,0.2,-1.4,-2.4,5.8,,*51
$GNGRS,072700.00,1,9.1,-30.7,-15.7,7.5,-2.6,3.9,,,,,,*7C
$GNGST,072700.00,52,,,,3.4,4.9,8.1*4F
$GNZDA,072700.00,23,05,2025,00,00*7B
$GNGBS,072700.00,3.4,4.9,8.1,,,,*5E
b0@SY L
@Y|,q8?N>,{4V_:R 
Y|A)#BG.FH)SnK?LA
M&3vWcX-bSYreD$GNRMC,072701.00,A,0419.80797,S,05539.88270,E,0.034,,230525,,,A*76
$GNVTG,,T,,M,0.034,N,0.062,K,A*3E
$GNGNS,072701.00,0419.80797,S,05539.88270,E,AA,16,0.70,17.1,-47.6,,*6B
$GNGGA,072701.00,0419.80797,S,05539.88270,E,1,12,0.70,17.1,M,-47.6,M,,*45
$GNGSA,A,3,24,05,13,15,10,12,29,18,25,23,,,1.32,0.70,1.11*19
$GNGSA,A,3,75,71,72,76,65,77,,,,,,,1.32,0.70,1.11*19
$GPGSV,4,1,16,05,23,029,32,10,21,216,21,12,64,136,21,13,11,089,11*74
$GPGSV,4,2,16,15,44,113,30,18,27,312,20,23,63,230,17,24,24,162,28*7E
$GPGSV,4,3,16,25,78,318,30,28,09,275,,29,21,001,15,36,52,277,*76
$GPGSV,4,4,16,40,86,351,,41,58,082,,49,32,274,,50,10,089,*79
$GLGSV,3,1,09,65,41,165,20,66,05,200,,71,06,046,08,72,41,083,13*6C
$GLGSV,3,2,09,75,21,165,19,76,65,230,20,77,38,307,25,87,07,355,*64
$GLGSV,3,3,09,88,03,301,*5D
$GNGLL,0419.80797,S,05539.88270,E,072701.00,A,A*6B
$GNGRS,072701.00,1,6.7,0.8,6.4,-10.3,-16.6,5.3,0.3,-3.0,-2.1,2.8,,*54
$GNGRS,072701.00,1,8.3,34.0,-14.3,7.5,-4.8,3.7,,,,,,*53
$GNGST,072701.00,109469,,,,3.4,4.9,8.1*4A
$GNZDA,072701.00,23,05,2025,00,00*7A
$GNGBS,072701.00,3.4,4.9,8.1,,,,*5F
$GNTXT,01,01,01,More than 100 frame errors, UART RX was disabled*70
b0@WY!R
@
Ya,q8)?Q{N>{4V_:R 
Y|A)BG
.0H)SK%LA
M&3WcX-SbWYrM$GNRMC,072702.00,A,0419.80798,S,05539.88267,E,0.043,,230525,,,A*7C
$GNVTG,,T,,M,0.043,N,0.080,K,A*32
$GNGNS,072702.00,0419.80798,S,05539.88267,E,AA,15,0.75,17.0,-47.6,,*66
$GNGGA,072702.00,0419.80798,S,05539.88267,E,1,12,0.75,17.0,M,-47.6,M,,*4B
$GNGSA,A,3,24,05,13,15,10,12,29,18,25,23,,,1.36,0.75,1.13*1A
$GNGSA,A,3,75,71,76,65,77,,,,,,,,1.36,0.75,1.13*1F
$GPGSV,4,1,16,05,23,029,33,10,21,216,18,12,64,136,22,13,11,089,10*7D
$GPGSV,4,2,16,15,44,113,30,18,27,312,24,23,63,230,17,24,24,162,28*7A
$GPGSV,4,3,16,25,78,318,30,28,09,275,,29,21,001,17,36,52,277,*74
$GPGSV,4,4,16,40,86,351,,41,58,082,,49,32,274,,50,10,089,*79
$GLGSV,3,1,09,65,41,165,22,66,05,200,,71,06,046,10,72,41,083,*65
$GLGSV,3,2,09,75,21,165,18,76,65,230,22,77,38,307,25,87,07,355,*67
$GLGSV,3,3,09,88,03,301,*5D
$GNGLL,0419.80798,S,05539.88267,E,072702.00,A,A*61
$GNGRS,072702.00,1,3.8,0.8,6.1,-3.6,-15.0,2.5,0.1,-4.7,-3.3,0.8,,*68
$GNGRS,072702.00,1,8.1,33.8,9.8,-2.7,4.0,,,,,,,*62
$GNGST,072702.00,80123,,,,3.3,4.9,8.1*75
$GNZDA,072702.00,23,05,2025,00,00*79
$GNGBS,072702.00,3.3,4.9,8.1,,,,*5B
b0@[Y!H
@Y,q8?TN>{4V_:R 
Y|A)BG.+H)SKhLA
M&3+WcX-b[Yr5i$GNRMC,072703.00,A,0419.80799,S,05539.88269,E,0.067,,230525,,,A*74
$GNVTG,,T,,M,0.067,N,0.124,K,A*3B
$GNGNS,072703.00,0419.80799,S,05539.88269,E,AA,15,0.82,16.9,-47.6,,*68
$GNGGA,072703.00,0419.80799,S,05539.88269,E,1,12,0.82,16.9,M,-47.6,M,,*45
$GNGSA,A,3,24,05,13,15,10,12,29,18,25,23,,,1.45,0.82,1.20*16
$GNGSA,A,3,75,71,76,65,77,,,,,,,,1.45,0.82,1.20*13
$GPGSV,4,1,16,05,23,029,33,10,21,216,15,12,64,136,23,13,11,089,09*79
$GPGSV,4,2,16,15,44,113,30,18,27,312,26,23,63,230,16,24,24,162,28*79
$GPGSV,4,3,16,25,78,318,31,28,09,275,,29,21,001,19,36,52,277,*7B
$GPGSV,4,4,16,40,86,351,,41,58,082,,49,32,274,,50,10,089,*79
$GLGSV,3,1,09,65,41,165,22,66,05,200,,71,06,046,09,72,41,083,*6D
$GLGSV,3,2,09,75,21,165,17,76,65,230,22,77,38,307,24,87,07,355,*69
$GLGSV,3,3,09,88,03,301,*5D
$GNGLL,0419.80799,S,05539.88269,E,072703.00,A,A*6F
$GNGRS,072703.00,1,4.1,0.7,40.3,-3.8,-13.8,1.4,0.1,-6.3,-2.7,0.8,,*59
$GNGRS,072703.00,1,8.7,110,9.5,-3.0,5.5,,,,,,,*4C
$GNGST,072703.00,44,,,,3.3,4.9,8.1*4C
$GNZDA,072703.00,23,05,2025,00,00*78
$GNGBS,072703.00,3.3,4.9,8.1,,,,*5A
$GNTXT,01,01,01,More than 100 frame errors, UART RX was disabled*70
b0@_Y!I
@Y,qm8?$N>&C{4V_:R 
Y|A)BG.UH)SKkLA
M&3WcX-Qb_YrA|$GNRMC,072704.00,A,0419.80798,S,05539.88268,E,0.032,,230525,,,A*73
$GNVTG,,T,,M,0.032,N,0.059,K,A*30
$GNGNS,072704.00,0419.80798,S,05539.88268,E,AA,14,0.82,16.8,-47.6,,*6F
$GNGGA,072704.00,0419.80798,S,05539.88268,E,1,12,0.82,16.8,M,-47.6,M,,*43
$GNGSA,A,3,24,05,15,10,12,29,18,25,23,,,,1.45,0.82,1.20*14
$GNGSA,A,3,75,71,76,65,77,,,,,,,,1.45,0.82,1.20*13
$GPGSV,4,1,16,05,23,029,33,10,21,216,18,12,64,136,25,13,11,089,07*7C
$GPGSV,4,2,16,15,44,113,31,18,27,312,26,23,63,230,18,24,24,162,29*77
$GPGSV,4,3,16,25,78,318,30,28,09,275,,29,21,001,19,36,52,277,*7A
$GPGSV,4,4,16,40,86,351,,41,58,082,,49,32,274,,50,10,089,*79
$GLGSV,3,1,09,65,41,165,21,66,05,200,,71,06,046,14,72,41,083,*62
$GLGSV,3,2,09,75,21,165,16,76,65,230,23,77,38,307,25,87,07,355,*68
$GLGSV,3,3,09,88,03,301,*5D
$GNGLL,0419.80798,S,05539.88268,E,072704.00,A,A*68
$GNGRS,072704.00,1,2.9,0.7,-4.0,-12.5,-0.7,0.7,-5.3,-2.2,1.3,,,*6F
$GNGRS,072704.00,1,8.7,34.1,10.0,-3.3,6.5,,,,,,,*5E
$GNGST,072704.00,41,,,,3.3,4.8,8.0*4E
$GNZDA,072704.00,23,05,2025,00,00*7F
$GNGBS,072704.00,3.3,4.8,8.0,,,,*5D
$GNTXT,01,01,01,More than 100 frame errors, UART RX was disabled*70
b0@xcY)
D@Y,q~8?NN>:{4V_:R 
Y|A)BG.RH)SK_LAp
M&3WcX-bxcYr$GNRMC,072705.00,A,0419.80793,S,05539.88268,E,0.034,,230525,,,A*7F
$GNVTG,,T,,M,0.034,N,0.063,K,A*3F
$GNGNS,072705.00,0419.80793,S,05539.88268,E,AA,15,0.82,17.0,-47.6,,*6D
$GNGGA,072705.00,0419.80793,S,05539.88268,E,1,12,0.82,17.0,M,-47.6,M,,*40
$GNGSA,A,3,24,05,13,15,10,12,29,18,25,23,,,1.45,0.82,1.20*16
$GNGSA,A,3,75,71,76,65,77,,,,,,,,1.45,0.82,1.20*13
$GPGSV,4,1,16,05,23,029,31,10,21,216,19,12,64,136,23,13,11,089,08*76
$GPGSV,4,2,16,15,44,113,31,18,27,312,27,23,63,230,20,24,24,162,29*7D
$GPGSV,4,3,16,25,78,318,30,28,09,275,,29,21,001,19,36,52,277,*7A
$GPGSV,4,4,16,40,86,351,,41,58,082,,49,32,274,,50,10,089,*79
$GLGSV,3,1,09,65,41,165,21,66,05,200,,71,06,046,14,72,41,083,*62
$GLGSV,3,2,09,75,21,165,15,76,65,230,22,77,38,307,25,87,07,355,*6A
$GLGSV,3,3,09,88,03,301,*5D
$GNGLL,0419.80793,S,05539.88268,E,072705.00,A,A*62
$GNGRS,072705.00,1,0.8,3.0,24.8,-3.9,-14.7,-3.5,-0.6,-3.4,3.1,0.1,,*73
$GNGRS,072705.00,1,8.6,34.1,8.8,-1.3,7.3,,,,,,,*6A
$GNGST,072705.00,43,,,,3.3,4.8,8.0*4D
$GNZDA,072705.00,23,05,2025,00,00*7E
$GNGBS,072705.00,3.3,4.8,8.0,,,,*5C
$GNTXT,01,01,01,More than 100 frame errors, UART RX was disabled*70
b0@`gY 
@Y,qM8?~N>\{4V_:R 
Y|A)BG.SH)SKLAL
M&3WcX-]b`gYrI$GNRMC,072706.00,A,0419.80794,S,05539.88264,E,0.088,,230525,,,A*70
$GNVTG,,T,,M,0.088,N,0.163,K,A*39
$GNGNS,072706.00,0419.80794,S,05539.88264,E,AA,15,0.75,17.0,-47.6,,*6D
$GNGGA,072706.00,0419.80794,S,05539.88264,E,1,12,0.75,17.0,M,-47.6,M,,*40
$GNGSA,A,3,24,05,13,15,10,12,29,18,25,23,,,1.36,0.75,1.13*1A
$GNGSA,A,3,75,71,76,65,77,,,,,,,,1.36,0.75,1.13*1F
$GPGSV,4,1,16,05,23,029,32,10,21,216,17,12,64,136,23,13,11,089,11*73
$GPGSV,4,2,16,15,44,113,29,18,27,312,27,23,63,230,19,24,24,162,28*7F
$GPGSV,4,3,16,25,78,318,30,28,09,275,,29,21,001,18,36,52,277,*7B
$GPGSV,4,4,16,40,86,351,,41,58,082,,49,32,274,,50,10,089,*79
$GLGSV,3,1,09,65,41,165,22,66,05,200,,71,06,046,08,72,41,083,*6C
$GLGSV,3,2,09,75,21,165,16,76,65,230,21,77,38,307,24,87,07,355,*6B
$GLGSV,3,3,09,88,03,301,*5D
$GNGLL,0419.80794,S,05539.88264,E,072706.00,A,A*6A
$GNGRS,072706.00,1,4.7,2.6,-6.0,-4.4,-15.5,-2.6,-4.2,-2.4,-2.9,1.3,,*44
$GNGRS,072706.00,1,9.8,39.2,8.4,-0.5,10.1,,,,,,,*57
$GNGST,072706.00,47,,,,3.3,4.7,8.0*45
$GNZDA,072706.00,23,05,2025,00,00*7D
$GNGBS,072706.00,3.3,4.7,8.0,,,,*50
$GNTXT,01,01,01,More than 100 frame errors, UART RX was disabled*70
b0@HkY Z
@+
Yz,qM8H?JXN>P{4V_:R 
Y|A)WBG
.YH)SKsLA
M&3WcX->_bHkYr$GNRMC,072707.00,A,0419.80801,S,05539.88265,E,0.116,,230525,,,A*75
$GNVTG,,T,,M,0.116,N,0.215,K,A*3D
$GNGNS,072707.00,0419.80801,S,05539.88265,E,AA,15,0.82,16.6,-47.6,,*61
$GNGGA,072707.00,0419.80801,S,05539.88265,E,1,12,0.82,16.6,M,-47.6,M,,*4C
$GNGSA,A,3,24,05,13,15,10,12,29,18,25,23,,,1.45,0.82,1.20*16
$GNGSA,A,3,75,71,76,65,77,,,,,,,,1.45,0.82,1.20*13
$GPGSV,4,1,16,05,23,029,32,10,21,216,15,12,64,136,24,13,11,089,10*77
$GPGSV,4,2,16,15,44,113,28,18,27,312,26,23,63,230,20,24,24,162,28*75
$GPGSV,4,3,16,25,78,318,31,28,09,275,,29,21,001,17,36,52,277,*75
$GPGSV,4,4,16,40,86,351,,41,58,082,,49,32,274,,50,10,089,*79
$GLGSV,3,1,09,65,41,165,23,66,05,200,,71,06,046,10,72,41,083,*64
$GLGSV,3,2,09,75,21,165,17,76,65,230,20,77,38,307,24,87,07,355,*6B
$GLGSV,3,3,09,88,03,301,*5D
$GNGLL,0419.80801,S,05539.88265,E,072707.00,A,A*69
$GNGRS,072707.00,1,6.0,3.5,24.3,8.4,-15.4,-4.7,-8.5,-1.8,-6.9,0.7,,*7E
$GNGRS,072707.00,1,11.4,34.2,7.9,-1.7,9.9,,,,,,,*5F
$GNGST,072707.00,83147,,,,3.3,4.7,8.0*7E
$GNZDA,072707.00,23,05,2025,00,00*7C
$GNGBS,072707.00,3.3,4.7,8.0,,,,*51
$GNTXT,01,01,01,More than 100 frame errors, UART RX was disabled*70
b0@0oY"
@R
Y\,q8?N>L{4V_:R 
Y|A)BG.WH)SK4LA
M&3iWcX-b0oYr$GNRMC,072708.00,A,0419.80801,S,05539.88265,E,0.047,,230525,,,A*7F
$GNVTG,,T,,M,0.047,N,0.086,K,A*30
$GNGNS,072708.00,0419.80801,S,05539.88265,E,AA,15,0.82,16.4,-47.6,,*6C
$GNGGA,072708.00,0419.80801,S,05539.88265,E,1,12,0.82,16.4,M,-47.6,M,,*41
$GNTXT,01,01,01,More than 100 frame errors, UART RX was disabled*70
b0@sY!Q
@
Y,q8K?fN>7{4V_:R 
Y|A)BG.H)SKLA"
M&3WcX-absYrx$GNRMC,072709.00,A,0419.80801,S,05539.88255,E,0.124,,230525,,,A*79
$GNVTG,,T,,M,0.124,N,0.229,K,A*33
$GNGNS,072709.00,0419.80801,S,05539.88255,E,AA,15,0.82,16.2,-47.6,,*68
$GNGGA,072709.00,0419.80801,S,05539.88255,E,1,12,0.82,16.2,M,-47.6,M,,*45
$GNGSA,A,3,24,05,13,15,10,12,29,18,25,23,,,1.45,0.82,1.20*16
$GNGSA,A,3,75,71,76,65,77,,,,,,,,1.45,0.82,1.20*13
$GPGSV,4,1,16,05,23,029,33,10,21,216,14,12,64,136,19,13,11,089,10*79
$GPGSV,4,2,16,15,44,113,28,18,27,312,25,23,63,230,16,24,24,162,28*73
$GPGSV,4,3,16,25,78,318,31,28,09,275,,29,21,001,14,36,52,277,*76
$GPGSV,4,4,16,40,86,351,,41,58,082,,49,32,274,,50,10,089,*79
$GLGSV,3,1,09,65,41,165,21,66,05,200,,71,06,046,11,72,41,083,*67
$GLGSV,3,2,09,75,21,165,18,76,65,230,23,77,38,307,23,87,07,355,*60
$GLGSV,3,3,09,88,03,301,*5D
$GNGLL,0419.80801,S,05539.88255,E,072709.00,A,A*64
$GNGRS,072709.00,1,-3.2,0.8,-72.4,-2.7,7.4,-0.7,-8.7,-1.8,-2.0,3.6,,*4E
$GNGRS,072709.00,1,11.8,60.8,8.0,-1.2,10.3,,,,,,,*67
$GNGST,072709.00,47,,,,3.2,4.7,8.0*4B
$GNZDA,072709.00,23,05,2025,00,00*72
$GNGBS,072709.00,3.2,4.7,8.0,,,,*5E
$GNTXT,01,01,01,More than 100 frame errors, UART RX was disabled*70
b0@wY!

@Y,qK8?H9N>g{4V_:R 
Y|A)BG.aH)SKLA
M&3WcX-GpbwYrP$GNRMC,072710.00,A,0419.80800,S,05539.88245,E,0.140,,230525,,,A*73
$GNVTG,,T,,M,0.140,N,0.260,K,A*3C
$GNGNS,072710.00,0419.80800,S,05539.88245,E,AA,15,0.82,16.2,-47.6,,*60
$GNGGA,072710.00,0419.80800,S,05539.88245,E,1,12,0.82,16.2,M,-47.6,M,,*4D
$GNGSA,A,3,24,05,13,15,10,12,29,18,25,23,,,1.45,0.82,1.20*16
$GNGSA,A,3,75,71,76,65,77,,,,,,,,1.45,0.82,1.20*13
$GPGSV,4,1,16,05,23,029,33,10,21,216,11,12,64,136,15,13,11,089,09*78
$GPGSV,4,2,16,15,44,113,29,18,27,312,24,23,63,230,17,24,24,162,29*73
$GPGSV,4,3,16,25,78,318,31,28,09,275,,29,21,001,15,36,52,277,*77
$GPGSV,4,4,16,40,86,351,,41,58,082,,49,32,274,,50,10,089,*79
$GLGSV,3,1,09,65,41,165,19,66,05,200,,71,06,046,09,72,41,083,*65
$GLGSV,3,2,09,75,21,165,18,76,65,230,24,77,38,307,24,87,07,355,*60
$GLGSV,3,3,09,88,03,301,*5D
$GNGLL,0419.80800,S,05539.88245,E,072710.00,A,A*6C
$GNGRS,072710.00,1,-4.5,1.5,24.7,-1.8,15.5,-0.1,-10.4,-2.5,-1.5,8.4,,*64
$GNGRS,072710.00,1,12.0,34.3,5.1,-2.5,10.5,,,,,,,*60
$GNGST,072710.00,3299292,,,,3.2,4.7,8.0*78
$GNZDA,072710.00,23,05,2025,00,00*7A
$GNGBS,072710.00,3.2,4.7,8.0,,,,*56
$GNTXT,01,01,01,More than 100 frame errors, UART RX was disabled*70
b0@zY Z
@Y,q<8?N>{4V_:R 
Y|A)?BG.aH)SK/LA
M&3WcX-sbzYru'B$GNRMC,072711.00,A,0419.80799,S,05539.88232,E,0.153,,230525,,,A*7F
$GNVTG,,T,,M,0.153,N,0.282,K,A*32
$GNGNS,072711.00,0419.80799,S,05539.88232,E,AA,15,0.82,16.2,-47.6,,*6E
$GNGGA,072711.00,0419.80799,S,05539.88232,E,1,12,0.82,16.2,M,-47.6,M,,*43
$GNGSA,A,3,24,05,13,15,10,12,29,18,25,23,,,1.45,0.82,1.20*16
$GNGSA,A,3,75,71,76,65,77,,,,,,,,1.45,0.82,1.20*13
$GPGSV,4,1,16,05,23,029,32,10,21,216,11,12,64,136,12,13,11,089,09*7E
$GPGSV,4,2,16,15,44,113,30,18,27,312,24,23,63,230,20,24,24,162,29*7F
$GPGSV,4,3,16,25,78,318,31,28,09,275,,29,21,001,18,36,52,277,*7A
$GPGSV,4,4,16,40,86,351,,41,58,082,,49,32,274,,50,10,089,*79
$GLGSV,3,1,09,65,41,165,23,66,05,200,,71,06,046,15,72,41,083,*61
$GLGSV,3,2,09,75,21,165,18,76,65,230,22,77,38,307,25,87,07,355,*67
$GLGSV,3,3,09,88,03,301,*5D
$GNGLL,0419.80799,S,05539.88232,E,072711.00,A,A*62
$GNGRS,072711.00,1,-6.2,0.9,24.9,-9.6,15.3,0.0,-10.1,-3.3,-2.3,5.4,,*45
$GNGRS,072711.00,1,13.3,34.3,4.2,0.6,11.6,,,,,,,*4F
$GNGST,072711.00,3299292,,,,3.2,4.7,8.0*79
$GNZDA,072711.00,23,05,2025,00,00*7B
$GNGBS,072711.00,3.2,4.7,8.0,,,,*57
$GNTXT,01,01,01,More than 100 frame errors, UART RX was disabled*70
b0@~Y o
@Y,q8j?N>{4V_:R 
Y|A)BG.uH)SK_LA
M&3WcX-)b~Yr]$GNRMC,072712.00,A,0419.80796,S,05539.88213,E,0.236,,230525,,,A*70
$GNVTG,,T,,M,0.236,N,0.437,K,A*3A
$GNGNS,072712.00,0419.80796,S,05539.88213,E,AA,15,0.89,16.2,-47.6,,*6A
$GNGGA,072712.00,0419.80796,S,05539.88213,E,1,12,0.89,16.2,M,-47.6,M,,*47
$GNGSA,A,3,24,05,13,15,10,12,29,18,25,23,,,1.55,0.89,1.27*1B
$GNGSA,A,3,75,71,76,65,77,,,,,,,,1.55,0.89,1.27*1E
$GPGSV,4,1,16,05,23,029,32,10,21,216,20,12,64,136,11,13,11,089,16*71
$GPGSV,4,2,16,15,44,113,30,18,27,312,23,23,63,230,20,24,24,162,29*78
$GPGSV,4,3,16,25,78,318,30,28,09,275,,29,21,001,22,36,52,277,*72
$GPGSV,4,4,16,40,86,351,,41,58,082,,49,32,274,,50,10,089,*79
$GLGSV,3,1,09,65,41,165,23,66,05,200,,71,06,046,14,72,41,083,*60
$GLGSV,3,2,09,75,21,165,18,76,65,230,21,77,38,307,26,87,07,355,*67
$GLGSV,3,3,09,88,03,301,*5D
$GNGLL,0419.80796,S,05539.88213,E,072712.00,A,A*6D
$GNGRS,072712.00,1,-5.5,1.1,-47.2,-11.4,-31.7,0.2,-10.6,-4.1,2.7,4.6,,*56
$GNGRS,072712.00,1,11.2,-1.4,4.5,1.7,10.3,,,,,,,*50
$GNGST,072712.00,51,,,,3.2,4.8,8.0*49
$GNZDA,072712.00,23,05,2025,00,00*78
$GNGBS,072712.00,3.2,4.8,8.0,,,,*5B
$GNTXT,01,01,01,More than 100 frame errors, UART RX was disabled*70
$GNTXT,01,01,01,More than 100 frame errors, UART RX was disabled*70
$GNTXT,01,01,01,More than 100 frame errors, UART RX was disabled*70
b0@Y 
~@uY,q_8'?N>p{4V_:R 
Y|A)uBG.bH)SK&LA[
M&3WcX-
bYr$GNRMC,072715.00,A,0419.80795,S,05539.88193,E,0.066,,230525,,,A*78
$GNVTG,,T,,M,0.066,N,0.123,K,A*3D
$GNGNS,072715.00,0419.80795,S,05539.88193,E,AA,15,0.72,15.8,-47.6,,*68
$GNTXT,01,01,01,More than 100 frame errors, UART RX was disabled*70
b0@pY 
7@
Y,q8?VN>Er{4V_:R 
Y|A)kBG.xH)SKLA^
M&3WcX-bpYr_I$GNRMC,072716.00,A,0419.80797,S,05539.88187,E,0.138,,230525,,,A*76
$GNVTG,,T,,M,0.138,N,0.256,K,A*36
$GNGNS,072716.00,0419.80797,S,05539.88187,E,AA,15,0.82,15.7,-47.6,,*6C
$GNGGA,072716.00,0419.80797,S,05539.88187,E,1,12,0.82,15.7,M,-47.6,M,,*41
$GNGSA,A,3,24,05,13,15,10,12,29,18,25,23,,,1.45,0.82,1.20*16
$GNGSA,A,3,75,71,76,65,77,,,,,,,,1.45,0.82,1.20*13
$GPGSV,4,1,16,05,23,029,32,10,21,216,18,12,64,136,21,13,11,089,10*7F
$GPGSV,4,2,16,15,44,113,29,18,27,312,22,23,63,230,20,24,24,162,31*78
$GPGSV,4,3,16,25,78,318,27,28,09,275,,29,21,001,20,36,52,277,*76
$GPGSV,4,4,16,40,86,351,,41,58,082,,49,32,274,,50,10,089,*79
$GLGSV,3,1,09,65,41,165,20,66,05,200,,71,06,046,11,72,41,083,19*6E
$GNTXT,01,01,01,More than 100 frame errors, UART RX was disabled*70
b0@XY
@Y,q(8?sN>'{4V_:R 
Y|A))BG.H)SK#LA
M&3+WcX-RbXYr7$GNRMC,072717.00,A,0419.80798,S,05539.88186,E,0.023,,230525,,,A*72
$GNVTG,,T,,M,0.023,N,0.042,K,A*3A
$GNTXT,01,01,01,More than 100 frame errors, UART RX was disabled*70
$GNTXT,01,01,01,More than 100 frame errors, UART RX was disabled*70
b0@(Y 
@hY,q8?VN>{4V_:R 
Y|A)8BG.wH)SKLA
M&3WcX-b(Yr$GNRMC,072719.00,A,0419.80801,S,05539.88181,E,0.060,,230525,,,A*73
$GNVTG,,T,,M,0.060,N,0.111,K,A*3A
$GNGNS,072719.00,0419.80801,S,05539.88181,E,AA,16,0.82,15.7,-47.6,,*66
$GNGGA,072719.00,0419.80801,S,05539.88181,E,1,12,0.82,15.7,M,-47.6,M,,*48
$GNGSA,A,3,24,05,13,15,10,12,29,18,25,23,,,1.45,0.82,1.20*16
$GNTXT,01,01,01,More than 100 frame errors, UART RX was disabled*70
$GNTXT,01,01,01,More than 100 frame errors, UART RX was disabled*70
$GNTXT,01,01,01,More than 100 frame errors, UART RX was disabled*70
$GNTXT,01,01,01,More than 100 frame errors, UART RX was disabled*70
$GNTXT,01,01,01,More than 100 frame errors, UART RX was disabled*70
$GNTXT,01,01,01,More than 100 frame errors, UART RX was disabled*70
$GNTXT,01,01,01,More than 100 frame errors, UART RX was disabled*70
b0@8Y!
@ZY ,qs8?,ZN>6{4"V_:R 
Y|WA*BG-H(R2KVLA
M&3WcX-b8Yr;T{$GNRMC,072729.00,A,0419.80759,S,05539.88171,E,0.015,,230525,,,A*7F
$GNVTG,,T,,M,0.015,N,0.028,K,A*33
$GNGNS,072729.00,0419.80759,S,05539.88171,E,AA,16,0.70,16.0,-47.6,,*61
$GNGGA,072729.00,0419.80759,S,05539.88171,E,1,12,0.70,16.0,M,-47.6,M,,*4F
$GNGSA,A,3,24,05,13,15,10,12,29,18,25,23,,,1.32,0.70,1.11*19
$GNGSA,A,3,75,71,72,76,65,77,,,,,,,1.32,0.70,1.11*19
$GPGSV,4,1,16,05,23,029,33,10,21,216,22,12,64,136,27,13,11,089,19*78
$GPGSV,4,2,16,15,44,113,32,18,27,312,26,23,63,230,21,24,24,162,30*76
$GPGSV,4,3,16,25,78,318,27,28,09,275,,29,21,001,23,36,52,277,*75
$GPGSV,4,4,16,40,86,351,34,41,58,082,29,49,32,274,,50,10,089,*75
$GLGSV,3,1,09,65,42,165,17,66,06,200,,71,05,045,17,72,40,082,18*6D
$GLGSV,3,2,09,75,21,165,19,76,65,230,30,77,38,307,23,87,07,355,*63
$GLGSV,3,3,09,88,03,301,*5D
$GNGLL,0419.80759,S,05539.88171,E,072729.00,A,A*61
$GNGRS,072729.00,1,-1.7,4.1,12.7,-4.0,-15.3,0.9,-7.1,0.1,5.4,0.4,,*56
$GNGRS,072729.00,1,0.9,25.2,-14.9,-3.1,3.8,4.8,,,,,,*5C
$GNGST,072729.00,41,,,,2.9,4.3,7.5*4B
$GNZDA,072729.00,23,05,2025,00,00*70
$GNGBS,072729.00,2.9,4.3,7.5,,,,*58
$GNTXT,01,01,01,More than 100 frame errors, UART RX was disabled*70
$GNTXT,01,01,01,More than 100 frame errors, UART RX was disabled*70
b0@Y!
@Y;,q8?N>&{4!V_:R 
Y|:(A*BG-H(RKL A
M'3wWcX-bYr|G$GNRMC,072732.00,A,0419.80750,S,05539.88189,E,0.036,,230525,,,A*7A
$GNVTG,,T,,M,0.036,N,0.067,K,A*39
$GNGNS,072732.00,0419.80750,S,05539.88189,E,AA,16,0.80,15.9,-47.6,,*60
$GNGGA,072732.00,0419.80750,S,05539.88189,E,1,12,0.80,15.9,M,-47.6,M,,*4E
$GNGSA,A,3,24,05,13,15,10,12,29,18,25,23,,,1.48,0.80,1.24*1D
$GNGSA,A,3,75,71,72,76,65,77,,,,,,,1.48,0.80,1.24*1D
$GPGSV,4,1,16,05,23,029,33,10,21,216,25,12,64,136,26,13,11,089,20*74
$GPGSV,4,2,16,15,44,113,26,18,27,312,26,23,63,230,22,24,24,162,31*71
$GPGSV,4,3,16,25,78,318,28,28,09,275,,29,21,001,21,36,52,277,*78
$GPGSV,4,4,16,40,86,351,33,41,58,082,28,49,32,274,,50,10,089,*73
$GLGSV,3,1,09,65,42,165,20,66,06,200,,71,05,045,17,72,40,082,14*65
$GLGSV,3,2,09,75,20,164,19,76,65,229,32,77,39,307,23,87,07,355,*68
$GLGSV,3,3,09,88,03,301,*5D
$GNGLL,0419.80750,S,05539.88189,E,072732.00,A,A*65
$GNGRS,072732.00,1,1.7,4.2,5.7,-3.6,-21.0,2.8,-9.9,-0.9,5.0,-3.6,,*49
$GNGRS,072732.00,1,-2.4,22.6,-16.2,-2.9,4.6,3.7,,,,,,*76
$GNGST,072732.00,41,,,,2.9,4.1,7.4*42
$GNZDA,072732.00,23,05,2025,00,00*7A
$GNGBS,072732.00,2.9,4.1,7.4,,,,*51
$GNTXT,01,01,01,More than 100 frame errors, UART RX was disabled*70
b0@Y 
@Y+,q8?2}N>{4!V_:R 
Y
|%A*BG-H(RKL A@
M'3WcX-LbYrdK$GNRMC,072733.00,A,0419.80750,S,05539.88192,E,0.071,,230525,,,A*72
$GNVTG,,T,,M,0.071,N,0.132,K,A*3B
$GNGNS,072733.00,0419.80750,S,05539.88192,E,AA,16,0.79,15.6,-47.6,,*62
$GNTXT,01,01,01,More than 100 frame errors, UART RX was disabled*70
b0@Y 
@Y,q8?_ N>{4 V_:R 
Y|#%A*BG-fH(RKTL A
M'3WcX-bYrLOt$GNRMC,072734.00,A,0419.80750,S,05539.88195,E,0.091,,230525,,,A*7C
$GNVTG,,T,,M,0.091,N,0.168,K,A*3A
$GNGNS,072734.00,0419.80750,S,05539.88195,E,AA,16,0.85,15.3,-47.6,,*64
$GNGGA,072734.00,0419.80750,S,05539.88195,E,1,12,0.85,15.3,M,-47.6,M,,*4A
$GNGSA,A,3,24,05,13,15,10,12,29,18,25,23,,,1.51,0.85,1.25*11
$GNGSA,A,3,75,71,72,76,65,77,,,,,,,1.51,0.85,1.25*11
$GPGSV,4,1,16,05,23,029,32,10,21,216,22,12,64,136,26,13,11,089,20*72
$GPGSV,4,2,16,15,44,113,28,18,27,312,26,23,63,230,21,24,24,162,32*7F
$GPGSV,4,3,16,25,78,318,25,28,09,275,,29,21,001,22,36,52,277,*76
$GPGSV,4,4,16,40,86,351,32,41,58,082,27,49,32,274,,50,10,089,*7D
$GLGSV,3,1,09,65,42,165,21,66,06,200,,71,05,045,17,72,40,082,12*62
$GLGSV,3,2,09,75,20,164,20,76,65,229,32,77,39,307,23,87,07,355,*62
$GLGSV,3,3,09,88,03,301,*5D
$GNGLL,0419.80750,S,05539.88195,E,072734.00,A,A*6E
$GNGRS,072734.00,1,1.8,4.0,4.1,-3.3,-22.8,-0.6,-10.3,-0.1,4.8,-6.7,,*5D
$GNGRS,072734.00,1,-1.7,18.9,-21.5,-5.9,4.7,4.4,,,,,,*77
$GNGST,072734.00,40,,,,2.8,4.1,7.4*44
$GNZDA,072734.00,23,05,2025,00,00*7C
$GNGBS,072734.00,2.8,4.1,7.4,,,,*56
$GNTXT,01,01,01,More than 100 frame errors, UART RX was disabled*70
b0@Y v
@Y,qa8? N>{4V_:R 
Y|x#A*BG-H(RTKZLA
M'3WcX-bYr4Sc$GNRMC,072735.00,A,0419.80751,S,05539.88196,E,0.152,,230525,,,A*71
$GNVTG,,T,,M,0.152,N,0.282,K,A*33
$GNGNS,072735.00,0419.80751,S,05539.88196,E,AA,15,0.85,15.2,-47.6,,*65
$GNGGA,072735.00,0419.80751,S,05539.88196,E,1,12,0.85,15.2,M,-47.6,M,,*48
$GNGSA,A,3,24,05,13,15,10,12,29,18,25,23,,,1.51,0.85,1.25*11
$GNGSA,A,3,75,71,76,65,77,,,,,,,,1.51,0.85,1.25*14
$GPGSV,4,1,16,05,23,029,32,10,21,216,22,12,64,136,25,13,11,089,20*71
$GPGSV,4,2,16,15,44,113,28,18,27,312,26,23,63,230,22,24,24,162,32*7C
$GPGSV,4,3,16,25,78,318,25,28,09,275,,29,21,001,23,36,52,277,*77
$GPGSV,4,4,16,40,86,351,31,41,58,082,,49,32,274,,50,10,089,*7B
$GLGSV,3,1,09,65,42,165,21,66,06,200,,71,05,045,17,72,40,082,09*68
$GLGSV,3,2,09,75,20,164,19,76,65,229,31,77,39,307,22,87,07,355,*6A
$GLGSV,3,3,09,88,03,301,*5D
$GNGLL,0419.80751,S,05539.88196,E,072735.00,A,A*6D
$GNGRS,072735.00,1,2.7,3.7,1.8,-1.6,-25.7,-0.2,-12.9,-0.4,2.0,-7.7,,*55
$GNGRS,072735.00,1,-1.7,15.0,-2.8,3.9,5.3,,,,,,,*4E
$GNGST,072735.00,40,,,,2.8,4.1,7.4*45
$GNZDA,072735.00,23,05,2025,00,00*7D
$GNGBS,072735.00,2.8,4.1,7.4,,,,*57
$GNTXT,01,01,01,More than 100 frame errors, UART RX was disabled*70
$GNGLL,0419.80750,S,05539.88198,E,072736.00,A,A*61
$GNGRS,072736.00,1,2.0,3.4,-0.7,-4.7,-24.6,0.3,-14.4,-0.4,-0.7,-8.7,,*75
$GNGRS,072736.00,1,-2.5,14.5,-3.6,4.1,4.9,,,,,,,*43
$GNGST,072736.00,42,,,,2.8,4.1,7.3*43
$GNZDA,072736.00,23,05,2025,00,00*7E
$GNGBS,072736.00,2.8,4.1,7.3,,,,*53
$GNGRS,072738.00,1,6.0,2.9,0.9,-12.6,-25.3,1.2,-16.1,-2.0,-2.4,-8.3,,*66
$GNGRS,072738.00,1,-3.0,11.9,-26.5,-4.9,8.8,2.8,,,,,,*78
$GNGST,072738.00,42,,,,2.8,4.1,7.3*4D
$GNZDA,072738.00,23,05,2025,00,00*70
$GNGBS,072738.00,2.8,4.1,7.3,,,,*5D
b0@Y ,
Q@sY,q:8?{N>t{4V_:R 
Y|A*BG-H(R}KL At
M'3WcX-.bYrjrI$GNRMC,072741.00,A,0419.80757,S,05539.88215,E,0.017,,230525,,,A*7C
$GNVTG,,T,,M,0.017,N,0.032,K,A*3A
$GNGNS,072741.00,0419.80757,S,05539.88215,E,AA,15,0.85,13.7,-47.6,,*6B
$GNGGA,072741.00,0419.80757,S,05539.88215,E,1,12,0.85,13.7,M,-47.6,M,,*46
$GNGSA,A,3,24,05,13,15,10,12,29,18,25,23,,,1.51,0.85,1.25*11
$GNGSA,A,3,75,71,76,65,77,,,,,,,,1.51,0.85,1.25*14
$GPGSV,4,1,16,05,23,029,32,10,21,216,22,12,64,136,26,13,11,089,19*78
$GPGSV,4,2,16,15,44,113,28,18,27,312,29,23,63,230,23,24,24,162,31*71
$GPGSV,4,3,16,25,78,318,22,28,09,275,,29,21,001,22,36,52,277,*71
$GPGSV,4,4,16,40,86,351,31,41,58,082,,49,32,274,,50,10,089,*7B
$GLGSV,3,1,09,65,42,165,22,66,06,200,,71,05,045,11,72,40,082,09*6D
$GLGSV,3,2,09,75,20,164,17,76,65,229,32,77,39,307,20,87,07,355,*65
$GLGSV,3,3,09,88,03,301,*5D
$GNGLL,0419.80757,S,05539.88215,E,072741.00,A,A*60
$GNGRS,072741.00,1,3.8,5.6,-1.1,-4.5,-24.8,1.2,-19.1,1.4,-4.0,-8.9,,*5A
$GNGRS,072741.00,1,-0.6,13.1,-4.0,7.4,2.3,,,,,,,*4A
$GNGST,072741.00,44,,,,2.8,4.0,7.3*44
$GNZDA,072741.00,23,05,2025,00,00*7E
$GNGBS,072741.00,2.8,4.0,7.3,,,,*52
b0@Y!l
F@Y&,qX8?,5N>E{4V_:R 
Y|A*BG-H
(RpKoL A
M'3WdX-2bYrnJ$GNRMC,072742.00,A,0419.80759,S,05539.88216,E,0.086,,230525,,,A*7A
$GNVTG,,T,,M,0.086,N,0.159,K,A*3E
$GNGNS,072742.00,0419.80759,S,05539.88216,E,AA,16,0.85,13.4,-47.6,,*65
$GNGGA,072742.00,0419.80759,S,05539.88216,E,1,12,0.85,13.4,M,-47.6,M,,*4B
$GNGSA,A,3,24,05,13,15,10,12,29,18,25,23,,,1.51,0.85,1.25*11
$GNGSA,A,3,75,71,72,76,65,77,,,,,,,1.51,0.85,1.25*11
$GPGSV,4,1,16,05,23,029,33,10,21,216,23,12,64,136,26,13,11,089,19*78
$GPGSV,4,2,16,15,44,113,29,18,27,312,29,23,63,230,23,24,24,162,31*70
$GPGSV,4,3,16,25,78,318,21,28,09,275,,29,21,001,20,36,52,277,*70
$GPGSV,4,4,16,40,86,351,31,41,58,082,,49,32,274,,50,10,089,*7B
$GLGSV,3,1,09,65,42,165,23,66,06,200,,71,05,045,12,72,40,082,10*67
$GLGSV,3,2,09,75,20,164,17,76,65,229,32,77,39,307,20,87,06,356,*67
$GLGSV,3,3,09,88,03,301,*5D
$GNGLL,0419.80759,S,05539.88216,E,072742.00,A,A*6E
$GNGRS,072742.00,1,3.1,1.1,-2.2,-4.2,-22.3,4.2,-17.2,2.7,-3.5,-9.8,,*53
$GNGRS,072742.00,1,-1.4,9.4,-29.6,-3.4,4.6,2.0,,,,,,*4B
$GNGST,072742.00,43,,,,2.8,4.0,7.3*40
$GNZDA,072742.00,23,05,2025,00,00*7D
$GNGBS,072742.00,2.8,4.0,7.3,,,,*51
b0@Y!
@Y<,q8?i #N>{4V_:R 
Y|[A*BG-H(RKL!A
M'3.WdX-#bYrtr!
$GNRMC,072743.00,A,0419.80763,S,05539.88216,E,0.096,,230525,,,A*73
$GNVTG,,T,,M,0.096,N,0.178,K,A*3C
$GNGNS,072743.00,0419.80763,S,05539.88216,E,AA,16,0.85,13.1,-47.6,,*68
$GNGGA,072743.00,0419.80763,S,05539.88216,E,1,12,0.85,13.1,M,-47.6,M,,*46
$GNGSA,A,3,24,05,13,15,10,12,29,18,25,23,,,1.51,0.85,1.25*11
$GNGSA,A,3,75,71,72,76,65,77,,,,,,,1.51,0.85,1.25*11
$GPGSV,4,1,16,05,23,029,33,10,21,216,23,12,64,136,25,13,11,089,20*71
$GPGSV,4,2,16,15,44,113,30,18,27,312,29,23,63,230,21,24,24,162,32*79
$GPGSV,4,3,16,25,78,318,19,28,09,275,,29,21,001,21,36,52,277,*7A
$GPGSV,4,4,16,40,86,351,31,41,58,082,27,49,32,274,,50,10,089,*7E
$GLGSV,3,1,09,65,42,165,22,66,06,200,,71,05,045,13,72,40,082,15*62
$GLGSV,3,2,09,75,20,164,17,76,65,229,33,77,39,307,19,87,06,356,*6C
$GLGSV,3,3,09,88,03,301,*5D
$GNGLL,0419.80763,S,05539.88216,E,072743.00,A,A*66
$GNGRS,072743.00,1,2.9,2.4,-2.0,-8.4,-21.4,5.1,-16.5,1.7,-0.7,-9.2,,*5D
$GNGRS,072743.00,1,-2.7,7.6,60.5,-3.2,4.6,0.5,,,,,,*64
$GNGST,072743.00,44,,,,2.8,4.0,7.3*46
$GNZDA,072743.00,23,05,2025,00,00*7C
$GNGBS,072743.00,2.8,4.0,7.3,,,,*50
$GNTXT,01,01,01,More than 100 frame errors, UART RX was disabled*70
b0@Y!
@Y>,q8?GN>{4 V_:R 
Y|UA*BG-H
(R(KL"A
M'3gWdX-bYr\vr$GNRMC,072744.00,A,0419.80758,S,05539.88217,E,0.104,,230525,,,A*77
$GNVTG,,T,,M,0.104,N,0.192,K,A*32
$GNGNS,072744.00,0419.80758,S,05539.88217,E,AA,16,0.79,13.1,-47.6,,*65
$GNGGA,072744.00,0419.80758,S,05539.88217,E,1,12,0.79,13.1,M,-47.6,M,,*4B
$GNGSA,A,3,24,05,13,15,10,12,29,18,25,23,,,1.42,0.79,1.18*1E
$GNGSA,A,3,75,71,72,76,65,77,,,,,,,1.42,0.79,1.18*1E
$GPGSV,4,1,16,05,23,029,33,10,21,216,25,12,64,136,25,13,11,089,20*77
$GPGSV,4,2,16,15,44,113,30,18,27,312,29,23,63,230,19,24,24,162,31*71
$GPGSV,4,3,16,25,78,318,19,28,09,275,,29,21,001,22,36,52,277,*79
$GNTXT,01,01,01,More than 100 frame errors, UART RX was disabled*70
b0@Y 
N@Y,q\8?*N>{4V_:R 
Y|A*/BG-H(R%KL"A
M'3WdX-bYrDz$GNRMC,072745.00,A,0419.80752,S,05539.88220,E,0.118,,230525,,,A*75
$GNVTG,,T,,M,0.118,N,0.218,K,A*3E
$GNGNS,072745.00,0419.80752,S,05539.88220,E,AA,16,0.68,13.2,-47.6,,*69
$GNGGA,072745.00,0419.80752,S,05539.88220,E,1,12,0.68,13.2,M,-47.6,M,,*47
$GNGSA,A,3,24,05,13,15,10,12,29,18,25,23,,,1.25,0.68,1.04*12
$GNGSA,A,3,75,71,72,76,65,77,,,,,,,1.25,0.68,1.04*12
$GPGSV,4,1,16,05,23,029,32,10,21,216,25,12,64,136,25,13,11,089,20*76
$GPGSV,4,2,16,15,44,113,29,18,27,312,28,23,63,230,16,24,24,162,31*77
$GPGSV,4,3,16,25,78,318,17,28,09,275,,29,21,001,21,36,52,277,*74
$GPGSV,4,4,16,40,86,351,31,41,58,082,28,49,32,274,,50,10,089,*71
$GLGSV,3,1,09,65,42,165,19,66,06,200,,71,05,045,16,72,40,082,14*6E
$GLGSV,3,2,09,75,20,164,18,76,65,229,34,77,39,307,16,87,06,356,*6B
$GLGSV,3,3,09,88,03,301,*5D
$GNGLL,0419.80752,S,05539.88220,E,072745.00,A,A*67
$GNGRS,072745.00,1,3.0,5.4,-2.8,-9.3,-19.7,4.0,-15.1,4.0,2.0,-4.8,,*78
$GNGRS,072745.00,1,-2.5,6.4,2.9,-2.5,3.0,2.5,,,,,,*5E
$GNGST,072745.00,2973941,,,,2.8,4.0,7.3*73
$GNZDA,072745.00,23,05,2025,00,00*7A
$GNGBS,072745.00,2.8,4.0,7.3,,,,*56
$GNTXT,01,01,01,More than 100 frame errors, UART RX was disabled*70
b0@Z 
@uY,q8?N>a{4V_:R 
Y|A*BG-H(RwKL!A
M'3UWdX-UbZr,~P$GNRMC,072746.00,A,0419.80748,S,05539.88233,E,0.074,,230525,,,A*74
$GNVTG,,T,,M,0.074,N,0.138,K,A*34
$GNGNS,072746.00,0419.80748,S,05539.88233,E,AA,16,0.68,13.3,-47.6,,*62
$GNGGA,072746.00,0419.80748,S,05539.88233,E,1,12,0.68,13.3,M,-47.6,M,,*4C
$GNGSA,A,3,24,05,13,15,10,12,29,18,25,23,,,1.25,0.68,1.04*12
$GNGSA,A,3,75,71,72,76,65,77,,,,,,,1.25,0.68,1.04*12
$GPGSV,4,1,16,05,23,029,32,10,21,216,26,12,64,136,24,13,11,089,19*7E
$GPGSV,4,2,16,15,44,113,28,18,27,312,28,23,63,230,15,24,24,162,31*75
$GPGSV,4,3,16,25,78,318,16,28,09,275,,29,21,001,21,36,52,277,*75
$GPGSV,4,4,16,40,86,351,31,41,58,082,27,49,32,274,,50,10,089,*7E
$GLGSV,3,1,09,65,42,165,19,66,06,200,,71,05,045,15,72,40,082,11*68
$GLGSV,3,2,09,75,20,164,18,76,65,229,33,77,39,307,15,87,06,356,*6F
$GLGSV,3,3,09,88,03,301,*5D
$GNGLL,0419.80748,S,05539.88233,E,072746.00,A,A*6D
$GNGRS,072746.00,1,2.5,4.2,-3.0,4.1,-17.9,6.3,-16.0,2.5,-1.6,-7.9,,*79
$GNGRS,072746.00,1,-3.0,5.3,6.3,-2.4,4.8,-1.7,,,,,,*71
$GNGST,072746.00,49,,,,2.8,3.9,7.2*41
$GNZDA,072746.00,23,05,2025,00,00*79
$GNTXT,01,01,01,More than 100 frame errors, UART RX was disabled*70
$GNGBS,072748.00,2.8,3.9,7.3,,,,*55
b0@@Z @
@Y*,q8?ON>{4 V_:R 
Y|A*BG-H(R,KL"A7
M'3WdX-b@Zr$GNRMC,072750.00,A,0419.80744,S,05539.88248,E,0.014,,230525,,,A*75
$GNVTG,,T,,M,0.014,N,0.026,K,A*3C
$GNGNS,072750.00,0419.80744,S,05539.88248,E,AA,15,0.79,13.0,-47.6,,*65
$GNGGA,072750.00,0419.80744,S,05539.88248,E,1,12,0.79,13.0,M,-47.6,M,,*48
$GNGSA,A,3,24,05,13,15,12,29,18,25,23,,,,1.42,0.79,1.18*1F
$GNGSA,A,3,75,71,72,76,65,77,,,,,,,1.42,0.79,1.18*1E
$GPGSV,4,1,16,05,22,029,32,10,21,216,,12,64,136,21,13,11,089,20*74
$GPGSV,4,2,16,15,44,113,26,18,27,312,29,23,63,230,22,24,24,162,31*7E
$GPGSV,4,3,16,25,78,318,22,28,09,275,,29,21,001,24,36,52,277,*77
$GPGSV,4,4,16,40,86,351,32,41,58,082,26,49,32,274,,50,10,089,*7C
$GLGSV,3,1,09,65,42,165,20,66,06,200,,71,05,045,13,72,40,082,13*66
$GLGSV,3,2,09,75,20,164,17,76,65,229,34,77,39,307,17,87,06,356,*65
$GLGSV,3,3,09,88,03,301,*5D
$GNGLL,0419.80744,S,05539.88248,E,072750.00,A,A*6A
$GNGRS,072750.00,1,5.9,3.2,-4.7,-11.3,7.7,-16.1,2.0,-5.2,1.3,,,*75
$GNGRS,072750.00,1,-3.7,5.4,3.0,-2.0,4.2,-0.7,,,,,,*7F
$GNGST,072750.00,68117,,,,2.8,3.9,7.3*73
$GNZDA,072750.00,23,05,2025,00,00*7E
$GNGBS,072750.00,2.8,3.9,7.3,,,,*5C
b0@(Z 
@Y,q8?PN>{4!V_:R 
Y|A*pBG-XH(R)KL A:
M'3WdX-ab(ZrU$GNRMC,072751.00,A,0419.80744,S,05539.88246,E,0.049,,230525,,,A*72
$GNVTG,,T,,M,0.049,N,0.091,K,A*38
$GNGNS,072751.00,0419.80744,S,05539.88246,E,AA,15,0.79,12.8,-47.6,,*63
$GNGGA,072751.00,0419.80744,S,05539.88246,E,1,12,0.79,12.8,M,-47.6,M,,*4E
$GNGSA,A,3,24,05,13,15,12,29,18,25,23,,,,1.42,0.79,1.18*1F
$GNGSA,A,3,75,71,72,76,65,77,,,,,,,1.42,0.79,1.18*1E
$GPGSV,4,1,16,05,22,029,32,10,21,216,,12,64,136,21,13,11,089,21*75
$GPGSV,4,2,16,15,44,113,24,18,27,312,29,23,63,230,21,24,24,162,31*7F
$GPGSV,4,3,16,25,78,318,23,28,09,275,,29,21,001,22,36,52,277,*70
$GPGSV,4,4,16,40,86,351,33,41,58,082,27,49,32,274,,50,10,089,*7C
$GLGSV,3,1,09,65,42,165,21,66,06,200,,71,05,045,11,72,40,082,15*63
$GLGSV,3,2,09,75,20,164,19,76,65,229,32,77,39,307,18,87,06,356,*62
$GLGSV,3,3,09,88,03,301,*5D
$GNGLL,0419.80744,S,05539.88246,E,072751.00,A,A*65
$GNGRS,072751.00,1,2.1,5.2,-5.9,-10.4,9.4,-19.2,3.9,-5.7,0.8,,,*72
$GNGRS,072751.00,1,-6.3,6.0,3.0,-2.0,6.2,-2.4,,,,,,*7B
$GNGST,072751.00,99080,,,,2.8,3.9,7.3*73
$GNZDA,072751.00,23,05,2025,00,00*7F
$GNGBS,072751.00,2.8,3.9,7.3,,,,*5D
b0@Z!5
@9Y?,q8? _N>{4 V_:R 
Y|A*BG
-)H(RKLA{
M'3WdX-bZr$GNRMC,072752.00,A,0419.80747,S,05539.88248,E,0.097,,230525,,,A*7F
$GNVTG,,T,,M,0.097,N,0.179,K,A*3C
$GNGNS,072752.00,0419.80747,S,05539.88248,E,AA,15,0.85,12.7,-47.6,,*61
$GNGGA,072752.00,0419.80747,S,05539.88248,E,1,12,0.85,12.7,M,-47.6,M,,*4C
$GNGSA,A,3,24,05,13,15,12,29,18,25,23,,,,1.51,0.85,1.25*10
$GNGSA,A,3,75,71,72,76,65,77,,,,,,,1.51,0.85,1.25*11
