b0@O
Dl^+xP2;TIJe{4V_ :R 
Y{A%BG2H)[KrLE.
M#9W_X($GNTXT,01,01,01,More than 100 frame errors, UART RX was disabled*70
b0@O
fD^+x2X; ]IJNe{4V_":R 
Y{A%BBG2
H)[KLE
M#9YW_X(bOr]5dD$GNRMC,071632.00,A,0419.81361,S,05539.87742,E,0.108,,230525,,,A*7D
$GNVTG,,T,,M,0.108,N,0.201,K,A*37
$GNGNS,071632.00,0419.81361,S,05539.87742,E,AA,15,0.72,17.3,-47.6,,*6D
$GNGGA,071632.00,0419.81361,S,05539.87742,E,1,12,0.72,17.3,M,-47.6,M,,*40
$GNGSA,A,3,24,05,15,10,12,29,18,25,23,,,,1.29,0.72,1.07*14
$GNGSA,A,3,75,71,72,76,65,77,,,,,,,1.29,0.72,1.07*16
$GPGSV,4,1,16,05,27,030,25,10,16,214,12,12,68,127,26,13,12,094,09*75
$GPGSV,4,2,16,15,43,120,28,18,28,306,21,23,59,222,20,24,26,166,21*7A
$GPGSV,4,3,16,25,73,330,22,28,08,280,,29,19,357,13,36,52,277,*72
$GPGSV,4,4,16,40,86,351,,41,58,082,34,49,32,274,,50,10,089,*7E
$GNTXT,01,01,01,More than 100 frame errors, UART RX was disabled*70
b0@O

jD^F+x2;IJe{4V_!:R 
Y{A%BG2b
H)[KLE
M#9W_X(bOrE9<$GNRMC,071633.00,A,0419.81381,S,05539.87723,E,0.213,,230525,,,A*7C
$GNVTG,,T,,M,0.213,N,0.395,K,A*32
$GNGNS,071633.00,0419.81381,S,05539.87723,E,AA,15,0.72,16.5,-47.6,,*62
$GNGGA,071633.00,0419.81381,S,05539.87723,E,1,12,0.72,16.5,M,-47.6,M,,*4F
$GNGSA,A,3,24,05,15,10,12,29,18,25,23,,,,1.29,0.72,1.07*14
$GNGSA,A,3,75,71,72,76,65,77,,,,,,,1.29,0.72,1.07*16
$GPGSV,4,1,16,05,27,030,26,10,16,214,10,12,68,127,27,13,12,094,07*7B
$GPGSV,4,2,16,15,43,120,30,18,28,306,20,23,59,222,21,24,26,166,19*78
$GPGSV,4,3,16,25,73,330,22,28,08,280,,29,19,357,15,36,52,277,*74
$GPGSV,4,4,16,40,86,351,,41,58,082,33,49,32,274,,50,10,089,*79
$GLGSV,3,1,09,65,37,169,25,66,02,203,,71,08,050,11,72,41,091,30*63
$GLGSV,3,2,09,75,25,165,15,76,69,244,27,77,35,313,18,87,08,351,*69
$GLGSV,3,3,09,88,04,296,*55
$GNGLL,0419.81381,S,05539.87723,E,071633.00,A,A*66
$GNGRS,071633.00,1,4.9,-15.4,4.7,-16.9,-0.9,9.0,2.1,-10.6,-12.9,,,*5D
$GNGRS,071633.00,1,11.8,26.6,-5.6,-1.3,4.7,15.3,,,,,,*6F
$GNGST,071633.00,53,,,,4.8,4.9,10*61
$GNTXT,01,01,01,More than 100 frame errors, UART RX was disabled*70
b0@OA
D
^f+x2;IJe{4V_":R 
Y{nA%BG2
H)[KlLE
M#9W_X(>CbOr-=$GNRMC,071634.00,A,0419.81398,S,05539.87711,E,0.092,,230525,,,A*79
$GNVTG,,T,,M,0.092,N,0.170,K,A*30
$GNGNS,071634.00,0419.81398,S,05539.87711,E,AA,16,0.72,16.2,-47.6,,*68
$GNGGA,071634.00,0419.81398,S,05539.87711,E,1,12,0.72,16.2,M,-47.6,M,,*46
$GNTXT,01,01,01,More than 100 frame errors, UART RX was disabled*70
b0@Or
hDl^g+x2;l>IJ
e{4V_!:R 
Y{A%rBG2H)[KLE
M#9W_X(bOrA|$GNRMC,071635.00,A,0419.81421,S,05539.87689,E,0.163,,230525,,,A*72
$GNVTG,,T,,M,0.163,N,0.302,K,A*38
$GNGNS,071635.00,0419.81421,S,05539.87689,E,AA,16,0.72,15.0,-47.6,,*6D
$GNGGA,071635.00,0419.81421,S,05539.87689,E,1,12,0.72,15.0,M,-47.6,M,,*43
$GNGSA,A,3,24,05,13,15,10,12,29,18,25,23,,,1.29,0.72,1.07*16
$GNGSA,A,3,75,71,72,76,65,77,,,,,,,1.29,0.72,1.07*16
$GPGSV,4,1,16,05,27,030,27,10,16,214,14,12,68,127,26,13,12,094,09*71
$GPGSV,4,2,16,15,43,120,31,18,28,306,20,23,59,222,24,24,26,166,22*74
$GPGSV,4,3,16,25,73,330,23,28,08,280,,29,19,357,10,36,52,277,*70
$GPGSV,4,4,16,40,86,351,,41,58,082,33,49,32,274,,50,10,089,*79
$GLGSV,3,1,09,65,37,169,24,66,02,203,,71,08,050,11,72,41,091,29*6A
$GLGSV,3,2,09,75,25,165,16,76,69,244,29,77,35,313,21,87,08,351,*6E
$GLGSV,3,3,09,88,04,296,*55
$GNGLL,0419.81421,S,05539.87689,E,071635.00,A,A*6C
$GNGRS,071635.00,1,0.6,-11.7,21.5,4.6,16.4,-1.5,17.5,4.7,-5.2,-11.7,,*64
$GNGRS,071635.00,1,12.4,25.6,-11.4,-2.4,3.7,12.0,,,,,,*55
$GNGST,071635.00,3072448,,,,4.8,4.9,10*5F
$GNZDA,071635.00,23,05,2025,00,00*7F
$GNGBS,071635.00,4.8,4.9,10.4,,,,*6D
b0@pO

C Dq^7+x2;IJ"e{4V_$:R 
Y{A%BG2GH)[KLE
M#9aW_X(YbpOrD$GNRMC,071636.00,A,0419.81430,S,05539.87683,E,0.087,,230525,,,A*70
$GNVTG,,T,,M,0.087,N,0.161,K,A*34
$GNGNS,071636.00,0419.81430,S,05539.87683,E,AA,16,0.70,15.1,-47.6,,*67
$GNGGA,071636.00,0419.81430,S,05539.87683,E,1,12,0.70,15.1,M,-47.6,M,,*49
$GNGSA,A,3,24,05,13,15,10,12,29,18,25,23,,,1.30,0.70,1.09*12
$GNGSA,A,3,75,71,72,76,65,77,,,,,,,1.30,0.70,1.09*12
$GPGSV,4,1,16,05,27,030,28,10,16,214,10,12,68,127,32,13,12,094,13*74
$GPGSV,4,2,16,15,43,120,31,18,28,306,19,23,59,222,26,24,26,166,21*7F
$GPGSV,4,3,16,25,73,330,31,28,08,280,,29,19,357,08,36,52,277,*7A
$GPGSV,4,4,16,40,86,351,,41,58,082,36,49,32,274,,50,10,089,*7C
$GLGSV,3,1,09,65,37,169,24,66,02,203,,71,08,050,13,72,41,091,30*60
$GLGSV,3,2,09,75,25,165,16,76,69,244,28,77,35,313,22,87,08,351,*6C
$GLGSV,3,3,09,88,04,296,*55
$GNGLL,0419.81430,S,05539.87683,E,071636.00,A,A*65
$GNGRS,071636.00,1,0.3,-10.3,59.4,4.0,-19.8,1.1,-6.0,4.2,0.3,-8.6,,*65
$GNGRS,071636.00,1,11.5,8.4,-8.8,2.2,4.7,11.2,,,,,,*70
$GNGST,071636.00,58,,,,4.8,4.8,10*6E
$GNZDA,071636.00,23,05,2025,00,00*7C
$GNGBS,071636.00,4.8,4.8,10.4,,,,*6F
b0@XO

 D^)+xM2;0IJe{4V_!:R 
Y
{A%BG2H)[lKLE;
M#9W_X(bXOrHI$GNRMC,071637.00,A,0419.81447,S,05539.87666,E,0.272,,230525,,,A*72
$GNVTG,,T,,M,0.272,N,0.504,K,A*3B
$GNGNS,071637.00,0419.81447,S,05539.87666,E,AA,16,0.76,14.2,-47.6,,*69
$GNGGA,071637.00,0419.81447,S,05539.87666,E,1,12,0.76,14.2,M,-47.6,M,,*47
$GNGSA,A,3,24,05,13,15,10,12,29,18,25,23,,,1.43,0.76,1.22*19
$GNGSA,A,3,75,71,72,76,65,77,,,,,,,1.43,0.76,1.22*19
$GPGSV,4,1,16,05,27,030,27,10,16,214,10,12,68,127,32,13,12,094,14*7C
$GPGSV,4,2,16,15,43,120,31,18,28,306,19,23,59,222,27,24,26,166,19*75
$GPGSV,4,3,16,25,73,330,30,28,08,280,,29,19,357,13,36,52,277,*71
$GPGSV,4,4,16,40,86,351,,41,58,082,33,49,32,274,,50,10,089,*79
$GLGSV,3,1,09,65,37,169,22,66,02,203,,71,08,050,11,72,41,091,30*64
$GLGSV,3,2,09,75,25,165,16,76,69,244,28,77,35,313,23,87,08,351,*6D
$GLGSV,3,3,09,88,04,296,*55
$GNGLL,0419.81447,S,05539.87666,E,071637.00,A,A*6F
$GNGRS,071637.00,1,0.5,-11.1,23.4,3.3,16.9,-0.2,17.7,5.1,-0.8,-10.6,,*63
$GNGRS,071637.00,1,10.4,25.5,-6.6,-2.0,4.5,11.5,,,,,,*65
$GNGST,071637.00,4496177,,,,4.7,4.8,10*53
$GNZDA,071637.00,23,05,2025,00,00*7D
$GNGBS,071637.00,4.7,4.8,10.4,,,,*61
$GNTXT,01,01,01,More than 100 frame errors, UART RX was disabled*70
$GNTXT,01,01,01,More than 100 frame errors, UART RX was disabled*70
$GNTXT,01,01,01,More than 100 frame errors, UART RX was disabled*70
b0@O"
6C]+xX2-;IJ!
eL{4V_":R 
Y{A%oBG2;H)[KLE/
M#9>W_X(qbOrm\B$GNRMC,071642.00,A,0419.81490,S,05539.87637,E,0.220,,230525,,,A*79
$GNVTG,,T,,M,0.220,N,0.407,K,A*3E
$GNGNS,071642.00,0419.81490,S,05539.87637,E,AA,16,0.70,13.1,-47.6,,*67
$GNGGA,071642.00,0419.81490,S,05539.87637,E,1,12,0.70,13.1,M,-47.6,M,,*49
$GNGSA,A,3,24,05,13,15,10,12,29,18,25,23,,,1.31,0.70,1.11*1A
$GNGSA,A,3,75,71,72,76,65,77,,,,,,,1.31,0.70,1.11*1A
$GPGSV,4,1,16,05,27,030,23,10,17,215,17,12,67,128,27,13,12,093,08*71
$GPGSV,4,2,16,15,43,120,29,18,28,306,18,23,59,222,20,24,26,166,23*73
$GPGSV,4,3,16,25,73,330,24,28,08,280,,29,19,357,10,36,52,277,*77
$GPGSV,4,4,16,40,86,351,,41,58,082,34,49,32,274,,50,10,089,*7E
$GLGSV,3,1,09,65,37,169,21,66,02,203,,71,08,050,11,72,41,091,29*6F
$GLGSV,3,2,09,75,25,165,15,76,69,244,24,77,35,313,20,87,08,351,*61
$GLGSV,3,3,09,88,04,296,*55
$GNGLL,0419.81490,S,05539.87637,E,071642.00,A,A*63
$GNGRS,071642.00,1,15.4,-9.9,-13.4,6.0,-14.8,2.7,-32.5,5.6,2.9,-15.6,,*4D
$GNGRS,071642.00,1,12.6,-76.2,-7.8,8.2,6.2,13.4,,,,,,*67
$GNGST,071642.00,57,,,,4.9,4.9,11*63
$GNZDA,071642.00,23,05,2025,00,00*7F
$GNGBS,071642.00,4.9,4.9,10.9,,,,*61
b0@O
eC]+w2;6uIJeo{4V_$:R 
Y{A%BG2H)[K
sLE`
M#9W_X(HbOr%hZz$GNRMC,071645.00,A,0419.81520,S,05539.87592,E,0.159,,230525,,,A*75
$GNVTG,,T,,M,0.159,N,0.294,K,A*3F
$GNGNS,071645.00,0419.81520,S,05539.87592,E,AA,15,0.86,12.0,-47.6,,*6C
$GNGGA,071645.00,0419.81520,S,05539.87592,E,1,12,0.86,12.0,M,-47.6,M,,*41
$GNGSA,A,3,24,05,13,15,10,12,29,18,25,23,,,1.58,0.86,1.33*1C
$GNGSA,A,3,71,72,76,65,77,,,,,,,,1.58,0.86,1.33*1E
$GPGSV,4,1,16,05,27,030,25,10,17,215,19,12,67,128,31,13,12,093,14*73
$GPGSV,4,2,16,15,43,119,27,18,28,306,25,23,59,222,25,24,26,166,27*78
$GPGSV,4,3,16,25,73,330,25,28,08,280,,29,19,357,11,36,52,277,*77
$GPGSV,4,4,16,40,86,351,,41,58,082,36,49,32,274,,50,10,089,*7C
$GLGSV,3,1,09,65,37,169,22,66,02,203,,71,08,050,13,72,41,091,30*66
$GLGSV,3,2,09,75,25,165,10,76,69,244,27,77,35,313,21,87,08,351,*66
$GLGSV,3,3,09,88,04,296,*55
$GNGLL,0419.81520,S,05539.87592,E,071645.00,A,A*62
$GNGRS,071645.00,1,3.7,-11.5,19.9,7.4,-45.1,-2.7,-80.8,4.8,4.9,-17.4,,*49
$GNGRS,071645.00,1,2.6,-13.1,6.1,6.9,12.0,,,,,,,*5E
$GNGST,071645.00,48,,,,5.0,4.9,11*62
$GNZDA,071645.00,23,05,2025,00,00*78
$GNGBS,071645.00,5.0,4.9,11.1,,,,*67
b0@O
C]L+w3l;igIJQe{4V_$:R 
Y{A%CBG2
H)[KLE
M#9[W_X(`LbOrl2$GNRMC,071646.00,A,0419.81525,S,05539.87584,E,0.091,,230525,,,A*71
$GNVTG,,T,,M,0.091,N,0.168,K,A*3A
$GNGNS,071646.00,0419.81525,S,05539.87584,E,AA,15,0.78,12.2,-47.6,,*6E
$GNGGA,071646.00,0419.81525,S,05539.87584,E,1,12,0.78,12.2,M,-47.6,M,,*43
$GNGSA,A,3,24,05,13,15,10,12,29,18,25,23,,,1.48,0.78,1.26*18
$GNGSA,A,3,71,72,76,65,77,,,,,,,,1.48,0.78,1.26*1A
$GPGSV,4,1,16,05,27,030,26,10,17,215,12,12,67,128,30,13,12,093,11*7F
$GPGSV,4,2,16,15,43,119,28,18,28,307,26,23,59,222,26,24,26,166,25*74
$GPGSV,4,3,16,25,73,330,25,28,08,280,,29,19,357,11,36,52,277,*77
$GPGSV,4,4,16,40,86,351,,41,58,082,36,49,32,274,,50,10,089,*7C
$GLGSV,3,1,09,65,37,169,23,66,02,203,,71,08,050,09,72,41,091,30*6C
$GLGSV,3,2,09,75,25,165,,76,69,244,28,77,35,313,22,87,08,351,*6B
$GLGSV,3,3,09,88,04,296,*55
$GNGLL,0419.81525,S,05539.87584,E,071646.00,A,A*63
$GNGRS,071646.00,1,1.0,-12.9,23.8,6.7,17.3,0.3,17.9,1.1,5.9,-16.9,,*6A
$GNGRS,071646.00,1,25.9,-13.6,5.3,5.8,11.1,,,,,,,*61
$GNGST,071646.00,3299292,,,,5.0,4.9,11*55
$GNZDA,071646.00,23,05,2025,00,00*7B
$GNGBS,071646.00,5.0,4.9,11.1,,,,*64
$GNTXT,01,01,01,More than 100 frame errors, UART RX was disabled*70
b0@hO~
aCb]+w3;IJe{4V_":R 
Y{A%nBG2U
H)[KLE
M#9nW_X(bhOroG$GNRMC,071647.00,A,0419.81527,S,05539.87581,E,0.325,,230525,,,A*7B
$GNVTG,,T,,M,0.325,N,0.602,K,A*3D
$GNGNS,071647.00,0419.81527,S,05539.87581,E,AA,15,0.78,13.0,-47.6,,*6B
$GNGGA,071647.00,0419.81527,S,05539.87581,E,1,12,0.78,13.0,M,-47.6,M,,*46
$GNGSA,A,3,24,05,13,15,10,12,29,18,25,23,,,1.48,0.78,1.26*18
$GNGSA,A,3,71,72,76,65,77,,,,,,,,1.48,0.78,1.26*1A
$GPGSV,4,1,16,05,27,030,26,10,17,215,14,12,67,128,20,13,12,093,11*78
$GPGSV,4,2,16,15,43,119,29,18,28,307,25,23,59,222,24,24,26,166,22*73
$GPGSV,4,3,16,25,73,330,23,28,08,280,,29,19,357,11,36,52,277,*71
$GPGSV,4,4,16,40,86,351,,41,58,082,34,49,32,274,,50,10,089,*7E
$GLGSV,3,1,09,65,37,169,24,66,02,203,,71,08,050,09,72,41,091,30*6B
$GLGSV,3,2,09,75,25,165,,76,69,244,27,77,35,313,21,87,08,351,*67
$GLGSV,3,3,09,88,04,296,*55
$GNGLL,0419.81527,S,05539.87581,E,071647.00,A,A*65
$GNGRS,071647.00,1,1.6,-11.5,24.4,4.6,16.3,-1.6,18.2,-1.1,4.9,-16.5,,*66
$GNGRS,071647.00,1,26.4,-16.2,7.7,6.2,8.8,,,,,,,*51
$GNGST,071647.00,3299292,,,,5.0,4.8,11*55
$GNZDA,071647.00,23,05,2025,00,00*7A
$GNGBS,071647.00,5.0,4.8,11.2,,,,*67
b0@PO
C]]+w>3h;IJe{4V_":R 
Y{A%BG
2H)[KLE
M#9>W_X(bPOrs$GNRMC,071648.00,A,0419.81535,S,05539.87571,E,0.190,,230525,,,A*74
$GNVTG,,T,,M,0.190,N,0.351,K,A*32
$GNGNS,071648.00,0419.81535,S,05539.87571,E,AA,15,0.72,12.7,-47.6,,*64
$GNGGA,071648.00,0419.81535,S,05539.87571,E,1,12,0.72,12.7,M,-47.6,M,,*49
$GNGSA,A,3,24,05,13,15,10,12,29,18,25,23,,,1.35,0.72,1.14*19
$GNGSA,A,3,71,72,76,65,77,,,,,,,,1.35,0.72,1.14*1B
$GPGSV,4,1,16,05,27,030,25,10,17,215,15,12,67,128,23,13,12,093,13*7B
$GPGSV,4,2,16,15,43,119,29,18,28,307,25,23,59,222,22,24,26,166,22*75
$GPGSV,4,3,16,25,73,330,24,28,08,280,,29,19,357,09,36,52,277,*7F
$GPGSV,4,4,16,40,86,351,,41,58,082,34,49,32,274,,50,10,089,*7E
$GLGSV,3,1,09,65,37,169,23,66,02,203,,71,08,050,10,72,41,091,31*65
$GLGSV,3,2,09,75,25,165,,76,69,244,25,77,35,313,22,87,08,351,*66
$GLGSV,3,3,09,88,04,296,*55
$GNGLL,0419.81535,S,05539.87571,E,071648.00,A,A*66
$GNGRS,071648.00,1,1.5,-10.5,-17.0,0.6,14.7,3.9,17.4,-1.5,5.2,-18.9,,*65
$GNGRS,071648.00,1,-120,-10.5,2.7,6.6,8.3,,,,,,,*55
$GNGST,071648.00,51,,,,5.0,4.8,11*66
$GNZDA,071648.00,23,05,2025,00,00*75
$GNGBS,071648.00,5.0,4.8,11.2,,,,*68
$GNTXT,01,01,01,More than 100 frame errors, UART RX was disabled*70
b0@8O
CG
]D +wu3;IJ
e{4V_":R 
Y{A% BG2(
H)[KLE
M#9'W_X(b8Orw$GNRMC,071649.00,A,0419.81532,S,05539.87577,E,0.436,,230525,,,A*7D
$GNVTG,,T,,M,0.436,N,0.807,K,A*33
$GNGNS,071649.00,0419.81532,S,05539.87577,E,AA,15,0.78,13.3,-47.6,,*6B
$GNGGA,071649.00,0419.81532,S,05539.87577,E,1,12,0.78,13.3,M,-47.6,M,,*46
$GNGSA,A,3,24,05,13,15,10,12,29,18,25,23,,,1.48,0.78,1.26*18
$GNGSA,A,3,71,72,76,65,77,,,,,,,,1.48,0.78,1.26*1A
$GPGSV,4,1,16,05,27,030,26,10,17,215,16,12,67,128,30,13,12,093,10*7A
$GPGSV,4,2,16,15,43,119,32,18,28,307,25,23,59,222,22,24,26,166,22*7F
$GPGSV,4,3,16,25,73,330,25,28,08,280,,29,19,357,10,36,52,277,*76
$GPGSV,4,4,16,40,86,351,,41,58,082,34,49,32,274,,50,10,089,*7E
$GLGSV,3,1,09,65,37,169,21,66,02,203,,71,08,050,13,72,41,091,30*65
$GLGSV,3,2,09,75,25,165,,76,69,244,25,77,35,313,22,87,08,351,*66
$GLGSV,3,3,09,88,04,296,*55
$GNGLL,0419.81532,S,05539.87577,E,071649.00,A,A*66
$GNGRS,071649.00,1,-1.3,-11.4,23.7,3.7,12.2,0.7,18.0,0.3,1.4,-18.7,,*43
$GNGRS,071649.00,1,26.0,-8.3,2.6,5.4,10.6,,,,,,,*53
$GNGST,071649.00,6652,,,,5.0,4.7,11*6B
$GNZDA,071649.00,23,05,2025,00,00*74
$GNGBS,071649.00,5.0,4.7,11.1,,,,*65
$GNTXT,01,01,01,More than 100 frame errors, UART RX was disabled*70
b0@ P
C]`+w3};IJT
e.{4V_:R 
Y{A%BG
2V
H)[KLE
M#9HW_X(b Pr{$GNRMC,071650.00,A,0419.81523,S,05539.87595,E,0.655,,230525,,,A*7E
$GNVTG,,T,,M,0.655,N,1.213,K,A*3A
$GNGNS,071650.00,0419.81523,S,05539.87595,E,AA,15,0.78,14.2,-47.6,,*69
$GNGGA,071650.00,0419.81523,S,05539.87595,E,1,12,0.78,14.2,M,-47.6,M,,*44
$GNGSA,A,3,24,05,13,15,10,12,29,18,25,23,,,1.48,0.78,1.26*18
$GNGSA,A,3,71,72,76,65,77,,,,,,,,1.48,0.78,1.26*1A
$GPGSV,4,1,16,05,27,030,26,10,17,215,14,12,67,128,29,13,12,093,11*71
$GPGSV,4,2,16,15,43,119,31,18,28,307,24,23,59,222,23,24,26,166,21*7F
$GPGSV,4,3,16,25,73,330,26,28,08,280,,29,19,357,10,36,52,277,*75
$GPGSV,4,4,16,40,86,351,,41,58,082,30,49,32,274,,50,10,089,*7A
$GLGSV,3,1,09,65,37,169,21,66,02,203,,71,08,050,10,72,41,091,29*6E
$GLGSV,3,2,09,75,25,165,,76,69,244,25,77,35,313,22,87,08,351,*66
$GLGSV,3,3,09,88,04,296,*55
$GNGLL,0419.81523,S,05539.87595,E,071650.00,A,A*62
$GNGRS,071650.00,1,1.5,-12.9,24.0,6.4,9.4,-3.1,18.4,-1.3,3.4,-19.0,,*50
$GNGRS,071650.00,1,26.5,-8.5,-1.3,6.9,11.0,,,,,,,*7A
$GNGST,071650.00,9978,,,,5.0,4.7,11*6B
$GNZDA,071650.00,23,05,2025,00,00*7C
$GNGBS,071650.00,5.0,4.7,11.1,,,,*6D
b0@Pk
C]" +w3;IJ
e{4V_ :R 
Y{A%BG2H)[KLE
M#9bW_X(bPrj$GNRMC,071651.00,A,0419.81527,S,05539.87600,E,0.419,,230525,,,A*7E
$GNVTG,,T,,M,0.419,N,0.777,K,A*36
$GNGNS,071651.00,0419.81527,S,05539.87600,E,AA,15,0.73,14.1,-47.6,,*6B
$GNGGA,071651.00,0419.81527,S,05539.87600,E,1,12,0.73,14.1,M,-47.6,M,,*46
$GNGSA,A,3,24,05,13,15,10,12,29,18,25,23,,,1.34,0.73,1.13*1E
$GNGSA,A,3,71,72,76,65,77,,,,,,,,1.34,0.73,1.13*1C
$GPGSV,4,1,16,05,27,030,25,10,17,215,12,12,67,128,28,13,12,093,14*70
$GPGSV,4,2,16,15,43,119,32,18,28,307,22,23,59,222,23,24,26,165,22*7A
$GPGSV,4,3,16,25,73,330,27,28,08,280,,29,19,357,10,36,52,277,*74
$GPGSV,4,4,16,40,86,351,,41,58,082,32,49,32,274,,50,10,089,*78
$GLGSV,3,1,09,65,37,169,20,66,02,203,,71,08,050,12,72,41,091,29*6D
$GLGSV,3,2,09,75,25,165,,76,69,244,25,77,35,313,21,87,08,351,*65
$GLGSV,3,3,09,88,04,296,*55
$GNGLL,0419.81527,S,05539.87600,E,071651.00,A,A*68
$GNGRS,071651.00,1,0.0,-11.7,-22.7,4.1,6.7,-5.9,31.0,-0.5,2.2,-18.3,,*7C
$GNGRS,071651.00,1,-15.4,-5.0,1.6,7.9,11.2,,,,,,,*74
$GNGST,071651.00,54,,,,4.9,4.7,11*6C
$GNZDA,071651.00,23,05,2025,00,00*7D
$GNGBS,071651.00,4.9,4.7,11.1,,,,*64
$GNTXT,01,01,01,More than 100 frame errors, UART RX was disabled*70
b0@P
C*]+w`3x;VbJIey{4V_%:R 
Y{A%BG2tH)[uKLEp
M#9W_X(7bPrM$GNRMC,071654.00,A,0419.81561,S,05539.87568,E,0.046,,230525,,,A*7A
$GNVTG,,T,,M,0.046,N,0.084,K,A*33
$GNGNS,071654.00,0419.81561,S,05539.87568,E,AA,15,0.73,13.5,-47.6,,*62
$GNGGA,071654.00,0419.81561,S,05539.87568,E,1,12,0.73,13.5,M,-47.6,M,,*4F
$GNGSA,A,3,24,05,13,15,10,12,29,18,25,23,,,1.31,0.73,1.09*10
$GNGSA,A,3,71,72,76,65,77,,,,,,,,1.31,0.73,1.09*12
$GPGSV,4,1,16,05,27,030,25,10,17,215,11,12,67,128,30,13,12,093,14*7A
$GPGSV,4,2,16,15,43,119,30,18,28,307,25,23,59,222,18,24,26,165,26*73
$GPGSV,4,3,16,25,74,329,25,28,08,280,,29,19,357,18,36,52,277,*71
$GPGSV,4,4,16,40,86,351,,41,58,082,37,49,32,274,,50,10,089,*7D
$GLGSV,3,1,09,65,37,169,17,66,02,203,,71,08,050,15,72,41,091,31*67
$GLGSV,3,2,09,75,25,165,,76,69,244,26,77,35,313,20,87,08,351,*67
$GLGSV,3,3,09,88,04,296,*55
$GNGLL,0419.81561,S,05539.87568,E,071654.00,A,A*62
$GNGRS,071654.00,1,-1.6,-12.6,-3.5,-1.6,9.5,0.4,-47.4,-1.4,0.3,-14.5,,*46
$GNGRS,071654.00,1,16.5,-3.9,3.7,6.8,13.1,,,,,,,*53
$GNGST,071654.00,53,,,,5.0,4.7,11*66
$GNZDA,071654.00,23,05,2025,00,00*78
$GNGBS,071654.00,5.0,4.7,11.1,,,,*69
$GNTXT,01,01,01,More than 100 frame errors, UART RX was disabled*70
b0@P
C]/+w3;JI7e{4V_$:R 
Y{A%oBG
2
H)[|KLE
M#9fW_X(bPr5$GNRMC,071655.00,A,0419.81568,S,05539.87570,E,0.132,,230525,,,A*79
$GNVTG,,T,,M,0.132,N,0.245,K,A*3E
$GNTXT,01,01,01,More than 100 frame errors, UART RX was disabled*70
$GNGRS,071656.00,1,0.0,-13.2,23.7,3.9,3.1,1.3,18.1,-4.2,-1.3,-16.5,,*51
$GNGRS,071656.00,1,25.8,-4.1,4.9,7.5,10.2,,,,,,,*56
$GNGST,071656.00,3179277,,,,5.0,4.6,11*5D
$GNZDA,071656.00,23,05,2025,00,00*7A
$GNGBS,071656.00,5.0,4.6,10.9,,,,*63
b0@` P
gC]$+w3#;JIwei{4V_#:R 
Y{A%BG2
H)[iKLE
M#9W_X(tVb` PrP$GNRMC,071658.00,A,0419.81601,S,05539.87554,E,0.066,,230525,,,A*7E
$GNVTG,,T,,M,0.066,N,0.122,K,A*3C
$GNGNS,071658.00,0419.81601,S,05539.87554,E,AA,15,0.73,13.7,-47.6,,*66
$GNGGA,071658.00,0419.81601,S,05539.87554,E,1,12,0.73,13.7,M,-47.6,M,,*4B
$GNGSA,A,3,24,05,13,15,10,12,29,18,25,23,,,1.31,0.73,1.09*10
$GNGSA,A,3,71,72,76,65,77,,,,,,,,1.31,0.73,1.09*12
$GPGSV,4,1,16,05,27,030,25,10,17,215,13,12,67,128,29,13,12,093,15*71
$GPGSV,4,2,16,15,43,119,31,18,28,307,21,23,59,222,16,24,26,165,25*7B
$GPGSV,4,3,16,25,74,329,24,28,08,279,,29,19,357,16,36,52,277,*78
$GPGSV,4,4,16,40,86,351,,41,58,082,35,49,32,274,,50,10,089,*7F
$GLGSV,3,1,09,65,37,169,19,66,02,203,,71,08,050,11,72,41,091,31*6D
$GLGSV,3,2,09,75,25,165,18,76,69,244,26,77,35,313,20,87,08,351,*6E
$GLGSV,3,3,09,88,04,296,*55
$GNGLL,0419.81601,S,05539.87554,E,071658.00,A,A*64
$GNGRS,071658.00,1,-0.3,-13.3,23.4,4.8,1.0,1.8,13.9,0.3,-1.4,-18.3,,*59
$GNGRS,071658.00,1,25.8,-4.1,5.2,7.4,12.3,,,,,,,*50
$GNGST,071658.00,50,,,,5.0,4.6,11*68
$GNZDA,071658.00,23,05,2025,00,00*74
$GNGBS,071658.00,5.0,4.6,10.9,,,,*6D
$GNTXT,01,01,01,More than 100 frame errors, UART RX was disabled*70
b0@H$P
1CR]+w3*;q_JIe{4V_#:R 
Y{A%BG2
H)[JK.LE
M#9W_X(bH$Pr(#$GNRMC,071659.00,A,0419.81604,S,05539.87543,E,0.241,,230525,,,A*7B
$GNVTG,,T,,M,0.241,N,0.446,K,A*3C
$GNGNS,071659.00,0419.81604,S,05539.87543,E,AA,16,0.72,13.5,-47.6,,*64
$GNGGA,071659.00,0419.81604,S,05539.87543,E,1,12,0.72,13.5,M,-47.6,M,,*4A
$GNGSA,A,3,24,05,13,15,10,12,29,18,25,23,,,1.29,0.72,1.07*16
$GNGSA,A,3,75,71,72,76,65,77,,,,,,,1.29,0.72,1.07*16
$GPGSV,4,1,16,05,27,030,26,10,17,215,14,12,67,128,30,13,12,093,15*7D
$GPGSV,4,2,16,15,43,119,31,18,28,307,22,23,59,222,14,24,26,165,25*7A
$GPGSV,4,3,16,25,74,329,25,28,08,279,,29,19,357,18,36,52,277,*77
$GPGSV,4,4,16,40,86,351,,41,58,082,35,49,32,274,,50,10,089,*7F
$GLGSV,3,1,09,65,37,169,19,66,02,203,,71,08,050,15,72,41,091,30*68
$GLGSV,3,2,09,75,25,165,19,76,69,244,26,77,35,313,20,87,08,351,*6F
$GLGSV,3,3,09,88,04,296,*55
$GNGLL,0419.81604,S,05539.87543,E,071659.00,A,A*66
$GNGRS,071659.00,1,-1.6,-13.7,23.3,4.8,0.5,3.4,12.0,0.4,0.2,-19.4,,*76
$GNGRS,071659.00,1,-14.9,25.7,-4.4,4.0,9.1,12.0,,,,,,*6F
$GNGST,071659.00,50,,,,5.0,4.6,11*69
$GNZDA,071659.00,23,05,2025,00,00*75
$GNGBS,071659.00,5.0,4.6,10.8,,,,*6D
$GNTXT,01,01,01,More than 100 frame errors, UART RX was disabled*70
b0@0(P
C
]d+w=3;JIe{4V_":R 
Y{A%(BG2H)[3KLE
M#9W_X(b0(Pr$GNRMC,071700.00,A,0419.81613,S,05539.87535,E,0.141,,230525,,,A*72
$GNVTG,,T,,M,0.141,N,0.262,K,A*3F
$GNGNS,071700.00,0419.81613,S,05539.87535,E,AA,16,0.68,13.3,-47.6,,*63
$GNGGA,071700.00,0419.81613,S,05539.87535,E,1,12,0.68,13.3,M,-47.6,M,,*4D
$GNGSA,A,3,24,05,13,15,10,12,29,18,25,23,,,1.24,0.68,1.03*14
$GNGSA,A,3,75,71,72,76,65,77,,,,,,,1.24,0.68,1.03*14
$GPGSV,4,1,16,05,27,030,25,10,17,215,13,12,67,128,30,13,12,093,10*7C
$GPGSV,4,2,16,15,43,119,30,18,28,307,23,23,59,222,11,24,26,165,25*7F
$GPGSV,4,3,16,25,74,329,25,28,08,279,,29,19,357,18,36,52,277,*77
$GPGSV,4,4,16,40,86,351,,41,58,082,34,49,32,274,,50,10,089,*7E
$GLGSV,3,1,09,65,37,169,21,66,02,203,,71,08,050,11,72,41,091,31*66
$GLGSV,3,2,09,75,25,165,20,76,69,244,27,77,35,313,22,87,08,351,*66
$GLGSV,3,3,09,88,04,296,*55
$GNGLL,0419.81613,S,05539.87535,E,071700.00,A,A*6C
$GNGRS,071700.00,1,-2.6,-11.1,11.2,5.7,3.9,4.4,7.1,-0.7,-2.3,-18.5,,*4F
$GNGRS,071700.00,1,-14.1,20.5,-4.6,1.8,10.6,10.2,,,,,,*5D
$GNGST,071700.00,54,,,,5.0,4.6,11*60
$GNZDA,071700.00,23,05,2025,00,00*78
$GNGBS,071700.00,5.0,4.6,10.8,,,,*60
b0@0P'
C`]+w3;YJIJe{4V_#:R 
Y{A%BG22
H)[KTLE
M#9W_X(nBb0Pr[$GNRMC,071702.00,A,0419.81639,S,05539.87508,E,0.417,,230525,,,A*70
$GNVTG,,T,,M,0.417,N,0.773,K,A*3C
$GNGNS,071702.00,0419.81639,S,05539.87508,E,AA,16,0.72,12.7,-47.6,,*69
$GNGGA,071702.00,0419.81639,S,05539.87508,E,1,12,0.72,12.7,M,-47.6,M,,*47
$GNGSA,A,3,24,05,13,15,10,12,29,18,25,23,,,1.29,0.72,1.07*16
$GNGSA,A,3,75,71,72,76,65,77,,,,,,,1.29,0.72,1.07*16
$GPGSV,4,1,16,05,27,030,22,10,17,215,15,12,67,128,30,13,12,093,12*7F
$GPGSV,4,2,16,15,43,119,29,18,28,307,22,23,59,222,14,24,26,165,27*71
$GPGSV,4,3,16,25,74,329,26,28,08,279,,29,19,357,18,36,52,277,*74
$GPGSV,4,4,16,40,86,351,,41,58,082,35,49,32,274,,50,10,089,*7F
$GLGSV,3,1,09,65,37,169,20,66,02,203,,71,08,050,08,72,41,091,30*6E
$GLGSV,3,2,09,75,25,165,21,76,69,244,26,77,35,313,20,87,08,351,*64
$GLGSV,3,3,09,88,04,296,*55
$GNTXT,01,01,01,More than 100 frame errors, UART RX was disabled*70
$GNTXT,01,01,01,More than 100 frame errors, UART RX was disabled*70
$GNTXT,01,01,01,More than 100 frame errors, UART RX was disabled*70
$GNGNS,071705.00,0419.81637,S,05539.87495,E,AA,16,0.76,11.9,-47.6,,*6C
$GNGGA,071705.00,0419.81637,S,05539.87495,E,1,12,0.76,11.9,M,-47.6,M,,*42
$GNGSA,A,3,24,05,13,15,10,12,29,18,25,23,,,1.43,0.76,1.22*19
$GNGSA,A,3,75,71,72,76,65,77,,,,,,,1.43,0.76,1.22*19
$GPGSV,4,1,16,05,27,030,20,10,17,215,12,12,67,128,31,13,12,093,18*71
$GPGSV,4,2,16,15,43,119,29,18,28,307,19,23,59,222,18,24,26,165,28*7A
$GPGSV,4,3,16,25,74,329,27,28,08,279,,29,19,357,20,36,52,277,*7E
$GPGSV,4,4,16,40,86,351,,41,58,082,36,49,32,274,,50,10,089,*7C
$GLGSV,3,1,09,65,37,169,14,66,02,203,,71,08,050,07,72,41,091,31*67
$GLGSV,3,2,09,75,25,165,20,76,69,244,25,77,35,313,19,87,08,351,*6C
$GLGSV,3,3,09,88,04,296,*55
$GNGLL,0419.81637,S,05539.87495,E,071705.00,A,A*64
$GNGRS,071705.00,1,-4.9,-8.3,21.4,9.6,-1.7,-2.8,1.9,2.8,-4.8,-19.9,,*59
$GNGRS,071705.00,1,-8.9,25.8,-5.7,-4.0,12.0,8.6,,,,,,*7C
$GNGST,071705.00,46,,,,4.8,4.5,10*6D
$GNZDA,071705.00,23,05,2025,00,00*7D
$GNGBS,071705.00,4.8,4.5,10.2,,,,*65
$GNTXT,01,01,01,More than 100 frame errors, UART RX was disabled*70
$GNTXT,01,01,01,More than 100 frame errors, UART RX was disabled*70
b0@(SP
!C2]=+w>3;WJIez{4V_":R 
Y{
A%BG2H)[KLE?
M#9<W_X(8cb(SPrF$GNRMC,071711.00,A,0419.81641,S,05539.87489,E,0.258,,230525,,,A*78
$GNVTG,,T,,M,0.258,N,0.479,K,A*38
$GNGNS,071711.00,0419.81641,S,05539.87489,E,AA,16,0.68,9.3,-47.6,,*59
$GNGGA,071711.00,0419.81641,S,05539.87489,E,1,12,0.68,9.3,M,-47.6,M,,*77
$GNTXT,01,01,01,More than 100 frame errors, UART RX was disabled*70
b0@WP
 CK]E+w3;JJIe{4V_!:R 
Y{A%yBG2H)[KTLE-
M#9W_X($bWPrY$GNRMC,071712.00,A,0419.81635,S,05539.87488,E,0.148,,230525,,,A*7B
$GNVTG,,T,,M,0.148,N,0.274,K,A*31
$GNGNS,071712.00,0419.81635,S,05539.87488,E,AA,16,0.79,9.0,-47.6,,*5B
$GNGGA,071712.00,0419.81635,S,05539.87488,E,1,12,0.79,9.0,M,-47.6,M,,*75
$GNGSA,A,3,24,05,13,15,10,12,29,18,25,23,,,1.40,0.79,1.16*12
$GNGSA,A,3,75,71,72,76,65,77,,,,,,,1.40,0.79,1.16*12
$GPGSV,4,1,16,05,27,030,21,10,17,215,07,12,67,128,32,13,12,093,16*79
$GPGSV,4,2,16,15,43,119,29,18,28,307,20,23,59,222,15,24,26,165,28*7D
$GPGSV,4,3,16,25,74,329,25,28,08,279,,29,19,357,16,36,52,277,*79
$GPGSV,4,4,16,40,86,351,,41,58,082,33,49,32,274,,50,10,089,*79
$GLGSV,3,1,09,65,37,169,19,66,02,203,,71,08,050,11,72,41,091,31*6D
$GLGSV,3,2,09,75,25,165,12,76,69,244,27,77,35,313,23,87,08,351,*66
$GLGSV,3,3,09,88,04,296,*55
$GNGLL,0419.81635,S,05539.87488,E,071712.00,A,A*6C
$GNGRS,071712.00,1,-6.1,-5.4,16.0,7.8,-41.5,0.8,-2.9,7.2,1.6,-27.4,,*41
$GNGRS,071712.00,1,-6.8,-26.1,-5.6,-2.1,14.0,7.0,,,,,,*5B
$GNGST,071712.00,49,,,,4.7,4.5,9.8*45
$GNZDA,071712.00,23,05,2025,00,00*7B
$GNGBS,071712.00,4.7,4.5,9.8,,,,*5E
$GNTXT,01,01,01,More than 100 frame errors, UART RX was disabled*70
b0@^P
"C:]+w3
;JIRea{4V_":R 
Y
{yA%BG
2;
H )[KRLE
M#9W_X(Bb^Prm$GNRMC,071714.00,A,0419.81630,S,05539.87484,E,0.226,,230525,,,A*7F
$GNVTG,,T,,M,0.226,N,0.418,K,A*36
$GNGNS,071714.00,0419.81630,S,05539.87484,E,AA,16,0.68,8.7,-47.6,,*52
$GNGGA,071714.00,0419.81630,S,05539.87484,E,1,12,0.68,8.7,M,-47.6,M,,*7C
$GNGSA,A,3,24,05,13,15,10,12,29,18,25,23,,,1.24,0.68,1.03*14
$GNGSA,A,3,75,71,72,76,65,77,,,,,,,1.24,0.68,1.03*14
$GPGSV,4,1,16,05,27,030,19,10,17,215,11,12,67,128,34,13,12,093,15*70
$GPGSV,4,2,16,15,43,119,28,18,28,307,19,23,59,222,13,24,26,165,29*71
$GPGSV,4,3,16,25,74,329,26,28,08,279,,29,19,357,19,36,52,277,*75
$GPGSV,4,4,16,40,86,351,,41,58,082,34,49,32,274,,50,10,089,*7E
$GLGSV,3,1,09,65,37,169,15,66,02,203,,71,08,050,10,72,41,091,32*63
$GLGSV,3,2,09,75,25,165,14,76,69,244,28,77,35,313,21,87,08,351,*6D
$GLGSV,3,3,09,88,04,296,*55
$GNGLL,0419.81630,S,05539.87484,E,071714.00,A,A*63
$GNGRS,071714.00,1,-3.4,-5.0,15.4,10.2,16.8,0.6,-4.1,7.8,0.8,-28.4,,*50
$GNGRS,071714.00,1,3.4,26.2,-6.1,-2.5,14.4,5.0,,,,,,*51
$GNGST,071714.00,2975616,,,,4.7,4.4,9.8*77
$GNZDA,071714.00,23,05,2025,00,00*7D
$GNGBS,071714.00,4.7,4.4,9.8,,,,*59
$GNTXT,01,01,01,More than 100 frame errors, UART RX was disabled*70
b0@fP_
"C]+w_3C;5JIe{4V_$:R 
Y{A%BG2
H!)[KLE
M#9W_X(XbfPr=}$GNRMC,071716.00,A,0419.81632,S,05539.87490,E,0.142,,230525,,,A*7B
$GNVTG,,T,,M,0.142,N,0.264,K,A*3A
$GNGNS,071716.00,0419.81632,S,05539.87490,E,AA,16,0.70,9.1,-47.6,,*59
$GNGGA,071716.00,0419.81632,S,05539.87490,E,1,12,0.70,9.1,M,-47.6,M,,*77
$GNGSA,A,3,24,05,13,15,10,12,29,18,25,23,,,1.31,0.70,1.11*1A
$GNGSA,A,3,75,71,72,76,65,77,,,,,,,1.31,0.70,1.11*1A
$GPGSV,4,1,16,05,27,030,23,10,17,215,12,12,67,128,34,13,12,093,18*77
$GPGSV,4,2,16,15,43,119,29,18,28,307,16,23,59,222,11,24,26,165,30*75
$GPGSV,4,3,16,25,74,329,27,28,08,279,,29,19,357,22,36,52,277,*7C
$GPGSV,4,4,16,40,86,351,,41,58,082,36,49,32,274,,50,10,089,*7C
$GLGSV,3,1,09,65,37,169,17,66,02,203,,71,08,050,11,72,41,091,33*61
$GLGSV,3,2,09,75,25,165,21,76,69,244,30,77,35,313,20,87,08,351,*63
$GLGSV,3,3,09,88,04,296,*55
$GNGLL,0419.81632,S,05539.87490,E,071716.00,A,A*66
$GNGRS,071716.00,1,-8.2,-6.7,14.6,3.5,17.5,0.2,0.2,5.8,-2.3,-27.6,,*64
$GNGRS,071716.00,1,1.6,25.8,-5.8,-5.6,14.2,4.5,,,,,,*56
$GNGST,071716.00,3071473,,,,4.6,4.4,9.5*74
$GNZDA,071716.00,23,05,2025,00,00*7F
$GNGBS,071716.00,4.6,4.4,9.5,,,,*57
$GNTXT,01,01,01,More than 100 frame errors, UART RX was disabled*70
$GLGSV,3,2,09,75,25,165,23,76,69,244,29,77,35,313,21,87,08,351,*68
$GLGSV,3,3,09,88,04,296,*55
$GNGLL,0419.81619,S,05539.87471,E,071718.00,A,A*6E
$GNGRS,071718.00,1,-4.4,-6.1,8.9,6.3,-40.5,0.0,-0.4,10.8,-2.6,-26.5,,*62
$GNGRS,071718.00,1,1.7,138,-6.8,2.5,15.4,6.1,,,,,,*59
$GNGST,071718.00,40,,,,4.5,4.4,9.3*4E
$GNZDA,071718.00,23,05,2025,00,00*71
$GNGBS,071718.00,4.5,4.4,9.3,,,,*5C
$GNTXT,01,01,01,More than 100 frame errors, UART RX was disabled*70
b0@ ~PZ
"C]+w/3;JIej{4V_#:R 
Y{A%BG2
H )[KLE
M#9W_X(`b ~PrW$GNRMC,071722.00,A,0419.81621,S,05539.87442,E,0.186,,230525,,,A*79
$GNVTG,,T,,M,0.186,N,0.344,K,A*31
$GNGNS,071722.00,0419.81621,S,05539.87442,E,AA,16,0.69,7.5,-47.6,,*51
$GNGGA,071722.00,0419.81621,S,05539.87442,E,1,12,0.69,7.5,M,-47.6,M,,*7F
$GNGSA,A,3,24,05,13,15,10,12,29,18,25,23,,,1.27,0.69,1.07*12
$GNGSA,A,3,75,71,72,76,65,77,,,,,,,1.27,0.69,1.07*12
$GPGSV,4,1,16,05,27,030,23,10,17,215,15,12,67,128,34,13,12,093,20*7B
$GPGSV,4,2,16,15,43,119,30,18,28,307,20,23,59,222,19,24,26,165,27*76
$GPGSV,4,3,16,25,74,329,26,28,08,279,,29,19,357,22,36,52,277,*7D
$GPGSV,4,4,16,40,86,351,,41,58,082,35,49,32,274,,50,10,089,*7F
$GLGSV,3,1,09,65,37,169,21,66,02,202,,71,08,050,11,72,41,091,32*64
$GLGSV,3,2,09,75,25,165,25,76,69,244,29,77,35,313,22,87,08,351,*6D
$GLGSV,3,3,09,88,04,296,*55
$GNGLL,0419.81621,S,05539.87442,E,071722.00,A,A*6C
$GNGRS,071722.00,1,-0.1,-6.8,7.2,5.6,17.0,-0.5,-1.5,7.1,-0.5,-20.2,,*5C
$GNGRS,071722.00,1,2.5,25.8,-5.7,2.4,15.0,7.5,,,,,,*76
$GNGST,071722.00,3071473,,,,4.4,4.3,9.0*73
$GNZDA,071722.00,23,05,2025,00,00*78
$GNGBS,071722.00,4.4,4.3,9.0,,,,*50
$GNTXT,01,01,01,More than 100 frame errors, UART RX was disabled*70
b0@P
z!C]+w|3-;JIe{4V_#:R 
Y{A%BG2qH!)[KLE
M#9W_X(P7bPr}<$GNRMC,071724.00,A,0419.81629,S,05539.87430,E,0.191,,230525,,,A*74
$GNVTG,,T,,M,0.191,N,0.354,K,A*36
$GNGNS,071724.00,0419.81629,S,05539.87430,E,AA,16,0.66,7.3,-47.6,,*53
b0@P
!C]'+w3;JIbew{4V_#:R 
Y{A%BG
2L
H )[K#LE
M#9W_X(obPre$GNRMC,071725.00,A,0419.81641,S,05539.87425,E,0.287,,230525,,,A*7B
$GNVTG,,T,,M,0.287,N,0.531,K,A*37
$GNGNS,071725.00,0419.81641,S,05539.87425,E,AA,16,0.68,7.4,-47.6,,*51
$GNGGA,071725.00,0419.81641,S,05539.87425,E,1,12,0.68,7.4,M,-47.6,M,,*7F
$GNGSA,A,3,24,05,13,15,10,12,29,18,25,23,,,1.24,0.68,1.03*14
$GNGSA,A,3,75,71,72,76,65,77,,,,,,,1.24,0.68,1.03*14
$GPGSV,4,1,16,05,27,030,20,10,17,215,14,12,67,128,33,13,12,093,22*7C
$GPGSV,4,2,16,15,43,119,31,18,28,307,21,23,59,222,16,24,26,165,25*7B
$GPGSV,4,3,16,25,74,329,25,28,08,279,,29,19,357,20,36,52,277,*7C
$GPGSV,4,4,16,40,86,351,,41,58,082,35,49,32,274,,50,10,089,*7F
$GLGSV,3,1,09,65,37,169,22,66,02,202,,71,08,050,10,72,41,091,32*66
$GLGSV,3,2,09,75,25,165,25,76,69,244,29,77,35,313,22,87,08,351,*6D
$GLGSV,3,3,09,88,04,296,*55
$GNGLL,0419.81641,S,05539.87425,E,071725.00,A,A*6C
$GNGRS,071725.00,1,-8.6,-5.7,0.4,4.7,15.6,-0.8,1.2,4.5,1.0,-19.1,,*5D
$GNGRS,071725.00,1,0.3,26.4,-5.6,-2.6,15.6,7.1,,,,,,*56
$GNGST,071725.00,48,,,,4.4,4.3,8.9*45
$GNZDA,071725.00,23,05,2025,00,00*7F
$GNGBS,071725.00,4.4,4.3,8.9,,,,*5F
b0@P
 C]+w3;JI9e{4V_":R 
Y{/A%BG1X
H )[KLEy
M#9W_X(bPrM$GNRMC,071726.00,A,0419.81646,S,05539.87412,E,0.216,,230525,,,A*73
$GNVTG,,T,,M,0.216,N,0.401,K,A*3D
$GNGNS,071726.00,0419.81646,S,05539.87412,E,AA,16,0.68,7.1,-47.6,,*54
$GNGGA,071726.00,0419.81646,S,05539.87412,E,1,12,0.68,7.1,M,-47.6,M,,*7A
$GNGSA,A,3,24,05,13,15,10,12,29,18,25,23,,,1.24,0.68,1.03*14
$GNGSA,A,3,75,71,72,76,65,77,,,,,,,1.24,0.68,1.03*14
$GPGSV,4,1,16,05,27,030,21,10,17,215,14,12,67,128,32,13,12,093,22*7C
$GPGSV,4,2,16,15,43,119,30,18,28,307,21,23,59,222,12,24,26,165,24*7F
$GPGSV,4,3,16,25,74,329,25,28,08,279,,29,19,357,20,36,52,277,*7C
$GPGSV,4,4,16,40,86,351,,41,58,082,34,49,32,274,,50,10,089,*7E
$GLGSV,3,1,09,65,37,169,22,66,02,202,,71,08,049,13,72,41,091,32*6D
$GLGSV,3,2,09,75,25,165,25,76,69,244,29,77,35,313,23,87,08,351,*6C
$GLGSV,3,3,09,88,04,296,*55
$GNGLL,0419.81646,S,05539.87412,E,071726.00,A,A*6C
$GNGRS,071726.00,1,-10.6,-5.8,0.1,-0.3,14.7,-0.6,-0.9,2.4,3.1,-16.4,,*67
$GNGRS,071726.00,1,-0.8,26.5,-5.0,-3.9,14.4,6.7,,,,,,*7E
$GNGST,071726.00,49,,,,4.4,4.2,8.8*47
$GNZDA,071726.00,23,05,2025,00,00*7C
$GNGBS,071726.00,4.4,4.2,8.8,,,,*5C
$GNTXT,01,01,01,More than 100 frame errors, UART RX was disabled*70
$GNTXT,01,01,01,More than 100 frame errors, UART RX was disabled*70
b0@xP
m C]+w53;WJIep{4V_#:R 
Y{lA%BG1`
H)ZKLEv
M#9[W_X(fNbxPrt"$GNRMC,071729.00,A,0419.81667,S,05539.87402,E,0.120,,230525,,,A*78
$GNVTG,,T,,M,0.120,N,0.223,K,A*3D
$GNGNS,071729.00,0419.81667,S,05539.87402,E,AA,16,0.68,7.6,-47.6,,*5E
$GNGGA,071729.00,0419.81667,S,05539.87402,E,1,12,0.68,7.6,M,-47.6,M,,*70
$GNGSA,A,3,24,05,13,15,10,12,29,18,25,23,,,1.24,0.68,1.03*14
$GNGSA,A,3,75,71,72,76,65,77,,,,,,,1.24,0.68,1.03*14
$GPGSV,4,1,16,05,27,030,23,10,17,215,08,12,67,128,32,13,12,093,18*7A
$GPGSV,4,2,16,15,43,119,31,18,28,307,23,23,59,222,17,24,26,165,20*7D
$GPGSV,4,3,16,25,74,329,26,28,08,279,,29,19,357,22,36,52,277,*7D
$GPGSV,4,4,16,40,86,351,,41,58,082,35,49,32,274,,50,10,089,*7F
$GLGSV,3,1,09,65,37,169,23,66,02,202,,71,08,049,12,72,41,090,31*6F
$GLGSV,3,2,09,75,25,165,26,76,69,244,29,77,35,313,23,87,08,351,*6F
$GLGSV,3,3,09,88,04,296,*55
$GNGLL,0419.81667,S,05539.87402,E,071729.00,A,A*61
$GNGRS,071729.00,1,-6.4,-3.7,-2.6,0.5,1.1,-0.7,-1.4,-0.3,-0.1,-14.5,,*6D
$GNGRS,071729.00,1,-2.7,26.6,-5.2,-1.4,12.0,6.0,,,,,,*77
$GNGST,071729.00,74948,,,,4.4,4.2,8.8*73
$GNZDA,071729.00,23,05,2025,00,00*73
$GNGBS,071729.00,4.4,4.2,8.8,,,,*53
$GNTXT,01,01,01,More than 100 frame errors, UART RX was disabled*70
b0@HPe
 C]v+w3;4JIe"{4V_":R 
Y{A%BG1C
H)ZKPLD
M#9W_X(bHPr#$GNRMC,071731.00,A,0419.81668,S,05539.87402,E,0.049,,230525,,,A*70
$GNVTG,,T,,M,0.049,N,0.091,K,A*38
$GNGNS,071731.00,0419.81668,S,05539.87402,E,AA,16,0.68,8.2,-47.6,,*53
$GNGGA,071731.00,0419.81668,S,05539.87402,E,1,12,0.68,8.2,M,-47.6,M,,*7D
$GNGSA,A,3,24,05,13,15,10,12,29,18,25,23,,,1.24,0.68,1.03*14
$GNGSA,A,3,75,71,72,76,65,77,,,,,,,1.24,0.68,1.03*14
$GPGSV,4,1,16,05,27,030,23,10,17,215,09,12,67,128,32,13,12,093,14*77
$GPGSV,4,2,16,15,43,119,30,18,28,307,24,23,59,222,20,24,26,165,22*7D
$GPGSV,4,3,16,25,74,329,26,28,08,279,,29,19,357,20,36,52,277,*7F
$GPGSV,4,4,16,40,86,351,,41,58,082,34,49,32,274,,50,10,089,*7E
$GLGSV,3,1,09,65,37,169,26,66,02,202,,71,08,049,11,72,41,090,31*69
$GLGSV,3,2,09,75,25,165,25,76,68,242,28,77,35,313,21,87,08,351,*68
$GLGSV,3,3,09,88,04,296,*55
$GNGLL,0419.81668,S,05539.87402,E,071731.00,A,A*67
$GNGRS,071731.00,1,-2.0,-1.5,-3.9,-0.5,-2.9,-0.8,-2.2,-0.4,-1.0,-13.9,,*67
$GNGRS,071731.00,1,-4.3,26.3,-5.0,-12.5,12.3,4.2,,,,,,*4B
$GNGST,071731.00,74948,,,,4.4,4.2,8.7*75
$GNZDA,071731.00,23,05,2025,00,00*7A
$GNGBS,071731.00,4.4,4.2,8.7,,,,*55
$GNTXT,01,01,01,More than 100 frame errors, UART RX was disabled*70
b0@P
!C
]+wP3F;5JIe7{4V_#:R 
Y{A%BG
1
H)Z,K\LDs
M#8W_X(bPr''$GNRMC,071734.00,A,0419.81675,S,05539.87407,E,0.123,,230525,,,A*71
$GNVTG,,T,,M,0.123,N,0.228,K,A*35
$GNGNS,071734.00,0419.81675,S,05539.87407,E,AA,16,0.68,8.1,-47.6,,*5C
$GNGGA,071734.00,0419.81675,S,05539.87407,E,1,12,0.68,8.1,M,-47.6,M,,*72
$GNGSA,A,3,24,05,13,15,10,12,29,18,25,23,,,1.24,0.68,1.03*14
$GNGSA,A,3,75,71,72,76,65,77,,,,,,,1.24,0.68,1.03*14
$GPGSV,4,1,16,05,27,030,26,10,17,215,12,12,67,128,33,13,12,093,10*7D
$GPGSV,4,2,16,15,43,119,30,18,28,307,20,23,59,222,24,24,26,165,27*78
$GPGSV,4,3,16,25,74,329,26,28,08,279,,29,19,357,23,36,52,277,*7C
$GPGSV,4,4,16,40,86,351,,41,58,082,35,49,32,274,,50,10,089,*7F
$GLGSV,3,1,09,65,37,169,25,66,02,202,,71,08,049,10,72,41,090,31*6B
$GLGSV,3,2,09,75,25,165,26,76,68,242,28,77,35,312,20,87,08,351,*6B
$GLGSV,3,3,09,88,04,296,*55
$GNGLL,0419.81675,S,05539.87407,E,071734.00,A,A*6B
$GNGRS,071734.00,1,-2.0,-3.0,9.9,3.4,17.1,-0.9,0.6,-1.9,0.3,-10.5,,*7A
$GNGRS,071734.00,1,-4.2,25.9,-4.7,-11.7,9.1,2.6,,,,,,*7B
$GNGST,071734.00,383734,,,,4.3,4.2,8.6*48
$GNZDA,071734.00,23,05,2025,00,00*7F
$GNGBS,071734.00,4.3,4.2,8.6,,,,*56
$GNTXT,01,01,01,More than 100 frame errors, UART RX was disabled*70
$GNGRS,071735.00,1,-3.4,25.8,-4.7,-10.3,8.5,1.7,,,,,,*78
$GNTXT,01,01,01,More than 100 frame errors, UART RX was disabled*70
b0@P`

D"Ct]&+w\3%;JIe{4V_":R 
Y{A%;BG
1.H)ZCK]LD@
M#8vW_X(bPr]/Z$GNRMC,071736.00,A,0419.81674,S,05539.87413,E,0.132,,230525,,,A*77
$GNVTG,,T,,M,0.132,N,0.244,K,A*3F
$GNGNS,071736.00,0419.81674,S,05539.87413,E,AA,16,0.79,8.0,-47.6,,*5B
$GNGGA,071736.00,0419.81674,S,05539.87413,E,1,12,0.79,8.0,M,-47.6,M,,*75
$GNGSA,A,3,24,05,13,15,10,12,29,18,25,23,,,1.40,0.79,1.16*12
$GNGSA,A,3,75,71,72,76,65,77,,,,,,,1.40,0.79,1.16*12
$GPGSV,4,1,16,05,27,030,24,10,17,215,10,12,67,128,34,13,12,093,11*7B
$GPGSV,4,2,16,15,43,119,30,18,28,307,19,23,59,222,24,24,26,165,26*73
$GPGSV,4,3,16,25,74,329,26,28,08,279,,29,19,357,22,36,52,277,*7D
$GPGSV,4,4,16,40,86,351,,41,58,082,34,49,32,274,,50,10,089,*7E
$GLGSV,3,1,09,65,37,169,25,66,02,202,,71,08,049,10,72,41,090,31*6B
$GLGSV,3,2,09,75,25,165,26,76,68,242,27,77,35,312,20,87,08,351,*64
$GLGSV,3,3,09,88,04,296,*55
$GNGLL,0419.81674,S,05539.87413,E,071736.00,A,A*6D
$GNGRS,071736.00,1,-3.5,-1.6,10.6,0.9,31.4,-1.4,-0.1,-2.2,4.4,-11.4,,*6D
$GNGRS,071736.00,1,-1.6,-48.2,-4.5,-7.0,8.3,1.2,,,,,,*63
$GNGST,071736.00,45,,,,4.3,4.1,8.5*43
$GNZDA,071736.00,23,05,2025,00,00*7D
$GNGBS,071736.00,4.3,4.1,8.5,,,,*54
$GNTXT,01,01,01,More than 100 frame errors, UART RX was disabled*70
b0@PR

!CS]+w3;JIe{4V_":R 
Y{qA%BG1I
H)ZKLD
M#8W_X(bPr-7
$GNRMC,071738.00,A,0419.81672,S,05539.87409,E,0.092,,230525,,,A*7F
$GNVTG,,T,,M,0.092,N,0.170,K,A*30
$GNGNS,071738.00,0419.81672,S,05539.87409,E,AA,16,0.68,7.9,-47.6,,*5E
$GNGGA,071738.00,0419.81672,S,05539.87409,E,1,12,0.68,7.9,M,-47.6,M,,*70
$GNGSA,A,3,24,05,13,15,10,12,29,18,25,23,,,1.24,0.68,1.03*14
$GNGSA,A,3,75,71,72,76,65,77,,,,,,,1.24,0.68,1.03*14
$GPGSV,4,1,16,05,27,030,20,10,17,215,10,12,67,128,33,13,12,093,16*7F
$GPGSV,4,2,16,15,43,119,31,18,28,307,18,23,59,222,23,24,26,165,26*74
$GPGSV,4,3,16,25,74,329,26,28,08,279,,29,19,357,21,36,52,277,*7E
$GPGSV,4,4,16,40,86,351,,41,58,082,34,49,32,274,,50,10,089,*7E
$GLGSV,3,1,09,65,37,169,25,66,02,202,,71,08,049,14,72,41,090,31*6F
$GLGSV,3,2,09,75,25,165,27,76,68,242,27,77,35,312,20,87,08,351,*65
$GLGSV,3,3,09,88,04,296,*55
$GNGLL,0419.81672,S,05539.87409,E,071738.00,A,A*6E
$GNGRS,071738.00,1,-3.8,-4.3,9.1,0.0,17.3,-1.7,-0.7,-1.3,2.1,-12.6,,*5E
$GNGRS,071738.00,1,-1.0,26.3,-4.9,-5.8,7.0,1.5,,,,,,*42
$GNGST,071738.00,2973941,,,,4.2,4.1,8.5*7E
$GNZDA,071738.00,23,05,2025,00,00*73
$GNGBS,071738.00,4.2,4.1,8.5,,,,*5B
b0@P^
WCu]+w3K;<JIe~{4V_":R 
Y{5A%XBG1H )ZK^LD
M#8AW_X(CbPr; $GNRMC,071739.00,A,0419.81669,S,05539.87404,E,0.158,,230525,,,A*7E
$GNVTG,,T,,M,0.158,N,0.293,K,A*39
$GNGNS,071739.00,0419.81669,S,05539.87404,E,AA,16,0.76,7.9,-47.6,,*57
$GNGGA,071739.00,0419.81669,S,05539.87404,E,1,12,0.76,7.9,M,-47.6,M,,*79
$GNGSA,A,3,24,05,13,15,10,12,29,18,25,23,,,1.36,0.76,1.13*19
$GNGSA,A,3,75,71,72,76,65,77,,,,,,,1.36,0.76,1.13*19
$GPGSV,4,1,16,05,27,030,17,10,17,215,12,12,67,128,31,13,12,093,15*78
$GPGSV,4,2,16,15,43,119,29,18,28,307,17,23,59,222,23,24,26,165,26*72
$GPGSV,4,3,16,25,74,329,25,28,08,279,,29,19,357,21,36,52,277,*7D
$GPGSV,4,4,16,40,86,351,,41,58,082,34,49,32,274,,50,10,089,*7E
$GLGSV,3,1,09,65,37,169,25,66,02,202,,71,08,049,11,72,41,090,32*69
$GLGSV,3,2,09,75,25,165,28,76,68,242,26,77,35,312,21,87,08,351,*6A
$GLGSV,3,3,09,88,04,296,*55
$GNGLL,0419.81669,S,05539.87404,E,071739.00,A,A*68
$GNGRS,071739.00,1,-2.8,-4.2,9.7,-0.5,-32.4,-1.4,-1.3,-1.8,4.5,-12.2,,*57
$GNGRS,071739.00,1,-1.6,11.7,-5.5,-6.1,6.0,0.6,,,,,,*41
$GNGST,071739.00,50,,,,4.2,4.1,8.5*49
$GNZDA,071739.00,23,05,2025,00,00*72
$GNGBS,071739.00,4.2,4.1,8.5,,,,*5A
$GNTXT,01,01,01,More than 100 frame errors, UART RX was disabled*70
b0@(P
 C]7+w|3i;mJIe{4V_&:R 
Y{A%!BG1c
H)ZhKLD
M#8WW_X)b(PrJA$GNRMC,071743.00,A,0419.81658,S,05539.87399,E,0.122,,230525,,,A*7F
$GNVTG,,T,,M,0.122,N,0.226,K,A*3A
$GNGNS,071743.00,0419.81658,S,05539.87399,E,AA,15,0.80,7.5,-47.6,,*5D
$GNGGA,071743.00,0419.81658,S,05539.87399,E,1,12,0.80,7.5,M,-47.6,M,,*70
$GNGSA,A,3,24,05,13,15,12,29,18,25,23,,,,1.50,0.80,1.27*16
$GNGSA,A,3,75,71,72,76,65,77,,,,,,,1.50,0.80,1.27*17
$GPGSV,4,1,16,05,27,030,23,10,17,215,09,12,67,128,32,13,12,093,13*70
$GPGSV,4,2,16,15,43,119,27,18,28,307,21,23,59,222,21,24,26,165,28*75
$GPGSV,4,3,16,25,74,329,25,28,08,279,,29,19,357,25,36,52,277,*79
$GPGSV,4,4,16,40,86,351,,41,58,082,38,49,32,274,,50,10,089,*72
$GLGSV,3,1,09,65,37,169,24,66,02,202,,71,08,049,11,72,41,090,31*6B
$GLGSV,3,2,09,75,25,165,27,76,68,242,20,77,35,312,20,87,07,351,*6D
$GLGSV,3,3,09,88,04,297,*54
$GNGLL,0419.81658,S,05539.87399,E,071743.00,A,A*64
$GNGRS,071743.00,1,-5.4,-3.7,10.8,-1.3,4.7,-3.0,-4.1,5.3,-11.7,,,*72
$GNGRS,071743.00,1,-1.1,26.6,-6.6,-0.1,10.6,-9.4,,,,,,*5F
$GNGST,071743.00,43,,,,4.1,4.2,8.4*47
$GNZDA,071743.00,23,05,2025,00,00*7F
$GNGBS,071743.00,4.1,4.2,8.4,,,,*56
$GNTXT,01,01,01,More than 100 frame errors, UART RX was disabled*70
$GNTXT,01,01,01,More than 100 frame errors, UART RX was disabled*70
b0@PV
/!C>]+w,3R;OJIeZ{4V_":R 
Y{A%XBG
1L
H)ZK{LD
M#8W_X)?bPrmV$GNRMC,071746.00,A,0419.81667,S,05539.87416,E,0.164,,230525,,,A*74
$GNVTG,,T,,M,0.164,N,0.303,K,A*3E
$GNGNS,071746.00,0419.81667,S,05539.87416,E,AA,15,0.69,7.8,-47.6,,*5E
$GNGGA,071746.00,0419.81667,S,05539.87416,E,1,12,0.69,7.8,M,-47.6,M,,*73
$GNGSA,A,3,24,05,13,15,10,12,29,18,25,23,,,1.29,0.69,1.10*1A
$GNGSA,A,3,75,71,72,65,77,,,,,,,,1.29,0.69,1.10*1B
$GPGSV,4,1,16,05,27,030,24,10,17,215,12,12,67,128,33,13,12,093,16*79
$GPGSV,4,2,16,15,43,119,29,18,28,307,22,23,59,222,23,24,26,165,26*74
$GPGSV,4,3,16,25,74,329,30,28,08,279,,29,19,357,24,36,52,277,*7C
$GPGSV,4,4,16,40,86,351,,41,58,082,34,49,32,274,,50,10,089,*7E
$GLGSV,3,1,09,65,37,169,29,66,02,202,,71,08,049,10,72,41,090,30*66
$GLGSV,3,2,09,75,25,165,27,76,68,242,,77,35,312,17,87,07,351,*6B
$GLGSV,3,3,09,88,04,297,*54
$GNGLL,0419.81667,S,05539.87416,E,071746.00,A,A*6D
$GNGRS,071746.00,1,-9.4,-4.3,4.1,3.0,15.8,0.6,-4.2,-1.7,-8.0,-8.5,,*60
$GNGRS,071746.00,1,-3.9,26.4,-1.3,8.6,-5.1,,,,,,,*62
$GNGST,071746.00,77406,,,,4.1,4.2,8.3*70
$GNZDA,071746.00,23,05,2025,00,00*7A
$GNGBS,071746.00,4.1,4.2,8.3,,,,*54
$GNTXT,01,01,01,More than 100 frame errors, UART RX was disabled*70
b0@PN
)!C]U+w3;JIe{4V_":R 
Y{A%BG
1A
H)ZkKxLD
M#8W_X)bPrUZN$GNRMC,071747.00,A,0419.81663,S,05539.87418,E,0.223,,230525,,,A*7F
$GNVTG,,T,,M,0.223,N,0.412,K,A*39
$GNGNS,071747.00,0419.81663,S,05539.87418,E,AA,15,0.69,7.7,-47.6,,*5A
$GNGGA,071747.00,0419.81663,S,05539.87418,E,1,12,0.69,7.7,M,-47.6,M,,*77
$GNGSA,A,3,24,05,13,15,10,12,29,18,25,23,,,1.29,0.69,1.10*1A
$GNGSA,A,3,75,71,72,65,77,,,,,,,,1.29,0.69,1.10*1B
$GPGSV,4,1,16,05,27,030,23,10,17,215,09,12,67,128,33,13,12,093,17*75
$GPGSV,4,2,16,15,43,119,27,18,28,307,22,23,59,222,23,24,26,165,25*79
$GPGSV,4,3,16,25,74,329,29,28,08,279,,29,19,357,23,36,52,277,*73
$GPGSV,4,4,16,40,86,351,,41,58,082,34,49,32,274,,50,10,089,*7E
$GLGSV,3,1,09,65,37,169,29,66,02,202,,71,08,049,10,72,41,090,30*66
$GLGSV,3,2,09,75,25,165,28,76,68,242,,77,35,312,15,87,07,351,*66
$GLGSV,3,3,09,88,04,297,*54
$GNGLL,0419.81663,S,05539.87418,E,071747.00,A,A*66
$GNGRS,071747.00,1,-11.3,-4.3,3.4,6.8,15.8,0.1,-3.1,2.0,-8.8,-6.4,,*7D
$GNGRS,071747.00,1,-3.9,26.2,6.2,7.5,-3.4,,,,,,,*41
$GNGST,071747.00,77406,,,,4.0,4.2,8.3*70
$GNZDA,071747.00,23,05,2025,00,00*7B
$GNGBS,071747.00,4.0,4.2,8.3,,,,*54
$GNTXT,01,01,01,More than 100 frame errors, UART RX was disabled*70
$GNTXT,01,01,01,More than 100 frame errors, UART RX was disabled*70
b0@P
 Cx]+w3f;AJI2e{4V_":R 
Y{3A%BG
1|
H)ZvKLD
M#8W_X):bPrf($GNRMC,071750.00,A,0419.81670,S,05539.87421,E,0.076,,230525,,,A*73
$GNVTG,,T,,M,0.076,N,0.141,K,A*38
$GNGNS,071750.00,0419.81670,S,05539.87421,E,AA,15,0.69,8.0,-47.6,,*5C
$GNGGA,071750.00,0419.81670,S,05539.87421,E,1,12,0.69,8.0,M,-47.6,M,,*71
$GNGSA,A,3,24,05,13,15,10,12,29,18,25,23,,,1.29,0.69,1.10*1A
$GNGSA,A,3,75,71,72,65,77,,,,,,,,1.29,0.69,1.10*1B
$GPGSV,4,1,16,05,26,030,22,10,17,215,16,12,67,128,32,13,12,093,11*7C
$GPGSV,4,2,16,15,43,119,26,18,28,307,17,23,59,222,21,24,26,165,23*7A
$GPGSV,4,3,16,25,74,329,29,28,08,279,,29,19,357,23,36,52,277,*73
$GPGSV,4,4,16,40,86,351,,41,58,082,34,49,32,274,,50,10,089,*7E
$GLGSV,3,1,09,65,37,169,30,66,02,202,,71,08,049,10,72,41,090,31*6F
$GLGSV,3,2,09,75,25,165,29,76,68,242,16,77,35,312,12,87,07,351,*67
$GLGSV,3,3,09,88,04,297,*54
$GNGLL,0419.81670,S,05539.87421,E,071750.00,A,A*68
$GNGRS,071750.00,1,-11.5,-2.5,5.1,14.5,17.4,3.8,-5.7,1.0,0.5,-1.9,,*65
$GNGRS,071750.00,1,-2.3,26.8,1.2,4.6,12.8,,,,,,,*50
$GNGST,071750.00,50,,,,4.0,4.4,8.2*46
$GNZDA,071750.00,23,05,2025,00,00*7D
$GNGBS,071750.00,4.0,4.4,8.2,,,,*55
$GNTXT,01,01,01,More than 100 frame errors, UART RX was disabled*70
$GNTXT,01,01,01,More than 100 frame errors, UART RX was disabled*70
b0@Q
+C]+w3;!hJI,e{4V_":R 
Y{A%OBG1
H)ZKZLD^
M#8W_X)bQr}}7$GNRMC,071756.00,A,0419.81694,S,05539.87427,E,0.203,,230525,,,A*79
$GNVTG,,T,,M,0.203,N,0.376,K,A*3E
$GNGNS,071756.00,0419.81694,S,05539.87427,E,AA,16,0.69,9.0,-47.6,,*54
$GNGGA,071756.00,0419.81694,S,05539.87427,E,1,12,0.69,9.0,M,-47.6,M,,*7A
$GNGSA,A,3,24,05,13,15,10,12,29,18,25,23,,,1.29,0.69,1.09*12
$GNGSA,A,3,75,71,72,76,65,77,,,,,,,1.29,0.69,1.09*12
$GPGSV,4,1,16,05,26,030,18,10,17,215,18,12,67,129,31,13,12,093,07*7E
$GPGSV,4,2,16,15,43,119,25,18,28,307,21,23,59,222,26,24,26,165,18*73
$GPGSV,4,3,16,25,74,329,25,28,08,279,,29,19,357,17,36,52,277,*78
$GPGSV,4,4,16,40,86,351,,41,58,082,34,49,32,274,,50,10,089,*7E
$GLGSV,3,1,09,65,37,169,29,66,02,202,,71,08,049,13,72,41,090,29*6D
$GLGSV,3,2,09,75,25,165,29,76,68,242,13,77,35,312,17,87,07,351,*67
$GLGSV,3,3,09,88,04,297,*54
$GNGLL,0419.81694,S,05539.87427,E,071756.00,A,A*62
$GNGRS,071756.00,1,-9.2,-3.4,4.6,12.7,5.5,2.7,-5.2,-5.5,5.6,-2.2,,*44
$GNGRS,071756.00,1,-1.7,27.0,6.9,-37.5,8.5,14.7,,,,,,*60
$GNGST,071756.00,77406,,,,4.0,4.5,8.3*77
$GNZDA,071756.00,23,05,2025,00,00*7B
$GNGBS,071756.00,4.0,4.5,8.3,,,,*53
b0@Q
 C]+w3;JIe{4V_#:R 
Y{A%WBG14H)Z?KBLD
M#8%W_X)<bQreZ$GNRMC,071757.00,A,0419.81697,S,05539.87438,E,0.127,,230525,,,A*70
$GNVTG,,T,,M,0.127,N,0.235,K,A*3D
$GNGNS,071757.00,0419.81697,S,05539.87438,E,AA,16,0.73,9.3,-47.6,,*50
$GNGGA,071757.00,0419.81697,S,05539.87438,E,1,12,0.73,9.3,M,-47.6,M,,*7E
$GNGSA,A,3,24,05,13,15,10,12,29,18,25,23,,,1.36,0.73,1.15*1A
$GNGSA,A,3,75,71,72,76,65,77,,,,,,,1.36,0.73,1.15*1A
$GPGSV,4,1,16,05,26,030,17,10,17,215,20,12,67,129,32,13,12,093,11*7E
$GPGSV,4,2,16,15,43,119,27,18,28,307,23,23,59,222,29,24,26,165,17*73
$GPGSV,4,3,16,25,74,329,24,28,08,279,,29,19,357,17,36,52,277,*79
$GPGSV,4,4,16,40,86,351,,41,58,082,35,49,32,274,,50,10,089,*7F
$GLGSV,3,1,09,65,37,169,29,66,02,202,,71,08,049,09,72,41,090,28*67
$GLGSV,3,2,09,75,25,165,28,76,68,242,16,77,35,312,16,87,07,351,*62
$GLGSV,3,3,09,88,04,297,*54
$GNGLL,0419.81697,S,05539.87438,E,071757.00,A,A*6E
$GNGRS,071757.00,1,-10.9,-3.8,-42.1,9.4,1.5,2.4,-5.4,-6.3,5.3,-3.7,,*5E
$GNGRS,071757.00,1,-1.9,-50.7,10.9,-36.3,8.6,13.2,,,,,,*74
$GNGST,071757.00,45,,,,4.0,4.5,8.4*42
$GNZDA,071757.00,23,05,2025,00,00*7A
$GNGBS,071757.00,4.0,4.5,8.4,,,,*55
$GNTXT,01,01,01,More than 100 frame errors, UART RX was disabled*70
b0@
Qq
C
]2+w%3;.JIe{4V_":R 
Y{A%BG1:
H)ZKgLD
M#8cW_X)qb
QrM$GNRMC,071758.00,A,0419.81695,S,05539.87444,E,0.060,,230525,,,A*74
$GNVTG,,T,,M,0.060,N,0.110,K,A*3B
$GNGNS,071758.00,0419.81695,S,05539.87444,E,AA,16,0.77,9.3,-47.6,,*52
$GNGGA,071758.00,0419.81695,S,05539.87444,E,1,12,0.77,9.3,M,-47.6,M,,*7C
$GNGSA,A,3,24,05,13,15,10,12,29,18,25,23,,,1.54,0.77,1.33*1E
$GNGSA,A,3,75,71,72,76,65,77,,,,,,,1.54,0.77,1.33*1E
$GPGSV,4,1,16,05,26,030,18,10,17,215,19,12,67,129,31,13,12,093,10*79
$GPGSV,4,2,16,15,43,119,27,18,28,307,21,23,59,222,29,24,26,165,16*70
$GPGSV,4,3,16,25,74,329,24,28,08,279,,29,19,357,17,36,52,277,*79
$GPGSV,4,4,16,40,86,351,,41,58,082,34,49,32,274,,50,10,089,*7E
$GLGSV,3,1,09,65,37,169,30,66,02,202,,71,08,049,12,72,41,090,28*65
$GLGSV,3,2,09,75,25,165,29,76,68,242,15,77,35,312,17,87,07,351,*61
$GLGSV,3,3,09,88,04,297,*54
$GNGLL,0419.81695,S,05539.87444,E,071758.00,A,A*68
$GNGRS,071758.00,1,-12.3,-4.0,23.5,13.2,-0.9,2.4,-5.8,-5.0,4.5,-5.5,,*6A
$GNGRS,071758.00,1,-1.5,26.2,7.0,-37.0,6.8,13.8,,,,,,*69
$GNGST,071758.00,43,,,,4.1,4.5,8.4*4A
$GNZDA,071758.00,23,05,2025,00,00*75
$GNGBS,071758.00,4.1,4.5,8.4,,,,*5B
$GNTXT,01,01,01,More than 100 frame errors, UART RX was disabled*70
b0@Q>
p C]6+w3;JIe{4V_!:R 
Y{A%_BG1:
H)ZKLD!
M#8UW_X)tbQr5*$GNRMC,071759.00,A,0419.81697,S,05539.87452,E,0.146,,230525,,,A*75
$GNVTG,,T,,M,0.146,N,0.271,K,A*3A
$GNGNS,071759.00,0419.81697,S,05539.87452,E,AA,16,0.77,9.5,-47.6,,*50
$GNGGA,071759.00,0419.81697,S,05539.87452,E,1,12,0.77,9.5,M,-47.6,M,,*7E
$GNTXT,01,01,01,More than 100 frame errors, UART RX was disabled*70
$GNTXT,01,01,01,More than 100 frame errors, UART RX was disabled*70
$GNTXT,01,01,01,More than 100 frame errors, UART RX was disabled*70
b0@HQP
C]+w4;JIe{4V_!:R 
Y{A%BG1H)ZWKLD
M#8;W_X)bHQr$GNRMC,071803.00,A,0419.81684,S,05539.87453,E,0.095,,230525,,,A*79
$GNVTG,,T,,M,0.095,N,0.176,K,A*31
$GNGNS,071803.00,0419.81684,S,05539.87453,E,AA,16,0.67,9.7,-47.6,,*50
$GNGGA,071803.00,0419.81684,S,05539.87453,E,1,12,0.67,9.7,M,-47.6,M,,*7E
$GNGSA,A,3,24,05,13,15,10,12,29,18,25,23,,,1.30,0.67,1.11*1D
$GNGSA,A,3,75,71,72,76,65,77,,,,,,,1.30,0.67,1.11*1D
$GPGSV,4,1,16,05,26,030,19,10,17,215,18,12,67,129,30,13,12,093,12*7A
$GPGSV,4,2,16,15,43,119,25,18,28,308,22,23,59,222,24,24,26,165,20*76
$GPGSV,4,3,16,25,74,329,22,28,08,279,,29,19,357,20,36,52,277,*7B
$GPGSV,4,4,16,40,86,351,,41,58,082,33,49,32,274,,50,10,089,*79
$GLGSV,3,1,09,65,37,169,31,66,02,202,,71,08,049,11,72,41,090,29*66
$GLGSV,3,2,09,75,25,165,28,76,68,242,14,77,35,312,18,87,07,351,*6E
$GLGSV,3,3,09,88,04,297,*54
$GNGLL,0419.81684,S,05539.87453,E,071803.00,A,A*6F
$GNGRS,071803.00,1,-13.3,-1.8,-5.5,17.0,-3.7,1.6,-7.9,0.2,14.3,-1.2,,*69
$GNGRS,071803.00,1,-3.5,4.2,0.9,-37.1,6.5,10.8,,,,,,*5B
$GNGST,071803.00,53,,,,4.1,4.5,8.5*4B
$GNZDA,071803.00,23,05,2025,00,00*74
$GNGBS,071803.00,4.1,4.5,8.5,,,,*5B
$GNTXT,01,01,01,More than 100 frame errors, UART RX was disabled*70
b0@*Q$
C]B+w4<^lJIer{4V_":R 
Y{A%jBG1YH)ZKLD#
M#8W_X)Zb*Qr$GNRMC,071806.00,A,0419.81693,S,05539.87439,E,0.020,,230525,,,D*7D
$GNVTG,,T,,M,0.020,N,0.037,K,D*3E
$GNGNS,071806.00,0419.81693,S,05539.87439,E,DA,16,0.67,10.2,-47.6,,0000*67
$GNGGA,071806.00,0419.81693,S,05539.87439,E,2,12,0.67,10.2,M,-47.6,M,,0000*4F
$GNGSA,A,3,24,05,13,15,10,12,29,18,25,23,,,1.30,0.67,1.11*1D
$GNGSA,A,3,75,71,72,76,65,77,,,,,,,1.30,0.67,1.11*1D
$GPGSV,4,1,16,05,26,030,20,10,17,215,19,12,67,129,31,13,12,093,13*71
$GPGSV,4,2,16,15,43,119,27,18,28,308,23,23,60,223,25,24,26,165,20*7F
$GPGSV,4,3,16,25,74,329,22,28,08,279,,29,19,357,20,36,52,277,*7B
$GPGSV,4,4,16,40,86,351,,41,58,082,34,49,32,274,,50,10,089,*7E
$GLGSV,3,1,09,65,37,169,31,66,02,202,,71,08,049,11,72,41,090,29*66
$GLGSV,3,2,09,75,25,165,28,76,68,242,19,77,35,312,20,87,07,351,*68
$GLGSV,3,3,09,88,04,297,*54
$GNGLL,0419.81693,S,05539.87439,E,071806.00,A,D*65
$GNGRS,071806.00,1,-11.7,-2.2,18.6,12.3,-1.2,2.3,-9.1,-0.3,10.2,0.9,,*7E
$GNGRS,071806.00,1,-3.0,11.1,-5.5,-38.0,3.6,4.5,,,,,,*78
$GNGST,071806.00,50,,,,4.1,4.5,8.6*4E
$GNZDA,071806.00,23,05,2025,00,00*71
$GNGBS,071806.00,4.1,4.5,8.6,,,,*5D
b0@-Q|
C']+wn4v<JHVe{4V_":R 
Y{A %PBG1d
H)ZKLD
M#89W_X)b-Qrun$GNRMC,071807.00,A,0419.81699,S,05539.87437,E,0.102,,230525,,,D*79
$GNVTG,,T,,M,0.102,N,0.189,K,D*3B
$GNGNS,071807.00,0419.81699,S,05539.87437,E,DA,16,0.77,10.3,-47.6,,0000*62
$GNGGA,071807.00,0419.81699,S,05539.87437,E,2,12,0.77,10.3,M,-47.6,M,,0000*4A
$GNGSA,A,3,24,05,13,15,10,12,29,18,25,23,,,1.54,0.77,1.33*1E
$GNGSA,A,3,75,71,72,76,65,77,,,,,,,1.54,0.77,1.33*1E
$GPGSV,4,1,16,05,26,030,22,10,17,215,18,12,67,129,31,13,12,093,11*70
$GPGSV,4,2,16,15,43,119,28,18,28,308,26,23,60,223,26,24,26,165,18*7D
$GPGSV,4,3,16,25,74,328,23,28,08,279,,29,19,357,18,36,52,277,*70
$GPGSV,4,4,16,40,86,351,,41,58,082,34,49,32,274,,50,10,089,*7E
$GLGSV,3,1,09,65,37,169,32,66,02,202,,71,08,049,11,72,41,090,30*6D
$GLGSV,3,2,09,75,25,165,28,76,68,242,19,77,35,312,21,87,07,351,*69
$GLGSV,3,3,09,88,04,297,*54
$GNGLL,0419.81699,S,05539.87437,E,071807.00,A,D*60
$GNGRS,071807.00,1,-10.9,-3.9,22.3,8.8,-0.5,0.4,-8.6,-1.4,8.5,-0.8,,*57
$GNGRS,071807.00,1,-2.9,26.6,-3.3,-39.2,5.9,3.1,,,,,,*7B
$GNGST,071807.00,40,,,,4.0,4.4,8.6*4E
$GNZDA,071807.00,23,05,2025,00,00*70
$GNGBS,071807.00,4.0,4.4,8.6,,,,*5C
$GNTXT,01,01,01,More than 100 frame errors, UART RX was disabled*70
b0@5QG
C]+wT4l<>JHReM{4V_!:R 
Y{A &BG1sH)ZJKLDh
M#8W_X)rb5QrE/>$GNRMC,071809.00,A,0419.81711,S,05539.87423,E,0.148,,230525,,,D*7D
$GNVTG,,T,,M,0.148,N,0.274,K,D*34
$GNGNS,071809.00,0419.81711,S,05539.87423,E,DA,16,0.67,10.6,-47.6,,0000*6C
$GNGGA,071809.00,0419.81711,S,05539.87423,E,2,12,0.67,10.6,M,-47.6,M,,0000*44
$GNGSA,A,3,24,05,13,15,10,12,29,18,25,23,,,1.30,0.67,1.11*1D
$GNGSA,A,3,75,71,72,76,65,77,,,,,,,1.30,0.67,1.11*1D
$GPGSV,4,1,16,05,26,030,22,10,17,215,19,12,67,129,30,13,12,093,09*79
$GPGSV,4,2,16,15,43,119,28,18,28,308,25,23,60,223,25,24,26,165,17*72
$GPGSV,4,3,16,25,74,328,22,28,08,279,,29,19,357,15,36,52,277,*7C
$GPGSV,4,4,16,40,86,351,,41,58,082,33,49,32,274,,50,10,089,*79
$GLGSV,3,1,09,65,38,168,32,66,02,202,,71,08,049,15,72,41,090,30*67
$GLGSV,3,2,09,75,25,165,29,76,68,242,20,77,35,312,18,87,07,351,*68
$GLGSV,3,3,09,88,04,297,*54
$GNGLL,0419.81711,S,05539.87423,E,071809.00,A,D*6A
$GNGRS,071809.00,1,-7.1,-7.0,-13.7,3.4,-0.7,5.2,-6.9,1.1,11.1,-2.5,,*5D
$GNGRS,071809.00,1,-0.5,-1.4,-6.9,-37.4,9.5,4.0,,,,,,*60
$GNGST,071809.00,54,,,,4.0,4.4,8.6*45
$GNZDA,071809.00,23,05,2025,00,00*7E
$GNGBS,071809.00,4.0,4.4,8.6,,,,*52
b0@9Q
mC]+wL4<|LJHe{4V_":R 
Y{A&WBG1E
H)ZeKuLD8
M#8W_X)7\b9Qr-$GNRMC,071810.00,A,0419.81713,S,05539.87414,E,0.132,,230525,,,D*7E
$GNVTG,,T,,M,0.132,N,0.244,K,D*3A
$GNGNS,071810.00,0419.81713,S,05539.87414,E,DA,16,0.77,10.5,-47.6,,0000*60
$GNGGA,071810.00,0419.81713,S,05539.87414,E,2,12,0.77,10.5,M,-47.6,M,,0000*48
$GNGSA,A,3,24,05,13,15,10,12,29,18,25,23,,,1.54,0.77,1.33*1E
$GNGSA,A,3,75,71,72,76,65,77,,,,,,,1.54,0.77,1.33*1E
$GPGSV,4,1,16,05,26,030,23,10,17,215,19,12,67,129,31,13,12,093,12*73
$GPGSV,4,2,16,15,43,119,29,18,28,308,24,23,60,223,25,24,26,165,17*72
$GPGSV,4,3,16,25,74,328,23,28,08,279,,29,19,357,14,36,52,277,*7C
$GPGSV,4,4,16,40,86,351,,41,58,082,34,49,32,274,,50,10,089,*7E
$GLGSV,3,1,09,65,38,168,31,66,02,202,,71,08,049,09,72,41,090,30*69
$GLGSV,3,2,09,75,25,165,29,76,68,242,21,77,35,312,19,87,07,351,*68
$GLGSV,3,3,09,88,04,297,*54
$GNGLL,0419.81713,S,05539.87414,E,071810.00,A,D*64
$GNGRS,071810.00,1,-4.4,-8.5,22.1,8.4,-1.5,2.4,-5.4,2.4,8.0,-1.3,,*4D
$GNGRS,071810.00,1,-1.4,26.3,-4.1,-37.8,11.1,2.3,,,,,,*49
$GNGST,071810.00,41,,,,4.0,4.4,8.6*49
$GNZDA,071810.00,23,05,2025,00,00*76
$GNGBS,071810.00,4.0,4.4,8.6,,,,*5A
$GNTXT,01,01,01,More than 100 frame errors, UART RX was disabled*70
b0@=Qc
QCo
]+w}4W<-DJHft{4V_":R 
Y{A &BG1G
H)ZKLDc
M#8W_X)b=Qr$GNRMC,071811.00,A,0419.81717,S,05539.87402,E,0.176,,230525,,,D*7C
$GNVTG,,T,,M,0.176,N,0.326,K,D*3F
$GNGNS,071811.00,0419.81717,S,05539.87402,E,DA,16,0.77,10.6,-47.6,,0000*61
$GNGGA,071811.00,0419.81717,S,05539.87402,E,2,12,0.77,10.6,M,-47.6,M,,0000*49
$GNGSA,A,3,24,05,13,15,10,12,29,18,25,23,,,1.54,0.77,1.33*1E
$GNGSA,A,3,75,71,72,76,65,77,,,,,,,1.54,0.77,1.33*1E
$GPGSV,4,1,16,05,26,030,24,10,17,215,18,12,67,129,30,13,12,093,10*76
$GPGSV,4,2,16,15,43,119,29,18,28,308,23,23,60,223,25,24,26,165,17*75
$GPGSV,4,3,16,25,74,328,25,28,08,279,,29,20,358,15,36,52,277,*7E
$GPGSV,4,4,16,40,86,351,,41,58,082,34,49,32,274,,50,10,089,*7E
$GLGSV,3,1,09,65,38,168,32,66,02,202,,71,08,049,13,72,41,090,30*61
$GLGSV,3,2,09,75,25,165,29,76,68,242,22,77,35,312,19,87,07,351,*6B
$GLGSV,3,3,09,88,04,297,*54
$GNGLL,0419.81717,S,05539.87402,E,071811.00,A,D*66
$GNGRS,071811.00,1,-4.4,-9.3,22.1,3.8,0.8,1.1,-6.5,3.4,7.8,0.5,,*45
$GNGRS,071811.00,1,-4.9,26.3,-4.9,-34.8,6.6,-0.5,,,,,,*53
$GNGST,071811.00,41,,,,4.0,4.4,8.6*48
$GNZDA,071811.00,23,05,2025,00,00*77
$GNGBS,071811.00,4.0,4.4,8.6,,,,*5B
$GNTXT,01,01,01,More than 100 frame errors, UART RX was disabled*70
b0@pAQ
C]+w4<4JHf{4V_":R 
Y{A&BG1H)ZK]LD
M#8W_X)ObpAQrs$GNRMC,071812.00,A,0419.81725,S,05539.87398,E,0.063,,230525,,,D*7F
$GNVTG,,T,,M,0.063,N,0.117,K,D*3A
$GNGNS,071812.00,0419.81725,S,05539.87398,E,DA,16,0.67,10.9,-47.6,,0000*69
$GNGGA,071812.00,0419.81725,S,05539.87398,E,2,12,0.67,10.9,M,-47.6,M,,0000*41
$GNGSA,A,3,24,05,13,15,10,12,29,18,25,23,,,1.30,0.67,1.11*1D
$GNGSA,A,3,75,71,72,76,65,77,,,,,,,1.30,0.67,1.11*1D
$GPGSV,4,1,16,05,26,030,24,10,17,215,18,12,67,129,30,13,12,093,12*74
$GPGSV,4,2,16,15,43,119,29,18,28,308,24,23,60,223,24,24,26,165,15*71
$GPGSV,4,3,16,25,74,328,24,28,08,279,,29,20,358,16,36,52,277,*7C
$GPGSV,4,4,16,40,86,351,,41,58,082,34,49,32,274,,50,10,089,*7E
$GLGSV,3,1,09,65,38,168,31,66,02,202,,71,08,049,13,72,41,090,30*62
$GLGSV,3,2,09,75,25,165,29,76,68,242,22,77,35,312,18,87,07,351,*6A
$GLGSV,3,3,09,88,04,297,*54
$GNGLL,0419.81725,S,05539.87398,E,071812.00,A,D*60
$GNGRS,071812.00,1,-4.6,-8.8,9.4,1.4,-0.7,4.4,-7.5,2.7,4.5,1.7,,*50
$GNGRS,071812.00,1,-4.2,-3.0,-5.1,-30.8,7.2,1.6,,,,,,*65
$GNGST,071812.00,52,,,,4.0,4.4,8.6*49
$GNZDA,071812.00,23,05,2025,00,00*74
$GNGBS,071812.00,4.0,4.4,8.6,,,,*58
$GNTXT,01,01,01,More than 100 frame errors, UART RX was disabled*70
b0@@IQ
3C]+wk4<xJHf{4V_":R 
Y{A&BG1
H)ZKLDp
M#8W_X)Zb@IQrfC$GNRMC,071814.00,A,0419.81744,S,05539.87388,E,0.063,,230525,,,D*7F
$GNVTG,,T,,M,0.063,N,0.117,K,D*3A
$GNGNS,071814.00,0419.81744,S,05539.87388,E,DA,16,0.77,11.7,-47.6,,0000*67
$GNGGA,071814.00,0419.81744,S,05539.87388,E,2,12,0.77,11.7,M,-47.6,M,,0000*4F
$GNGSA,A,3,24,05,13,15,10,12,29,18,25,23,,,1.54,0.77,1.33*1E
$GNGSA,A,3,75,71,72,76,65,77,,,,,,,1.54,0.77,1.33*1E
$GPGSV,4,1,16,05,26,030,23,10,17,215,20,12,67,129,30,13,12,093,15*7F
$GPGSV,4,2,16,15,43,119,30,18,28,308,25,23,60,223,24,24,26,165,16*7B
$GPGSV,4,3,16,25,74,328,22,28,08,279,,29,20,358,14,36,52,277,*78
$GPGSV,4,4,16,40,86,351,,41,58,082,34,49,32,274,,50,10,089,*7E
$GLGSV,3,1,09,65,38,168,31,66,02,202,,71,08,049,15,72,41,090,31*65
$GLGSV,3,2,09,75,25,165,28,76,68,242,22,77,35,312,19,87,07,351,*6A
$GLGSV,3,3,09,88,04,297,*54
$GNGLL,0419.81744,S,05539.87388,E,071814.00,A,D*60
$GNGRS,071814.00,1,-0.4,-10.7,22.6,-1.5,-4.6,4.5,-11.3,-0.6,5.0,3.8,,*63
$GNGRS,071814.00,1,-0.5,27.3,-8.9,-27.0,4.8,-0.4,,,,,,*54
$GNGST,071814.00,41,,,,3.9,4.4,8.7*42
$GNZDA,071814.00,23,05,2025,00,00*72
$GNGBS,071814.00,3.9,4.4,8.7,,,,*51
$GNTXT,01,01,01,More than 100 frame errors, UART RX was disabled*70
$GNTXT,01,01,01,More than 100 frame errors, UART RX was disabled*70
$GNRMC,071816.00,A,0419.81754,S,05539.87386,E,0.122,,230525,,,D*76
$GNVTG,,T,,M,0.122,N,0.225,K,D*3C
$GNGNS,071816.00,0419.81754,S,05539.87386,E,DA,15,0.82,12.3,-47.6,,0000*64
$GNGGA,071816.00,0419.81754,S,05539.87386,E,2,12,0.82,12.3,M,-47.6,M,,0000*4F
$GNGSA,A,3,24,05,13,15,10,12,18,25,23,,,,1.66,0.82,1.45*1F
$GNGSA,A,3,75,71,72,76,65,77,,,,,,,1.66,0.82,1.45*14
$GPGSV,4,1,16,05,26,030,22,10,17,215,19,12,67,129,30,13,12,093,12*73
$GPGSV,4,2,16,15,43,119,28,18,28,308,26,23,60,223,25,24,26,165,15*73
$GPGSV,4,3,16,25,74,328,23,28,08,279,,29,20,358,,36,52,277,*7C
$GPGSV,4,4,16,40,86,351,,41,58,082,33,49,32,274,,50,10,089,*79
$GLGSV,3,1,09,65,38,168,31,66,02,202,,71,08,049,16,72,41,090,30*67
$GLGSV,3,2,09,75,25,165,28,76,68,242,22,77,35,312,19,87,07,351,*6A
$GLGSV,3,3,09,88,04,297,*54
$GNGLL,0419.81754,S,05539.87386,E,071816.00,A,D*6D
$GNGRS,071816.00,1,-0.5,-10.2,22.3,10.5,-7.4,4.3,2.3,4.4,3.2,,,*6F
$GNGRS,071816.00,1,-4.5,26.8,-5.8,-24.7,5.9,1.2,,,,,,*7A
b0@XQ
C
]+wc4<|JHyf{4V_!:R 
Y{>A&BG1H)ZpKLD
M#8KW_X))bXQrm$GNRMC,071818.00,A,0419.81764,S,05539.87378,E,0.099,,230525,,,D*7B
$GNVTG,,T,,M,0.099,N,0.184,K,D*35
$GNGNS,071818.00,0419.81764,S,05539.87378,E,DA,15,0.74,12.9,-47.6,,0000*6B
