$GNRMC,111256.00,A,0420.00592,S,05539.75176,E,0.403,,020625,,,A*77
$GNVTG,,T,,M,0.403,N,0.746,K,A*3F
$GNGGA,111256.00,0420.00592,S,05539.75176,E,1,12,0.81,16.2,M,-47.6,M,,*48
$GNGSA,A,3,32,29,26,28,18,16,31,27,,,,,1.98,0.81,1.81*10
$GNGSA,A,3,69,68,81,82,,,,,,,,,1.98,0.81,1.81*1F
$GPGSV,5,1,17,08,01,321,,10,19,355,18,16,25,252,22,18,32,072,20*7B
$GPGSV,5,2,17,23,04,033,,25,02,130,12,26,29,219,25,27,35,317,18*74
$GPGSV,5,3,17,28,43,161,25,29,21,146,25,31,28,193,25,32,68,355,24*77
$GPGSV,5,4,17,36,52,277,,40,84,353,,41,58,082,31,49,32,274,*7E
$GPGSV,5,5,17,50,10,089,*4A
$GLGSV,2,1,08,68,25,001,09,69,54,302,16,70,18,228,,79,12,151,19*61
$GLGSV,2,2,08,80,14,203,,81,23,128,19,82,49,074,16,83,30,007,*66
$GNGLL,0420.00592,S,05539.75176,E,111256.00,A,A*6A
$GNRMC,111257.00,A,0420.00522,S,05539.75188,E,0.730,,020625,,,A*7F
$GNVTG,,T,,M,0.730,N,1.352,K,A*3C
$GNGGA,111257.00,0420.00522,S,05539.75188,E,1,12,0.76,13.1,M,-47.6,M,,*4D
$GNGSA,A,3,32,29,26,28,18,16,31,27,,,,,1.94,0.76,1.78*12
$GNGSA,A,3,69,68,81,82,,,,,,,,,1.94,0.76,1.78*1D
$GPGSV,5,1,17,08,01,321,,10,19,355,16,16,25,252,21,18,32,072,17*72
$GPGSV,5,2,17,23,04,033,,25,02,130,10,26,29,219,22,27,35,317,15*7C
$GPGSV,5,3,17,28,43,161,25,29,21,146,22,31,28,193,26,32,68,355,24*73
$GPGSV,5,4,17,36,52,277,,40,84,353,,41,58,082,30,49,32,274,*7F
$GPGSV,5,5,17,50,10,089,*4A
$GLGSV,2,1,08,68,25,001,09,69,54,302,15,70,18,228,,79,12,151,17*6C
$GLGSV,2,2,08,80,14,203,,81,23,128,16,82,49,074,14,83,30,007,*6B
$GNGLL,0420.00522,S,05539.75188,E,111257.00,A,A*61
$GNRMC,111258.00,A,0420.00510,S,05539.75184,E,0.461,,020625,,,A*7A
$GNVTG,,T,,M,0.461,N,0.854,K,A*37
$GNGGA,111258.00,0420.00510,S,05539.75184,E,1,11,0.81,12.5,M,-47.6,M,,*41
$GNGSA,A,3,32,29,26,28,18,16,31,,,,,,1.98,0.81,1.81*15
$GNGSA,A,3,69,68,81,82,,,,,,,,,1.98,0.81,1.81*1F
$GPGSV,5,1,17,08,01,321,,10,19,355,12,16,25,252,19,18,32,072,18*72
$GPGSV,5,2,17,23,04,033,,25,02,130,11,26,29,219,23,27,35,317,*78
$GPGSV,5,3,17,28,43,161,26,29,21,146,21,31,28,193,26,32,68,355,23*74
$GPGSV,5,4,17,36,52,277,,40,84,353,,41,58,082,29,49,32,274,*77
$GPGSV,5,5,17,50,10,089,*4A
$GLGSV,2,1,08,68,25,001,12,69,54,302,20,70,18,228,,79,12,151,17*60
$GLGSV,2,2,08,80,14,203,,81,23,128,13,82,49,074,13,83,30,007,*69
$GNGLL,0420.00510,S,05539.75184,E,111258.00,A,A*63
$GNRMC,111259.00,A,0420.00534,S,05539.75190,E,0.352,,020625,,,A*7F
$GNVTG,,T,,M,0.352,N,0.653,K,A*39
$GNGGA,111259.00,0420.00534,S,05539.75190,E,1,11,0.81,13.4,M,-47.6,M,,*43
$GNGSA,A,3,32,29,26,28,18,16,31,,,,,,1.98,0.81,1.81*15
$GNGSA,A,3,69,68,81,82,,,,,,,,,1.98,0.81,1.81*1F
$GPGSV,5,1,17,08,01,321,,10,19,355,08,16,25,252,20,18,32,072,20*78
$GPGSV,5,2,17,23,04,033,,25,02,130,09,26,29,219,22,27,35,317,18*79
$GPGSV,5,3,17,28,43,161,26,29,21,146,25,31,28,193,26,32,68,355,25*76
$GPGSV,5,4,17,36,52,277,,40,84,353,,41,58,082,30,49,32,274,*7F
$GPGSV,5,5,17,50,10,089,*4A
$GLGSV,2,1,08,68,25,001,13,69,54,302,14,70,18,228,,79,12,151,16*67
$GLGSV,2,2,08,80,14,203,,81,23,128,17,82,49,074,17,83,30,007,*69
$GNGLL,0420.00534,S,05539.75190,E,111259.00,A,A*61
$GNRMC,111300.00,A,0420.00543,S,05539.75188,E,0.403,,020625,,,A*78
$GNVTG,,T,,M,0.403,N,0.747,K,A*3E
$GNGGA,111300.00,0420.00543,S,05539.75188,E,1,11,0.81,13.8,M,-47.6,M,,*4B
$GNGSA,A,3,32,29,26,28,18,16,31,,,,,,1.98,0.81,1.81*15
$GNGSA,A,3,69,68,81,82,,,,,,,,,1.98,0.81,1.81*1F
$GPGSV,5,1,17,08,01,321,,10,19,355,08,16,25,252,21,18,32,072,21*78
$GPGSV,5,2,17,23,04,033,,25,02,130,08,26,29,219,23,27,35,317,18*79
$GPGSV,5,3,17,28,43,161,31,29,21,146,27,31,28,193,27,32,68,355,26*70
$GPGSV,5,4,17,36,52,277,,40,84,353,,41,58,082,32,49,32,274,*7D
$GPGSV,5,5,17,50,10,089,*4A
$GLGSV,2,1,08,68,25,001,08,69,54,302,17,70,18,228,,79,12,151,19*61
$GLGSV,2,2,08,80,14,203,,81,23,128,18,82,49,074,19,83,30,007,*68
$GNGLL,0420.00543,S,05539.75188,E,111300.00,A,A*65
$GNRMC,111301.00,A,0420.00551,S,05539.75179,E,0.387,,020625,,,A*7F
$GNVTG,,T,,M,0.387,N,0.717,K,A*30
$GNGGA,111301.00,0420.00551,S,05539.75179,E,1,11,0.81,14.7,M,-47.6,M,,*4F
$GNGSA,A,3,32,29,26,28,18,16,31,,,,,,1.98,0.81,1.81*15
$GNGSA,A,3,69,68,81,82,,,,,,,,,1.98,0.81,1.81*1F
$GPGSV,5,1,17,08,01,321,,10,19,355,08,16,25,252,22,18,32,072,20*7A
$GPGSV,5,2,17,23,04,033,,25,02,130,13,26,29,219,26,27,35,317,19*77
$GPGSV,5,3,17,28,43,161,31,29,21,146,27,31,28,193,32,32,68,355,24*76
$GPGSV,5,4,17,36,52,277,,40,84,353,,41,58,082,32,49,32,274,*7D
$GPGSV,5,5,17,50,10,089,*4A
$GLGSV,2,1,08,68,25,001,10,69,54,302,16,70,18,228,,79,12,151,17*67
$GLGSV,2,2,08,80,14,203,,81,23,128,20,82,49,074,22,83,30,007,*6B
$GNGLL,0420.00551,S,05539.75179,E,111301.00,A,A*69
$GNRMC,111302.00,A,0420.00567,S,05539.75182,E,0.195,,020625,,,A*7C
$GNVTG,,T,,M,0.195,N,0.361,K,A*34
$GNGGA,111302.00,0420.00567,S,05539.75182,E,1,12,0.76,15.3,M,-47.6,M,,*43
$GNGSA,A,3,32,29,26,28,18,16,31,27,,,,,1.94,0.76,1.78*12
$GNGSA,A,3,69,68,81,82,,,,,,,,,1.94,0.76,1.78*1D
$GPGSV,5,1,17,08,01,321,,10,19,355,10,16,25,252,25,18,32,072,22*76
$GPGSV,5,2,17,23,04,033,,25,02,130,12,26,29,219,23,27,35,317,19*73
$GPGSV,5,3,17,28,43,161,38,29,21,146,27,31,28,193,32,32,68,355,25*7E
$GPGSV,5,4,17,36,52,277,,40,84,353,,41,58,082,31,49,32,274,*7E
$GPGSV,5,5,17,50,10,089,*4A
$GLGSV,2,1,08,68,25,001,08,69,54,302,18,70,18,228,,79,12,151,16*61
$GLGSV,2,2,08,80,14,203,,81,23,128,24,82,49,074,24,83,30,007,*69
$GNGLL,0420.00567,S,05539.75182,E,111302.00,A,A*6B
$GNRMC,111303.00,A,0420.00593,S,05539.75179,E,0.069,,020625,,,A*70
$GNVTG,,T,,M,0.069,N,0.127,K,A*36
$GNGGA,111303.00,0420.00593,S,05539.75179,E,1,12,0.76,15.9,M,-47.6,M,,*47
$GNGSA,A,3,32,29,26,28,18,16,31,27,,,,,1.94,0.76,1.78*12
$GNGSA,A,3,69,68,81,82,,,,,,,,,1.94,0.76,1.78*1D
$GPGSV,5,1,17,08,01,321,,10,19,355,09,16,25,252,25,18,32,072,24*78
$GPGSV,5,2,17,23,04,033,,25,02,130,10,26,29,219,23,27,35,317,19*71
$GPGSV,5,3,17,28,43,161,37,29,21,146,28,31,28,193,38,32,68,355,26*77
$GPGSV,5,4,17,36,52,277,,40,84,353,,41,58,082,32,49,32,274,*7D
$GPGSV,5,5,17,50,10,089,*4A
$GLGSV,2,1,08,68,25,001,11,69,54,302,20,70,18,228,,79,12,151,*65
$GLGSV,2,2,08,80,14,203,,81,23,128,25,82,49,074,26,83,30,007,*6A
$GNGLL,0420.00593,S,05539.75179,E,111303.00,A,A*65
$GNRMC,111304.00,A,0420.00612,S,05539.75189,E,0.397,,020625,,,A*70
$GNVTG,,T,,M,0.397,N,0.736,K,A*32
$GNGGA,111304.00,0420.00612,S,05539.75189,E,1,12,0.76,15.6,M,-47.6,M,,*4A
$GNGSA,A,3,32,29,26,28,18,16,31,27,,,,,1.94,0.76,1.78*12
$GNGSA,A,3,69,68,81,82,,,,,,,,,1.94,0.76,1.78*1D
$GPGSV,5,1,17,08,01,321,,10,19,355,08,16,25,252,24,18,32,072,23*7F
$GPGSV,5,2,17,23,04,033,,25,02,130,14,26,29,219,24,27,35,317,20*78
$GPGSV,5,3,17,28,43,161,35,29,21,146,17,31,28,193,34,32,68,355,26*75
$GPGSV,5,4,17,36,52,277,,40,84,353,,41,58,082,33,49,32,274,*7C
$GPGSV,5,5,17,50,10,089,*4A
$GLGSV,2,1,08,68,25,001,10,69,54,302,19,70,18,228,,79,12,150,22*6F
$GLGSV,2,2,08,80,14,203,,81,23,128,25,82,49,074,24,83,30,007,*68
$GNGLL,0420.00612,S,05539.75189,E,111304.00,A,A*67
$GNRMC,111305.00,A,0420.00650,S,05539.75194,E,0.121,,020625,,,A*74
$GNVTG,,T,,M,0.121,N,0.223,K,A*3C
$GNGGA,111305.00,0420.00650,S,05539.75194,E,1,12,0.76,16.3,M,-47.6,M,,*47
$GNGSA,A,3,32,29,26,28,18,16,31,27,,,,,1.94,0.76,1.78*12
$GNGSA,A,3,69,68,81,82,,,,,,,,,1.94,0.76,1.78*1D
$GPGSV,5,1,17,08,01,321,,10,19,355,08,16,25,252,23,18,32,072,21*7A
$GPGSV,5,2,17,23,04,033,,25,02,130,11,26,29,219,24,27,35,317,20*7D
$GPGSV,5,3,17,28,43,161,37,29,21,146,21,31,28,193,39,32,68,355,28*71
$GPGSV,5,4,17,36,52,277,,40,84,353,,41,58,082,32,49,32,274,*7D
$GPGSV,5,5,17,50,10,089,*4A
$GLGSV,2,1,08,68,25,001,09,69,54,302,17,70,18,228,,79,12,150,21*6A
$GLGSV,2,2,08,80,14,202,,81,23,128,25,82,49,074,25,83,30,007,*68
$GNGLL,0420.00650,S,05539.75194,E,111305.00,A,A*6C
$GNRMC,111306.00,A,0420.00666,S,05539.75186,E,0.197,,020625,,,A*7C
$GNVTG,,T,,M,0.197,N,0.364,K,A*33
$GNGGA,111306.00,0420.00666,S,05539.75186,E,1,12,0.76,16.2,M,-47.6,M,,*43
$GNGSA,A,3,32,29,26,28,18,16,31,27,,,,,1.94,0.76,1.78*12
$GNGSA,A,3,69,68,81,82,,,,,,,,,1.94,0.76,1.78*1D
$GPGSV,5,1,17,08,01,321,,10,19,355,09,16,25,252,22,18,32,072,19*71
$GPGSV,5,2,17,23,04,033,,25,02,130,09,26,29,219,24,27,35,317,19*7E
$GPGSV,5,3,17,28,43,161,37,29,21,146,22,31,28,193,39,32,68,355,30*7B
$GPGSV,5,4,17,36,52,277,,40,84,353,,41,58,082,32,49,32,274,*7D
$GPGSV,5,5,17,50,10,089,*4A
$GLGSV,2,1,08,68,25,001,11,69,54,302,16,70,18,228,,79,12,150,20*63
$GLGSV,2,2,08,80,14,202,,81,23,129,26,82,49,074,26,83,30,007,*69
$GNGLL,0420.00666,S,05539.75186,E,111306.00,A,A*69
$GNRMC,111307.00,A,0420.00685,S,05539.75172,E,0.071,,020625,,,A*72
$GNVTG,,T,,M,0.071,N,0.131,K,A*38
$GNGGA,111307.00,0420.00685,S,05539.75172,E,1,12,0.76,16.9,M,-47.6,M,,*4F
$GNGSA,A,3,32,29,26,28,18,16,31,27,,,,,1.94,0.76,1.78*12
$GNGSA,A,3,69,68,81,82,,,,,,,,,1.94,0.76,1.78*1D
$GPGSV,5,1,17,08,01,321,,10,19,355,,16,25,252,22,18,32,072,21*73
$GPGSV,5,2,17,23,04,033,,25,02,130,16,26,29,219,24,27,35,317,20*7A
$GPGSV,5,3,17,28,43,161,37,29,21,146,24,31,28,193,38,32,68,355,29*74
$GPGSV,5,4,17,36,52,277,,40,84,353,,41,58,082,31,49,32,274,*7E
$GPGSV,5,5,17,50,10,089,*4A
$GLGSV,2,1,08,68,25,001,10,69,54,302,18,70,18,228,,79,12,150,19*66
$GLGSV,2,2,08,80,14,202,19,81,23,129,27,82,50,076,27,83,30,007,*6B
$GNGLL,0420.00685,S,05539.75172,E,111307.00,A,A*6E
$GNRMC,111308.00,A,0420.00708,S,05539.75169,E,0.087,,020625,,,A*7A
$GNVTG,,T,,M,0.087,N,0.162,K,A*37
$GNGGA,111308.00,0420.00708,S,05539.75169,E,1,12,0.92,17.4,M,-47.6,M,,*48
$GNGSA,A,3,32,29,26,28,18,16,31,27,,,,,2.36,0.92,2.18*16
$GNGSA,A,3,69,68,81,82,,,,,,,,,2.36,0.92,2.18*19
$GPGSV,5,1,17,08,01,321,,10,19,355,,16,25,252,24,18,32,072,22*76
$GPGSV,5,2,17,23,04,033,,25,02,130,11,26,29,219,24,27,35,317,20*7D
$GPGSV,5,3,17,28,43,161,36,29,21,146,23,31,28,193,38,32,68,355,29*72
$GPGSV,5,4,17,36,52,277,,40,84,353,,41,58,082,32,49,32,274,*7D
$GPGSV,5,5,17,50,10,089,*4A
$GLGSV,2,1,08,68,25,001,12,69,54,302,17,70,18,228,,79,12,150,18*6A
$GLGSV,2,2,08,80,14,202,15,81,23,129,27,82,50,076,25,83,30,007,*65
$GNGLL,0420.00708,S,05539.75169,E,111308.00,A,A*6F
$GNRMC,111309.00,A,0420.00730,S,05539.75167,E,0.045,,020625,,,A*70
$GNVTG,,T,,M,0.045,N,0.084,K,A*30
$GNGGA,111309.00,0420.00730,S,05539.75167,E,1,12,0.76,17.7,M,-47.6,M,,*45
$GNGSA,A,3,32,29,26,28,18,16,31,27,,,,,1.94,0.76,1.78*12
$GNGSA,A,3,69,68,81,82,,,,,,,,,1.94,0.76,1.78*1D
$GPGSV,5,1,17,08,01,321,,10,19,355,,16,25,252,25,18,32,072,23*76
$GPGSV,5,2,17,23,04,033,13,25,02,130,09,26,29,219,23,27,35,317,21*70
$GPGSV,5,3,17,28,43,161,36,29,21,146,24,31,28,193,39,32,68,355,28*75
$GPGSV,5,4,17,36,52,277,,40,84,353,,41,58,082,31,49,32,274,*7E
$GPGSV,5,5,17,50,10,089,*4A
$GLGSV,2,1,08,68,25,001,10,69,54,302,17,70,18,228,,79,12,150,16*66
$GLGSV,2,2,08,80,14,202,17,81,23,129,28,82,50,076,25,83,30,007,*68
$GNGLL,0420.00730,S,05539.75167,E,111309.00,A,A*6B
$GNRMC,111310.00,A,0420.00747,S,05539.75169,E,0.193,,020625,,,A*7C
$GNVTG,,T,,M,0.193,N,0.358,K,A*38
$GNGGA,111310.00,0420.00747,S,05539.75169,E,1,12,0.76,17.7,M,-47.6,M,,*43
$GNGSA,A,3,32,29,26,28,18,16,31,27,,,,,1.94,0.76,1.78*12
$GNGSA,A,3,69,68,81,82,,,,,,,,,1.94,0.76,1.78*1D
$GPGSV,5,1,17,08,01,321,,10,19,355,,16,25,252,23,18,32,072,22*71
$GPGSV,5,2,17,23,04,033,13,25,02,130,18,26,29,219,22,27,35,317,21*71
$GPGSV,5,3,17,28,43,161,37,29,21,146,23,31,28,193,38,32,68,355,29*73
$GPGSV,5,4,17,36,52,277,,40,84,353,,41,58,082,31,49,32,274,*7E
$GPGSV,5,5,17,50,10,089,*4A
$GLGSV,2,1,08,68,25,001,11,69,54,302,16,70,18,228,,79,12,150,14*64
$GLGSV,2,2,08,80,14,202,18,81,23,129,27,82,50,076,25,83,30,007,*68
$GNGLL,0420.00747,S,05539.75169,E,111310.00,A,A*6D
$GNRMC,111311.00,A,0420.00763,S,05539.75179,E,0.497,,020625,,,A*7B
$GNVTG,,T,,M,0.497,N,0.921,K,A*3D
$GNGGA,111311.00,0420.00763,S,05539.75179,E,1,12,0.76,17.8,M,-47.6,M,,*4A
$GNGSA,A,3,32,29,26,28,18,16,31,27,,,,,1.94,0.76,1.78*12
$GNGSA,A,3,69,68,81,82,,,,,,,,,1.94,0.76,1.78*1D
$GPGSV,5,1,17,08,01,321,,10,19,355,,16,25,252,21,18,32,072,20*71
$GPGSV,5,2,17,23,04,033,11,25,02,130,17,26,29,219,21,27,35,317,19*74
$GPGSV,5,3,17,28,43,161,36,29,21,146,21,31,28,193,38,32,68,355,29*70
$GPGSV,5,4,17,36,52,277,,40,84,353,,41,58,082,32,49,32,274,*7D
$GPGSV,5,5,17,50,10,089,*4A
$GLGSV,2,1,08,68,25,001,15,69,54,302,17,70,18,228,,79,12,150,13*66
$GLGSV,2,2,08,80,14,202,17,81,23,129,26,82,50,076,26,83,30,007,*65
$GNGLL,0420.00763,S,05539.75179,E,111311.00,A,A*6B
$GNRMC,111312.00,A,0420.00776,S,05539.75178,E,0.058,,020625,,,A*7A
$GNVTG,,T,,M,0.058,N,0.108,K,A*39
$GNGGA,111312.00,0420.00776,S,05539.75178,E,1,12,0.76,18.0,M,-47.6,M,,*4B
$GNGSA,A,3,32,29,26,28,18,16,31,27,,,,,1.94,0.76,1.78*12
$GNGSA,A,3,69,68,81,82,,,,,,,,,1.94,0.76,1.78*1D
$GPGSV,5,1,17,08,01,321,,10,19,355,,16,25,252,21,18,32,072,18*7A
$GPGSV,5,2,17,23,04,033,11,25,02,130,10,26,29,219,25,27,35,317,19*77
$GPGSV,5,3,17,28,43,161,35,29,21,146,20,31,28,193,38,32,68,355,29*72
$GPGSV,5,4,17,36,52,277,,40,84,353,,41,58,082,30,49,32,274,*7F
$GPGSV,5,5,17,50,10,089,*4A
$GLGSV,2,1,08,68,25,001,13,69,54,302,15,70,18,228,,79,12,150,15*64
$GLGSV,2,2,08,80,14,202,16,81,23,129,26,82,50,076,26,83,30,007,*64
$GNGLL,0420.00776,S,05539.75178,E,111312.00,A,A*6D
$GNRMC,111313.00,A,0420.00793,S,05539.75173,E,0.116,,020625,,,A*70
$GNVTG,,T,,M,0.116,N,0.215,K,A*3D
$GNGGA,111313.00,0420.00793,S,05539.75173,E,1,12,0.76,18.2,M,-47.6,M,,*48
$GNGSA,A,3,32,29,26,28,18,16,31,27,,,,,1.94,0.76,1.78*12
$GNGSA,A,3,69,68,81,82,,,,,,,,,1.94,0.76,1.78*1D
$GPGSV,5,1,17,08,01,321,,10,19,355,,16,25,252,21,18,32,072,21*70
$GPGSV,5,2,17,23,04,033,12,25,02,130,10,26,29,219,26,27,35,317,20*7D
$GPGSV,5,3,17,28,43,161,34,29,21,146,22,31,28,193,38,32,68,355,30*79
$GPGSV,5,4,17,36,52,277,,40,84,353,,41,58,082,29,49,32,274,*77
$GPGSV,5,5,17,50,10,089,*4A
$GLGSV,2,1,08,68,25,001,12,69,54,302,15,70,18,228,,79,12,150,15*65
$GLGSV,2,2,08,80,14,202,16,81,23,129,27,82,50,076,26,83,30,007,*65
$GNGLL,0420.00793,S,05539.75173,E,111313.00,A,A*6C
$GNRMC,111314.00,A,0420.00812,S,05539.75167,E,0.095,,020625,,,A*7E
$GNVTG,,T,,M,0.095,N,0.176,K,A*31
$GNGGA,111314.00,0420.00812,S,05539.75167,E,1,12,0.76,18.7,M,-47.6,M,,*49
$GNGSA,A,3,32,29,26,28,18,16,31,27,,,,,1.94,0.76,1.78*12
$GNGSA,A,3,69,68,81,82,,,,,,,,,1.94,0.76,1.78*1D
$GPGSV,5,1,17,08,01,321,,10,19,355,,16,25,252,23,18,32,072,19*79
$GPGSV,5,2,17,23,04,033,10,25,02,130,11,26,29,219,26,27,35,317,20*7E
$GPGSV,5,3,17,28,43,161,35,29,21,146,22,31,28,193,38,32,68,355,30*78
$GPGSV,5,4,17,36,52,277,,40,84,353,,41,58,082,30,49,32,274,*7F
$GPGSV,5,5,17,50,10,089,*4A
$GLGSV,2,1,08,68,25,001,09,69,54,302,19,70,18,228,,79,12,150,14*62
$GLGSV,2,2,08,80,14,202,17,81,23,129,27,82,50,076,26,83,30,007,*64
$GNGLL,0420.00812,S,05539.75167,E,111314.00,A,A*68
$GNRMC,111315.00,A,0420.00830,S,05539.75158,E,0.106,,020625,,,A*78
$GNVTG,,T,,M,0.106,N,0.196,K,A*34
$GNGGA,111315.00,0420.00830,S,05539.75158,E,1,12,0.76,19.4,M,-47.6,M,,*46
$GNGSA,A,3,32,29,26,28,18,16,31,27,,,,,1.94,0.76,1.78*12
$GNGSA,A,3,69,68,81,82,,,,,,,,,1.94,0.76,1.78*1D
$GPGSV,5,1,17,08,01,321,,10,19,355,,16,25,252,24,18,32,072,18*7F
$GPGSV,5,2,17,23,04,033,08,25,02,130,13,26,29,219,26,27,35,317,19*7F
$GPGSV,5,3,17,28,43,161,35,29,21,146,24,31,28,193,37,32,68,355,29*79
$GPGSV,5,4,17,36,52,277,,40,84,353,,41,58,082,31,49,32,274,*7E
$GPGSV,5,5,17,50,10,089,*4A
$GLGSV,2,1,08,68,25,001,12,69,54,302,20,70,18,228,,79,12,150,14*62
$GLGSV,2,2,08,80,14,202,16,81,23,129,27,82,50,076,25,83,30,007,*66
$GNGLL,0420.00830,S,05539.75158,E,111315.00,A,A*65
$GNRMC,111316.00,A,0420.00846,S,05539.75157,E,0.129,,020625,,,A*78
$GNVTG,,T,,M,0.129,N,0.239,K,A*3F
$GNGGA,111316.00,0420.00846,S,05539.75157,E,1,12,0.76,19.8,M,-47.6,M,,*47
$GNGSA,A,3,32,29,26,28,18,16,31,27,,,,,1.94,0.76,1.78*12
$GNGSA,A,3,69,68,81,82,,,,,,,,,1.94,0.76,1.78*1D
$GPGSV,5,1,17,08,01,321,,10,19,355,,16,25,252,23,18,32,072,18*78
$GPGSV,5,2,17,23,04,033,08,25,02,130,10,26,29,219,25,27,35,317,18*7E
$GPGSV,5,3,17,28,43,161,35,29,21,146,25,31,28,193,38,32,68,355,29*77
$GPGSV,5,4,17,36,52,277,,40,84,353,,41,58,082,31,49,32,274,*7E
$GPGSV,5,5,17,50,10,089,*4A
$GLGSV,2,1,08,68,25,001,10,69,54,302,19,70,18,228,,79,12,150,15*6B
$GLGSV,2,2,08,80,14,202,18,81,23,129,26,82,50,076,24,83,30,007,*68
$GNGLL,0420.00846,S,05539.75157,E,111316.00,A,A*68
$GNRMC,111317.00,A,0420.00861,S,05539.75158,E,0.202,,020625,,,A*79
$GNVTG,,T,,M,0.202,N,0.374,K,A*3D
$GNGGA,111317.00,0420.00861,S,05539.75158,E,1,12,0.76,20.0,M,-47.6,M,,*4E
$GNGSA,A,3,32,29,26,28,18,16,31,27,,,,,1.94,0.76,1.78*12
$GNGSA,A,3,69,68,81,82,,,,,,,,,1.94,0.76,1.78*1D
$GPGSV,5,1,17,08,01,321,,10,19,355,,16,25,252,22,18,32,072,18*79
$GPGSV,5,2,17,23,04,033,09,25,02,130,10,26,29,219,24,27,35,317,19*7F
$GPGSV,5,3,17,28,43,161,35,29,21,146,24,31,28,193,37,32,68,355,29*79
$GPGSV,5,4,17,36,52,277,,40,84,353,,41,58,082,31,49,32,274,*7E
$GPGSV,5,5,17,50,10,089,*4A
$GLGSV,2,1,08,68,25,001,11,69,54,302,16,70,18,228,,79,12,150,14*64
$GLGSV,2,2,08,80,14,202,18,81,23,129,25,82,50,076,23,83,30,007,*6C
$GNGLL,0420.00861,S,05539.75158,E,111317.00,A,A*63
$GNRMC,111318.00,A,0420.00873,S,05539.75158,E,0.109,,020625,,,A*7D
$GNVTG,,T,,M,0.109,N,0.201,K,A*36
$GNGGA,111318.00,0420.00873,S,05539.75158,E,1,12,0.76,19.9,M,-47.6,M,,*41
$GNGSA,A,3,32,29,26,28,18,16,31,27,,,,,1.94,0.76,1.78*12
$GNGSA,A,3,69,68,81,82,,,,,,,,,1.94,0.76,1.78*1D
$GPGSV,5,1,17,08,01,321,,10,19,355,,16,25,252,22,18,32,072,19*78
$GPGSV,5,2,17,23,04,033,09,25,02,130,12,26,29,219,26,27,35,317,19*7F
$GPGSV,5,3,17,28,43,161,35,29,21,146,21,31,28,193,38,32,68,355,30*7B
$GPGSV,5,4,17,36,52,277,,40,84,353,,41,58,082,31,49,32,274,*7E
$GPGSV,5,5,17,50,10,089,*4A
$GLGSV,2,1,08,68,25,001,08,69,54,302,14,70,18,228,,79,12,150,13*69
$GLGSV,2,2,08,80,14,202,16,81,23,129,25,82,50,076,22,83,30,007,*63
$GNGLL,0420.00873,S,05539.75158,E,111318.00,A,A*6F
$GNRMC,111319.00,A,0420.00887,S,05539.75159,E,0.041,,020625,,,A*7B
$GNVTG,,T,,M,0.041,N,0.076,K,A*39
$GNGGA,111319.00,0420.00887,S,05539.75159,E,1,12,0.76,19.9,M,-47.6,M,,*4A
$GNGSA,A,3,32,29,26,28,18,16,31,27,,,,,1.94,0.76,1.78*12
$GNGSA,A,3,69,68,81,82,,,,,,,,,1.94,0.76,1.78*1D
$GPGSV,5,1,17,08,01,321,,10,19,355,,16,25,252,24,18,32,072,18*7F
$GPGSV,5,2,17,23,04,033,,25,02,130,14,26,29,219,27,27,35,317,18*70
$GPGSV,5,3,17,28,43,161,35,29,21,146,21,31,28,193,38,32,68,355,29*73
$GPGSV,5,4,17,36,52,277,,40,84,353,,41,58,082,31,49,32,274,*7E
$GPGSV,5,5,17,50,10,089,*4A
$GLGSV,2,1,08,68,25,001,11,69,54,302,14,70,18,228,,79,12,150,13*61
$GLGSV,2,2,08,80,14,202,14,81,23,129,25,82,50,076,21,83,30,007,*62
$GNGLL,0420.00887,S,05539.75159,E,111319.00,A,A*64
$GNRMC,111320.00,A,0420.00896,S,05539.75158,E,0.161,,020625,,,A*73
$GNVTG,,T,,M,0.161,N,0.298,K,A*38
$GNGGA,111320.00,0420.00896,S,05539.75158,E,1,12,0.76,19.9,M,-47.6,M,,*41
$GNGSA,A,3,32,29,26,28,18,16,31,27,,,,,1.94,0.76,1.78*12
$GNGSA,A,3,69,68,81,82,,,,,,,,,1.94,0.76,1.78*1D
$GPGSV,5,1,17,08,01,321,,10,19,355,,16,25,252,24,18,32,072,18*7F
$GPGSV,5,2,17,23,04,033,,25,02,130,07,26,29,219,26,27,35,317,19*72
$GPGSV,5,3,17,28,43,161,35,29,21,146,21,31,28,193,38,32,68,355,30*7B
$GPGSV,5,4,17,36,52,277,,40,84,353,,41,58,082,32,49,32,274,*7D
$GPGSV,5,5,17,50,10,089,*4A
$GLGSV,2,1,08,68,25,001,10,69,54,302,16,70,18,228,,79,12,150,11*60
$GLGSV,2,2,08,80,14,202,14,81,23,129,23,82,50,076,24,83,30,007,21*62
$GNGLL,0420.00896,S,05539.75158,E,111320.00,A,A*6F
$GNRMC,111321.00,A,0420.00910,S,05539.75148,E,0.392,,020625,,,A*72
$GNVTG,,T,,M,0.392,N,0.726,K,A*36
$GNGGA,111321.00,0420.00910,S,05539.75148,E,1,12,0.76,20.5,M,-47.6,M,,*48
$GNGSA,A,3,32,29,26,28,18,16,31,27,,,,,1.94,0.76,1.78*12
$GNGSA,A,3,69,68,81,82,,,,,,,,,1.94,0.76,1.78*1D
$GPGSV,5,1,17,08,01,321,,10,19,355,,16,25,252,24,18,32,072,17*70
$GPGSV,5,2,17,23,04,033,,25,02,130,09,26,29,219,26,27,35,317,20*76
$GPGSV,5,3,17,28,43,161,35,29,21,146,21,31,28,193,38,32,68,355,29*73
$GPGSV,5,4,17,36,52,277,,40,84,353,,41,58,082,32,49,32,274,*7D
$GPGSV,5,5,17,50,10,089,*4A
$GLGSV,2,1,08,68,25,001,09,69,54,302,16,70,18,228,,79,12,150,11*68
$GLGSV,2,2,08,80,14,202,13,81,23,129,23,82,50,076,24,83,30,007,20*64
$GNGLL,0420.00910,S,05539.75148,E,111321.00,A,A*60
$GNRMC,111322.00,A,0420.00925,S,05539.75151,E,0.106,,020625,,,A*70
$GNVTG,,T,,M,0.106,N,0.197,K,A*35
$GNGGA,111322.00,0420.00925,S,05539.75151,E,1,12,0.76,20.6,M,-47.6,M,,*46
$GNGSA,A,3,32,29,26,28,18,16,31,27,,,,,1.94,0.76,1.78*12
$GNGSA,A,3,69,68,81,82,,,,,,,,,1.94,0.76,1.78*1D
$GPGSV,5,1,17,08,01,321,,10,19,355,,16,25,252,25,18,32,072,17*71
$GPGSV,5,2,17,23,04,033,,25,02,130,12,26,29,219,26,27,35,317,21*7D
$GPGSV,5,3,17,28,43,161,34,29,21,146,19,31,28,193,37,32,68,355,30*7E
$GPGSV,5,4,17,36,52,277,,40,84,353,,41,58,082,31,49,32,274,*7E
$GPGSV,5,5,17,50,10,089,*4A
$GLGSV,2,1,08,68,25,001,08,69,54,302,16,70,18,228,,79,12,150,10*68
$GLGSV,2,2,08,80,14,202,15,81,23,129,23,82,50,076,22,83,30,007,18*6F
$GNGLL,0420.00925,S,05539.75151,E,111322.00,A,A*6D
$GNRMC,111323.00,A,0420.00949,S,05539.75160,E,0.108,,020625,,,A*77
$GNVTG,,T,,M,0.108,N,0.200,K,A*36
$GNGGA,111323.00,0420.00949,S,05539.75160,E,1,12,0.76,21.1,M,-47.6,M,,*49
$GNGSA,A,3,32,29,26,28,18,16,31,27,,,,,1.94,0.76,1.78*12
$GNGSA,A,3,69,68,81,82,,,,,,,,,1.94,0.76,1.78*1D
$GPGSV,5,1,17,08,01,321,,10,19,355,,16,25,252,24,18,32,072,19*7E
$GPGSV,5,2,17,23,04,033,,25,02,130,13,26,29,219,26,27,35,317,23*7E
$GPGSV,5,3,17,28,43,161,34,29,21,146,19,31,28,193,37,32,68,355,29*76
$GPGSV,5,4,17,36,52,277,,40,84,353,,41,58,082,31,49,32,274,*7E
$GPGSV,5,5,17,50,10,089,*4A
$GLGSV,2,1,08,68,25,001,11,69,54,302,14,70,18,228,,79,12,150,10*62
$GLGSV,2,2,08,80,14,202,14,81,23,129,23,82,50,076,21,83,30,007,18*6D
$GNGLL,0420.00949,S,05539.75160,E,111323.00,A,A*64
$GNRMC,111324.00,A,0420.00972,S,05539.75158,E,0.342,,020625,,,A*7F
$GNVTG,,T,,M,0.342,N,0.634,K,A*39
$GNGGA,111324.00,0420.00972,S,05539.75158,E,1,12,0.76,21.6,M,-47.6,M,,*4A
$GNGSA,A,3,32,29,26,28,18,16,31,27,,,,,1.94,0.76,1.78*12
$GNGSA,A,3,69,68,81,82,,,,,,,,,1.94,0.76,1.78*1D
$GPGSV,5,1,17,08,01,321,,10,19,355,,16,25,252,24,18,32,072,19*7E
$GPGSV,5,2,17,23,04,033,,25,02,130,17,26,29,219,27,27,35,317,24*7C
$GPGSV,5,3,17,28,43,161,34,29,21,146,20,31,28,193,37,32,68,355,29*7C
$GPGSV,5,4,17,36,52,277,,40,84,353,,41,58,082,30,49,32,274,*7F
$GPGSV,5,5,17,50,10,089,*4A
$GLGSV,2,1,08,68,25,001,10,69,54,302,13,70,18,228,,79,12,150,09*6C
$GLGSV,2,2,08,80,14,202,16,81,23,129,23,82,50,076,21,83,30,007,19*6E
$GNGLL,0420.00972,S,05539.75158,E,111324.00,A,A*60
$GNRMC,111325.00,A,0420.00995,S,05539.75156,E,0.302,,020625,,,A*7D
$GNVTG,,T,,M,0.302,N,0.560,K,A*3F
$GNGGA,111325.00,0420.00995,S,05539.75156,E,1,12,0.76,22.2,M,-47.6,M,,*4B
$GNGSA,A,3,32,29,26,28,18,16,31,27,,,,,1.94,0.76,1.78*12
$GNGSA,A,3,69,68,81,82,,,,,,,,,1.94,0.76,1.78*1D
$GPGSV,5,1,17,08,01,321,,10,19,355,,16,25,252,26,18,32,072,19*7C
$GPGSV,5,2,17,23,04,033,19,25,02,130,14,26,29,219,27,27,35,317,24*77
$GPGSV,5,3,17,28,43,161,34,29,21,146,19,31,28,193,37,32,68,355,29*76
$GPGSV,5,4,17,36,52,277,,40,84,353,,41,58,082,30,49,32,274,*7F
$GPGSV,5,5,17,50,10,089,*4A
$GLGSV,2,1,08,68,25,001,10,69,54,302,15,70,18,228,,79,12,150,08*6B
$GLGSV,2,2,08,80,14,202,14,81,23,129,22,82,50,076,22,83,30,007,20*64
$GNGLL,0420.00995,S,05539.75156,E,111325.00,A,A*66
$GNRMC,111326.00,A,0420.01005,S,05539.75161,E,0.170,,020625,,,A*7C
$GNVTG,,T,,M,0.170,N,0.314,K,A*3D
$GNGGA,111326.00,0420.01005,S,05539.75161,E,1,12,0.76,22.1,M,-47.6,M,,*4E
$GNGSA,A,3,32,29,26,28,18,16,31,27,,,,,1.94,0.76,1.78*12
$GNGSA,A,3,69,68,81,82,,,,,,,,,1.94,0.76,1.78*1D
$GPGSV,5,1,17,08,01,321,,10,19,355,,16,25,252,26,18,32,072,17*72
$GPGSV,5,2,17,23,04,033,17,25,02,130,10,26,29,219,26,27,35,317,23*7B
$GPGSV,5,3,17,28,43,161,34,29,21,146,19,31,28,193,37,32,68,355,28*77
$GPGSV,5,4,17,36,52,277,,40,84,353,,41,58,082,30,49,32,274,*7F
$GPGSV,5,5,17,50,10,089,*4A
$GLGSV,2,1,08,68,25,001,10,69,54,302,17,70,18,228,,79,12,150,11*61
$GLGSV,2,2,08,80,14,202,13,81,23,129,21,82,50,076,22,83,30,007,21*61
$GNGLL,0420.01005,S,05539.75161,E,111326.00,A,A*60
$GNRMC,111327.00,A,0420.01009,S,05539.75165,E,0.191,,020625,,,A*7A
$GNVTG,,T,,M,0.191,N,0.354,K,A*36
$GNGGA,111327.00,0420.01009,S,05539.75165,E,1,12,0.76,21.8,M,-47.6,M,,*4D
$GNGSA,A,3,32,29,26,28,18,16,31,27,,,,,1.94,0.76,1.78*12
$GNGSA,A,3,69,68,81,82,,,,,,,,,1.94,0.76,1.78*1D
$GPGSV,5,1,17,08,01,321,,10,19,355,,16,25,252,25,18,32,072,18*7E
$GPGSV,5,2,17,23,04,033,14,25,02,130,14,26,29,219,27,27,35,317,22*7C
$GPGSV,5,3,17,28,43,161,35,29,21,146,17,31,28,193,36,32,68,355,28*79
$GPGSV,5,4,17,36,52,277,,40,84,353,,41,58,082,32,49,32,274,*7D
$GPGSV,5,5,17,50,10,089,*4A
$GLGSV,2,1,08,68,25,001,10,69,54,302,16,70,18,228,,79,12,150,*60
$GLGSV,2,2,08,80,14,202,12,81,23,129,23,82,50,076,21,83,30,007,21*61
$GNGLL,0420.01009,S,05539.75165,E,111327.00,A,A*69
$GNRMC,111328.00,A,0420.01022,S,05539.75173,E,0.298,,020625,,,A*71
$GNVTG,,T,,M,0.298,N,0.551,K,A*3F
$GNGGA,111328.00,0420.01022,S,05539.75173,E,1,12,0.76,22.0,M,-47.6,M,,*47
$GNGSA,A,3,32,29,26,28,18,16,31,27,,,,,1.93,0.76,1.78*15
$GNGSA,A,3,69,68,81,82,,,,,,,,,1.93,0.76,1.78*1A
$GPGSV,5,1,17,08,01,321,,10,19,355,,16,25,252,25,18,32,072,18*7E
$GPGSV,5,2,17,23,04,033,13,25,02,130,13,26,29,219,28,27,35,317,21*70
$GPGSV,5,3,17,28,43,161,34,29,21,146,19,31,28,193,37,32,68,355,29*76
$GPGSV,5,4,17,36,52,277,,40,84,353,,41,58,082,32,49,32,274,*7D
$GPGSV,5,5,17,50,10,089,*4A
$GLGSV,2,1,08,68,25,001,11,69,54,302,17,70,18,228,,79,12,150,*60
$GLGSV,2,2,08,80,14,202,11,81,23,129,24,82,50,076,22,83,30,007,21*66
$GNGLL,0420.01022,S,05539.75173,E,111328.00,A,A*68
$GNRMC,111329.00,A,0420.01039,S,05539.75180,E,0.192,,020625,,,A*7F
$GNVTG,,T,,M,0.192,N,0.355,K,A*34
$GNGGA,111329.00,0420.01039,S,05539.75180,E,1,12,0.76,22.5,M,-47.6,M,,*45
$GNGSA,A,3,32,29,26,28,18,16,31,27,,,,,1.93,0.76,1.78*15
$GNGSA,A,3,69,68,81,82,,,,,,,,,1.93,0.76,1.78*1A
$GPGSV,5,1,17,08,01,321,,10,19,355,,16,25,251,25,18,32,072,16*73
$GPGSV,5,2,17,23,04,033,12,25,02,130,14,26,29,219,28,27,35,317,21*76
$GPGSV,5,3,17,28,43,161,33,29,21,146,21,31,28,193,37,32,68,355,29*7A
$GPGSV,5,4,17,36,52,277,,40,84,353,,41,58,082,32,49,32,274,*7D
$GPGSV,5,5,17,50,10,089,*4A
$GLGSV,2,1,08,68,25,001,13,69,54,302,16,70,18,228,,79,12,150,*63
$GLGSV,2,2,08,80,14,202,12,81,23,129,22,82,50,076,22,83,30,007,20*62
$GNGLL,0420.01039,S,05539.75180,E,111329.00,A,A*6F
$GNRMC,111330.00,A,0420.01046,S,05539.75187,E,0.053,,020625,,,A*74
$GNVTG,,T,,M,0.053,N,0.099,K,A*3B
$GNGGA,111330.00,0420.01046,S,05539.75187,E,1,12,0.76,22.6,M,-47.6,M,,*41
$GNGSA,A,3,32,29,26,28,18,16,31,27,,,,,1.93,0.76,1.78*15
$GNGSA,A,3,69,68,81,82,,,,,,,,,1.93,0.76,1.78*1A
$GPGSV,5,1,17,08,01,321,,10,19,355,,16,25,251,25,18,32,072,14*71
$GPGSV,5,2,17,23,04,033,10,25,02,130,13,26,29,219,27,27,35,317,20*7D
$GPGSV,5,3,17,28,43,161,33,29,21,146,21,31,28,193,37,32,68,355,29*7A
$GPGSV,5,4,17,36,52,277,,40,84,353,,41,58,082,32,49,32,274,*7D
$GPGSV,5,5,17,50,10,089,*4A
$GLGSV,2,1,08,68,25,001,10,69,54,302,15,70,18,228,,79,12,150,*63
$GLGSV,2,2,08,80,14,202,12,81,23,129,22,82,50,076,22,83,30,007,22*60
$GNGLL,0420.01046,S,05539.75187,E,111330.00,A,A*68
$GNRMC,111331.00,A,0420.01056,S,05539.75187,E,0.042,,020625,,,A*74
$GNVTG,,T,,M,0.042,N,0.077,K,A*3B
$GNGGA,111331.00,0420.01056,S,05539.75187,E,1,12,0.76,22.8,M,-47.6,M,,*4F
$GNGSA,A,3,32,29,26,28,18,16,31,27,,,,,1.93,0.76,1.78*15
$GNGSA,A,3,69,68,81,82,,,,,,,,,1.93,0.76,1.78*1A
$GPGSV,5,1,17,08,01,321,,10,19,355,,16,25,251,24,18,32,073,13*76
$GPGSV,5,2,17,23,04,033,10,25,02,130,10,26,29,219,28,27,35,317,20*71
$GPGSV,5,3,17,28,43,161,33,29,21,146,22,31,28,193,37,32,68,355,28*78
$GPGSV,5,4,17,36,52,277,,40,84,353,,41,58,082,31,49,32,274,*7E
$GPGSV,5,5,17,50,10,089,*4A
$GLGSV,2,1,08,68,25,001,08,69,54,302,17,70,18,228,,79,12,150,*68
$GLGSV,2,2,08,80,14,202,11,81,23,129,20,82,50,076,21,83,30,007,22*62
$GNGLL,0420.01056,S,05539.75187,E,111331.00,A,A*68
$GNRMC,111332.00,A,0420.01055,S,05539.75193,E,0.064,,020625,,,A*75
$GNVTG,,T,,M,0.064,N,0.118,K,A*37
$GNGGA,111332.00,0420.01055,S,05539.75193,E,1,11,0.92,22.6,M,-47.6,M,,*4D
$GNGSA,A,3,32,29,26,28,18,16,31,27,,,,,2.37,0.92,2.18*17
$GNGSA,A,3,69,81,82,,,,,,,,,,2.37,0.92,2.18*16
$GPGSV,5,1,17,08,01,321,,10,19,355,,16,25,251,24,18,32,073,15*70
$GPGSV,5,2,17,23,04,033,10,25,02,130,10,26,29,219,29,27,35,317,20*70
$GPGSV,5,3,17,28,43,161,34,29,21,146,21,31,28,193,37,32,68,355,27*73
$GPGSV,5,4,17,36,52,277,,40,84,353,,41,58,082,32,49,32,274,*7D
$GPGSV,5,5,17,50,10,089,*4A
$GLGSV,2,1,08,68,25,001,07,69,54,302,15,70,18,228,,79,12,150,*65
$GLGSV,2,2,08,80,14,202,08,81,23,129,20,82,50,076,19,83,30,007,20*63
$GNGLL,0420.01055,S,05539.75193,E,111332.00,A,A*6D
$GNRMC,111333.00,A,0420.01061,S,05539.75198,E,0.084,,020625,,,A*76
$GNVTG,,T,,M,0.084,N,0.155,K,A*30
$GNGGA,111333.00,0420.01061,S,05539.75198,E,1,12,0.76,22.7,M,-47.6,M,,*48
$GNGSA,A,3,32,29,26,28,18,16,31,27,,,,,1.93,0.76,1.78*15
$GNGSA,A,3,69,68,81,82,,,,,,,,,1.93,0.76,1.78*1A
$GPGSV,5,1,17,08,01,321,,10,19,355,,16,25,251,25,18,32,073,15*71
$GPGSV,5,2,17,23,04,033,09,25,02,130,12,26,29,219,28,27,35,317,20*7B
$GPGSV,5,3,17,28,43,161,34,29,21,146,22,31,28,193,37,32,68,355,26*71
$GPGSV,5,4,17,36,52,277,,40,84,353,,41,58,082,33,49,32,274,*7C
$GPGSV,5,5,17,50,10,089,*4A
$GLGSV,2,1,08,68,25,001,10,69,54,302,18,70,18,228,,79,12,150,*6E
$GLGSV,2,2,08,80,14,202,,81,23,129,20,82,50,076,20,83,30,007,19*6B
$GNGLL,0420.01061,S,05539.75198,E,111333.00,A,A*60
$GNRMC,111334.00,A,0420.01076,S,05539.75204,E,0.330,,020625,,,A*7D
$GNVTG,,T,,M,0.330,N,0.611,K,A*3B
$GNGGA,111334.00,0420.01076,S,05539.75204,E,1,12,0.76,22.9,M,-47.6,M,,*41
$GNGSA,A,3,32,29,26,28,18,16,31,27,,,,,1.93,0.76,1.78*15
$GNGSA,A,3,69,68,81,82,,,,,,,,,1.93,0.76,1.78*1A
$GPGSV,5,1,17,08,01,321,,10,19,355,,16,25,251,25,18,32,073,17*73
$GPGSV,5,2,17,23,04,033,09,25,02,130,16,26,29,219,27,27,35,317,19*7A
$GPGSV,5,3,17,28,43,161,31,29,21,146,22,31,28,193,37,32,68,355,27*75
$GPGSV,5,4,17,36,52,277,,40,84,353,,41,58,082,32,49,32,274,*7D
$GPGSV,5,5,17,50,10,089,*4A
$GLGSV,2,1,08,68,25,001,12,69,54,302,17,70,18,228,,79,12,150,*63
$GLGSV,2,2,08,80,14,202,,81,23,129,21,82,50,076,20,83,30,007,18*6B
$GNGLL,0420.01076,S,05539.75204,E,111334.00,A,A*67
$GNRMC,111335.00,A,0420.01083,S,05539.75208,E,0.099,,020625,,,A*7A
$GNVTG,,T,,M,0.099,N,0.183,K,A*37
$GNGGA,111335.00,0420.01083,S,05539.75208,E,1,12,0.76,23.0,M,-47.6,M,,*4E
$GNGSA,A,3,32,29,26,28,18,16,31,27,,,,,1.93,0.76,1.78*15
$GNGSA,A,3,69,68,81,82,,,,,,,,,1.93,0.76,1.78*1A
$GPGSV,5,1,17,08,01,321,,10,19,355,,16,25,251,25,18,32,073,19*7D
$GPGSV,5,2,17,23,04,033,08,25,02,130,10,26,29,219,27,27,35,317,18*7C
$GPGSV,5,3,17,28,43,161,32,29,21,146,22,31,28,193,37,32,68,355,27*76
$GPGSV,5,4,17,36,52,277,,40,84,353,,41,58,082,30,49,32,274,*7F
$GPGSV,5,5,17,50,10,089,*4A
$GLGSV,2,1,08,68,25,001,08,69,54,302,13,70,18,228,,79,12,150,*6C
$GLGSV,2,2,08,80,14,202,,81,23,129,20,82,50,076,20,83,30,007,19*6B
$GNGLL,0420.01083,S,05539.75208,E,111335.00,A,A*60
$GNRMC,111336.00,A,0420.01108,S,05539.75198,E,0.337,,020625,,,A*76
$GNVTG,,T,,M,0.337,N,0.623,K,A*3D
$GNGGA,111336.00,0420.01108,S,05539.75198,E,1,12,0.76,23.9,M,-47.6,M,,*4C
$GNGSA,A,3,32,29,26,28,18,16,31,27,,,,,1.93,0.76,1.78*15
$GNGSA,A,3,69,68,81,82,,,,,,,,,1.93,0.76,1.78*1A
$GPGSV,5,1,17,08,01,321,,10,19,355,,16,25,251,25,18,32,073,19*7D
$GPGSV,5,2,17,23,04,033,07,25,02,130,14,26,29,219,27,27,35,317,18*77
$GPGSV,5,3,17,28,43,161,33,29,21,146,23,31,28,193,37,32,68,355,27*76
$GPGSV,5,4,17,36,52,277,,40,84,353,,41,58,082,30,49,32,274,*7F
$GPGSV,5,5,17,50,10,089,*4A
$GLGSV,2,1,08,68,25,001,09,69,54,302,12,70,18,228,,79,12,150,*6C
$GLGSV,2,2,08,80,14,202,,81,23,129,18,82,50,076,20,83,30,007,20*6A
$GNGLL,0420.01108,S,05539.75198,E,111336.00,A,A*6B
$GNRMC,111337.00,A,0420.01121,S,05539.75200,E,0.121,,020625,,,A*7B
$GNVTG,,T,,M,0.121,N,0.223,K,A*3C
$GNGGA,111337.00,0420.01121,S,05539.75200,E,1,11,0.78,24.2,M,-47.6,M,,*45
$GNGSA,A,3,32,29,26,28,18,16,31,27,,,,,2.05,0.78,1.90*11
$GNGSA,A,3,68,81,82,,,,,,,,,,2.05,0.78,1.90*11
$GPGSV,5,1,17,08,01,321,,10,19,355,,16,25,251,25,18,32,073,18*7C
$GPGSV,5,2,17,23,04,033,08,25,02,130,10,26,29,219,27,27,35,317,18*7C
$GPGSV,5,3,17,28,43,161,33,29,21,146,24,31,28,193,37,32,68,355,27*71
$GPGSV,5,4,17,36,52,277,,40,84,353,,41,58,082,31,49,32,274,*7E
$GPGSV,5,5,17,50,10,089,*4A
$GLGSV,2,1,08,68,25,001,11,69,54,302,10,70,18,228,,79,12,150,*67
$GLGSV,2,2,08,80,14,202,,81,23,129,17,82,50,076,21,83,30,007,21*65
$GNGLL,0420.01121,S,05539.75200,E,111337.00,A,A*63
$GNRMC,111338.00,A,0420.01132,S,05539.75208,E,0.229,,020625,,,A*75
$GNVTG,,T,,M,0.229,N,0.425,K,A*37
$GNGGA,111338.00,0420.01132,S,05539.75208,E,1,12,0.76,24.3,M,-47.6,M,,*4C
$GNGSA,A,3,32,29,26,28,18,16,31,27,,,,,1.93,0.76,1.78*15
$GNGSA,A,3,69,68,81,82,,,,,,,,,1.93,0.76,1.78*1A
$GPGSV,5,1,17,08,01,321,,10,19,355,,16,25,251,25,18,32,073,19*7D
$GPGSV,5,2,17,23,04,033,10,25,02,130,12,26,29,219,27,27,35,317,20*7C
$GPGSV,5,3,17,28,43,161,33,29,21,146,23,31,28,193,37,32,68,355,25*74
$GPGSV,5,4,17,36,52,277,,40,84,353,,41,58,082,32,49,32,274,*7D
$GPGSV,5,5,17,50,10,089,*4A
$GLGSV,2,1,08,68,25,001,10,69,54,302,13,70,18,228,,79,12,150,*65
$GLGSV,2,2,08,80,14,202,,81,23,129,19,82,50,076,20,83,30,007,20*6B
$GNGLL,0420.01132,S,05539.75208,E,111338.00,A,A*66
$GNRMC,111339.00,A,0420.01157,S,05539.75204,E,0.228,,020625,,,A*7A
$GNVTG,,T,,M,0.228,N,0.422,K,A*31
$GNGGA,111339.00,0420.01157,S,05539.75204,E,1,12,0.76,25.2,M,-47.6,M,,*42
$GNGSA,A,3,32,29,26,28,18,16,31,27,,,,,1.93,0.76,1.78*15
$GNGSA,A,3,69,68,81,82,,,,,,,,,1.93,0.76,1.78*1A
$GPGSV,5,1,17,08,01,321,,10,19,355,,16,25,251,26,18,32,073,19*7E
$GPGSV,5,2,17,23,04,033,12,25,02,130,07,26,29,219,27,27,36,317,20*79
$GPGSV,5,3,17,28,43,161,33,29,21,146,20,31,28,193,37,32,68,355,24*76
$GPGSV,5,4,17,36,52,277,,40,84,353,,41,58,082,32,49,32,274,*7D
$GPGSV,5,5,17,50,10,089,*4A
$GLGSV,2,1,08,68,25,001,09,69,54,302,15,70,18,228,,79,12,150,*6B
$GLGSV,2,2,08,80,14,202,,81,23,129,20,82,50,076,20,83,30,007,19*6B
$GNGLL,0420.01157,S,05539.75204,E,111339.00,A,A*68
$GNRMC,111340.00,A,0420.01176,S,05539.75193,E,0.282,,020625,,,A*7A
$GNVTG,,T,,M,0.282,N,0.523,K,A*31
$GNGGA,111340.00,0420.01176,S,05539.75193,E,1,12,0.76,26.1,M,-47.6,M,,*42
$GNGSA,A,3,32,29,26,28,18,16,31,27,,,,,1.93,0.76,1.78*15
$GNGSA,A,3,69,68,81,82,,,,,,,,,1.93,0.76,1.78*1A
$GPGSV,5,1,17,08,01,321,,10,19,355,,16,25,251,26,18,32,073,18*7F
$GPGSV,5,2,17,23,04,033,13,25,02,130,11,26,29,219,27,27,36,317,20*7F
$GPGSV,5,3,17,28,43,160,33,29,21,146,20,31,28,193,37,32,68,355,25*76
$GPGSV,5,4,17,36,52,277,,40,84,353,,41,58,082,32,49,32,274,*7D
$GPGSV,5,5,17,50,10,089,*4A
$GLGSV,2,1,08,68,25,001,11,69,54,302,14,70,18,228,,79,12,150,*63
$GLGSV,2,2,08,80,14,202,,81,23,129,20,82,50,076,22,83,30,007,19*69
$GNGLL,0420.01176,S,05539.75193,E,111340.00,A,A*68
$GNRMC,111341.00,A,0420.01207,S,05539.75196,E,0.514,,020625,,,A*73
$GNVTG,,T,,M,0.514,N,0.952,K,A*33
$GNGGA,111341.00,0420.01207,S,05539.75196,E,1,12,0.76,26.6,M,-47.6,M,,*44
$GNGSA,A,3,32,29,26,28,18,16,31,27,,,,,1.93,0.76,1.78*15
$GNGSA,A,3,69,68,81,82,,,,,,,,,1.93,0.76,1.78*1A
$GPGSV,5,1,17,08,01,321,,10,19,355,,16,25,251,26,18,32,073,18*7F
$GPGSV,5,2,17,23,04,033,,25,02,130,12,26,29,219,27,27,36,317,19*74
$GPGSV,5,3,17,28,43,160,33,29,21,147,20,31,28,193,37,32,68,355,23*71
$GPGSV,5,4,17,36,52,277,,40,84,353,,41,58,082,31,49,32,274,*7E
$GPGSV,5,5,17,50,10,089,*4A
$GLGSV,2,1,08,68,25,001,10,69,54,302,12,70,18,228,,79,12,150,*64
$GLGSV,2,2,08,80,14,202,,81,23,129,20,82,50,076,24,83,30,007,20*65
$GNGLL,0420.01207,S,05539.75196,E,111341.00,A,A*69
$GNRMC,111342.00,A,0420.01213,S,05539.75199,E,0.253,,020625,,,A*7E
$GNVTG,,T,,M,0.253,N,0.469,K,A*32
$GNGGA,111342.00,0420.01213,S,05539.75199,E,1,12,0.76,26.8,M,-47.6,M,,*43
$GNGSA,A,3,32,29,26,28,18,16,31,27,,,,,1.93,0.76,1.78*15
$GNGSA,A,3,69,68,81,82,,,,,,,,,1.93,0.76,1.78*1A
$GPGSV,5,1,17,08,01,321,,10,19,355,,16,25,251,26,18,32,073,18*7F
$GPGSV,5,2,17,23,04,033,,25,02,130,15,26,29,219,30,27,36,317,20*7F
$GPGSV,5,3,17,28,43,160,34,29,21,147,21,31,28,193,36,32,68,355,23*76
$GPGSV,5,4,17,36,52,277,,40,84,353,,41,58,082,32,49,32,274,*7D
$GPGSV,5,5,17,50,10,089,*4A
$GLGSV,2,1,08,68,25,001,10,69,54,302,11,70,18,228,,79,12,150,*67
$GLGSV,2,2,08,80,14,202,,81,23,129,20,82,50,076,26,83,30,007,19*6D
$GNGLL,0420.01213,S,05539.75199,E,111342.00,A,A*60
$GNRMC,111343.00,A,0420.01228,S,05539.75196,E,0.240,,020625,,,A*7A
$GNVTG,,T,,M,0.240,N,0.445,K,A*3E
$GNGGA,111343.00,0420.01228,S,05539.75196,E,1,12,0.76,27.6,M,-47.6,M,,*4A
$GNGSA,A,3,32,29,26,28,18,16,31,27,,,,,1.93,0.76,1.78*15
$GNGSA,A,3,69,68,81,82,,,,,,,,,1.93,0.76,1.78*1A
$GPGSV,5,1,17,08,01,321,,10,19,355,,16,25,251,25,18,32,073,18*7C
$GPGSV,5,2,17,23,04,033,,25,02,130,14,26,29,219,30,27,36,317,21*7F
$GPGSV,5,3,17,28,43,160,33,29,21,147,24,31,28,192,36,32,68,355,26*70
$GPGSV,5,4,17,36,52,277,,40,84,353,,41,58,082,32,49,32,274,*7D
$GPGSV,5,5,17,50,10,089,*4A
$GLGSV,2,1,08,68,25,001,12,69,54,302,11,70,18,228,,79,12,150,*65
$GLGSV,2,2,08,80,14,202,,81,23,129,19,82,50,076,26,83,30,007,16*68
$GNGLL,0420.01228,S,05539.75196,E,111343.00,A,A*66
$GNRMC,111344.00,A,0420.01232,S,05539.75202,E,0.093,,020625,,,A*74
$GNVTG,,T,,M,0.093,N,0.172,K,A*33
$GNGGA,111344.00,0420.01232,S,05539.75202,E,1,12,0.78,27.5,M,-47.6,M,,*45
$GNGSA,A,3,32,29,26,28,18,16,31,27,,,,,2.05,0.78,1.90*11
$GNGSA,A,3,69,68,81,82,,,,,,,,,2.05,0.78,1.90*1E
$GPGSV,5,1,17,08,01,321,,10,19,355,,16,25,251,25,18,32,073,17*73
$GPGSV,5,2,17,23,04,033,,25,02,130,11,26,29,219,31,27,36,317,21*7B
$GPGSV,5,3,17,28,43,160,32,29,21,147,27,31,28,192,37,32,67,355,25*7F
$GPGSV,5,4,17,36,52,277,,40,84,353,,41,58,082,31,49,32,274,*7E
$GPGSV,5,5,17,50,10,089,*4A
$GLGSV,2,1,08,68,25,001,10,69,54,302,14,70,18,228,,79,12,150,*62
$GLGSV,2,2,08,80,14,202,,81,23,129,19,82,50,076,26,83,30,007,16*68
$GNGLL,0420.01232,S,05539.75202,E,111344.00,A,A*64
$GNRMC,111345.00,A,0420.01234,S,05539.75196,E,0.261,,020625,,,A*72
$GNVTG,,T,,M,0.261,N,0.483,K,A*37
$GNGGA,111345.00,0420.01234,S,05539.75196,E,1,12,0.76,27.8,M,-47.6,M,,*4F
$GNGSA,A,3,32,29,26,28,18,16,31,27,,,,,1.93,0.76,1.78*15
$GNGSA,A,3,69,68,81,82,,,,,,,,,1.93,0.76,1.78*1A
$GPGSV,5,1,17,08,01,321,,10,19,355,,16,25,251,25,18,32,073,17*73
$GPGSV,5,2,17,23,04,033,,25,02,130,10,26,29,219,29,27,36,317,18*79
$GPGSV,5,3,17,28,43,160,32,29,21,147,27,31,28,192,38,32,67,355,25*70
$GPGSV,5,4,17,36,52,277,,40,84,353,,41,58,082,29,49,32,274,*77
$GPGSV,5,5,17,50,10,089,*4A
$GLGSV,2,1,08,68,25,001,09,69,54,302,18,70,18,228,,79,12,150,*66
$GLGSV,2,2,08,80,14,202,,81,23,129,20,82,50,076,26,83,30,007,14*60
$GNGLL,0420.01234,S,05539.75196,E,111345.00,A,A*6D
$GNRMC,111346.00,A,0420.01236,S,05539.75199,E,0.094,,020625,,,A*74
$GNVTG,,T,,M,0.094,N,0.174,K,A*32
$GNGGA,111346.00,0420.01236,S,05539.75199,E,1,12,0.76,27.9,M,-47.6,M,,*40
$GNGSA,A,3,32,29,26,28,18,16,31,27,,,,,1.93,0.76,1.78*15
$GNGSA,A,3,69,68,81,82,,,,,,,,,1.93,0.76,1.78*1A
$GPGSV,5,1,17,08,01,321,,10,19,355,,16,25,251,26,18,32,073,20*74
$GPGSV,5,2,17,23,04,033,,25,02,130,09,26,29,219,29,27,36,317,15*7C
$GPGSV,5,3,17,28,43,160,31,29,21,147,28,31,28,192,38,32,67,355,25*7C
$GPGSV,5,4,17,36,52,277,,40,84,353,,41,58,082,28,49,32,274,*76
$GPGSV,5,5,17,50,10,089,*4A
$GLGSV,2,1,08,68,25,001,13,69,54,302,12,70,18,228,,79,12,150,*67
$GLGSV,2,2,08,80,14,202,,81,23,129,19,82,50,076,25,83,30,007,17*6A
$GNGLL,0420.01236,S,05539.75199,E,111346.00,A,A*63
$GNRMC,111347.00,A,0420.01250,S,05539.75198,E,0.145,,020625,,,A*79
$GNVTG,,T,,M,0.145,N,0.269,K,A*30
$GNGGA,111347.00,0420.01250,S,05539.75198,E,1,12,0.76,28.6,M,-47.6,M,,*40
$GNGSA,A,3,32,29,26,28,18,16,31,27,,,,,1.93,0.76,1.78*15
$GNGSA,A,3,69,68,81,82,,,,,,,,,1.93,0.76,1.78*1A
$GPGSV,5,1,17,08,01,321,,10,19,355,,16,25,251,26,18,32,073,20*74
$GPGSV,5,2,17,23,04,033,,25,02,130,11,26,29,219,30,27,36,317,16*7E
$GPGSV,5,3,17,28,43,160,31,29,21,147,26,31,28,192,37,32,67,355,26*7E
$GPGSV,5,4,17,36,52,277,,40,84,353,,41,58,082,29,49,32,274,*77
$GPGSV,5,5,17,50,10,089,*4A
$GLGSV,2,1,08,68,25,001,11,69,54,302,17,70,18,228,,79,12,150,*60
$GLGSV,2,2,08,80,14,202,,81,23,129,18,82,50,076,25,83,30,007,21*6E
$GNGLL,0420.01250,S,05539.75198,E,111347.00,A,A*63
$GNRMC,111348.00,A,0420.01262,S,05539.75199,E,0.082,,020625,,,A*7C
$GNVTG,,T,,M,0.082,N,0.152,K,A*31
$GNGGA,111348.00,0420.01262,S,05539.75199,E,1,12,0.76,29.4,M,-47.6,M,,*4C
$GNGSA,A,3,32,29,26,28,18,16,31,27,,,,,1.93,0.76,1.78*15
$GNGSA,A,3,69,68,81,82,,,,,,,,,1.93,0.76,1.78*1A
$GPGSV,5,1,17,08,01,321,,10,19,355,,16,25,251,27,18,32,073,20*75
$GPGSV,5,2,17,23,04,033,,25,02,130,10,26,29,219,30,27,36,317,17*7E
$GPGSV,5,3,17,28,43,160,33,29,21,147,24,31,28,192,37,32,67,355,27*7F
$GPGSV,5,4,17,36,52,277,,40,84,353,,41,58,082,30,49,32,274,*7F
$GPGSV,5,5,17,50,10,089,*4A
$GLGSV,2,1,08,68,25,001,10,69,54,302,17,70,18,228,,79,12,150,*61
$GLGSV,2,2,08,80,14,202,,81,23,129,16,82,50,076,27,83,30,007,20*63
$GNGLL,0420.01262,S,05539.75199,E,111348.00,A,A*6C
$GNRMC,111349.00,A,0420.01268,S,05539.75204,E,0.105,,020625,,,A*7E
$GNVTG,,T,,M,0.105,N,0.195,K,A*34
$GNGGA,111349.00,0420.01268,S,05539.75204,E,1,12,0.76,29.6,M,-47.6,M,,*42
$GNGSA,A,3,32,29,26,28,18,16,31,27,,,,,1.93,0.76,1.78*15
$GNGSA,A,3,69,68,81,82,,,,,,,,,1.93,0.76,1.78*1A
$GPGSV,5,1,17,08,01,321,,10,19,355,,16,25,251,26,18,32,073,21*75
$GPGSV,5,2,17,23,04,033,,25,02,130,09,26,29,219,29,27,36,317,18*71
$GPGSV,5,3,17,28,43,160,33,29,21,147,22,31,28,192,37,32,67,355,26*78
$GPGSV,5,4,17,36,52,277,,40,84,353,,41,58,082,31,49,32,274,*7E
$GPGSV,5,5,17,50,10,089,*4A
$GLGSV,2,1,08,68,25,001,10,69,54,302,16,70,18,228,,79,12,150,*60
$GLGSV,2,2,08,80,14,202,,81,23,129,16,82,50,076,27,83,30,007,19*69
$GNGLL,0420.01268,S,05539.75204,E,111349.00,A,A*60
$GNRMC,111350.00,A,0420.01273,S,05539.75204,E,0.078,,020625,,,A*77
$GNVTG,,T,,M,0.078,N,0.145,K,A*32
$GNGGA,111350.00,0420.01273,S,05539.75204,E,1,12,0.93,30.0,M,-47.6,M,,*45
$GNGSA,A,3,32,29,26,28,18,16,31,27,,,,,2.38,0.93,2.19*18
$GNGSA,A,3,69,68,81,82,,,,,,,,,2.38,0.93,2.19*17
$GPGSV,5,1,17,08,01,321,,10,19,355,,16,25,251,26,18,32,073,22*76
$GPGSV,5,2,17,23,04,033,,25,02,130,13,26,29,219,29,27,36,317,18*7A
$GPGSV,5,3,17,28,43,160,32,29,21,147,21,31,28,192,37,32,67,355,26*7A
$GPGSV,5,4,17,36,52,277,,40,84,353,,41,58,082,32,49,32,274,*7D
$GPGSV,5,5,17,50,10,089,*4A
$GLGSV,2,1,08,68,25,001,10,69,54,302,19,70,18,228,,79,12,150,*6F
$GLGSV,2,2,08,80,14,202,,81,23,129,18,82,50,076,26,83,30,007,18*67
$GNGLL,0420.01273,S,05539.75204,E,111350.00,A,A*62
$GNRMC,111351.00,A,0420.01276,S,05539.75207,E,0.050,,020625,,,A*7A
$GNVTG,,T,,M,0.050,N,0.093,K,A*32
$GNGGA,111351.00,0420.01276,S,05539.75207,E,1,12,0.76,30.3,M,-47.6,M,,*4A
$GNGSA,A,3,32,29,26,28,18,16,31,27,,,,,1.93,0.76,1.78*15
$GNGSA,A,3,69,68,81,82,,,,,,,,,1.93,0.76,1.78*1A
$GPGSV,5,1,17,08,01,321,,10,19,355,,16,25,251,27,18,32,073,21*74
$GPGSV,5,2,17,23,04,033,,25,02,130,10,26,29,219,29,27,36,317,18*79
$GPGSV,5,3,17,28,43,160,31,29,21,147,23,31,28,192,37,32,67,355,25*78
$GPGSV,5,4,17,36,52,277,,40,84,353,,41,58,082,32,49,32,274,*7D
$GPGSV,5,5,17,50,10,089,*4A
$GLGSV,2,1,08,68,25,001,10,69,54,302,23,70,18,228,,79,12,150,22*66
$GLGSV,2,2,08,80,14,202,,81,23,129,19,82,50,076,26,83,30,007,15*6B
$GNGLL,0420.01276,S,05539.75207,E,111351.00,A,A*65
$GNRMC,111352.00,A,0420.01281,S,05539.75214,E,0.073,,020625,,,A*72
$GNVTG,,T,,M,0.073,N,0.136,K,A*3D
$GNGGA,111352.00,0420.01281,S,05539.75214,E,1,12,0.76,30.6,M,-47.6,M,,*46
$GNGSA,A,3,32,29,26,28,18,16,31,27,,,,,1.93,0.76,1.78*15
$GNGSA,A,3,69,68,81,82,,,,,,,,,1.93,0.76,1.78*1A
$GPGSV,5,1,17,08,01,321,,10,19,355,,16,25,251,27,18,32,073,21*74
$GPGSV,5,2,17,23,04,033,,25,02,130,11,26,29,219,29,27,36,317,16*76
$GPGSV,5,3,17,28,43,160,32,29,21,147,23,31,28,192,38,32,67,355,25*74
$GPGSV,5,4,17,36,52,277,,40,84,353,,41,58,082,30,49,32,274,*7F
$GPGSV,5,5,17,50,10,089,*4A
$GLGSV,2,1,08,68,25,001,10,69,54,302,23,70,18,228,,79,12,150,20*64
$GLGSV,2,2,08,80,14,202,,81,23,129,19,82,50,076,25,83,30,007,16*6B
$GNGLL,0420.01281,S,05539.75214,E,111352.00,A,A*6C
$GNRMC,111353.00,A,0420.01282,S,05539.75208,E,0.270,,020625,,,A*7C
$GNVTG,,T,,M,0.270,N,0.499,K,A*3C
$GNGGA,111353.00,0420.01282,S,05539.75208,E,1,12,0.76,31.0,M,-47.6,M,,*4E
$GNGSA,A,3,32,29,26,28,18,16,31,27,,,,,1.93,0.76,1.78*15
$GNGSA,A,3,69,68,81,82,,,,,,,,,1.93,0.76,1.78*1A
$GPGSV,5,1,17,08,01,321,,10,19,355,,16,25,251,26,18,32,073,20*74
$GPGSV,5,2,17,23,04,033,,25,02,130,14,26,29,219,28,27,36,317,15*71
$GPGSV,5,3,17,28,43,160,33,29,21,147,22,31,28,192,37,32,67,355,26*78
$GPGSV,5,4,17,36,52,277,,40,84,353,,41,58,082,32,49,32,274,*7D
$GPGSV,5,5,17,50,10,089,*4A
$GLGSV,2,1,08,68,25,001,10,69,54,302,21,70,18,228,,79,12,150,17*62
$GLGSV,2,2,08,80,14,202,,81,23,129,18,82,50,076,25,83,30,007,18*64
$GNGLL,0420.01282,S,05539.75208,E,111353.00,A,A*63
$GNRMC,111354.00,A,0420.01287,S,05539.75209,E,0.155,,020625,,,A*7B
$GNVTG,,T,,M,0.155,N,0.287,K,A*31
$GNGGA,111354.00,0420.01287,S,05539.75209,E,1,12,0.76,31.2,M,-47.6,M,,*4F
$GNGSA,A,3,32,29,26,28,18,16,31,27,,,,,1.93,0.76,1.78*15
$GNGSA,A,3,69,68,81,82,,,,,,,,,1.93,0.76,1.78*1A
$GPGSV,5,1,17,08,01,321,,10,19,355,,16,25,251,26,18,32,073,21*75
$GPGSV,5,2,17,23,04,033,,25,02,130,18,26,29,219,29,27,36,317,15*7C
$GPGSV,5,3,17,28,43,160,33,29,21,147,21,31,28,192,37,32,67,355,26*7B
$GPGSV,5,4,17,36,52,277,,40,84,353,,41,58,082,32,49,32,274,*7D
$GPGSV,5,5,17,50,10,089,*4A
$GLGSV,2,1,08,68,25,001,13,69,54,302,20,70,18,228,,79,12,150,16*61
$GLGSV,2,2,08,80,14,202,,81,23,129,20,82,50,076,25,83,30,007,16*61
$GNGLL,0420.01287,S,05539.75209,E,111354.00,A,A*60
$GNRMC,111355.00,A,0420.01291,S,05539.75214,E,0.090,,020625,,,A*79
$GNVTG,,T,,M,0.090,N,0.166,K,A*35
$GNGGA,111355.00,0420.01291,S,05539.75214,E,1,12,0.76,31.6,M,-47.6,M,,*41
$GNGSA,A,3,32,29,26,28,18,16,31,27,,,,,1.93,0.76,1.78*15
$GNGSA,A,3,69,68,81,82,,,,,,,,,1.93,0.76,1.78*1A
$GPGSV,5,1,17,08,01,321,,10,19,355,,16,25,251,27,18,32,073,21*74
$GPGSV,5,2,17,23,04,033,,25,02,130,18,26,29,219,30,27,36,317,17*76
$GPGSV,5,3,17,28,43,160,33,29,21,147,22,31,28,192,37,32,67,355,26*78
$GPGSV,5,4,17,36,52,277,,40,84,353,,41,58,082,31,49,32,274,*7E
$GPGSV,5,5,17,50,10,089,*4A
$GLGSV,2,1,08,68,25,001,08,69,54,302,18,70,18,228,,79,12,150,18*6E
$GLGSV,2,2,08,80,14,202,,81,23,129,22,82,50,076,25,83,30,007,14*61
$GNGLL,0420.01291,S,05539.75214,E,111355.00,A,A*6A
$GNRMC,111356.00,A,0420.01292,S,05539.75220,E,0.092,,020625,,,A*7C
$GNVTG,,T,,M,0.092,N,0.170,K,A*30
$GNGGA,111356.00,0420.01292,S,05539.75220,E,1,12,0.76,31.7,M,-47.6,M,,*47
$GNGSA,A,3,32,29,26,28,18,16,31,27,,,,,1.93,0.76,1.78*15
$GNGSA,A,3,69,68,81,82,,,,,,,,,1.93,0.76,1.78*1A
$GPGSV,5,1,17,08,01,321,,10,19,355,,16,25,251,26,18,32,073,20*74
$GPGSV,5,2,17,23,04,033,,25,02,130,13,26,29,219,29,27,36,317,16*74
$GPGSV,5,3,17,28,43,160,32,29,21,147,24,31,28,192,37,32,67,355,27*7E
$GPGSV,5,4,17,36,52,277,,40,84,353,,41,58,082,31,49,32,274,*7E
$GPGSV,5,5,17,50,10,089,*4A
$GLGSV,2,1,08,68,25,001,13,69,54,302,18,70,18,228,,79,12,150,20*6F
$GLGSV,2,2,08,80,14,202,,81,23,129,23,82,50,076,25,83,30,007,16*62
$GNGLL,0420.01292,S,05539.75220,E,111356.00,A,A*6D
$GNRMC,111357.00,A,0420.01295,S,05539.75225,E,0.203,,020625,,,A*75
$GNVTG,,T,,M,0.203,N,0.377,K,A*3F
$GNGGA,111357.00,0420.01295,S,05539.75225,E,1,12,0.76,31.9,M,-47.6,M,,*4A
$GNGSA,A,3,32,29,26,28,18,16,31,27,,,,,1.93,0.76,1.78*15
$GNGSA,A,3,69,68,81,82,,,,,,,,,1.93,0.76,1.78*1A
$GPGSV,5,1,17,08,01,321,,10,19,355,,16,25,251,25,18,32,073,21*76
$GPGSV,5,2,17,23,04,033,,25,02,130,13,26,29,219,29,27,36,317,17*75
$GPGSV,5,3,17,28,43,160,32,29,21,147,25,31,28,192,36,32,67,355,27*7E
$GPGSV,5,4,17,36,52,277,,40,84,353,,41,58,082,32,49,32,274,*7D
$GPGSV,5,5,17,50,10,089,*4A
$GLGSV,2,1,08,68,25,001,10,69,54,302,17,70,18,228,,79,12,150,21*62
$GLGSV,2,2,08,80,14,202,,81,23,129,22,82,50,076,26,83,30,007,18*6E
$GNGLL,0420.01295,S,05539.75225,E,111357.00,A,A*6E
$GNRMC,111358.00,A,0420.01297,S,05539.75227,E,0.098,,020625,,,A*7A
$GNVTG,,T,,M,0.098,N,0.182,K,A*37
$GNGGA,111358.00,0420.01297,S,05539.75227,E,1,12,0.76,32.1,M,-47.6,M,,*4E
$GNGSA,A,3,32,29,26,28,18,16,31,27,,,,,1.93,0.76,1.77*1A
$GNGSA,A,3,69,68,81,82,,,,,,,,,1.93,0.76,1.77*15
$GPGSV,5,1,17,08,01,321,,10,19,355,,16,25,251,25,18,32,073,23*74
$GPGSV,5,2,17,23,04,033,,25,02,130,11,26,29,219,31,27,36,317,17*7E
$GPGSV,5,3,17,28,43,160,32,29,21,147,24,31,28,192,37,32,67,355,27*7E
$GPGSV,5,4,17,36,52,277,,40,84,353,,41,58,082,32,49,32,274,*7D
$GPGSV,5,5,17,50,10,089,*4A
$GLGSV,2,1,08,68,25,001,10,69,54,302,15,70,18,228,,79,12,150,21*60
$GLGSV,2,2,08,80,14,202,,81,23,129,22,82,50,076,26,83,30,007,16*60
$GNGLL,0420.01297,S,05539.75227,E,111358.00,A,A*61
$GNRMC,111359.00,A,0420.01290,S,05539.75233,E,0.167,,020625,,,A*78
$GNVTG,,T,,M,0.167,N,0.309,K,A*37
$GNGGA,111359.00,0420.01290,S,05539.75233,E,1,12,0.76,31.8,M,-47.6,M,,*47
$GNGSA,A,3,32,29,26,28,18,16,31,27,,,,,1.93,0.76,1.77*1A
$GNGSA,A,3,69,68,81,82,,,,,,,,,1.93,0.76,1.77*15
$GPGSV,5,1,17,08,01,321,,10,19,355,,16,25,251,26,18,32,073,24*70
$GPGSV,5,2,17,23,04,033,,25,02,130,17,26,29,219,32,27,36,317,17*7B
$GPGSV,5,3,17,28,43,160,32,29,21,147,25,31,28,192,37,32,67,355,27*7F
$GPGSV,5,4,17,36,52,277,,40,84,353,,41,58,082,32,49,32,274,*7D
$GPGSV,5,5,17,50,10,089,*4A
$GLGSV,2,1,08,68,25,001,09,69,54,302,15,70,18,228,,79,12,150,22*6B
$GLGSV,2,2,08,80,14,202,,81,23,129,21,82,50,076,25,83,30,007,14*62
$GNGLL,0420.01290,S,05539.75233,E,111359.00,A,A*62
$GNRMC,111400.00,A,0420.01297,S,05539.75230,E,0.057,,020625,,,A*75
$GNVTG,,T,,M,0.057,N,0.106,K,A*38
$GNGGA,111400.00,0420.01297,S,05539.75230,E,1,12,0.76,32.3,M,-47.6,M,,*40
$GNGSA,A,3,32,29,26,28,18,16,31,27,,,,,1.93,0.76,1.77*1A
$GNGSA,A,3,69,68,81,82,,,,,,,,,1.93,0.76,1.77*15
$GPGSV,5,1,17,08,01,321,,10,19,355,,16,25,251,25,18,32,073,24*73
$GPGSV,5,2,17,23,04,033,,25,02,130,13,26,29,219,31,27,36,317,13*78
$GPGSV,5,3,17,28,43,160,32,29,21,147,26,31,28,192,37,32,67,355,27*7C
$GPGSV,5,4,17,36,52,277,,40,84,353,,41,58,082,32,49,32,274,*7D
$GPGSV,5,5,17,50,10,089,*4A
$GLGSV,2,1,08,68,25,001,10,69,54,302,17,70,18,228,,79,12,150,21*62
$GLGSV,2,2,08,80,14,202,23,81,23,129,22,82,50,076,25,83,30,007,12*66
$GNGLL,0420.01297,S,05539.75230,E,111400.00,A,A*6D
$GNRMC,111401.00,A,0420.01305,S,05539.75230,E,0.111,,020625,,,A*7D
$GNVTG,,T,,M,0.111,N,0.206,K,A*38
$GNGGA,111401.00,0420.01305,S,05539.75230,E,1,12,0.76,33.0,M,-47.6,M,,*49
$GNGSA,A,3,32,29,26,28,18,16,31,27,,,,,1.93,0.76,1.77*1A
$GNGSA,A,3,69,68,81,82,,,,,,,,,1.93,0.76,1.77*15
$GPGSV,5,1,17,08,01,321,,10,19,355,,16,25,251,25,18,32,073,24*73
$GPGSV,5,2,17,23,04,033,,25,02,130,17,26,29,219,31,27,36,317,11*7E
$GPGSV,5,3,17,28,43,160,32,29,21,147,27,31,28,192,36,32,67,355,27*7C
$GPGSV,5,4,17,36,52,277,,40,84,353,,41,58,082,31,49,32,274,*7E
$GPGSV,5,5,17,50,10,089,*4A
$GLGSV,2,1,08,68,25,001,13,69,54,302,19,70,18,228,,79,12,150,22*6C
$GLGSV,2,2,08,80,14,202,22,81,23,129,21,82,50,076,25,83,30,007,10*66
$GNGLL,0420.01305,S,05539.75230,E,111401.00,A,A*66
$GNRMC,111402.00,A,0420.01304,S,05539.75235,E,0.122,,020625,,,A*7A
$GNVTG,,T,,M,0.122,N,0.226,K,A*3A
$GNGGA,111402.00,0420.01304,S,05539.75235,E,1,11,1.12,33.0,M,-47.6,M,,*4E
$GNGSA,A,3,32,29,26,28,18,16,31,,,,,,2.71,1.12,2.47*13
$GNGSA,A,3,69,68,81,82,,,,,,,,,2.71,1.12,2.47*19
$GPGSV,5,1,17,08,01,321,,10,19,355,,16,25,251,25,18,32,073,23*74
$GPGSV,5,2,17,23,04,033,,25,02,130,12,26,29,219,31,27,36,317,10*7A
$GPGSV,5,3,17,28,43,160,33,29,21,147,26,31,28,192,38,32,67,355,27*72
$GPGSV,5,4,17,36,52,277,,40,84,353,,41,58,082,31,49,32,274,*7E
$GPGSV,5,5,17,50,10,089,*4A
$GLGSV,2,1,08,68,25,001,09,69,54,302,18,70,18,228,,79,12,150,22*66
$GLGSV,2,2,08,80,14,202,20,81,23,129,21,82,50,076,25,83,30,007,09*6C
$GNGLL,0420.01304,S,05539.75235,E,111402.00,A,A*61
$GNRMC,111403.00,A,0420.01299,S,05539.75240,E,0.077,,020625,,,A*7D
$GNVTG,,T,,M,0.077,N,0.142,K,A*3A
$GNGGA,111403.00,0420.01299,S,05539.75240,E,1,12,0.76,32.6,M,-47.6,M,,*4F
$GNGSA,A,3,32,29,26,28,18,16,31,27,,,,,1.93,0.76,1.77*1A
$GNGSA,A,3,69,68,81,82,,,,,,,,,1.93,0.76,1.77*15
$GPGSV,5,1,17,08,01,321,,10,19,355,,16,25,251,24,18,32,073,23*75
$GPGSV,5,2,17,23,04,033,,25,02,130,13,26,29,219,31,27,36,317,12*79
$GPGSV,5,3,17,28,43,160,34,29,21,147,26,31,28,192,38,32,67,355,28*7A
$GPGSV,5,4,17,36,52,277,,40,84,353,,41,58,082,31,49,32,274,*7E
$GPGSV,5,5,17,50,10,089,*4A
$GLGSV,2,1,08,68,25,001,10,69,54,302,18,70,18,228,,79,12,150,23*6F
$GLGSV,2,2,08,80,14,202,20,81,23,129,21,82,50,076,26,83,30,007,12*65
$GNGLL,0420.01299,S,05539.75240,E,111403.00,A,A*67
$GNRMC,111404.00,A,0420.01295,S,05539.75248,E,0.081,,020625,,,A*77
$GNVTG,,T,,M,0.081,N,0.150,K,A*30
$GNGGA,111404.00,0420.01295,S,05539.75248,E,1,12,0.76,32.3,M,-47.6,M,,*49
$GNGSA,A,3,32,29,26,28,18,16,31,27,,,,,1.93,0.76,1.77*1A
$GNGSA,A,3,69,68,81,82,,,,,,,,,1.93,0.76,1.77*15
$GPGSV,5,1,17,08,01,321,,10,19,355,,16,25,251,24,18,32,073,23*75
$GPGSV,5,2,17,23,04,033,,25,02,130,13,26,29,219,31,27,36,317,12*79
$GPGSV,5,3,17,28,43,160,33,29,21,147,26,31,28,192,37,32,67,355,28*72
$GPGSV,5,4,17,36,52,277,,40,84,353,,41,58,082,31,49,32,274,*7E
$GPGSV,5,5,17,50,10,089,*4A
$GLGSV,2,1,08,68,25,001,08,69,54,302,18,70,18,228,,79,12,150,23*66
$GLGSV,2,2,08,80,14,202,19,81,23,129,21,82,50,076,25,83,30,007,10*6E
$GNGLL,0420.01295,S,05539.75248,E,111404.00,A,A*64
$GNRMC,111405.00,A,0420.01301,S,05539.75254,E,0.156,,020625,,,A*7C
$GNVTG,,T,,M,0.156,N,0.288,K,A*3D
$GNGGA,111405.00,0420.01301,S,05539.75254,E,1,12,0.76,32.4,M,-47.6,M,,*4E
$GNGSA,A,3,32,29,26,28,18,16,31,27,,,,,1.93,0.76,1.77*1A
$GNGSA,A,3,69,68,81,82,,,,,,,,,1.93,0.76,1.77*15
$GPGSV,5,1,17,08,01,321,,10,19,355,,16,25,251,25,18,32,073,23*74
$GPGSV,5,2,17,23,04,033,,25,02,130,13,26,29,219,31,27,36,317,12*79
$GPGSV,5,3,17,28,43,160,32,29,21,147,25,31,28,192,37,32,67,355,28*70
$GPGSV,5,4,17,36,52,277,,40,84,353,,41,58,082,31,49,32,274,*7E
$GPGSV,5,5,17,50,10,089,*4A
$GLGSV,2,1,08,68,25,001,12,69,54,302,16,70,18,228,,79,12,150,23*63
$GLGSV,2,2,08,80,14,202,19,81,23,129,21,82,50,076,24,83,30,007,09*67
$GNGLL,0420.01301,S,05539.75254,E,111405.00,A,A*64
$GNRMC,111406.00,A,0420.01296,S,05539.75263,E,0.024,,020625,,,A*70
$GNVTG,,T,,M,0.024,N,0.045,K,A*3A
$GNGGA,111406.00,0420.01296,S,05539.75263,E,1,11,0.81,32.1,M,-47.6,M,,*48
$GNGSA,A,3,32,29,26,28,18,16,31,,,,,,1.97,0.81,1.79*1D
$GNGSA,A,3,69,68,81,82,,,,,,,,,1.97,0.81,1.79*17
$GPGSV,5,1,17,08,01,321,,10,19,355,,16,25,251,25,18,32,073,25*72
$GPGSV,5,2,17,23,04,033,,25,02,130,17,26,29,219,32,27,36,317,10*7C
$GPGSV,5,3,17,28,43,160,33,29,21,147,26,31,28,192,37,32,67,355,28*72
$GPGSV,5,4,17,36,52,277,,40,84,353,,41,58,082,32,49,32,274,*7D
$GPGSV,5,5,17,50,10,089,*4A
$GLGSV,2,1,08,68,25,001,09,69,54,302,17,70,18,228,,79,12,150,24*6F
$GLGSV,2,2,08,80,14,202,20,81,23,129,23,82,50,076,23,83,30,007,*61
$GNGLL,0420.01296,S,05539.75263,E,111406.00,A,A*6C
$GNRMC,111407.00,A,0420.01281,S,05539.75277,E,0.143,,020625,,,A*72
$GNVTG,,T,,M,0.143,N,0.264,K,A*3B
$GNGGA,111407.00,0420.01281,S,05539.75277,E,1,12,0.76,31.3,M,-47.6,M,,*40
$GNGSA,A,3,32,29,26,28,18,16,31,27,,,,,1.93,0.76,1.77*1A
$GNGSA,A,3,69,68,81,82,,,,,,,,,1.93,0.76,1.77*15
$GPGSV,5,1,17,08,01,321,,10,19,355,,16,25,251,25,18,32,073,25*72
$GPGSV,5,2,17,23,04,033,,25,02,130,16,26,29,219,32,27,36,317,09*75
$GPGSV,5,3,17,28,43,160,35,29,21,147,25,31,28,192,38,32,67,355,27*77
$GPGSV,5,4,17,36,52,277,,40,84,353,,41,58,082,31,49,32,274,*7E
$GPGSV,5,5,17,50,10,089,*4A
$GLGSV,2,1,08,68,25,001,11,69,54,302,21,70,18,228,,79,12,150,24*63
$GLGSV,2,2,08,80,14,202,21,81,23,129,22,82,50,076,23,83,30,007,*61
$GNGLL,0420.01281,S,05539.75277,E,111407.00,A,A*6E
$GNRMC,111408.00,A,0420.01276,S,05539.75290,E,0.157,,020625,,,A*79
$GNVTG,,T,,M,0.157,N,0.290,K,A*35
$GNGGA,111408.00,0420.01276,S,05539.75290,E,1,12,0.93,30.7,M,-47.6,M,,*40
$GNGSA,A,3,32,29,26,28,18,16,31,27,,,,,2.38,0.93,2.19*18
$GNGSA,A,3,69,68,81,82,,,,,,,,,2.38,0.93,2.19*17
$GPGSV,5,1,17,08,01,321,,10,19,355,,16,25,251,25,18,32,073,26*71
$GPGSV,5,2,17,23,04,033,,25,02,130,10,26,29,219,31,27,36,317,10*78
$GPGSV,5,3,17,28,43,160,34,29,21,147,24,31,28,192,37,32,67,355,27*78
$GPGSV,5,4,17,36,52,277,,40,84,353,,41,58,082,30,49,32,274,*7F
$GPGSV,5,5,17,50,10,089,*4A
$GLGSV,2,1,08,68,25,001,13,69,54,302,23,70,18,228,,79,12,150,25*62
$GLGSV,2,2,08,80,14,202,22,81,23,129,22,82,50,076,24,83,30,007,*65
$GNGLL,0420.01276,S,05539.75290,E,111408.00,A,A*60
$GNRMC,111409.00,A,0420.01272,S,05539.75303,E,0.141,,020625,,,A*70
$GNVTG,,T,,M,0.141,N,0.261,K,A*3C
$GNGGA,111409.00,0420.01272,S,05539.75303,E,1,12,0.76,30.2,M,-47.6,M,,*40
$GNGSA,A,3,32,29,26,28,18,16,31,27,,,,,1.93,0.76,1.77*1A
$GNGSA,A,3,69,68,81,82,,,,,,,,,1.93,0.76,1.77*15
$GPGSV,5,1,17,08,01,321,,10,19,355,,16,25,251,25,18,32,073,24*73
$GPGSV,5,2,17,23,04,033,,25,02,130,15,26,29,219,31,27,36,317,15*78
$GPGSV,5,3,17,28,43,160,33,29,21,147,23,31,28,192,37,32,67,355,28*77
$GPGSV,5,4,17,36,52,277,,40,84,353,,41,58,082,30,49,32,274,*7F
$GPGSV,5,5,17,50,10,089,*4A
$GLGSV,2,1,08,68,25,001,13,69,53,303,21,70,18,228,,79,12,150,26*65
$GLGSV,2,2,08,80,14,202,22,81,23,129,21,82,50,076,23,83,30,007,*61
$GNGLL,0420.01272,S,05539.75303,E,111409.00,A,A*6E
$GNRMC,111410.00,A,0420.01259,S,05539.75317,E,0.252,,020625,,,A*75
$GNVTG,,T,,M,0.252,N,0.467,K,A*3D
$GNGGA,111410.00,0420.01259,S,05539.75317,E,1,12,0.76,29.4,M,-47.6,M,,*4A
$GNGSA,A,3,32,29,26,28,18,16,31,27,,,,,1.93,0.76,1.77*1A
$GNGSA,A,3,69,68,81,82,,,,,,,,,1.93,0.76,1.77*15
$GPGSV,5,1,17,08,01,321,,10,19,355,,16,25,251,27,18,32,073,22*77
$GPGSV,5,2,17,23,04,033,,25,02,130,17,26,29,219,31,27,36,317,10*7F
$GPGSV,5,3,17,28,43,160,34,29,21,147,22,31,28,192,35,32,67,355,30*7A
$GPGSV,5,4,17,36,52,277,,40,84,353,,41,58,082,30,49,32,274,*7F
$GPGSV,5,5,17,50,10,089,*4A
$GLGSV,2,1,08,68,25,001,08,69,53,303,19,70,18,228,,79,12,150,26*64
$GLGSV,2,2,08,80,14,202,22,81,23,129,20,82,50,076,22,83,30,007,*61
$GNGLL,0420.01259,S,05539.75317,E,111410.00,A,A*6A
$GNRMC,111411.00,A,0420.01251,S,05539.75331,E,0.320,,020625,,,A*7C
$GNVTG,,T,,M,0.320,N,0.593,K,A*33
$GNGGA,111411.00,0420.01251,S,05539.75331,E,1,12,0.81,28.8,M,-47.6,M,,*42
$GNGSA,A,3,32,29,26,28,18,16,31,27,,,,,1.97,0.81,1.79*18
$GNGSA,A,3,69,68,81,82,,,,,,,,,1.97,0.81,1.79*17
$GPGSV,5,1,17,08,01,321,,10,19,355,,16,25,251,26,18,32,073,20*74
$GPGSV,5,2,17,23,04,033,,25,02,130,16,26,29,219,31,27,36,317,08*77
$GPGSV,5,3,17,28,43,160,32,29,21,147,21,31,28,192,35,32,67,355,30*7F
$GPGSV,5,4,17,36,52,277,,40,84,353,,41,58,082,29,49,32,274,*77
$GPGSV,5,5,17,50,10,089,*4A
$GLGSV,2,1,08,68,25,001,09,69,53,303,15,70,18,228,,79,12,150,25*6A
$GLGSV,2,2,08,80,14,202,21,81,23,129,18,82,50,076,21,83,30,007,*6A
$GNGLL,0420.01251,S,05539.75331,E,111411.00,A,A*67
$GNRMC,111412.00,A,0420.01252,S,05539.75338,E,0.114,,020625,,,A*70
$GNVTG,,T,,M,0.114,N,0.212,K,A*38
$GNGGA,111412.00,0420.01252,S,05539.75338,E,1,12,0.76,28.4,M,-47.6,M,,*4F
$GNGSA,A,3,32,29,26,28,18,16,31,27,,,,,1.93,0.76,1.77*1A
$GNGSA,A,3,69,68,81,82,,,,,,,,,1.93,0.76,1.77*15
$GPGSV,5,1,17,08,01,321,,10,19,355,,16,25,251,27,18,32,073,21*74
$GPGSV,5,2,17,23,04,033,,25,02,130,18,26,29,219,35,27,36,317,15*71
$GPGSV,5,3,17,28,43,160,35,29,21,147,21,31,28,192,38,32,67,355,32*77
$GPGSV,5,4,17,36,52,277,,40,84,353,,41,58,082,33,49,32,274,*7C
$GPGSV,5,5,17,50,10,089,*4A
$GLGSV,2,1,08,68,25,001,13,69,53,303,18,70,18,228,,79,12,150,27*6E
$GLGSV,2,2,08,80,14,202,25,81,23,129,19,82,50,076,25,83,30,007,*6B
$GNGLL,0420.01252,S,05539.75338,E,111412.00,A,A*6E
$GNRMC,111413.00,A,0420.01246,S,05539.75344,E,0.162,,020625,,,A*7E
$GNVTG,,T,,M,0.162,N,0.301,K,A*3A
$GNGGA,111413.00,0420.01246,S,05539.75344,E,1,12,0.76,28.1,M,-47.6,M,,*45
$GNGSA,A,3,32,29,26,28,18,16,31,27,,,,,1.93,0.76,1.77*1A
$GNGSA,A,3,69,68,81,82,,,,,,,,,1.93,0.76,1.77*15
$GPGSV,5,1,17,08,01,321,17,10,19,355,,16,25,251,26,18,32,073,23*71
$GPGSV,5,2,17,23,04,033,15,25,02,130,21,26,29,219,34,27,36,317,15*7E
$GPGSV,5,3,17,28,43,160,35,29,21,147,25,31,28,192,37,32,67,355,32*7C
$GPGSV,5,4,17,36,52,277,,40,84,353,,41,58,082,32,49,32,274,*7D
$GPGSV,5,5,17,50,10,089,*4A
