$GNRMC,110849.00,A,0420.00461,S,05539.74352,E,0.037,,020625,,,A*79
$GNVTG,,T,,M,0.037,N,0.068,K,A*37
$GNGGA,110849.00,0420.00461,S,05539.74352,E,1,11,0.89,12.4,M,-47.6,M,,*4C
$GNGSA,A,3,32,29,26,28,18,16,31,,,,,,2.09,0.89,1.90*16
$GNGSA,A,3,69,68,81,82,,,,,,,,,2.09,0.89,1.90*1C
$GPGSV,5,1,17,08,00,322,,10,20,353,08,16,25,253,26,18,31,070,16*75
$GPGSV,5,2,17,23,05,031,,25,03,131,18,26,29,221,24,27,34,319,28*7B
$GPGSV,5,3,17,28,42,163,31,29,23,146,30,31,27,194,26,32,70,353,38*7E
$GPGSV,5,4,17,36,52,277,32,40,84,353,,41,58,082,,49,32,274,*7D
$GPGSV,5,5,17,50,10,089,*4A
$GLGSV,2,1,08,68,28,000,12,69,55,297,34,70,16,225,,79,12,153,22*62
$GLGSV,2,2,08,80,14,204,24,81,24,126,19,82,49,071,20,83,28,006,*66
$GNGLL,0420.00461,S,05539.74352,E,110849.00,A,A*67
$GNRMC,110850.00,A,0420.00444,S,05539.74358,E,0.034,,020625,,,A*7F
$GNVTG,,T,,M,0.034,N,0.062,K,A*3E
$GNGGA,110850.00,0420.00444,S,05539.74358,E,1,11,0.89,11.5,M,-47.6,M,,*4B
$GNGSA,A,3,32,29,26,28,18,16,31,,,,,,2.09,0.89,1.90*16
$GNGSA,A,3,69,68,81,82,,,,,,,,,2.09,0.89,1.90*1C
$GPGSV,5,1,17,08,00,322,,10,20,353,10,16,25,253,24,18,31,070,16*7E
$GPGSV,5,2,17,23,05,031,,25,03,131,17,26,29,221,21,27,34,319,20*79
$GPGSV,5,3,17,28,42,163,25,29,23,146,23,31,27,194,26,32,70,353,36*77
$GPGSV,5,4,17,36,52,277,30,40,84,353,,41,58,082,,49,32,274,*7F
$GPGSV,5,5,17,50,10,089,*4A
$GLGSV,2,1,08,68,28,000,14,69,55,297,31,70,16,225,,79,12,153,22*61
$GLGSV,2,2,08,80,14,204,22,81,24,126,20,82,49,071,19,83,28,006,*60
$GNGLL,0420.00444,S,05539.74358,E,110850.00,A,A*62
$GNRMC,110851.00,A,0420.00435,S,05539.74369,E,0.122,,020625,,,A*7C
$GNVTG,,T,,M,0.122,N,0.225,K,A*39
$GNGGA,110851.00,0420.00435,S,05539.74369,E,1,11,0.89,11.1,M,-47.6,M,,*4A
$GNGSA,A,3,32,29,26,28,18,16,31,,,,,,2.09,0.89,1.90*16
$GNGSA,A,3,69,68,81,82,,,,,,,,,2.09,0.89,1.90*1C
$GPGSV,5,1,17,08,00,322,,10,20,353,08,16,25,253,30,18,31,070,13*77
$GPGSV,5,2,17,23,05,031,,25,03,131,15,26,29,221,21,27,34,319,29*72
$GPGSV,5,3,17,28,42,163,26,29,23,146,32,31,27,194,27,32,70,353,40*74
$GPGSV,5,4,17,36,52,277,33,40,84,353,,41,58,082,,49,32,274,*7C
$GPGSV,5,5,17,50,10,089,*4A
$GLGSV,2,1,08,68,28,000,14,69,55,297,32,70,16,225,,79,12,153,21*61
$GLGSV,2,2,08,80,14,204,19,81,24,126,21,82,49,071,17,83,28,006,*67
$GNGLL,0420.00435,S,05539.74369,E,110851.00,A,A*67
$GNRMC,110852.00,A,0420.00431,S,05539.74375,E,0.044,,020625,,,A*77
$GNVTG,,T,,M,0.044,N,0.081,K,A*34
$GNGGA,110852.00,0420.00431,S,05539.74375,E,1,11,0.89,10.9,M,-47.6,M,,*49
$GNGSA,A,3,32,29,26,28,18,16,31,,,,,,2.09,0.89,1.90*16
$GNGSA,A,3,69,68,81,82,,,,,,,,,2.09,0.89,1.90*1C
$GPGSV,5,1,17,08,00,322,,10,20,353,08,16,25,253,29,18,31,070,15*79
$GPGSV,5,2,17,23,05,031,,25,03,131,14,26,29,221,21,27,34,319,30*7B
$GPGSV,5,3,17,28,42,163,31,29,23,146,32,31,27,194,30,32,70,353,39*7A
$GPGSV,5,4,17,36,52,277,32,40,84,353,,41,58,082,,49,32,274,*7D
$GPGSV,5,5,17,50,10,089,*4A
$GLGSV,2,1,08,68,28,000,16,69,55,297,33,70,16,225,,79,12,153,23*60
$GLGSV,2,2,08,80,14,204,20,81,24,126,21,82,49,071,16,83,28,006,*6C
$GNGLL,0420.00431,S,05539.74375,E,110852.00,A,A*6D
$GNRMC,110853.00,A,0420.00419,S,05539.74386,E,0.089,,020625,,,A*71
$GNVTG,,T,,M,0.089,N,0.164,K,A*3F
$GNGGA,110853.00,0420.00419,S,05539.74386,E,1,11,0.89,10.3,M,-47.6,M,,*44
$GNGSA,A,3,32,29,26,28,18,16,31,,,,,,2.09,0.89,1.90*16
$GNGSA,A,3,69,68,81,82,,,,,,,,,2.09,0.89,1.90*1C
$GPGSV,5,1,17,08,00,322,,10,20,353,,16,25,253,29,18,31,070,19*7D
$GPGSV,5,2,17,23,05,031,,25,03,131,14,26,29,221,22,27,34,319,29*70
$GPGSV,5,3,17,28,42,163,35,29,23,146,27,31,27,194,29,32,70,353,40*7C
$GPGSV,5,4,17,36,52,277,32,40,84,353,,41,58,082,30,49,32,274,*7E
$GPGSV,5,5,17,50,10,089,*4A
$GLGSV,2,1,08,68,28,000,19,69,55,297,35,70,16,225,,79,12,153,26*6C
$GLGSV,2,2,08,80,14,204,24,81,24,126,21,82,49,071,19,83,28,006,*67
$GNGLL,0420.00419,S,05539.74386,E,110853.00,A,A*6A
$GNRMC,110854.00,A,0420.00403,S,05539.74401,E,0.185,,020625,,,A*78
$GNVTG,,T,,M,0.185,N,0.343,K,A*35
$GNGGA,110854.00,0420.00403,S,05539.74401,E,1,11,0.89,9.6,M,-47.6,M,,*7D
$GNGSA,A,3,32,29,26,28,18,16,31,,,,,,2.09,0.89,1.90*16
$GNGSA,A,3,69,68,81,82,,,,,,,,,2.09,0.89,1.90*1C
$GPGSV,5,1,17,08,00,322,,10,20,353,,16,25,253,29,18,31,070,18*7C
$GPGSV,5,2,17,23,05,031,,25,03,131,16,26,29,221,24,27,34,319,28*75
$GPGSV,5,3,17,28,42,163,34,29,23,146,28,31,27,194,30,32,70,353,41*7B
$GPGSV,5,4,17,36,52,277,33,40,84,353,,41,58,082,28,49,32,274,*76
$GPGSV,5,5,17,50,10,089,*4A
$GLGSV,2,1,08,68,28,000,19,69,55,297,35,70,16,225,,79,12,153,24*6E
$GLGSV,2,2,08,80,14,204,25,81,24,126,21,82,49,071,19,83,28,006,*66
$GNGLL,0420.00403,S,05539.74401,E,110854.00,A,A*6E
$GNRMC,110855.00,A,0420.00396,S,05539.74408,E,0.096,,020625,,,A*78
$GNVTG,,T,,M,0.096,N,0.178,K,A*3C
$GNGGA,110855.00,0420.00396,S,05539.74408,E,1,11,0.88,9.3,M,-47.6,M,,*7A
$GNGSA,A,3,32,29,26,28,18,16,31,,,,,,2.09,0.88,1.89*1F
$GNGSA,A,3,69,68,81,82,,,,,,,,,2.09,0.88,1.89*15
$GPGSV,5,1,17,08,00,322,,10,20,353,,16,25,253,30,18,31,070,18*74
$GPGSV,5,2,17,23,05,031,,25,03,131,17,26,29,221,27,27,34,319,28*77
$GPGSV,5,3,17,28,42,163,33,29,23,146,28,31,27,194,31,32,70,353,39*72
$GPGSV,5,4,17,36,52,277,32,40,84,353,,41,58,082,27,49,32,274,*78
$GPGSV,5,5,17,50,10,089,*4A
$GLGSV,2,1,08,68,28,000,21,69,55,297,38,70,16,225,,79,12,153,22*6E
$GLGSV,2,2,08,80,14,204,25,81,24,126,18,82,49,071,19,83,28,006,*6C
$GNGLL,0420.00396,S,05539.74408,E,110855.00,A,A*6D
$GNRMC,110856.00,A,0420.00386,S,05539.74417,E,0.119,,020625,,,A*72
$GNVTG,,T,,M,0.119,N,0.221,K,A*35
$GNGGA,110856.00,0420.00386,S,05539.74417,E,1,11,0.88,8.9,M,-47.6,M,,*7D
$GNGSA,A,3,32,29,26,28,18,16,31,,,,,,2.09,0.88,1.89*1F
$GNGSA,A,3,69,68,81,82,,,,,,,,,2.09,0.88,1.89*15
$GPGSV,5,1,17,08,00,322,,10,20,353,,16,25,253,29,18,31,070,19*7D
$GPGSV,5,2,17,23,05,031,,25,03,131,18,26,29,221,27,27,34,319,28*78
$GPGSV,5,3,17,28,42,163,30,29,23,146,29,31,27,194,24,32,70,353,40*7A
$GPGSV,5,4,17,36,52,277,32,40,84,353,,41,58,082,27,49,32,274,*78
$GPGSV,5,5,17,50,10,089,*4A
$GLGSV,2,1,08,68,28,000,19,69,55,297,37,70,16,225,,79,12,153,21*69
$GLGSV,2,2,08,80,14,204,24,81,24,126,19,82,49,071,20,83,28,006,*66
$GNGLL,0420.00386,S,05539.74417,E,110856.00,A,A*61
$GNRMC,110857.00,A,0420.00390,S,05539.74421,E,0.054,,020625,,,A*79
$GNVTG,,T,,M,0.054,N,0.100,K,A*3D
$GNGGA,110857.00,0420.00390,S,05539.74421,E,1,11,0.88,9.0,M,-47.6,M,,*76
$GNGSA,A,3,32,29,26,28,18,16,31,,,,,,2.09,0.88,1.89*1F
$GNGSA,A,3,69,68,81,82,,,,,,,,,2.09,0.88,1.89*15
$GPGSV,5,1,17,08,00,322,,10,20,353,,16,25,253,29,18,31,070,22*75
$GPGSV,5,2,17,23,05,031,,25,03,131,19,26,29,221,26,27,34,319,27*77
$GPGSV,5,3,17,28,42,163,29,29,23,146,32,31,27,194,26,32,70,353,40*7A
$GPGSV,5,4,17,36,52,277,32,40,84,353,,41,58,082,,49,32,274,*7D
$GPGSV,5,5,17,50,10,089,*4A
$GLGSV,2,1,08,68,28,000,19,69,55,297,36,70,16,225,,79,12,153,21*68
$GLGSV,2,2,08,80,14,204,26,81,24,126,20,82,49,071,24,83,28,006,*6A
$GNGLL,0420.00390,S,05539.74421,E,110857.00,A,A*62
$GNRMC,110858.00,A,0420.00389,S,05539.74426,E,0.174,,020625,,,A*7A
$GNVTG,,T,,M,0.174,N,0.322,K,A*3C
$GNGGA,110858.00,0420.00389,S,05539.74426,E,1,11,0.88,8.9,M,-47.6,M,,*7E
$GNGSA,A,3,32,29,26,28,18,16,31,,,,,,2.09,0.88,1.89*1F
$GNGSA,A,3,69,68,81,82,,,,,,,,,2.09,0.88,1.89*15
$GPGSV,5,1,17,08,00,322,,10,20,353,,16,25,253,22,18,31,070,21*7D
$GPGSV,5,2,17,23,05,031,,25,03,131,18,26,29,221,24,27,34,319,27*74
$GPGSV,5,3,17,28,42,163,22,29,23,146,32,31,27,194,26,32,70,353,38*7E
$GPGSV,5,4,17,36,52,277,31,40,84,353,,41,58,082,,49,32,274,*7E
$GPGSV,5,5,17,50,10,089,*4A
$GLGSV,2,1,08,68,28,000,16,69,55,297,29,70,16,225,,79,12,153,19*62
$GLGSV,2,2,08,80,14,204,22,81,24,126,16,82,49,071,22,83,28,006,*6D
$GNGLL,0420.00389,S,05539.74426,E,110858.00,A,A*62
$GNRMC,110859.00,A,0420.00390,S,05539.74434,E,0.294,,020625,,,A*7D
$GNVTG,,T,,M,0.294,N,0.545,K,A*36
$GNGGA,110859.00,0420.00390,S,05539.74434,E,1,11,0.88,9.1,M,-47.6,M,,*7D
$GNGSA,A,3,32,29,26,28,18,16,31,,,,,,2.09,0.88,1.89*1F
$GNGSA,A,3,69,68,81,82,,,,,,,,,2.09,0.88,1.89*15
$GPGSV,5,1,17,08,00,322,,10,20,353,,16,25,253,23,18,31,070,20*7D
$GPGSV,5,2,17,23,05,031,,25,03,131,18,26,29,221,24,27,34,319,25*76
$GPGSV,5,3,17,28,42,163,22,29,23,146,27,31,27,194,25,32,70,353,39*78
$GPGSV,5,4,17,36,52,277,,40,84,353,,41,58,082,,49,32,274,*7C
$GPGSV,5,5,17,50,10,089,*4A
$GLGSV,2,1,08,68,28,000,14,69,55,297,32,70,16,225,,79,12,153,17*64
$GLGSV,2,2,08,80,14,204,19,81,24,126,14,82,49,071,22,83,28,006,*67
$GNGLL,0420.00390,S,05539.74434,E,110859.00,A,A*68
$GNRMC,110900.00,A,0420.00405,S,05539.74427,E,0.125,,020625,,,A*70
$GNVTG,,T,,M,0.125,N,0.232,K,A*38
$GNGGA,110900.00,0420.00405,S,05539.74427,E,1,11,0.82,9.8,M,-47.6,M,,*7A
$GNGSA,A,3,32,29,26,28,18,16,31,,,,,,2.02,0.82,1.85*12
$GNGSA,A,3,69,68,81,82,,,,,,,,,2.02,0.82,1.85*18
$GPGSV,5,1,17,08,00,322,,10,20,353,,16,25,253,26,18,31,070,22*7A
$GPGSV,5,2,17,23,05,031,,25,03,131,19,26,29,221,26,27,34,319,27*77
$GPGSV,5,3,17,28,42,163,25,29,23,146,33,31,27,194,31,32,70,353,40*71
$GPGSV,5,4,17,36,52,277,,40,84,353,,41,58,082,,49,32,274,*7C
$GPGSV,5,5,17,50,10,089,*4A
$GLGSV,2,1,08,68,28,000,13,69,55,297,37,70,16,225,,79,12,153,20*62
$GLGSV,2,2,08,80,14,204,19,81,24,126,13,82,49,071,23,83,28,006,*61
$GNGLL,0420.00405,S,05539.74427,E,110900.00,A,A*6C
$GNRMC,110901.00,A,0420.00416,S,05539.74427,E,0.156,,020625,,,A*77
$GNVTG,,T,,M,0.156,N,0.289,K,A*3C
$GNGGA,110901.00,0420.00416,S,05539.74427,E,1,11,0.86,10.4,M,-47.6,M,,*49
$GNGSA,A,3,32,29,26,28,18,16,31,,,,,,2.08,0.86,1.89*10
$GNGSA,A,3,69,68,81,82,,,,,,,,,2.08,0.86,1.89*1A
$GPGSV,5,1,17,08,00,322,,10,20,353,,16,25,253,26,18,31,070,23*7B
$GPGSV,5,2,17,23,05,031,,25,03,131,17,26,29,221,26,27,34,319,27*79
$GPGSV,5,3,17,28,42,163,27,29,23,146,29,31,27,194,25,32,70,353,38*72
$GPGSV,5,4,17,36,52,277,34,40,84,353,,41,58,082,,49,32,274,*7B
$GPGSV,5,5,17,50,10,089,*4A
$GLGSV,2,1,08,68,28,000,14,69,55,297,34,70,16,225,18,79,12,153,22*6D
$GLGSV,2,2,08,80,14,204,20,81,24,126,12,82,49,071,21,83,28,006,*68
$GNGLL,0420.00416,S,05539.74427,E,110901.00,A,A*6F
$GNRMC,110902.00,A,0420.00433,S,05539.74417,E,0.193,,020625,,,A*79
$GNVTG,,T,,M,0.193,N,0.358,K,A*38
$GNGGA,110902.00,0420.00433,S,05539.74417,E,1,11,0.82,11.1,M,-47.6,M,,*4E
$GNGSA,A,3,32,29,26,28,18,16,31,,,,,,2.02,0.82,1.85*12
$GNGSA,A,3,69,68,81,82,,,,,,,,,2.02,0.82,1.85*18
$GPGSV,5,1,17,08,00,322,,10,20,353,,16,25,253,24,18,31,070,20*7A
$GPGSV,5,2,17,23,05,031,,25,03,131,16,26,29,221,24,27,34,319,25*78
$GPGSV,5,3,17,28,42,163,26,29,23,146,28,31,27,194,24,32,70,353,36*7D
$GPGSV,5,4,17,36,52,277,29,40,84,353,,41,58,082,,49,32,274,*77
$GPGSV,5,5,17,50,10,089,*4A
$GLGSV,2,1,08,68,28,000,12,69,55,297,30,70,16,225,15,79,12,153,22*62
$GLGSV,2,2,08,80,14,204,20,81,24,126,12,82,49,071,18,83,28,006,*62
$GNGLL,0420.00433,S,05539.74417,E,110902.00,A,A*68
$GNRMC,110903.00,A,0420.00442,S,05539.74418,E,0.032,,020625,,,A*7B
$GNVTG,,T,,M,0.032,N,0.059,K,A*30
$GNGGA,110903.00,0420.00442,S,05539.74418,E,1,11,0.82,11.4,M,-47.6,M,,*43
$GNGSA,A,3,32,29,26,28,18,16,31,,,,,,2.02,0.82,1.85*12
$GNGSA,A,3,69,68,81,82,,,,,,,,,2.02,0.82,1.85*18
$GPGSV,5,1,17,08,00,322,,10,20,353,,16,25,253,24,18,31,070,17*7E
$GPGSV,5,2,17,23,05,031,,25,03,131,12,26,29,221,23,27,34,319,25*7B
$GPGSV,5,3,17,28,42,163,25,29,23,146,29,31,27,194,24,32,70,353,36*7F
$GPGSV,5,4,17,36,52,277,29,40,84,353,,41,58,082,,49,32,274,*77
$GPGSV,5,5,17,50,10,089,*4A
$GLGSV,2,1,08,68,28,000,13,69,55,297,30,70,16,225,10,79,12,153,22*66
$GLGSV,2,2,08,80,14,204,20,81,24,126,18,82,49,071,15,83,28,006,*65
$GNGLL,0420.00442,S,05539.74418,E,110903.00,A,A*60
$GNRMC,110904.00,A,0420.00453,S,05539.74420,E,0.044,,020625,,,A*76
$GNVTG,,T,,M,0.044,N,0.082,K,A*37
$GNGGA,110904.00,0420.00453,S,05539.74420,E,1,11,1.11,11.9,M,-47.6,M,,*49
$GNGSA,A,3,32,29,26,28,18,16,31,,,,,,2.66,1.11,2.41*10
$GNGSA,A,3,69,68,81,82,,,,,,,,,2.66,1.11,2.41*1A
$GPGSV,5,1,17,08,00,322,,10,20,353,,16,25,253,26,18,31,070,21*79
$GPGSV,5,2,17,23,05,031,,25,03,131,14,26,29,221,26,27,34,319,26*7B
$GPGSV,5,3,17,28,42,163,26,29,23,146,33,31,27,194,25,32,70,353,38*78
$GPGSV,5,4,17,36,52,277,32,40,84,353,,41,58,082,28,49,32,274,*77
$GPGSV,5,5,17,50,10,089,*4A
$GLGSV,2,1,08,68,28,000,12,69,55,297,32,70,16,225,08,79,12,153,21*6F
$GLGSV,2,2,08,80,14,204,19,81,24,126,16,82,49,071,14,83,28,006,*60
$GNGLL,0420.00453,S,05539.74420,E,110904.00,A,A*6C
$GNRMC,110905.00,A,0420.00444,S,05539.74442,E,0.739,,020625,,,A*78
$GNVTG,,T,,M,0.739,N,1.369,K,A*3D
$GNGGA,110905.00,0420.00444,S,05539.74442,E,1,11,0.82,12.2,M,-47.6,M,,*49
$GNGSA,A,3,32,29,26,28,18,16,31,,,,,,2.02,0.82,1.85*12
$GNGSA,A,3,69,68,81,82,,,,,,,,,2.02,0.82,1.85*18
$GPGSV,5,1,17,08,00,322,,10,20,353,,16,25,253,24,18,31,070,21*7B
$GPGSV,5,2,17,23,05,031,,25,03,131,14,26,29,221,24,27,34,319,25*7A
$GPGSV,5,3,17,28,42,163,25,29,23,146,28,31,27,194,22,32,70,353,36*78
$GPGSV,5,4,17,36,52,277,28,40,84,353,,41,58,082,,49,32,274,*76
$GPGSV,5,5,17,50,10,089,*4A
$GLGSV,2,1,08,68,28,000,11,69,55,297,31,70,16,225,09,79,12,153,20*6F
$GLGSV,2,2,08,80,14,204,18,81,24,126,17,82,49,071,17,83,28,006,*63
$GNGLL,0420.00444,S,05539.74442,E,110905.00,A,A*6F
$GNRMC,110906.00,A,0420.00448,S,05539.74446,E,0.323,,020625,,,A*7C
$GNVTG,,T,,M,0.323,N,0.598,K,A*3B
$GNGGA,110906.00,0420.00448,S,05539.74446,E,1,11,0.82,12.5,M,-47.6,M,,*45
$GNGSA,A,3,32,29,26,28,18,16,31,,,,,,2.02,0.82,1.85*12
$GNGSA,A,3,69,68,81,82,,,,,,,,,2.02,0.82,1.85*18
$GPGSV,5,1,17,08,00,322,,10,20,353,,16,25,253,24,18,31,070,24*7E
$GPGSV,5,2,17,23,05,031,,25,03,131,16,26,29,221,25,27,34,319,28*74
$GPGSV,5,3,17,28,42,163,26,29,23,146,31,31,27,194,24,32,70,353,40*74
$GPGSV,5,4,17,36,52,277,32,40,84,353,,41,58,082,,49,32,274,*7D
$GPGSV,5,5,17,50,10,089,*4A
$GLGSV,2,1,08,68,28,000,11,69,55,297,35,70,16,225,08,79,12,153,18*61
$GLGSV,2,2,08,80,14,204,20,81,24,126,20,82,49,071,20,83,28,006,*68
$GNGLL,0420.00448,S,05539.74446,E,110906.00,A,A*64
$GNRMC,110907.00,A,0420.00464,S,05539.74447,E,0.093,,020625,,,A*7A
$GNVTG,,T,,M,0.093,N,0.172,K,A*33
$GNGGA,110907.00,0420.00464,S,05539.74447,E,1,11,0.82,13.1,M,-47.6,M,,*4E
$GNGSA,A,3,32,29,26,28,18,16,31,,,,,,2.02,0.82,1.85*12
$GNGSA,A,3,69,68,81,82,,,,,,,,,2.02,0.82,1.85*18
$GPGSV,5,1,17,08,00,322,,10,20,353,,16,25,253,23,18,31,070,23*7E
$GPGSV,5,2,17,23,05,031,,25,03,131,17,26,29,221,25,27,34,319,27*7A
$GPGSV,5,3,17,28,42,163,28,29,23,146,30,31,27,194,24,32,70,353,34*78
$GPGSV,5,4,17,36,52,277,31,40,84,353,,41,58,082,,49,32,274,*7E
$GPGSV,5,5,17,50,10,089,*4A
$GLGSV,2,1,08,68,28,000,14,69,55,297,31,70,16,225,08,79,12,153,18*60
$GLGSV,2,2,08,80,14,204,21,81,24,126,19,82,49,071,20,83,28,006,*63
$GNGLL,0420.00464,S,05539.74447,E,110907.00,A,A*6A
$GNRMC,110908.00,A,0420.00456,S,05539.74460,E,0.432,,020625,,,A*7E
$GNVTG,,T,,M,0.432,N,0.800,K,A*30
$GNGGA,110908.00,0420.00456,S,05539.74460,E,1,11,0.82,13.2,M,-47.6,M,,*46
$GNGSA,A,3,32,29,26,28,18,16,31,,,,,,2.02,0.82,1.85*12
$GNGSA,A,3,69,68,81,82,,,,,,,,,2.02,0.82,1.85*18
$GPGSV,5,1,17,08,00,322,,10,20,353,,16,25,253,22,18,31,070,21*7D
$GPGSV,5,2,17,23,05,031,,25,03,131,16,26,29,221,25,27,34,319,24*78
$GPGSV,5,3,17,28,42,163,27,29,23,146,29,31,27,194,23,32,70,353,35*79
$GPGSV,5,4,17,36,52,277,29,40,84,353,,41,58,082,,49,32,274,*77
$GPGSV,5,5,17,50,10,089,*4A
$GLGSV,2,1,08,68,27,000,09,69,55,297,31,70,16,225,12,79,12,153,18*68
$GLGSV,2,2,08,80,14,204,20,81,24,126,19,82,49,071,20,83,28,006,*62
$GNGLL,0420.00456,S,05539.74460,E,110908.00,A,A*61
$GNRMC,110909.00,A,0420.00456,S,05539.74463,E,0.157,,020625,,,A*7A
$GNVTG,,T,,M,0.157,N,0.291,K,A*34
$GNGGA,110909.00,0420.00456,S,05539.74463,E,1,11,0.82,13.4,M,-47.6,M,,*42
$GNGSA,A,3,32,29,26,28,18,16,31,,,,,,2.02,0.82,1.85*12
$GNGSA,A,3,69,68,81,82,,,,,,,,,2.02,0.82,1.85*18
$GPGSV,5,1,17,08,00,322,,10,20,353,,16,25,253,24,18,31,070,21*7B
$GPGSV,5,2,17,23,05,031,,25,03,131,16,26,29,221,29,27,34,319,25*75
$GPGSV,5,3,17,28,42,163,27,29,23,146,32,31,27,194,26,32,70,353,37*74
$GPGSV,5,4,17,36,52,277,32,40,84,353,,41,58,082,,49,32,274,*7D
$GPGSV,5,5,17,50,10,089,*4A
$GLGSV,2,1,08,68,27,000,17,69,55,299,32,70,16,225,15,79,12,153,17*62
$GLGSV,2,2,08,80,14,204,17,81,24,126,18,82,49,071,22,83,28,006,*65
$GNGLL,0420.00456,S,05539.74463,E,110909.00,A,A*63
$GNRMC,110910.00,A,0420.00459,S,05539.74465,E,0.099,,020625,,,A*78
$GNVTG,,T,,M,0.099,N,0.184,K,A*30
$GNGGA,110910.00,0420.00459,S,05539.74465,E,1,11,1.11,13.6,M,-47.6,M,,*4A
$GNGSA,A,3,32,29,26,28,18,16,31,,,,,,2.66,1.11,2.41*10
$GNGSA,A,3,69,68,81,82,,,,,,,,,2.66,1.11,2.41*1A
$GPGSV,5,1,17,08,00,322,,10,20,353,,16,25,253,23,18,31,070,18*76
$GPGSV,5,2,17,23,05,031,,25,03,131,16,26,29,221,22,27,34,319,23*78
$GPGSV,5,3,17,28,42,163,26,29,23,146,28,31,27,194,26,32,70,353,35*7C
$GPGSV,5,4,17,36,52,277,29,40,84,353,,41,58,082,,49,32,274,*77
$GPGSV,5,5,17,50,10,089,*4A
$GLGSV,2,1,08,68,27,000,11,69,55,299,31,70,17,226,15,79,12,153,17*65
$GLGSV,2,2,08,80,14,204,10,81,24,126,16,82,49,071,22,83,28,006,*6C
$GNGLL,0420.00459,S,05539.74465,E,110910.00,A,A*62
$GNRMC,110911.00,A,0420.00456,S,05539.74468,E,0.009,,020625,,,A*72
$GNVTG,,T,,M,0.009,N,0.016,K,A*33
$GNGGA,110911.00,0420.00456,S,05539.74468,E,1,11,0.82,13.7,M,-47.6,M,,*43
$GNGSA,A,3,32,29,26,28,18,16,31,,,,,,2.02,0.82,1.85*12
$GNGSA,A,3,69,68,81,82,,,,,,,,,2.02,0.82,1.85*18
$GPGSV,5,1,17,08,00,322,,10,20,353,,16,25,253,25,18,31,070,15*7D
$GPGSV,5,2,17,23,05,031,,25,03,131,16,26,29,221,24,27,34,319,26*7B
$GPGSV,5,3,17,28,42,163,25,29,23,146,34,31,27,194,27,32,70,353,40*71
$GPGSV,5,4,17,36,52,277,34,40,84,353,,41,58,082,,49,32,274,*7B
$GPGSV,5,5,17,50,10,089,*4A
$GLGSV,2,1,08,68,27,000,14,69,55,299,34,70,17,226,17,79,12,153,21*62
$GLGSV,2,2,08,80,14,204,17,81,24,126,17,82,49,071,24,83,28,006,*6C
$GNGLL,0420.00456,S,05539.74468,E,110911.00,A,A*61
$GNRMC,110912.00,A,0420.00444,S,05539.74471,E,0.169,,020625,,,A*7D
$GNVTG,,T,,M,0.169,N,0.314,K,A*35
$GNGGA,110912.00,0420.00444,S,05539.74471,E,1,11,0.82,13.6,M,-47.6,M,,*4A
$GNGSA,A,3,32,29,26,28,18,16,31,,,,,,2.02,0.82,1.85*12
$GNGSA,A,3,69,68,81,82,,,,,,,,,2.02,0.82,1.85*18
$GPGSV,5,1,17,08,00,322,,10,20,353,,16,25,253,26,18,31,070,18*73
$GPGSV,5,2,17,23,05,031,,25,03,131,16,26,29,221,25,27,34,319,27*7B
$GPGSV,5,3,17,28,42,163,23,29,23,146,35,31,27,194,27,32,70,353,40*76
$GPGSV,5,4,17,36,52,277,33,40,84,353,,41,58,082,,49,32,274,*7C
$GPGSV,5,5,17,50,10,089,*4A
$GLGSV,2,1,08,68,27,000,18,69,55,299,34,70,17,226,18,79,12,153,21*61
$GLGSV,2,2,08,80,14,204,19,81,24,126,22,82,49,071,21,83,28,006,*61
$GNGLL,0420.00444,S,05539.74471,E,110912.00,A,A*69
$GNRMC,110913.00,A,0420.00448,S,05539.74474,E,0.010,,020625,,,A*7A
$GNVTG,,T,,M,0.010,N,0.019,K,A*34
$GNGGA,110913.00,0420.00448,S,05539.74474,E,1,11,0.82,14.1,M,-47.6,M,,*42
$GNGSA,A,3,32,29,26,28,18,16,31,,,,,,2.02,0.82,1.85*12
$GNGSA,A,3,69,68,81,82,,,,,,,,,2.02,0.82,1.85*18
$GPGSV,5,1,17,08,00,322,,10,20,353,,16,25,253,26,18,31,070,19*72
$GPGSV,5,2,17,23,05,031,,25,03,131,16,26,29,221,27,27,34,319,29*77
$GPGSV,5,3,17,28,42,163,25,29,23,146,35,31,27,194,27,32,70,353,40*70
$GPGSV,5,4,17,36,52,277,34,40,84,353,,41,58,082,,49,32,274,*7B
$GPGSV,5,5,17,50,10,089,*4A
$GLGSV,2,1,08,68,27,000,19,69,55,299,35,70,17,226,17,79,12,153,19*65
$GLGSV,2,2,08,80,14,204,22,81,24,126,25,82,49,071,22,83,28,006,*6D
$GNGLL,0420.00448,S,05539.74474,E,110913.00,A,A*61
$GNRMC,110914.00,A,0420.00446,S,05539.74480,E,0.117,,020625,,,A*7E
$GNVTG,,T,,M,0.117,N,0.216,K,A*3F
$GNGGA,110914.00,0420.00446,S,05539.74480,E,1,11,0.82,14.4,M,-47.6,M,,*45
$GNGSA,A,3,32,29,26,28,18,16,31,,,,,,2.02,0.82,1.85*12
$GNGSA,A,3,69,68,81,82,,,,,,,,,2.02,0.82,1.85*18
$GPGSV,5,1,17,08,00,322,,10,20,353,,16,25,253,25,18,31,070,18*70
$GPGSV,5,2,17,23,05,031,,25,03,131,15,26,29,221,27,27,34,319,29*74
$GPGSV,5,3,17,28,42,163,27,29,23,146,35,31,27,194,27,32,70,353,40*72
$GPGSV,5,4,17,36,52,277,33,40,84,353,,41,58,082,,49,32,274,*7C
$GPGSV,5,5,17,50,10,089,*4A
$GLGSV,2,1,08,68,27,000,16,69,55,299,34,70,17,226,17,79,12,153,15*67
$GLGSV,2,2,08,80,14,204,23,81,24,126,25,82,49,071,23,83,28,006,*6D
$GNGLL,0420.00446,S,05539.74480,E,110914.00,A,A*63
$GNRMC,110915.00,A,0420.00444,S,05539.74481,E,0.021,,020625,,,A*78
$GNVTG,,T,,M,0.021,N,0.038,K,A*35
$GNGGA,110915.00,0420.00444,S,05539.74481,E,1,11,0.82,14.6,M,-47.6,M,,*45
$GNGSA,A,3,32,29,26,28,18,16,31,,,,,,2.02,0.82,1.85*12
$GNGSA,A,3,69,68,81,82,,,,,,,,,2.02,0.82,1.85*18
$GPGSV,5,1,17,08,00,322,,10,20,353,,16,25,253,24,18,31,070,16*7F
$GPGSV,5,2,17,23,05,031,,25,03,131,13,26,29,221,28,27,34,319,29*7D
$GPGSV,5,3,17,28,42,163,27,29,23,146,35,31,27,194,26,32,70,353,40*73
$GPGSV,5,4,17,36,52,277,33,40,84,353,,41,58,082,,49,32,274,*7C
$GPGSV,5,5,17,50,10,089,*4A
$GLGSV,2,1,08,68,27,000,17,69,55,299,35,70,17,226,18,79,12,153,15*68
$GLGSV,2,2,08,80,14,204,22,81,24,126,23,82,49,071,23,83,28,006,*6A
$GNGLL,0420.00444,S,05539.74481,E,110915.00,A,A*61
$GNRMC,110916.00,A,0420.00421,S,05539.74490,E,0.203,,020625,,,A*7A
$GNVTG,,T,,M,0.203,N,0.376,K,A*3E
$GNGGA,110916.00,0420.00421,S,05539.74490,E,1,11,0.82,14.0,M,-47.6,M,,*43
$GNGSA,A,3,32,29,26,28,18,16,31,,,,,,2.02,0.82,1.85*12
$GNGSA,A,3,69,68,81,82,,,,,,,,,2.02,0.82,1.85*18
$GPGSV,5,1,17,08,00,322,,10,20,353,,16,25,253,23,18,31,070,15*7B
$GPGSV,5,2,17,23,05,031,,25,03,131,13,26,29,221,28,27,34,319,28*7C
$GPGSV,5,3,17,28,42,163,29,29,23,146,33,31,27,194,28,32,70,353,40*75
$GPGSV,5,4,17,36,52,277,31,40,84,353,,41,58,082,,49,32,274,*7E
$GPGSV,5,5,17,50,10,089,*4A
$GLGSV,2,1,08,68,27,000,18,69,55,299,35,70,17,226,18,79,12,153,15*67
$GLGSV,2,2,08,80,14,204,20,81,24,126,21,82,49,071,23,83,28,006,*6A
$GNGLL,0420.00421,S,05539.74490,E,110916.00,A,A*61
$GNRMC,110917.00,A,0420.00412,S,05539.74495,E,0.149,,020625,,,A*73
$GNVTG,,T,,M,0.149,N,0.276,K,A*32
$GNGGA,110917.00,0420.00412,S,05539.74495,E,1,11,0.82,13.9,M,-47.6,M,,*49
$GNGSA,A,3,32,29,26,28,18,16,31,,,,,,2.02,0.82,1.85*12
$GNGSA,A,3,69,68,81,82,,,,,,,,,2.02,0.82,1.85*18
$GPGSV,5,1,17,08,00,322,,10,20,353,,16,25,253,23,18,31,070,18*76
$GPGSV,5,2,17,23,05,031,,25,03,131,15,26,29,221,29,27,34,319,30*72
$GPGSV,5,3,17,28,42,163,30,29,23,146,34,31,27,194,28,32,70,353,42*78
$GPGSV,5,4,17,36,52,277,33,40,84,353,30,41,58,082,,49,32,274,*7F
$GPGSV,5,5,17,50,10,089,*4A
$GLGSV,2,1,08,68,27,000,18,69,55,299,34,70,17,226,19,79,12,153,15*67
$GLGSV,2,2,08,80,14,204,18,81,24,126,20,82,49,071,25,83,28,006,*66
$GNGLL,0420.00412,S,05539.74495,E,110917.00,A,A*65
$GNRMC,110918.00,A,0420.00408,S,05539.74496,E,0.074,,020625,,,A*7B
$GNVTG,,T,,M,0.074,N,0.137,K,A*3B
$GNGGA,110918.00,0420.00408,S,05539.74496,E,1,11,0.82,13.9,M,-47.6,M,,*4E
$GNGSA,A,3,32,29,26,28,18,16,31,,,,,,2.02,0.82,1.85*12
$GNGSA,A,3,69,68,81,82,,,,,,,,,2.02,0.82,1.85*18
$GPGSV,5,1,17,08,00,322,,10,20,353,,16,25,253,25,18,31,070,21*7A
$GPGSV,5,2,17,23,05,031,,25,03,131,15,26,29,221,29,27,34,319,30*72
$GPGSV,5,3,17,28,42,163,29,29,23,146,35,31,27,194,28,32,70,353,41*72
$GPGSV,5,4,17,36,52,277,34,40,84,353,28,41,58,082,,49,32,274,*71
$GPGSV,5,5,17,50,10,089,*4A
$GLGSV,2,1,08,68,27,000,18,69,55,299,35,70,17,226,19,79,12,153,16*65
$GLGSV,2,2,08,80,14,204,18,81,24,126,21,82,49,071,23,83,28,006,*61
$GNGLL,0420.00408,S,05539.74496,E,110918.00,A,A*62
$GNRMC,110919.00,A,0420.00405,S,05539.74495,E,0.018,,020625,,,A*7E
$GNVTG,,T,,M,0.018,N,0.034,K,A*33
$GNGGA,110919.00,0420.00405,S,05539.74495,E,1,11,0.82,13.8,M,-47.6,M,,*40
$GNGSA,A,3,32,29,26,28,18,16,31,,,,,,2.02,0.82,1.85*12
$GNGSA,A,3,69,68,81,82,,,,,,,,,2.02,0.82,1.85*18
$GPGSV,5,1,17,08,00,322,,10,20,353,,16,25,253,24,18,31,070,22*78
$GPGSV,5,2,17,23,05,031,,25,03,131,14,26,29,221,28,27,34,319,29*7A
$GPGSV,5,3,17,28,42,163,28,29,23,146,35,31,27,194,28,32,70,353,41*73
$GPGSV,5,4,17,36,52,277,34,40,84,353,29,41,58,082,,49,32,274,*70
$GPGSV,5,5,17,50,10,089,*4A
$GLGSV,2,1,08,68,27,000,17,69,55,299,35,70,17,226,19,79,12,152,14*69
$GLGSV,2,2,08,80,14,204,19,81,24,126,21,82,49,071,25,83,28,006,*66
$GNGLL,0420.00405,S,05539.74495,E,110919.00,A,A*6D
$GNRMC,110920.00,A,0420.00404,S,05539.74492,E,0.056,,020625,,,A*78
$GNVTG,,T,,M,0.056,N,0.104,K,A*3B
$GNGGA,110920.00,0420.00404,S,05539.74492,E,1,11,0.82,13.8,M,-47.6,M,,*4C
$GNGSA,A,3,32,29,26,28,18,16,31,,,,,,2.02,0.82,1.85*12
$GNGSA,A,3,69,68,81,82,,,,,,,,,2.02,0.82,1.85*18
$GPGSV,5,1,17,08,00,322,17,10,20,353,,16,25,253,23,18,31,070,23*78
$GPGSV,5,2,17,23,05,031,,25,03,131,15,26,29,221,26,27,34,319,30*7D
$GPGSV,5,3,17,28,42,163,28,29,23,146,35,31,27,194,30,32,70,353,41*7A
$GPGSV,5,4,17,36,52,277,33,40,84,353,30,41,58,082,,49,32,274,*7F
$GPGSV,5,5,17,50,10,089,*4A
$GLGSV,2,1,08,68,27,000,17,69,55,299,34,70,17,226,19,79,12,152,15*69
$GLGSV,2,2,08,80,14,204,19,81,24,126,20,82,49,071,25,83,28,006,*67
$GNGLL,0420.00404,S,05539.74492,E,110920.00,A,A*61
$GNRMC,110921.00,A,0420.00399,S,05539.74489,E,0.039,,020625,,,A*79
$GNVTG,,T,,M,0.039,N,0.072,K,A*32
$GNGGA,110921.00,0420.00399,S,05539.74489,E,1,11,0.82,13.6,M,-47.6,M,,*4A
$GNGSA,A,3,32,29,26,28,18,16,31,,,,,,2.02,0.82,1.84*13
$GNGSA,A,3,69,68,81,82,,,,,,,,,2.02,0.82,1.84*19
$GPGSV,5,1,17,08,00,322,15,10,20,353,,16,25,253,22,18,31,070,25*7D
$GPGSV,5,2,17,23,05,031,,25,03,131,15,26,29,221,24,27,34,319,29*77
$GPGSV,5,3,17,28,42,163,27,29,23,146,35,31,27,194,29,32,70,353,39*72
$GPGSV,5,4,17,36,52,277,34,40,84,353,30,41,58,082,,49,32,274,*78
$GPGSV,5,5,17,50,10,089,*4A
$GLGSV,2,1,08,68,27,000,17,69,55,299,34,70,17,226,18,79,12,152,17*6A
$GLGSV,2,2,08,80,14,204,19,81,24,127,20,82,49,071,24,83,28,006,*67
$GNGLL,0420.00399,S,05539.74489,E,110921.00,A,A*69
$GNRMC,110922.00,A,0420.00392,S,05539.74488,E,0.131,,020625,,,A*79
$GNVTG,,T,,M,0.131,N,0.243,K,A*3B
$GNGGA,110922.00,0420.00392,S,05539.74488,E,1,11,0.82,13.4,M,-47.6,M,,*41
$GNGSA,A,3,32,29,26,28,18,16,31,,,,,,2.02,0.82,1.84*13
$GNGSA,A,3,69,68,81,82,,,,,,,,,2.02,0.82,1.84*19
$GPGSV,5,1,17,08,00,322,13,10,20,353,,16,25,253,21,18,31,070,24*79
$GPGSV,5,2,17,23,05,031,,25,03,131,12,26,29,221,25,27,34,319,29*71
$GPGSV,5,3,17,28,42,163,27,29,23,146,35,31,27,194,28,32,70,353,40*7D
$GPGSV,5,4,17,36,52,277,33,40,84,353,30,41,58,082,,49,32,274,*7F
$GPGSV,5,5,17,50,10,089,*4A
$GLGSV,2,1,08,68,27,000,17,69,55,299,34,70,17,226,18,79,12,152,19*64
$GLGSV,2,2,08,80,14,204,21,81,24,127,18,82,49,072,23,83,28,006,*63
$GNGLL,0420.00392,S,05539.74488,E,110922.00,A,A*60
$GNRMC,110923.00,A,0420.00388,S,05539.74482,E,0.094,,020625,,,A*77
$GNVTG,,T,,M,0.094,N,0.175,K,A*33
$GNGGA,110923.00,0420.00388,S,05539.74482,E,1,11,0.82,13.2,M,-47.6,M,,*47
$GNGSA,A,3,32,29,26,28,18,16,31,,,,,,2.02,0.82,1.84*13
$GNGSA,A,3,69,68,81,82,,,,,,,,,2.02,0.82,1.84*19
$GPGSV,5,1,17,08,00,322,11,10,20,353,,16,25,253,22,18,31,070,22*7E
$GPGSV,5,2,17,23,05,031,,25,03,131,09,26,29,221,25,27,34,319,30*73
$GPGSV,5,3,17,28,42,163,27,29,23,146,35,31,27,194,28,32,70,353,41*7C
$GPGSV,5,4,17,36,52,277,33,40,84,353,29,41,58,082,,49,32,274,*77
$GPGSV,5,5,17,50,10,089,*4A
$GLGSV,2,1,08,68,27,000,18,69,55,299,35,70,17,226,18,79,12,152,20*60
$GLGSV,2,2,08,80,14,204,23,81,24,127,22,82,49,072,22,83,29,006,*68
$GNGLL,0420.00388,S,05539.74482,E,110923.00,A,A*60
$GNRMC,110924.00,A,0420.00383,S,05539.74477,E,0.100,,020625,,,A*7D
$GNVTG,,T,,M,0.100,N,0.186,K,A*33
$GNGGA,110924.00,0420.00383,S,05539.74477,E,1,11,0.82,13.2,M,-47.6,M,,*41
$GNGSA,A,3,32,29,26,28,18,16,31,,,,,,2.02,0.82,1.84*13
$GNGSA,A,3,69,68,81,82,,,,,,,,,2.02,0.82,1.84*19
$GPGSV,5,1,17,08,00,322,10,10,20,353,,16,25,253,21,18,31,070,19*74
$GPGSV,5,2,17,23,05,031,,25,03,131,15,26,29,221,26,27,34,319,30*7D
$GPGSV,5,3,17,28,42,163,27,29,23,146,36,31,27,194,29,32,70,353,41*7E
$GPGSV,5,4,17,36,52,277,32,40,84,353,28,41,58,082,,49,32,274,*77
$GPGSV,5,5,17,50,10,089,*4A
$GLGSV,2,1,08,68,27,000,19,69,55,299,35,70,17,226,17,79,12,152,20*6E
$GLGSV,2,2,08,80,14,204,21,81,24,127,21,82,49,072,21,83,29,006,*6A
$GNGLL,0420.00383,S,05539.74477,E,110924.00,A,A*66
$GNRMC,110925.00,A,0420.00372,S,05539.74475,E,0.030,,020625,,,A*72
$GNVTG,,T,,M,0.030,N,0.056,K,A*3D
$GNGGA,110925.00,0420.00372,S,05539.74475,E,1,11,0.82,12.9,M,-47.6,M,,*46
$GNGSA,A,3,32,29,26,28,18,16,31,,,,,,2.02,0.82,1.84*13
$GNGSA,A,3,69,68,81,82,,,,,,,,,2.02,0.82,1.84*19
$GPGSV,5,1,17,08,00,322,09,10,20,353,,16,25,253,22,18,31,070,17*71
$GPGSV,5,2,17,23,05,031,,25,03,131,14,26,29,221,28,27,34,319,30*72
$GPGSV,5,3,17,28,42,163,30,29,23,146,36,31,27,194,29,32,70,353,42*7B
$GPGSV,5,4,17,36,52,277,33,40,84,353,30,41,58,082,,49,32,274,*7F
$GPGSV,5,5,17,50,10,089,*4A
$GLGSV,2,1,08,68,27,000,20,69,55,299,34,70,17,226,18,79,12,152,18*61
$GLGSV,2,2,08,80,14,204,21,81,24,127,22,82,49,072,19,83,29,006,*62
$GNGLL,0420.00372,S,05539.74475,E,110925.00,A,A*6B
$GNRMC,110926.00,A,0420.00361,S,05539.74470,E,0.066,,020625,,,A*75
$GNVTG,,T,,M,0.066,N,0.123,K,A*3D
$GNGGA,110926.00,0420.00361,S,05539.74470,E,1,11,0.82,12.5,M,-47.6,M,,*4E
$GNGSA,A,3,32,29,26,28,18,16,31,,,,,,2.02,0.82,1.84*13
$GNGSA,A,3,69,68,81,82,,,,,,,,,2.02,0.82,1.84*19
$GPGSV,5,1,17,08,00,322,10,10,20,353,,16,25,253,21,18,31,070,17*7A
$GPGSV,5,2,17,23,05,031,,25,03,131,18,26,29,221,26,27,34,319,30*70
$GPGSV,5,3,17,28,42,163,31,29,23,146,35,31,27,194,29,32,70,353,42*79
$GPGSV,5,4,17,36,52,277,33,40,84,353,29,41,58,082,,49,32,274,*77
$GPGSV,5,5,17,50,10,089,*4A
$GLGSV,2,1,08,68,27,000,20,69,55,299,34,70,17,226,18,79,12,152,13*6A
$GLGSV,2,2,08,80,14,204,20,81,24,127,21,82,49,072,19,83,29,006,*60
$GNGLL,0420.00361,S,05539.74470,E,110926.00,A,A*6F
$GNRMC,110927.00,A,0420.00360,S,05539.74462,E,0.112,,020625,,,A*74
$GNVTG,,T,,M,0.112,N,0.207,K,A*3A
$GNGGA,110927.00,0420.00360,S,05539.74462,E,1,11,0.82,12.4,M,-47.6,M,,*4C
$GNGSA,A,3,32,29,26,28,18,16,31,,,,,,2.02,0.82,1.84*13
$GNGSA,A,3,69,68,81,82,,,,,,,,,2.02,0.82,1.84*19
$GPGSV,5,1,17,08,00,322,09,10,20,353,,16,25,253,21,18,31,070,20*76
$GPGSV,5,2,17,23,05,031,,25,03,131,19,26,29,221,25,27,34,319,30*72
$GPGSV,5,3,17,28,42,163,29,29,23,146,36,31,27,194,29,32,70,353,41*70
$GPGSV,5,4,17,36,52,277,34,40,84,353,31,41,58,082,,49,32,274,*79
$GPGSV,5,5,17,50,10,089,*4A
$GLGSV,2,1,08,68,27,000,19,69,55,299,33,70,17,226,19,79,12,152,11*64
$GLGSV,2,2,08,80,14,204,20,81,24,127,22,82,49,072,21,83,29,006,*68
$GNGLL,0420.00360,S,05539.74462,E,110927.00,A,A*6C
$GNRMC,110928.00,A,0420.00358,S,05539.74458,E,0.041,,020625,,,A*7E
$GNVTG,,T,,M,0.041,N,0.076,K,A*39
$GNGGA,110928.00,0420.00358,S,05539.74458,E,1,11,0.82,12.3,M,-47.6,M,,*46
$GNGSA,A,3,32,29,26,28,18,16,31,,,,,,2.02,0.82,1.84*13
$GNGSA,A,3,69,68,81,82,,,,,,,,,2.02,0.82,1.84*19
$GPGSV,5,1,17,08,00,322,08,10,20,353,,16,25,253,22,18,31,070,23*77
$GPGSV,5,2,17,23,05,031,,25,03,131,18,26,29,221,24,27,34,319,29*7A
$GPGSV,5,3,17,28,42,163,29,29,23,146,36,31,27,194,30,32,70,353,41*78
$GPGSV,5,4,17,36,52,277,34,40,84,353,31,41,58,082,,49,32,274,*79
$GPGSV,5,5,17,50,10,089,*4A
$GLGSV,2,1,08,68,27,000,19,69,55,299,33,70,17,226,18,79,12,152,14*60
$GLGSV,2,2,08,80,14,204,21,81,24,127,23,82,49,072,21,83,29,006,*68
$GNGLL,0420.00358,S,05539.74458,E,110928.00,A,A*61
$GNRMC,110929.00,A,0420.00363,S,05539.74446,E,0.219,,020625,,,A*77
$GNVTG,,T,,M,0.219,N,0.406,K,A*35
$GNGGA,110929.00,0420.00363,S,05539.74446,E,1,11,0.82,12.3,M,-47.6,M,,*40
$GNGSA,A,3,32,29,26,28,18,16,31,,,,,,2.02,0.82,1.84*13
$GNGSA,A,3,69,68,81,82,,,,,,,,,2.02,0.82,1.84*19
$GPGSV,5,1,17,08,00,322,,10,20,353,,16,25,253,21,18,31,070,24*7B
$GPGSV,5,2,17,23,05,031,,25,03,131,17,26,29,221,22,27,34,319,29*73
$GPGSV,5,3,17,28,42,163,29,29,23,146,37,31,27,194,28,32,70,353,40*71
$GPGSV,5,4,17,36,52,277,34,40,84,353,31,41,58,082,,49,32,274,*79
$GPGSV,5,5,17,50,10,089,*4A
$GLGSV,2,1,08,68,27,000,19,69,55,299,33,70,17,226,19,79,12,152,15*60
$GLGSV,2,2,08,80,14,204,22,81,24,127,25,82,49,072,19,83,29,006,*66
$GNGLL,0420.00363,S,05539.74446,E,110929.00,A,A*67
$GNRMC,110930.00,A,0420.00366,S,05539.74441,E,0.070,,020625,,,A*70
$GNVTG,,T,,M,0.070,N,0.129,K,A*30
$GNGGA,110930.00,0420.00366,S,05539.74441,E,1,11,0.82,12.4,M,-47.6,M,,*4D
$GNGSA,A,3,32,29,26,28,18,16,31,,,,,,2.02,0.82,1.84*13
$GNGSA,A,3,69,68,81,82,,,,,,,,,2.02,0.82,1.84*19
$GPGSV,5,1,17,08,00,322,,10,20,353,,16,25,253,23,18,31,070,23*7E
$GPGSV,5,2,17,23,05,031,,25,03,131,16,26,29,221,22,27,34,319,29*72
$GPGSV,5,3,17,28,42,163,28,29,23,146,36,31,27,194,28,32,70,353,41*70
$GPGSV,5,4,17,36,52,277,33,40,84,353,31,41,58,082,,49,32,274,*7E
$GPGSV,5,5,17,50,10,089,*4A
$GLGSV,2,1,08,68,27,000,20,69,55,299,34,70,17,226,19,79,12,152,15*6D
$GLGSV,2,2,08,80,14,204,24,81,24,127,23,82,49,072,21,83,29,006,*6D
$GNGLL,0420.00366,S,05539.74441,E,110930.00,A,A*6D
$GNRMC,110931.00,A,0420.00364,S,05539.74434,E,0.066,,020625,,,A*76
$GNVTG,,T,,M,0.066,N,0.122,K,A*3C
$GNGGA,110931.00,0420.00364,S,05539.74434,E,1,12,0.76,12.3,M,-47.6,M,,*43
$GNGSA,A,3,32,29,26,28,18,16,31,27,,,,,1.96,0.76,1.80*17
$GNGSA,A,3,69,68,81,82,,,,,,,,,1.96,0.76,1.80*18
$GPGSV,5,1,17,08,00,322,,10,20,353,,16,25,253,25,18,31,070,22*79
$GPGSV,5,2,17,23,05,031,,25,03,131,15,26,29,221,24,27,34,318,29*76
$GPGSV,5,3,17,28,42,163,27,29,23,146,36,31,27,194,26,32,70,353,40*70
$GPGSV,5,4,17,36,52,277,33,40,84,353,29,41,58,082,,49,32,274,*77
$GPGSV,5,5,17,50,10,089,*4A
$GLGSV,2,1,08,68,27,000,19,69,55,299,35,70,17,226,19,79,12,152,16*65
$GLGSV,2,2,08,80,14,204,23,81,24,127,25,82,49,072,22,83,29,006,*6F
$GNGLL,0420.00364,S,05539.74434,E,110931.00,A,A*6C
$GNRMC,110932.00,A,0420.00365,S,05539.74434,E,0.149,,020625,,,A*78
$GNVTG,,T,,M,0.149,N,0.277,K,A*33
$GNGGA,110932.00,0420.00365,S,05539.74434,E,1,12,0.76,12.5,M,-47.6,M,,*47
$GNGSA,A,3,32,29,26,28,18,16,31,27,,,,,1.96,0.76,1.80*17
$GNGSA,A,3,69,68,81,82,,,,,,,,,1.96,0.76,1.80*18
$GPGSV,5,1,17,08,00,322,,10,20,353,,16,25,253,24,18,31,070,22*78
$GPGSV,5,2,17,23,05,031,,25,03,131,15,26,29,221,23,27,34,318,30*79
$GPGSV,5,3,17,28,42,163,28,29,23,146,37,31,27,194,25,32,70,353,41*7C
$GPGSV,5,4,17,36,52,277,32,40,84,353,28,41,58,082,,49,32,274,*77
$GPGSV,5,5,17,50,10,089,*4A
$GLGSV,2,1,08,68,27,000,18,69,55,299,34,70,17,226,19,79,12,152,16*65
$GLGSV,2,2,08,80,14,204,22,81,24,127,24,82,49,072,22,83,29,006,*6F
$GNGLL,0420.00365,S,05539.74434,E,110932.00,A,A*6E
$GNRMC,110933.00,A,0420.00363,S,05539.74430,E,0.056,,020625,,,A*74
$GNVTG,,T,,M,0.056,N,0.103,K,A*3C
$GNGGA,110933.00,0420.00363,S,05539.74430,E,1,12,0.76,12.6,M,-47.6,M,,*47
$GNGSA,A,3,32,29,26,28,18,16,31,27,,,,,1.96,0.76,1.80*17
$GNGSA,A,3,69,68,81,82,,,,,,,,,1.96,0.76,1.80*18
$GPGSV,5,1,17,08,00,322,,10,20,353,,16,25,253,23,18,31,070,23*7E
$GPGSV,5,2,17,23,05,031,,25,03,131,14,26,29,221,23,27,34,318,29*70
$GPGSV,5,3,17,28,42,163,29,29,23,146,37,31,27,194,29,32,70,353,41*71
$GPGSV,5,4,17,36,52,277,31,40,84,353,28,41,58,082,28,49,32,274,*7E
$GPGSV,5,5,17,50,10,089,*4A
$GLGSV,2,1,08,68,27,000,17,69,55,299,34,70,17,226,18,79,12,152,15*68
$GLGSV,2,2,08,80,14,204,23,81,24,127,22,82,49,072,20,83,29,006,*6A
$GNGLL,0420.00363,S,05539.74430,E,110933.00,A,A*6D
$GNRMC,110934.00,A,0420.00365,S,05539.74434,E,0.238,,020625,,,A*7B
$GNVTG,,T,,M,0.238,N,0.441,K,A*35
$GNGGA,110934.00,0420.00365,S,05539.74434,E,1,12,0.76,12.9,M,-47.6,M,,*4D
$GNGSA,A,3,32,29,26,28,18,16,31,27,,,,,1.96,0.76,1.80*17
$GNGSA,A,3,69,68,81,82,,,,,,,,,1.96,0.76,1.80*18
$GPGSV,5,1,17,08,00,322,,10,20,353,,16,25,253,21,18,31,070,23*7C
$GPGSV,5,2,17,23,05,031,,25,03,131,17,26,29,221,22,27,34,318,27*7C
$GPGSV,5,3,17,28,42,163,29,29,23,146,36,31,27,194,28,32,70,353,41*71
$GPGSV,5,4,17,36,52,277,33,40,84,353,27,41,58,082,27,49,32,274,*7C
$GPGSV,5,5,17,50,10,089,*4A
$GLGSV,2,1,08,68,27,000,16,69,55,299,34,70,17,226,18,79,12,152,13*6F
$GLGSV,2,2,08,80,14,204,24,81,24,127,23,82,49,072,19,83,29,006,*66
$GNGLL,0420.00365,S,05539.74434,E,110934.00,A,A*68
$GNRMC,110935.00,A,0420.00370,S,05539.74431,E,0.076,,020625,,,A*73
$GNVTG,,T,,M,0.076,N,0.140,K,A*39
$GNGGA,110935.00,0420.00370,S,05539.74431,E,1,12,0.76,13.2,M,-47.6,M,,*47
$GNGSA,A,3,32,29,26,28,18,16,31,27,,,,,1.96,0.76,1.80*17
$GNGSA,A,3,69,68,81,82,,,,,,,,,1.96,0.76,1.80*18
$GPGSV,5,1,17,08,00,322,,10,20,353,,16,25,253,21,18,31,070,23*7C
$GPGSV,5,2,17,23,05,031,,25,03,131,19,26,29,221,21,27,34,318,28*7E
$GPGSV,5,3,17,28,42,163,28,29,23,146,35,31,27,194,28,32,70,353,42*70
$GPGSV,5,4,17,36,52,277,33,40,84,353,27,41,58,082,27,49,32,274,*7C
$GPGSV,5,5,17,50,10,089,*4A
$GLGSV,2,1,08,68,27,000,15,69,55,299,34,70,17,226,18,79,12,152,10*6F
$GLGSV,2,2,08,80,14,204,25,81,24,127,22,82,49,072,20,83,29,006,*6C
$GNGLL,0420.00370,S,05539.74431,E,110935.00,A,A*68
$GNRMC,110936.00,A,0420.00372,S,05539.74428,E,0.020,,020625,,,A*79
$GNVTG,,T,,M,0.020,N,0.037,K,A*3B
$GNGGA,110936.00,0420.00372,S,05539.74428,E,1,12,0.76,13.3,M,-47.6,M,,*4F
$GNGSA,A,3,32,29,26,28,18,16,31,27,,,,,1.96,0.76,1.80*17
$GNGSA,A,3,69,68,81,82,,,,,,,,,1.96,0.76,1.80*18
$GPGSV,5,1,17,08,00,322,,10,20,353,,16,25,253,23,18,31,070,22*7F
$GPGSV,5,2,17,23,05,031,,25,03,131,18,26,29,221,22,27,34,318,30*75
$GPGSV,5,3,17,28,42,163,26,29,23,146,35,31,27,194,32,32,70,353,41*76
$GPGSV,5,4,17,36,52,277,33,40,84,353,,41,58,082,,49,32,274,*7C
$GPGSV,5,5,17,50,10,089,*4A
$GLGSV,2,1,08,68,27,000,16,69,55,299,34,70,17,226,18,79,12,152,*6D
$GLGSV,2,2,08,80,14,204,24,81,24,127,21,82,49,072,21,83,29,006,*6F
$GNGLL,0420.00372,S,05539.74428,E,110936.00,A,A*61
$GNRMC,110937.00,A,0420.00376,S,05539.74425,E,0.036,,020625,,,A*76
$GNVTG,,T,,M,0.036,N,0.066,K,A*38
$GNGGA,110937.00,0420.00376,S,05539.74425,E,1,12,0.76,13.6,M,-47.6,M,,*42
$GNGSA,A,3,32,29,26,28,18,16,31,27,,,,,1.96,0.76,1.80*17
$GNGSA,A,3,69,68,81,82,,,,,,,,,1.96,0.76,1.80*18
$GPGSV,5,1,17,08,00,322,,10,20,353,,16,25,253,23,18,31,070,23*7E
$GPGSV,5,2,17,23,05,031,,25,03,131,19,26,29,221,24,27,34,318,29*7A
$GPGSV,5,3,17,28,42,163,28,29,23,146,35,31,27,194,30,32,70,353,41*7A
$GPGSV,5,4,17,36,52,277,33,40,84,353,,41,58,082,,49,32,274,*7C
$GPGSV,5,5,17,50,10,089,*4A
$GLGSV,2,1,08,68,27,000,17,69,55,299,34,70,17,226,18,79,12,152,*6C
$GLGSV,2,2,08,80,14,204,23,81,24,127,22,82,49,072,22,83,29,006,*68
$GNGLL,0420.00376,S,05539.74425,E,110937.00,A,A*69
$GNRMC,110938.00,A,0420.00388,S,05539.74416,E,0.184,,020625,,,A*70
$GNVTG,,T,,M,0.184,N,0.341,K,A*36
$GNGGA,110938.00,0420.00388,S,05539.74416,E,1,12,0.76,13.9,M,-47.6,M,,*43
$GNGSA,A,3,32,29,26,28,18,16,31,27,,,,,1.96,0.76,1.80*17
$GNGSA,A,3,69,68,81,82,,,,,,,,,1.96,0.76,1.80*18
$GPGSV,5,1,17,08,00,322,,10,19,354,,16,25,253,21,18,31,070,25*77
$GPGSV,5,2,17,23,05,031,,25,03,131,19,26,29,221,22,27,34,318,29*7C
$GPGSV,5,3,17,28,42,163,28,29,23,146,35,31,27,194,29,32,70,353,39*7D
$GPGSV,5,4,17,36,52,277,33,40,84,353,,41,58,082,,49,32,274,*7C
$GPGSV,5,5,17,50,10,089,*4A
$GLGSV,2,1,08,68,27,000,16,69,55,299,34,70,17,226,19,79,12,152,*6C
$GLGSV,2,2,08,80,14,204,22,81,24,127,25,82,49,072,23,83,29,006,*6F
$GNGLL,0420.00388,S,05539.74416,E,110938.00,A,A*67
$GNRMC,110939.00,A,0420.00402,S,05539.74410,E,0.106,,020625,,,A*78
$GNVTG,,T,,M,0.106,N,0.196,K,A*34
$GNGGA,110939.00,0420.00402,S,05539.74410,E,1,12,0.76,14.5,M,-47.6,M,,*4A
$GNGSA,A,3,32,29,26,28,18,16,31,27,,,,,1.96,0.76,1.80*17
$GNGSA,A,3,69,68,81,82,,,,,,,,,1.96,0.76,1.80*18
$GPGSV,5,1,17,08,00,322,,10,19,354,,16,25,253,22,18,31,070,27*76
$GPGSV,5,2,17,23,05,031,,25,03,131,17,26,29,221,20,27,34,318,29*70
$GPGSV,5,3,17,28,42,163,27,29,23,146,37,31,27,194,30,32,70,353,42*74
$GPGSV,5,4,17,36,52,277,34,40,84,353,,41,58,082,,49,32,274,*7B
$GPGSV,5,5,17,50,10,089,*4A
$GLGSV,2,1,08,68,27,000,14,69,55,299,34,70,17,226,19,79,12,152,*6E
$GLGSV,2,2,08,80,14,204,20,81,24,127,26,82,49,072,24,83,29,006,*69
$GNGLL,0420.00402,S,05539.74410,E,110939.00,A,A*65
$GNRMC,110940.00,A,0420.00409,S,05539.74404,E,0.016,,020625,,,A*78
$GNVTG,,T,,M,0.016,N,0.030,K,A*39
$GNGGA,110940.00,0420.00409,S,05539.74404,E,1,12,0.76,14.8,M,-47.6,M,,*47
$GNGSA,A,3,32,29,26,28,18,16,31,27,,,,,1.96,0.76,1.80*17
$GNGSA,A,3,69,68,81,82,,,,,,,,,1.96,0.76,1.80*18
$GPGSV,5,1,17,08,00,322,,10,19,354,,16,25,253,23,18,31,070,28*78
$GPGSV,5,2,17,23,05,031,15,25,03,131,16,26,29,221,23,27,34,318,30*7E
$GPGSV,5,3,17,28,42,163,28,29,23,146,36,31,27,194,28,32,70,353,41*70
$GPGSV,5,4,17,36,52,277,33,40,84,353,,41,58,082,,49,32,274,*7C
$GPGSV,5,5,17,50,10,089,*4A
$GLGSV,2,1,08,68,27,000,14,69,55,299,35,70,17,226,19,79,12,152,*6F
$GLGSV,2,2,08,80,14,204,20,81,24,127,27,82,49,072,24,83,29,006,*68
$GNGLL,0420.00409,S,05539.74404,E,110940.00,A,A*65
$GNRMC,110941.00,A,0420.00415,S,05539.74397,E,0.045,,020625,,,A*7F
$GNVTG,,T,,M,0.045,N,0.083,K,A*37
$GNGGA,110941.00,0420.00415,S,05539.74397,E,1,12,0.76,15.0,M,-47.6,M,,*4F
$GNGSA,A,3,32,29,26,28,18,16,31,27,,,,,1.96,0.76,1.80*17
$GNGSA,A,3,69,68,81,82,,,,,,,,,1.96,0.76,1.80*18
$GPGSV,5,1,17,08,00,322,,10,19,354,,16,25,253,22,18,31,070,28*79
$GPGSV,5,2,17,23,05,031,11,25,03,131,15,26,29,221,24,27,34,318,30*7E
$GPGSV,5,3,17,28,42,163,29,29,23,146,36,31,27,194,28,32,70,353,42*72
$GPGSV,5,4,17,36,52,277,33,40,84,353,,41,58,082,29,49,32,274,*77
$GPGSV,5,5,17,50,10,089,*4A
$GLGSV,2,1,08,68,27,000,15,69,55,299,36,70,17,226,19,79,12,152,*6D
$GLGSV,2,2,08,80,14,204,20,81,24,127,27,82,49,072,23,83,29,006,*6F
$GNGLL,0420.00415,S,05539.74397,E,110941.00,A,A*64
$GNRMC,110942.00,A,0420.00425,S,05539.74392,E,0.026,,020625,,,A*7F
$GNVTG,,T,,M,0.026,N,0.047,K,A*3A
$GNGGA,110942.00,0420.00425,S,05539.74392,E,1,12,0.76,15.5,M,-47.6,M,,*4F
$GNGSA,A,3,32,29,26,28,18,16,31,27,,,,,1.96,0.76,1.80*17
$GNGSA,A,3,69,68,81,82,,,,,,,,,1.96,0.76,1.80*18
$GPGSV,5,1,17,08,00,322,,10,19,354,,16,25,253,22,18,31,070,27*76
$GPGSV,5,2,17,23,05,031,10,25,03,131,17,26,29,221,24,27,34,318,31*7C
$GPGSV,5,3,17,28,42,163,29,29,23,146,36,31,27,194,28,32,70,353,41*71
$GPGSV,5,4,17,36,52,277,33,40,84,353,,41,58,082,27,49,32,274,*79
$GPGSV,5,5,17,50,10,089,*4A
$GLGSV,2,1,08,68,27,000,16,69,55,299,35,70,17,226,19,79,12,152,*6D
$GLGSV,2,2,08,80,14,204,19,81,24,127,27,82,49,072,21,83,29,006,*67
$GNGLL,0420.00425,S,05539.74392,E,110942.00,A,A*61
$GNRMC,110943.00,A,0420.00439,S,05539.74388,E,0.092,,020625,,,A*77
$GNVTG,,T,,M,0.092,N,0.171,K,A*31
$GNGGA,110943.00,0420.00439,S,05539.74388,E,1,12,0.76,16.1,M,-47.6,M,,*4F
$GNGSA,A,3,32,29,26,28,18,16,31,27,,,,,1.96,0.76,1.80*17
$GNGSA,A,3,69,68,81,82,,,,,,,,,1.96,0.76,1.80*18
$GPGSV,5,1,17,08,00,322,,10,19,354,,16,25,253,23,18,31,070,26*76
$GPGSV,5,2,17,23,05,031,08,25,03,131,18,26,29,221,22,27,34,318,31*7C
$GPGSV,5,3,17,28,42,163,28,29,23,146,35,31,27,194,28,32,70,353,40*72
$GPGSV,5,4,17,36,52,277,34,40,84,353,,41,58,082,,49,32,274,*7B
$GPGSV,5,5,17,50,10,089,*4A
$GLGSV,2,1,08,68,27,000,16,69,55,299,34,70,17,226,19,79,12,152,*6C
$GLGSV,2,2,08,80,14,204,19,81,24,127,26,82,49,072,22,83,29,006,*65
$GNGLL,0420.00439,S,05539.74388,E,110943.00,A,A*66
$GNRMC,110944.00,A,0420.00455,S,05539.74383,E,0.135,,020625,,,A*7D
$GNVTG,,T,,M,0.135,N,0.251,K,A*3C
$GNGGA,110944.00,0420.00455,S,05539.74383,E,1,12,0.76,16.6,M,-47.6,M,,*4E
$GNGSA,A,3,32,29,26,28,18,16,31,27,,,,,1.96,0.76,1.80*17
$GNGSA,A,3,69,68,81,82,,,,,,,,,1.96,0.76,1.80*18
$GPGSV,5,1,17,08,00,322,,10,19,354,,16,25,253,25,18,31,070,27*71
$GPGSV,5,2,17,23,05,031,08,25,03,131,18,26,29,221,19,27,34,318,30*75
$GPGSV,5,3,17,28,42,163,28,29,23,146,35,31,27,194,28,32,70,353,41*73
$GPGSV,5,4,17,36,52,277,34,40,84,353,,41,58,082,,49,32,274,*7B
$GPGSV,5,5,17,50,10,089,*4A
$GLGSV,2,1,08,68,27,000,16,69,55,299,35,70,17,226,18,79,12,152,*6C
$GLGSV,2,2,08,80,14,204,21,81,24,127,26,82,49,072,23,83,29,006,*6F
$GNGLL,0420.00455,S,05539.74383,E,110944.00,A,A*60
$GNRMC,110945.00,A,0420.00466,S,05539.74378,E,0.087,,020625,,,A*70
$GNVTG,,T,,M,0.087,N,0.161,K,A*34
$GNGGA,110945.00,0420.00466,S,05539.74378,E,1,12,0.76,17.0,M,-47.6,M,,*4C
$GNGSA,A,3,32,29,26,28,18,16,31,27,,,,,1.96,0.76,1.80*17
$GNGSA,A,3,69,68,81,82,,,,,,,,,1.96,0.76,1.80*18
$GPGSV,5,1,17,08,00,322,,10,19,354,,16,25,253,24,18,31,070,27*70
$GPGSV,5,2,17,23,05,031,08,25,03,131,16,26,29,221,20,27,34,318,30*71
$GPGSV,5,3,17,28,42,163,28,29,23,146,36,31,27,194,29,32,70,353,41*71
$GPGSV,5,4,17,36,52,277,34,40,84,353,,41,58,082,,49,32,274,*7B
$GPGSV,5,5,17,50,10,089,*4A
$GLGSV,2,1,08,68,27,000,13,69,55,299,35,70,17,226,19,79,12,152,*68
$GLGSV,2,2,08,80,14,204,21,81,24,127,26,82,49,072,24,83,29,006,*68
$GNGLL,0420.00466,S,05539.74378,E,110945.00,A,A*65
$GNRMC,110946.00,A,0420.00471,S,05539.74373,E,0.023,,020625,,,A*70
$GNVTG,,T,,M,0.023,N,0.043,K,A*3B
$GNGGA,110946.00,0420.00471,S,05539.74373,E,1,12,0.76,17.3,M,-47.6,M,,*41
$GNGSA,A,3,32,29,26,28,18,16,31,27,,,,,1.96,0.76,1.80*17
$GNGSA,A,3,69,68,81,82,,,,,,,,,1.96,0.76,1.80*18
$GPGSV,5,1,17,08,00,322,,10,19,354,,16,25,253,23,18,31,070,26*76
$GPGSV,5,2,17,23,05,031,08,25,03,131,16,26,29,221,21,27,34,318,28*79
$GPGSV,5,3,17,28,42,163,28,29,23,146,36,31,27,194,28,32,70,353,41*70
$GPGSV,5,4,17,36,52,277,33,40,84,353,,41,58,082,,49,32,274,*7C
$GPGSV,5,5,17,50,10,089,*4A
$GLGSV,2,1,08,68,27,000,12,69,55,299,36,70,17,226,19,79,12,152,*6A
$GLGSV,2,2,08,80,14,204,21,81,24,127,25,82,49,072,23,83,29,006,*6C
$GNGLL,0420.00471,S,05539.74373,E,110946.00,A,A*6B
$GNRMC,110947.00,A,0420.00478,S,05539.74363,E,0.061,,020625,,,A*7F
$GNVTG,,T,,M,0.061,N,0.112,K,A*38
$GNGGA,110947.00,0420.00478,S,05539.74363,E,1,12,0.76,17.4,M,-47.6,M,,*4F
$GNGSA,A,3,32,29,26,28,18,16,31,27,,,,,1.96,0.76,1.80*17
$GNGSA,A,3,69,68,81,82,,,,,,,,,1.96,0.76,1.80*18
$GPGSV,5,1,17,08,00,322,,10,19,354,,16,25,253,22,18,31,070,25*74
$GPGSV,5,2,17,23,05,031,07,25,03,131,16,26,29,221,20,27,34,318,29*76
$GPGSV,5,3,17,28,42,163,28,29,23,146,36,31,27,194,28,32,70,353,41*70
$GPGSV,5,4,17,36,52,277,33,40,84,353,,41,58,082,,49,32,274,*7C
$GPGSV,5,5,17,50,10,089,*4A
$GLGSV,2,1,08,68,27,000,14,69,55,299,36,70,17,226,18,79,12,152,*6D
$GLGSV,2,2,08,80,14,204,21,81,24,127,26,82,49,072,22,83,29,006,*6E
$GNGLL,0420.00478,S,05539.74363,E,110947.00,A,A*62
$GNRMC,110948.00,A,0420.00484,S,05539.74354,E,0.065,,020625,,,A*73
$GNVTG,,T,,M,0.065,N,0.121,K,A*3C
$GNGGA,110948.00,0420.00484,S,05539.74354,E,1,12,0.76,17.5,M,-47.6,M,,*46
$GNGSA,A,3,32,29,26,28,18,16,31,27,,,,,1.96,0.76,1.80*17
$GNGSA,A,3,69,68,81,82,,,,,,,,,1.96,0.76,1.80*18
$GPGSV,5,1,17,08,00,322,,10,19,354,,16,25,253,24,18,31,070,25*72
$GPGSV,5,2,17,23,05,031,08,25,03,131,18,26,29,221,18,27,34,318,28*7D
$GPGSV,5,3,17,28,42,163,28,29,23,146,37,31,27,194,29,32,70,353,41*70
$GPGSV,5,4,17,36,52,277,32,40,84,353,,41,58,082,,49,32,274,*7D
$GPGSV,5,5,17,50,10,089,*4A
$GLGSV,2,1,08,68,27,000,14,69,55,299,36,70,17,226,18,79,12,152,*6D
$GLGSV,2,2,08,80,14,204,22,81,24,127,27,82,49,072,24,83,29,006,*6A
$GNGLL,0420.00484,S,05539.74354,E,110948.00,A,A*6A
$GNRMC,110949.00,A,0420.00493,S,05539.74346,E,0.145,,020625,,,A*74
$GNVTG,,T,,M,0.145,N,0.268,K,A*31
$GNGGA,110949.00,0420.00493,S,05539.74346,E,1,12,0.76,17.8,M,-47.6,M,,*4F
$GNGSA,A,3,32,29,26,28,18,16,31,27,,,,,1.96,0.76,1.80*17
$GNGSA,A,3,69,68,81,82,,,,,,,,,1.96,0.76,1.80*18
$GPGSV,5,1,17,08,00,322,,10,19,354,,16,25,253,25,18,31,070,25*73
$GPGSV,5,2,17,23,05,031,09,25,03,131,18,26,29,221,16,27,34,318,28*72
$GPGSV,5,3,17,28,42,163,29,29,23,146,36,31,27,194,30,32,70,353,43*7A
$GPGSV,5,4,17,36,52,277,31,40,84,353,,41,58,082,,49,32,274,*7E
$GPGSV,5,5,17,50,10,089,*4A
$GLGSV,2,1,08,68,27,000,15,69,55,299,36,70,17,226,16,79,12,152,*62
$GLGSV,2,2,08,80,14,204,22,81,24,127,26,82,49,072,24,83,29,006,*6B
$GNGLL,0420.00493,S,05539.74346,E,110949.00,A,A*6E
$GNRMC,110950.00,A,0420.00501,S,05539.74340,E,0.033,,020625,,,A*70
$GNVTG,,T,,M,0.033,N,0.062,K,A*39
$GNGGA,110950.00,0420.00501,S,05539.74340,E,1,12,0.76,18.1,M,-47.6,M,,*4D
$GNGSA,A,3,32,29,26,28,18,16,31,27,,,,,1.96,0.76,1.80*17
$GNGSA,A,3,69,68,81,82,,,,,,,,,1.96,0.76,1.80*18
$GPGSV,5,1,17,08,00,322,,10,19,354,,16,25,253,23,18,31,070,26*76
$GPGSV,5,2,17,23,04,032,10,25,03,131,20,26,29,221,19,27,34,318,29*7D
$GPGSV,5,3,17,28,42,163,29,29,23,146,37,31,27,194,29,32,70,353,42*72
$GPGSV,5,4,17,36,52,277,33,40,84,353,,41,58,082,27,49,32,274,*79
$GPGSV,5,5,17,50,10,089,*4A
$GLGSV,2,1,08,68,27,000,14,69,55,299,36,70,17,226,17,79,12,152,*62
$GLGSV,2,2,08,80,14,204,21,81,24,127,25,82,49,072,25,83,29,006,*6A
$GNGLL,0420.00501,S,05539.74340,E,110950.00,A,A*6A
$GNRMC,110951.00,A,0420.00502,S,05539.74334,E,0.130,,020625,,,A*73
$GNVTG,,T,,M,0.130,N,0.241,K,A*38
$GNGGA,110951.00,0420.00502,S,05539.74334,E,1,12,0.76,18.2,M,-47.6,M,,*4F
$GNGSA,A,3,32,29,26,28,18,16,31,27,,,,,1.96,0.76,1.80*17
$GNGSA,A,3,69,68,81,82,,,,,,,,,1.96,0.76,1.80*18
$GPGSV,5,1,17,08,00,322,,10,19,354,,16,25,253,21,18,31,070,25*77
$GPGSV,5,2,17,23,04,032,,25,03,131,18,26,29,221,20,27,34,318,28*7C
$GPGSV,5,3,17,28,42,163,29,29,23,146,34,31,27,194,28,32,70,353,41*73
$GPGSV,5,4,17,36,52,277,32,40,84,353,,41,58,082,27,49,32,274,*78
$GPGSV,5,5,17,50,10,089,*4A
$GLGSV,2,1,08,68,27,000,13,69,55,299,36,70,17,226,17,79,12,152,*65
$GLGSV,2,2,08,80,14,204,20,81,24,127,25,82,49,072,23,83,29,006,*6D
$GNGLL,0420.00502,S,05539.74334,E,110951.00,A,A*6B
$GNRMC,110952.00,A,0420.00502,S,05539.74332,E,0.047,,020625,,,A*77
$GNVTG,,T,,M,0.047,N,0.086,K,A*30
$GNGGA,110952.00,0420.00502,S,05539.74332,E,1,12,0.76,18.3,M,-47.6,M,,*4B
$GNGSA,A,3,32,29,26,28,18,16,31,27,,,,,1.96,0.76,1.80*17
$GNGSA,A,3,69,68,81,82,,,,,,,,,1.96,0.76,1.80*18
$GPGSV,5,1,17,08,00,322,,10,19,354,,16,25,253,22,18,31,070,25*74
$GPGSV,5,2,17,23,04,032,,25,03,131,18,26,29,221,22,27,34,318,26*70
$GPGSV,5,3,17,28,42,163,28,29,23,146,34,31,27,194,27,32,70,353,39*72
$GPGSV,5,4,17,36,52,277,31,40,84,353,,41,58,082,,49,32,274,*7E
$GPGSV,5,5,17,50,10,089,*4A
$GLGSV,2,1,08,68,27,000,15,69,55,299,35,70,17,226,17,79,12,152,*60
$GLGSV,2,2,08,80,14,204,20,81,24,127,25,82,49,072,22,83,29,006,*6C
$GNGLL,0420.00502,S,05539.74332,E,110952.00,A,A*6E
$GNRMC,110953.00,A,0420.00503,S,05539.74331,E,0.175,,020625,,,A*74
$GNVTG,,T,,M,0.175,N,0.324,K,A*3B
$GNGGA,110953.00,0420.00503,S,05539.74331,E,1,12,0.76,18.4,M,-47.6,M,,*4F
$GNGSA,A,3,32,29,26,28,18,16,31,27,,,,,1.96,0.76,1.80*17
$GNGSA,A,3,69,68,81,82,,,,,,,,,1.96,0.76,1.80*18
$GPGSV,5,1,17,08,00,322,,10,19,354,,16,25,253,23,18,31,070,26*76
$GPGSV,5,2,17,23,04,032,,25,03,131,19,26,29,221,21,27,34,318,25*71
$GPGSV,5,3,17,28,42,163,28,29,23,146,34,31,27,194,27,32,70,353,39*72
$GPGSV,5,4,17,36,52,277,32,40,84,353,,41,58,082,,49,32,274,*7D
$GPGSV,5,5,17,50,10,089,*4A
$GLGSV,2,1,08,68,27,000,14,69,55,299,36,70,17,226,17,79,12,152,*62
$GLGSV,2,2,08,80,14,204,20,81,24,127,25,82,49,072,23,83,29,006,*6D
$GNGLL,0420.00503,S,05539.74331,E,110953.00,A,A*6D
$GNRMC,110954.00,A,0420.00504,S,05539.74326,E,0.053,,020625,,,A*77
$GNVTG,,T,,M,0.053,N,0.098,K,A*3A
$GNGGA,110954.00,0420.00504,S,05539.74326,E,1,12,0.76,18.6,M,-47.6,M,,*4B
$GNGSA,A,3,32,29,26,28,18,16,31,27,,,,,1.96,0.76,1.80*17
$GNGSA,A,3,69,68,81,82,,,,,,,,,1.96,0.76,1.80*18
$GPGSV,5,1,17,08,00,322,,10,19,354,,16,25,253,21,18,31,070,27*75
$GPGSV,5,2,17,23,04,032,,25,03,131,17,26,29,221,21,27,35,318,28*73
$GPGSV,5,3,17,28,42,163,28,29,23,146,34,31,27,194,26,32,70,353,40*7D
$GPGSV,5,4,17,36,52,277,33,40,84,353,,41,58,082,,49,32,274,*7C
$GPGSV,5,5,17,50,10,089,*4A
$GLGSV,2,1,08,68,27,000,12,69,55,299,37,70,17,226,16,79,12,152,*64
$GLGSV,2,2,08,80,14,204,19,81,24,127,25,82,49,072,22,83,29,006,*66
$GNGLL,0420.00504,S,05539.74326,E,110954.00,A,A*6B
$GNRMC,110955.00,A,0420.00509,S,05539.74322,E,0.109,,020625,,,A*71
$GNVTG,,T,,M,0.109,N,0.201,K,A*36
$GNGGA,110955.00,0420.00509,S,05539.74322,E,1,12,0.76,18.7,M,-47.6,M,,*42
$GNGSA,A,3,32,29,26,28,18,16,31,27,,,,,1.96,0.76,1.80*17
$GNGSA,A,3,69,68,81,82,,,,,,,,,1.96,0.76,1.80*18
$GPGSV,5,1,17,08,00,322,,10,19,354,,16,25,253,19,18,31,070,29*70
$GPGSV,5,2,17,23,04,032,,25,03,131,15,26,29,221,20,27,35,318,28*70
$GPGSV,5,3,17,28,42,162,28,29,23,146,35,31,27,194,27,32,70,353,40*7C
$GPGSV,5,4,17,36,52,277,34,40,84,353,,41,58,082,,49,32,274,*7B
$GPGSV,5,5,17,50,10,089,*4A
$GLGSV,2,1,08,68,27,000,11,69,55,299,36,70,17,226,18,79,12,152,*68
$GLGSV,2,2,08,80,14,204,20,81,24,127,24,82,49,072,20,83,29,006,*6F
$GNGLL,0420.00509,S,05539.74322,E,110955.00,A,A*63
$GNRMC,110956.00,A,0420.00510,S,05539.74321,E,0.097,,020625,,,A*7F
$GNVTG,,T,,M,0.097,N,0.180,K,A*3A
$GNGGA,110956.00,0420.00510,S,05539.74321,E,1,12,0.76,18.7,M,-47.6,M,,*4A
$GNGSA,A,3,32,29,26,28,18,16,31,27,,,,,1.96,0.76,1.80*17
$GNGSA,A,3,69,68,81,82,,,,,,,,,1.96,0.76,1.80*18
$GPGSV,5,1,17,08,00,322,,10,19,354,,16,25,253,19,18,31,070,29*70
$GPGSV,5,2,17,23,04,032,,25,03,131,15,26,29,221,21,27,35,318,26*7F
$GPGSV,5,3,17,28,42,162,28,29,22,146,35,31,27,194,28,32,70,353,40*72
$GPGSV,5,4,17,36,52,277,33,40,84,353,,41,58,082,,49,32,274,*7C
$GPGSV,5,5,17,50,10,089,*4A
$GLGSV,2,1,08,68,27,000,11,69,55,299,36,70,17,226,17,79,12,152,*67
$GLGSV,2,2,08,80,14,204,21,81,24,127,23,82,49,072,20,83,29,006,*69
$GNGLL,0420.00510,S,05539.74321,E,110956.00,A,A*6B
$GNRMC,110957.00,A,0420.00510,S,05539.74319,E,0.049,,020625,,,A*76
$GNVTG,,T,,M,0.049,N,0.090,K,A*39
$GNGGA,110957.00,0420.00510,S,05539.74319,E,1,12,0.76,18.7,M,-47.6,M,,*40
$GNGSA,A,3,32,29,26,28,18,16,31,27,,,,,1.96,0.76,1.80*17
$GNGSA,A,3,69,68,81,82,,,,,,,,,1.96,0.76,1.80*18
$GPGSV,5,1,17,08,00,322,,10,19,354,,16,25,253,21,18,31,070,27*75
$GPGSV,5,2,17,23,04,032,,25,03,131,15,26,29,221,20,27,35,318,27*7F
$GPGSV,5,3,17,28,42,162,31,29,22,146,35,31,27,194,27,32,70,353,42*77
$GPGSV,5,4,17,36,52,277,32,40,84,353,,41,58,082,,49,32,274,*7D
$GPGSV,5,5,17,50,10,089,*4A
$GLGSV,2,1,08,68,27,000,12,69,55,299,37,70,17,226,17,79,12,152,*65
$GLGSV,2,2,08,80,14,204,24,81,24,127,24,82,49,072,22,83,29,006,*69
$GNGLL,0420.00510,S,05539.74319,E,110957.00,A,A*61
$GNRMC,110958.00,A,0420.00514,S,05539.74313,E,0.080,,020625,,,A*72
$GNVTG,,T,,M,0.080,N,0.147,K,A*37
$GNGGA,110958.00,0420.00514,S,05539.74313,E,1,12,0.76,18.7,M,-47.6,M,,*41
$GNGSA,A,3,32,29,26,28,18,16,31,27,,,,,1.96,0.76,1.80*17
$GNGSA,A,3,69,68,81,82,,,,,,,,,1.96,0.76,1.80*18
$GPGSV,5,1,17,08,00,322,,10,19,354,,16,25,253,22,18,31,070,25*74
$GPGSV,5,2,17,23,04,032,,25,03,131,16,26,29,221,19,27,35,318,27*76
$GPGSV,5,3,17,28,42,162,30,29,22,146,35,31,27,193,26,32,70,353,42*70
$GPGSV,5,4,17,36,52,277,32,40,84,353,,41,58,082,,49,32,274,*7D
$GPGSV,5,5,17,50,10,089,*4A
$GLGSV,2,1,08,68,27,000,11,69,55,299,37,70,17,226,18,79,12,152,*69
$GLGSV,2,2,08,80,14,204,25,81,24,127,24,82,49,072,25,83,29,006,*6F
$GNGLL,0420.00514,S,05539.74313,E,110958.00,A,A*60
$GNRMC,110959.00,A,0420.00512,S,05539.74309,E,0.077,,020625,,,A*76
$GNVTG,,T,,M,0.077,N,0.143,K,A*3B
$GNGGA,110959.00,0420.00512,S,05539.74309,E,1,11,0.90,18.6,M,-47.6,M,,*47
$GNGSA,A,3,32,29,26,28,18,16,31,27,,,,,2.30,0.90,2.12*18
$GNGSA,A,3,69,81,82,,,,,,,,,,2.30,0.90,2.12*19
$GPGSV,5,1,17,08,00,322,,10,19,354,,16,25,253,23,18,31,070,24*74
$GPGSV,5,2,17,23,04,032,,25,03,131,15,26,29,221,20,27,35,318,27*7F
$GPGSV,5,3,17,28,42,162,29,29,22,146,34,31,27,193,25,32,69,354,41*76
$GPGSV,5,4,17,36,52,277,32,40,84,353,,41,58,082,27,49,32,274,*78
$GPGSV,5,5,17,50,10,089,*4A
$GLGSV,2,1,08,68,27,000,09,69,55,299,37,70,17,226,17,79,12,152,*6F
$GLGSV,2,2,08,80,14,204,24,81,24,127,25,82,49,072,24,83,29,006,*6E
$GNGLL,0420.00512,S,05539.74309,E,110959.00,A,A*6C
$GNRMC,111000.00,A,0420.00507,S,05539.74309,E,0.032,,020625,,,A*77
$GNVTG,,T,,M,0.032,N,0.059,K,A*30
$GNGGA,111000.00,0420.00507,S,05539.74309,E,1,12,0.76,18.4,M,-47.6,M,,*4E
$GNGSA,A,3,32,29,26,28,18,16,31,27,,,,,1.96,0.76,1.80*17
$GNGSA,A,3,69,68,81,82,,,,,,,,,1.96,0.76,1.80*18
$GPGSV,5,1,17,08,00,322,,10,19,354,,16,25,253,24,18,31,070,24*73
$GPGSV,5,2,17,23,04,032,,25,03,131,15,26,29,221,20,27,35,318,27*7F
$GPGSV,5,3,17,28,42,162,30,29,22,146,35,31,27,193,22,32,69,354,40*79
$GPGSV,5,4,17,36,52,277,31,40,84,353,,41,58,082,27,49,32,274,*7B
$GPGSV,5,5,17,50,10,089,*4A
$GLGSV,2,1,08,68,27,000,13,69,55,299,37,70,17,226,17,79,12,152,*64
$GLGSV,2,2,08,80,14,204,23,81,24,127,25,82,49,072,23,83,29,006,19*66
$GNGLL,0420.00507,S,05539.74309,E,111000.00,A,A*6C
$GNRMC,111001.00,A,0420.00497,S,05539.74314,E,0.063,,020625,,,A*76
$GNVTG,,T,,M,0.063,N,0.116,K,A*3E
$GNGGA,111001.00,0420.00497,S,05539.74314,E,1,12,0.90,18.2,M,-47.6,M,,*45
$GNGSA,A,3,32,29,26,28,18,16,31,27,,,,,2.30,0.90,2.12*18
$GNGSA,A,3,69,68,81,82,,,,,,,,,2.30,0.90,2.12*17
$GPGSV,5,1,17,08,00,322,,10,19,354,,16,25,253,20,18,31,070,26*75
$GPGSV,5,2,17,23,04,032,,25,03,131,18,26,29,221,24,27,35,318,28*79
$GPGSV,5,3,17,28,42,162,31,29,22,146,35,31,27,193,23,32,69,354,39*77
$GPGSV,5,4,17,36,52,277,32,40,84,353,,41,58,082,,49,32,274,*7D
$GPGSV,5,5,17,50,10,089,*4A
$GLGSV,2,1,08,68,27,000,12,69,55,299,36,70,17,226,16,79,12,152,*65
$GLGSV,2,2,08,80,14,204,22,81,24,127,25,82,49,072,23,83,29,006,18*66
$GNGLL,0420.00497,S,05539.74314,E,111001.00,A,A*69
$GNRMC,111002.00,A,0420.00487,S,05539.74315,E,0.079,,020625,,,A*7E
$GNVTG,,T,,M,0.079,N,0.147,K,A*31
$GNGGA,111002.00,0420.00487,S,05539.74315,E,1,12,0.81,17.9,M,-47.6,M,,*42
$GNGSA,A,3,32,29,26,28,18,16,31,27,,,,,1.98,0.81,1.80*11
$GNGSA,A,3,69,68,81,82,,,,,,,,,1.98,0.81,1.80*1E
$GPGSV,5,1,17,08,00,322,,10,19,354,,16,25,253,22,18,31,070,28*79
$GPGSV,5,2,17,23,04,032,,25,03,131,18,26,29,221,25,27,35,318,28*78
$GPGSV,5,3,17,28,42,162,30,29,22,146,35,31,27,193,25,32,69,354,39*70
$GPGSV,5,4,17,36,52,277,32,40,84,353,,41,58,082,,49,32,274,*7D
$GPGSV,5,5,17,50,10,089,*4A
$GLGSV,2,1,08,68,27,000,13,69,55,299,36,70,17,226,15,79,12,152,22*67
$GLGSV,2,2,08,80,14,204,21,81,24,127,26,82,49,072,22,83,29,006,15*6A
$GNGLL,0420.00487,S,05539.74315,E,111002.00,A,A*6A
$GNRMC,111003.00,A,0420.00477,S,05539.74321,E,0.052,,020625,,,A*7E
$GNVTG,,T,,M,0.052,N,0.096,K,A*35
$GNGGA,111003.00,0420.00477,S,05539.74321,E,1,12,0.76,17.7,M,-47.6,M,,*4D
$GNGSA,A,3,32,29,26,28,18,16,31,27,,,,,1.96,0.76,1.80*17
$GNGSA,A,3,69,68,81,82,,,,,,,,,1.96,0.76,1.80*18
$GPGSV,5,1,17,08,00,322,,10,19,354,,16,25,253,20,18,31,070,27*74
$GPGSV,5,2,17,23,04,032,,25,03,131,16,26,29,221,27,27,35,318,28*74
$GPGSV,5,3,17,28,42,162,29,29,22,146,34,31,27,193,24,32,69,354,40*76
$GPGSV,5,4,17,36,52,277,33,40,84,353,,41,58,082,,49,32,274,*7C
$GPGSV,5,5,17,50,10,089,*4A
$GLGSV,2,1,08,68,27,000,16,69,55,299,36,70,17,226,16,79,12,152,22*61
$GLGSV,2,2,08,80,14,204,21,81,24,127,24,82,49,072,24,83,29,006,14*6F
$GNGLL,0420.00477,S,05539.74321,E,111003.00,A,A*63
$GNRMC,111004.00,A,0420.00472,S,05539.74324,E,0.060,,020625,,,A*78
$GNVTG,,T,,M,0.060,N,0.111,K,A*3A
$GNGGA,111004.00,0420.00472,S,05539.74324,E,1,12,0.76,17.7,M,-47.6,M,,*4A
$GNGSA,A,3,32,29,26,28,18,16,31,27,,,,,1.96,0.76,1.80*17
$GNGSA,A,3,69,68,81,82,,,,,,,,,1.96,0.76,1.80*18
$GPGSV,5,1,17,08,00,322,,10,19,354,,16,25,253,19,18,31,070,28*71
$GPGSV,5,2,17,23,04,032,,25,03,131,15,26,29,221,26,27,35,318,28*76
$GPGSV,5,3,17,28,42,162,30,29,22,146,34,31,27,193,26,32,69,354,40*7C
$GPGSV,5,4,17,36,52,277,33,40,84,353,,41,58,082,,49,32,274,*7C
$GPGSV,5,5,17,50,10,089,*4A
$GLGSV,2,1,08,68,27,000,15,69,55,299,36,70,17,226,15,79,12,152,23*60
$GLGSV,2,2,08,80,14,204,21,81,24,127,24,82,49,072,27,83,29,006,14*6C
$GNGLL,0420.00472,S,05539.74324,E,111004.00,A,A*64
$GNRMC,111005.00,A,0420.00469,S,05539.74329,E,0.048,,020625,,,A*74
$GNVTG,,T,,M,0.048,N,0.089,K,A*30
$GNGGA,111005.00,0420.00469,S,05539.74329,E,1,12,0.76,17.7,M,-47.6,M,,*4C
$GNGSA,A,3,32,29,26,28,18,16,31,27,,,,,1.96,0.76,1.80*17
$GNGSA,A,3,69,68,81,82,,,,,,,,,1.96,0.76,1.80*18
$GPGSV,5,1,17,08,00,322,,10,19,354,,16,25,253,20,18,31,070,27*74
$GPGSV,5,2,17,23,04,032,,25,03,131,15,26,29,221,26,27,35,318,27*79
$GPGSV,5,3,17,28,42,162,30,29,22,146,36,31,27,193,26,32,69,354,41*7F
$GPGSV,5,4,17,36,52,277,33,40,84,353,,41,58,082,,49,32,274,*7C
$GPGSV,5,5,17,50,10,089,*4A
$GLGSV,2,1,08,68,27,000,11,69,55,299,35,70,17,226,14,79,12,152,23*66
$GLGSV,2,2,08,80,14,204,21,81,24,127,25,82,49,072,26,83,29,006,13*6B
$GNGLL,0420.00469,S,05539.74329,E,111005.00,A,A*62
$GNRMC,111006.00,A,0420.00459,S,05539.74331,E,0.073,,020625,,,A*75
$GNVTG,,T,,M,0.073,N,0.135,K,A*3E
$GNGGA,111006.00,0420.00459,S,05539.74331,E,1,12,0.76,17.5,M,-47.6,M,,*47
$GNGSA,A,3,32,29,26,28,18,16,31,27,,,,,1.96,0.76,1.80*17
$GNGSA,A,3,69,68,81,82,,,,,,,,,1.96,0.76,1.80*18
$GPGSV,5,1,17,08,00,322,,10,19,354,,16,25,253,18,18,31,070,27*7F
$GPGSV,5,2,17,23,04,032,,25,03,131,15,26,29,221,25,27,35,318,28*75
$GPGSV,5,3,17,28,42,162,34,29,22,146,36,31,27,193,24,32,69,354,39*76
