b0Xm
,!;%CW>>+>H
7q)v {4
U`:R D'E@UFI)J/P!(RHST
Q1bmx$GNRMC,085459.00,A,0419.71645,S,05539.87099,E,0.729,,190525,,,D*7D
$GNVTG,,T,,M,0.729,N,1.350,K,D*33
$GNGNS,085459.00,0419.71645,S,05539.87099,E,DA,15,0.67,17.8,-47.6,,0000*6E
$GNGGA,085459.00,0419.71645,S,05539.87099,E,2,12,0.67,17.8,M,-47.6,M,,0000*45
$GNGSA,A,3,25,23,12,15,29,10,18,24,26,,,,1.30,0.67,1.11*1E
$GNGSA,A,3,69,80,73,68,74,83,,,,,,,1.30,0.67,1.11*1B
$GPGSV,5,1,17,10,44,243,16,12,33,154,23,13,02,059,,15,37,067,25*70
$GPGSV,5,2,17,18,18,343,21,23,62,318,20,24,16,134,11,25,62,185,25*7D
$GPGSV,5,3,17,26,10,311,17,28,13,243,13,29,41,030,29,31,01,265,*72
$GPGSV,5,4,17,32,17,205,,36,52,277,,40,85,352,30,41,58,082,27*77
$GPGSV,5,5,17,49,32,274,*42
$GLGSV,3,1,10,68,22,039,26,69,64,085,30,70,31,194,,73,41,260,16*6E
$GLGSV,3,2,10,74,15,303,11,80,33,187,21,82,01,072,,83,08,026,27*6B
$GLGSV,3,3,10,84,01,337,10,,,,26*5B
$GNGLL,0419.71645,S,05539.87099,E,085459.00,A,D*62
$GNGRS,085459.00,1,3.3,-0.9,-3.8,-0.1,1.2,7.5,4.1,18.3,6.2,,,*6F
$GNGRS,085459.00,1,4.7,0.4,-2.9,-11.3,11.7,6.4,,,,,,*5F
$GNGST,085459.00,4343719,,,,2.9,2.5,4.9*72
$GNZDA,085459.00,19,05,2025,00,00*75
$GNGBS,085459.00,2.9,2.5,4.9,,,,*5B
b0Xp
,d!;%%CW >>&>}
7()f {4
$U`:R D'E@UFI)J/P!RRHSTQ%bpxls$GNRMC,085500.00,A,0419.71650,S,05539.87095,E,0.131,,190525,,,D*77
$GNVTG,,T,,M,0.131,N,0.243,K,D*3E
$GNGNS,085500.00,0419.71650,S,05539.87095,E,DA,15,0.67,17.6,-47.6,,0000*65
$GNGGA,085500.00,0419.71650,S,05539.87095,E,2,12,0.67,17.6,M,-47.6,M,,0000*4E
$GNGSA,A,3,25,23,12,15,29,10,18,24,26,,,,1.30,0.67,1.11*1E
$GNGSA,A,3,69,80,73,68,74,83,,,,,,,1.30,0.67,1.11*1B
$GPGSV,5,1,17,10,44,243,27,12,33,154,30,13,02,059,,15,37,067,37*73
$GPGSV,5,2,17,18,18,343,22,23,62,318,32,24,16,134,13,25,62,185,28*72
$GPGSV,5,3,17,26,10,311,14,28,13,243,12,29,41,030,29,31,01,265,*70
$GPGSV,5,4,17,32,17,205,,36,52,277,,40,85,352,36,41,58,082,27*71
$GPGSV,5,5,17,49,32,274,*42
$GLGSV,3,1,10,68,22,039,27,69,64,085,31,70,31,194,,73,41,260,19*61
$GLGSV,3,2,10,74,15,303,09,80,33,187,21,82,01,072,,83,08,026,19*6F
$GLGSV,3,3,10,84,01,337,14,,,,28*51
$GNGLL,0419.71650,S,05539.87095,E,085500.00,A,D*67
$GNGRS,085500.00,1,-1.3,0.0,-0.6,2.0,1.0,3.6,2.4,18.3,5.5,,,*48
$GNGRS,085500.00,1,-0.6,0.8,-0.1,-8.6,11.7,6.8,,,,,,*4D
$GNGST,085500.00,4343719,,,,3.0,2.7,5.1*7C
$GNZDA,085500.00,19,05,2025,00,00*78
$GNGBS,085500.00,3.0,2.7,5.1,,,,*55
b0Xt
,M"!;"%CfW!>>&>
7a5)) {4
)U`(:R D%'E%@UFI)0J/P!RHS"TQ,btxD$GNRMC,085501.00,A,0419.71655,S,05539.87117,E,1.159,126.11,190525,,,D*6C
$GNVTG,126.11,T,,M,1.159,N,2.147,K,D*2F
$GNGNS,085501.00,0419.71655,S,05539.87117,E,DA,16,0.71,17.5,-47.6,,0000*6D
$GNGGA,085501.00,0419.71655,S,05539.87117,E,2,12,0.71,17.5,M,-47.6,M,,0000*45
$GNGSA,A,3,25,23,12,15,29,10,18,24,28,26,,,1.35,0.71,1.15*12
$GNGSA,A,3,69,80,73,68,74,83,,,,,,,1.35,0.71,1.15*1D
$GPGSV,5,1,17,10,44,243,28,12,33,154,34,13,02,059,,15,37,067,34*7B
$GPGSV,5,2,17,18,18,343,31,23,62,318,33,24,16,134,12,25,62,185,38*71
$GPGSV,5,3,17,26,10,311,11,28,13,243,08,29,41,030,41,31,01,265,*70
$GPGSV,5,4,17,32,17,205,,36,52,277,,40,85,352,41,41,58,082,40*70
$GPGSV,5,5,17,49,32,274,*42
$GLGSV,3,1,10,68,22,039,37,69,64,085,37,70,31,194,,73,41,260,20*6C
$GLGSV,3,2,10,74,15,303,08,80,33,187,24,82,01,072,,83,08,026,34*64
$GLGSV,3,3,10,84,01,337,08,,,,30*55
$GNGLL,0419.71655,S,05539.87117,E,085501.00,A,D*68
$GNGRS,085501.00,1,-0.3,1.7,0.3,-1.5,1.5,0.8,1.4,14.7,138,6.1,,*73
$GNGRS,085501.00,1,2.4,-0.7,0.5,-10.5,-56.1,7.1,,,,,,*70
$GNGST,085501.00,44,,,,2.9,2.8,5.1*45
$GNZDA,085501.00,19,05,2025,00,00*79
$GNGBS,085501.00,2.9,2.8,5.1,,,,*53
b0Xx
&,#!;,%CO&W&>>]#>
7<*)u {4
+U`,:R D)'E*@U/FI)J
/oP!xRHS+TQ @bxxC$GNRMC,085502.00,A,0419.71646,S,05539.87127,E,0.039,,190525,,,D*73
$GNVTG,,T,,M,0.039,N,0.072,K,D*37
$GNGNS,085502.00,0419.71646,S,05539.87127,E,DA,16,0.67,17.8,-47.6,,0000*65
$GNGGA,085502.00,0419.71646,S,05539.87127,E,2,12,0.67,17.8,M,-47.6,M,,0000*4D
$GNGSA,A,3,25,23,12,15,29,10,18,24,28,26,,,1.30,0.67,1.11*14
$GNGSA,A,3,69,80,73,68,74,83,,,,,,,1.30,0.67,1.11*1B
$GPGSV,5,1,17,10,44,243,38,12,33,154,35,13,02,059,,15,37,067,44*7C
$GPGSV,5,2,17,18,18,343,38,23,62,318,38,24,16,134,12,25,62,185,35*7E
$GPGSV,5,3,17,26,10,311,21,28,13,243,08,29,41,030,42,31,01,265,*70
$GPGSV,5,4,17,32,17,205,,36,52,277,,40,85,352,43,41,58,082,44*76
$GPGSV,5,5,17,49,32,274,*42
$GLGSV,3,1,10,68,22,039,41,69,64,085,42,70,31,194,,73,41,260,29*66
$GLGSV,3,2,10,74,15,303,10,80,33,187,26,82,01,072,,83,08,026,43*6F
$GLGSV,3,3,10,84,01,337,11,,,,32*5F
$GNGLL,0419.71646,S,05539.87127,E,085502.00,A,D*6A
$GNGRS,085502.00,1,-2.5,-1.3,-3.4,0.8,3.7,-0.6,-0.9,18.9,23.6,4.4,,*71
$GNGRS,085502.00,1,0.5,1.2,0.2,-10.1,11.4,5.0,,,,,,*72
$GNGST,085502.00,3071662,,,,2.8,2.7,4.8*77
$GNZDA,085502.00,19,05,2025,00,00*7A
$GNGBS,085502.00,2.8,2.7,4.8,,,,*56
b0X|
$,]#!;U*%C+$W%>>_#>
7,) {%4
+U`+:R D''E*@U<FI)J/P!RHS(TQ H,b|x$GNRMC,085503.00,A,0419.71630,S,05539.87124,E,0.053,,190525,,,D*7C
$GNVTG,,T,,M,0.053,N,0.098,K,D*3F
$GNGNS,085503.00,0419.71630,S,05539.87124,E,DA,16,0.67,18.1,-47.6,,0000*60
$GNGGA,085503.00,0419.71630,S,05539.87124,E,2,12,0.67,18.1,M,-47.6,M,,0000*48
$GNGSA,A,3,25,23,12,15,29,10,18,24,28,26,,,1.30,0.67,1.11*14
$GNGSA,A,3,69,80,73,68,74,83,,,,,,,1.30,0.67,1.11*1B
$GPGSV,5,1,17,10,44,243,36,12,33,154,35,13,02,059,13,15,37,067,42*76
$GPGSV,5,2,17,18,18,343,36,23,62,318,37,24,16,134,13,25,62,185,35*7E
$GPGSV,5,3,17,26,10,311,25,28,13,243,08,29,41,030,44,31,01,265,*72
$GPGSV,5,4,17,32,17,205,,36,52,277,37,40,85,352,43,41,58,082,43*75
$GPGSV,5,5,17,49,32,274,*42
$GLGSV,3,1,10,68,22,039,39,69,64,085,42,70,31,194,,73,41,260,29*69
$GLGSV,3,2,10,74,15,303,13,80,33,187,27,82,01,072,,83,08,026,40*6E
$GLGSV,3,3,10,84,01,337,17,,,,32*59
$GNGLL,0419.71630,S,05539.87124,E,085503.00,A,D*69
$GNGRS,085503.00,1,-5.3,1.0,-3.7,0.4,2.2,-1.6,3.8,19.6,23.0,1.4,,*77
$GNGRS,085503.00,1,3.2,-0.6,2.2,-8.2,10.3,7.5,,,,,,*66
$GNGST,085503.00,3071873,,,,2.7,2.6,4.7*79
$GNZDA,085503.00,19,05,2025,00,00*7B
$GNGBS,085503.00,2.7,2.6,4.7,,,,*56
b0X
',!;W)%Cz$W>>{
&>
7)). {%4
)U`&:R D#'
E(@UFI)lJ/P!RHS'dTQofbx$GNRMC,085504.00,A,0419.71613,S,05539.87130,E,0.583,,190525,,,D*77
$GNVTG,,T,,M,0.583,N,1.080,K,D*3F
$GNGNS,085504.00,0419.71613,S,05539.87130,E,DA,15,0.79,18.2,-47.6,,0000*6C
$GNGGA,085504.00,0419.71613,S,05539.87130,E,2,12,0.79,18.2,M,-47.6,M,,0000*47
$GNGSA,A,3,25,23,12,15,29,10,18,24,28,26,,,1.53,0.79,1.31*1C
$GNGSA,A,3,69,80,73,68,83,,,,,,,,1.53,0.79,1.31*10
$GPGSV,5,1,17,10,44,243,39,12,33,154,25,13,02,059,09,15,37,067,41*70
$GPGSV,5,2,17,18,18,343,36,23,62,318,31,24,16,134,10,25,62,185,38*76
$GPGSV,5,3,17,26,10,311,25,28,13,243,09,29,41,030,41,31,01,265,*76
$GPGSV,5,4,17,32,17,205,,36,52,277,37,40,85,352,41,41,58,082,38*7B
$GPGSV,5,5,17,49,32,274,*42
$GLGSV,3,1,10,68,22,039,35,69,64,085,40,70,31,194,,73,41,260,30*6F
$GLGSV,3,2,10,74,15,303,06,80,33,187,28,82,01,072,,83,08,026,39*6B
$GLGSV,3,3,10,84,01,337,12,,,,28*57
$GNGLL,0419.71613,S,05539.87130,E,085504.00,A,D*6A
$GNGRS,085504.00,1,-3.0,1.2,-3.5,-1.3,0.5,-0.7,2.2,-21.1,-20.2,0.2,,*5A
$GNGRS,085504.00,1,4.6,4.3,1.1,-10.1,8.7,,,,,,,*65
$GNGST,085504.00,23,,,,2.6,2.5,4.7*44
$GNZDA,085504.00,19,05,2025,00,00*7C
$GNGBS,085504.00,2.6,2.5,4.7,,,,*53
b0Xx
#-T!;+%C:%W'>>'$>Y
7b-); {$4
+U`&:R D%'sE&@UFI)/J/P!ORHS(TQu6bxxo{$GNRMC,085505.00,A,0419.71617,S,05539.87139,E,0.379,,190525,,,D*78
$GNVTG,,T,,M,0.379,N,0.702,K,D*30
$GNGNS,085505.00,0419.71617,S,05539.87139,E,DA,16,0.67,18.3,-47.6,,0000*6D
$GNGGA,085505.00,0419.71617,S,05539.87139,E,2,12,0.67,18.3,M,-47.6,M,,0000*45
$GNGSA,A,3,25,23,12,15,29,10,18,24,28,26,,,1.30,0.67,1.11*14
$GNGSA,A,3,69,80,73,68,74,83,,,,,,,1.30,0.67,1.11*1B
$GPGSV,5,1,17,10,45,244,35,12,33,154,31,13,02,059,,15,37,067,43*74
$GPGSV,5,2,17,18,18,343,37,23,62,318,39,24,16,134,12,25,62,185,36*73
$GPGSV,5,3,17,26,10,311,27,28,13,243,15,29,41,030,45,31,01,265,*7D
$GPGSV,5,4,17,32,17,205,,36,52,277,36,40,85,352,43,41,58,082,38*78
$GPGSV,5,5,17,49,32,274,*42
$GLGSV,3,1,10,68,22,039,37,69,64,085,38,70,31,194,,73,41,260,30*62
$GLGSV,3,2,10,74,15,303,11,80,33,187,18,82,01,072,,83,08,026,40*60
$GLGSV,3,3,10,84,01,337,23,,,,20*5D
$GNGLL,0419.71617,S,05539.87139,E,085505.00,A,D*66
$GNGRS,085505.00,1,-1.7,-2.2,-2.4,0.6,0.6,0.8,0.1,17.9,24.0,-0.1,,*5C
$GNGRS,085505.00,1,4.6,5.9,0.5,-11.7,12.4,7.3,,,,,,*7F
$GNGST,085505.00,3077859,,,,2.6,2.5,4.6*72
$GNZDA,085505.00,19,05,2025,00,00*7D
$GNGBS,085505.00,2.6,2.5,4.6,,,,*53
b0X`
'-y!;(%C'W$>>!>
7W-) {4
)U`:R D''E&@UIFI)'J/P!RHS*TQwb`xW|$GNRMC,085506.00,A,0419.71619,S,05539.87135,E,0.154,,190525,,,D*74
$GNVTG,,T,,M,0.154,N,0.285,K,D*37
$GNGNS,085506.00,0419.71619,S,05539.87135,E,DA,16,0.67,18.4,-47.6,,0000*6B
$GNGGA,085506.00,0419.71619,S,05539.87135,E,2,12,0.67,18.4,M,-47.6,M,,0000*43
$GNGSA,A,3,25,23,12,15,29,10,18,24,28,26,,,1.30,0.67,1.11*14
$GNGSA,A,3,69,80,73,68,74,83,,,,,,,1.30,0.67,1.11*1B
$GPGSV,5,1,17,10,45,244,39,12,33,154,26,13,02,059,,15,37,067,40*7D
$GPGSV,5,2,17,18,18,343,39,23,62,318,36,24,16,134,13,25,62,185,33*76
$GPGSV,5,3,17,26,10,311,26,28,13,243,11,29,41,030,45,31,01,265,14*7D
$GPGSV,5,4,17,32,17,205,,36,52,277,29,40,85,352,41,41,58,082,31*7D
$GPGSV,5,5,17,49,32,274,*42
$GLGSV,3,1,10,68,22,039,39,69,64,085,38,70,31,194,,73,41,260,29*64
$GLGSV,3,2,10,74,15,303,11,80,33,187,27,82,01,072,,83,08,026,42*6E
$GLGSV,3,3,10,84,01,337,19,,,,21*55
$GNGLL,0419.71619,S,05539.87135,E,085506.00,A,D*67
$GNGRS,085506.00,1,-2.3,-0.5,-0.3,-0.2,0.3,-1.3,2.0,17.8,23.9,-1.1,,*5E
$GNGRS,085506.00,1,3.3,9.3,-2.2,-12.8,12.8,9.1,,,,,,*5C
$GNGST,085506.00,3077859,,,,2.6,2.4,4.6*70
$GNZDA,085506.00,19,05,2025,00,00*7E
$GNGBS,085506.00,2.6,2.4,4.6,,,,*51
b0XH
%- p;!%CU$W >>S!>
7+)Y {4
$U` :R D&'E%@U(FI)J
/P!pRHS*TQbHx?TK$GNRMC,085507.00,A,0419.71619,S,05539.87131,E,0.099,,190525,,,D*71
$GNVTG,,T,,M,0.099,N,0.184,K,D*35
$GNGNS,085507.00,0419.71619,S,05539.87131,E,DA,16,0.63,18.5,-47.6,,0000*6B
$GNGGA,085507.00,0419.71619,S,05539.87131,E,2,12,0.63,18.5,M,-47.6,M,,0000*43
$GNGSA,A,3,25,23,12,15,29,10,18,24,28,26,,,1.21,0.63,1.04*14
$GNGSA,A,3,69,80,73,68,74,83,,,,,,,1.21,0.63,1.04*1B
$GPGSV,5,1,17,10,45,244,37,12,32,154,23,13,02,059,,15,37,067,33*73
$GPGSV,5,2,17,18,18,343,36,23,62,318,32,24,16,134,14,25,62,185,33*7A
$GPGSV,5,3,17,26,10,311,24,28,13,243,13,29,41,030,43,31,01,265,12*7D
$GPGSV,5,4,17,32,17,205,,36,52,277,30,40,85,352,36,41,58,082,32*76
$GPGSV,5,5,17,49,32,274,*42
$GLGSV,3,1,10,68,22,039,38,69,64,085,37,70,31,194,,73,41,260,22*61
$GLGSV,3,2,10,74,15,303,10,80,33,187,23,82,01,072,,83,08,026,42*6B
$GLGSV,3,3,10,84,01,337,19,,,,22*56
$GNGLL,0419.71619,S,05539.87131,E,085507.00,A,D*62
$GNGRS,085507.00,1,-5.2,1.4,1.1,0.8,0.9,-0.1,1.6,11.1,12.8,1.7,,*56
$GNGRS,085507.00,1,3.0,8.8,2.3,-13.4,-5.7,9.4,,,,,,*64
$GNGST,085507.00,57,,,,2.6,2.4,4.6*44
$GNZDA,085507.00,19,05,2025,00,00*7F
$GNGBS,085507.00,2.6,2.4,4.6,,,,*50
b0X0
-@ :%CW<>>G>
7
M%) {4
U`:R D 'E@UcFI)J/P!XRHS&TQ+}b0x',$GNRMC,085508.00,A,0419.71618,S,05539.87130,E,0.168,,190525,,,D*71
$GNVTG,,T,,M,0.168,N,0.312,K,D*37
$GNGNS,085508.00,0419.71618,S,05539.87130,E,DA,16,0.67,18.4,-47.6,,0000*61
$GNGGA,085508.00,0419.71618,S,05539.87130,E,2,12,0.67,18.4,M,-47.6,M,,0000*49
$GNGSA,A,3,25,23,12,15,29,10,18,24,28,26,,,1.30,0.67,1.11*14
$GNGSA,A,3,69,80,73,68,74,83,,,,,,,1.30,0.67,1.11*1B
$GPGSV,5,1,17,10,45,244,29,12,32,154,21,13,02,058,,15,37,067,27*7A
$GPGSV,5,2,17,18,18,343,29,23,62,318,27,24,16,134,12,25,62,185,27*73
$GPGSV,5,3,17,26,10,311,20,28,13,243,10,29,41,030,37,31,01,265,*7A
$GPGSV,5,4,17,32,17,205,,36,52,277,,40,85,352,30,41,58,082,28*78
$GPGSV,5,5,17,49,32,274,*42
$GLGSV,3,1,10,68,22,039,32,69,64,085,30,70,31,194,,73,41,260,23*6D
$GLGSV,3,2,10,74,15,303,09,80,33,187,19,82,01,072,,83,08,026,38*67
$GLGSV,3,3,10,84,01,337,17,,,,19*50
$GNGLL,0419.71618,S,05539.87130,E,085508.00,A,D*6D
$GNGRS,085508.00,1,-3.5,-1.9,10.5,2.1,-0.1,0.6,0.6,18.1,23.8,-6.1,,*6E
$GNGRS,085508.00,1,3.5,11.1,1.3,-13.2,11.6,9.2,,,,,,*45
$GNGST,085508.00,3072228,,,,2.6,2.4,4.6*77
$GNZDA,085508.00,19,05,2025,00,00*70
$GNGBS,085508.00,2.6,2.4,4.6,,,,*5F
b0X
$-m S:$%Cu"W;!>>X >
7
@*) {4
"U` :R D#'E"@UFI)J/XP!RHS(TQ{Nbx$GNRMC,085509.00,A,0419.71614,S,05539.87126,E,0.162,,190525,,,D*71
$GNVTG,,T,,M,0.162,N,0.301,K,D*3F
$GNGNS,085509.00,0419.71614,S,05539.87126,E,DA,15,0.71,18.4,-47.6,,0000*6F
$GNGGA,085509.00,0419.71614,S,05539.87126,E,2,12,0.71,18.4,M,-47.6,M,,0000*44
$GNGSA,A,3,25,23,15,29,10,18,24,28,26,,,,1.33,0.71,1.13*11
$GNGSA,A,3,69,80,73,68,74,83,,,,,,,1.33,0.71,1.13*1D
$GPGSV,5,1,17,10,45,244,36,12,32,154,22,13,02,058,,15,37,067,36*77
$GPGSV,5,2,17,18,18,343,34,23,62,318,33,24,16,134,12,25,62,185,32*7E
$GPGSV,5,3,17,26,10,311,18,28,13,243,10,29,41,030,42,31,01,265,*73
$GPGSV,5,4,17,32,17,205,,36,52,277,,40,85,352,34,41,58,082,32*77
$GPGSV,5,5,17,49,32,274,*42
$GLGSV,3,1,10,68,22,039,35,69,64,085,34,70,31,194,,73,41,260,26*6B
$GLGSV,3,2,10,74,15,303,13,80,33,187,15,82,01,072,,83,08,026,40*6F
$GLGSV,3,3,10,84,01,337,16,,,,18*50
$GNGLL,0419.71614,S,05539.87126,E,085509.00,A,D*67
$GNGRS,085509.00,1,-8.3,-1.7,1.2,0.0,1.1,3.2,18.2,23.7,-3.6,,,*55
$GNGRS,085509.00,1,-0.9,2.8,-1.0,-12.8,11.1,9.0,,,,,,*7D
$GNGST,085509.00,3180931,,,,2.6,2.4,4.7*78
$GNZDA,085509.00,19,05,2025,00,00*71
$GNGBS,085509.00,2.6,2.4,4.7,,,,*5F
b0X
%-q a:$%B#W">> >
7Z&*) {4
!U`!:R D%'E'@UFI!)J/P!zRHS+mTQxbx$GNRMC,085510.00,A,0419.71610,S,05539.87124,E,0.212,,190525,,,D*7B
$GNVTG,,T,,M,0.212,N,0.393,K,D*30
$GNGNS,085510.00,0419.71610,S,05539.87124,E,DA,15,0.75,18.6,-47.6,,0000*67
$GNGGA,085510.00,0419.71610,S,05539.87124,E,2,12,0.75,18.6,M,-47.6,M,,0000*4C
$GNGSA,A,3,25,23,15,29,10,18,24,28,26,,,,1.39,0.75,1.17*1B
$GNGSA,A,3,69,80,73,68,74,83,,,,,,,1.39,0.75,1.17*17
$GPGSV,5,1,17,10,45,244,37,12,32,154,23,13,02,058,,15,37,066,36*76
$GPGSV,5,2,17,18,18,343,35,23,62,318,34,24,16,134,12,25,62,185,32*78
$GPGSV,5,3,17,26,10,311,17,28,13,243,08,29,41,030,42,31,01,265,*75
$GPGSV,5,4,17,32,17,205,,36,52,277,,40,85,352,33,41,58,082,33*71
$GPGSV,5,5,17,49,32,274,*42
$GLGSV,3,1,10,68,22,039,37,69,64,085,39,70,31,194,,73,41,260,33*60
$GLGSV,3,2,10,74,15,303,13,80,33,187,20,82,01,072,,83,08,026,43*6A
$GLGSV,3,3,10,84,01,337,17,,,,25*5F
$GNGLL,0419.71610,S,05539.87124,E,085510.00,A,D*69
$GNGRS,085510.00,1,-5.0,1.8,0.2,0.1,1.1,-0.1,-16.5,99.8,-6.8,,,*7D
$GNGRS,085510.00,1,1.6,1.2,-2.6,-12.8,32.4,8.8,,,,,,*57
$GNGST,085510.00,46,,,,2.6,2.4,4.7*43
$GNZDA,085510.00,19,05,2025,00,00*79
$GNGBS,085510.00,2.6,2.4,4.7,,,,*57
b0X
$- D:#%B#W">>>d
7<)) {4
U`":R D'E @UFI)J/P!FRHS%PTQbx$GNRMC,085511.00,A,0419.71610,S,05539.87124,E,0.037,,190525,,,D*7F
$GNVTG,,T,,M,0.037,N,0.068,K,D*32
$GNGNS,085511.00,0419.71610,S,05539.87124,E,DA,15,0.67,18.6,-47.6,,0000*65
$GNGGA,085511.00,0419.71610,S,05539.87124,E,2,12,0.67,18.6,M,-47.6,M,,0000*4E
$GNGSA,A,3,25,23,12,15,29,10,18,24,26,,,,1.30,0.67,1.11*1E
$GNGSA,A,3,69,80,73,68,74,83,,,,,,,1.30,0.67,1.11*1B
$GPGSV,5,1,17,10,45,244,36,12,32,154,23,13,02,058,,15,37,066,35*74
$GPGSV,5,2,17,18,18,343,35,23,62,318,34,24,16,134,09,25,62,185,29*78
$GPGSV,5,3,17,26,10,311,17,28,13,243,07,29,41,030,41,31,01,265,*79
$GPGSV,5,4,17,32,17,205,,36,52,277,,40,85,352,29,41,58,082,34*7D
$GPGSV,5,5,17,49,32,274,*42
$GLGSV,3,1,10,68,22,039,31,69,64,085,32,70,31,194,,73,41,260,28*67
$GLGSV,3,2,10,74,15,303,09,80,33,187,19,82,01,072,,83,08,026,37*68
$GLGSV,3,3,10,84,01,337,16,,,,25*5E
$GNGLL,0419.71610,S,05539.87124,E,085511.00,A,D*68
$GNGRS,085511.00,1,-4.1,-0.1,-7.0,2.3,0.3,2.4,1.9,17.8,-5.9,,,*4B
$GNGRS,085511.00,1,4.1,0.7,-5.4,-13.0,11.8,8.5,,,,,,*5C
$GNGST,085511.00,4343719,,,,2.6,2.4,4.7*7F
$GNZDA,085511.00,19,05,2025,00,00*78
$GNGBS,085511.00,2.6,2.4,4.7,,,,*56
b0X
'-] ::%%B$W:">>
!>
7a,) {4
"U`!:R D!'E!@UFI)XJ/P!RHS'>TQ1bxA$GNRMC,085512.00,A,0419.71609,S,05539.87122,E,0.064,,190525,,,D*74
$GNVTG,,T,,M,0.064,N,0.119,K,D*33
$GNGNS,085512.00,0419.71609,S,05539.87122,E,DA,16,0.67,18.6,-47.6,,0000*6B
$GNGGA,085512.00,0419.71609,S,05539.87122,E,2,12,0.67,18.6,M,-47.6,M,,0000*43
$GNGSA,A,3,25,23,12,15,29,10,18,24,28,26,,,1.30,0.67,1.11*14
$GNGSA,A,3,69,80,73,68,74,83,,,,,,,1.30,0.67,1.11*1B
$GPGSV,5,1,17,10,45,244,39,12,32,154,23,13,02,058,,15,37,066,37*79
$GPGSV,5,2,17,18,18,343,36,23,62,318,34,24,16,134,10,25,62,185,33*78
$GPGSV,5,3,17,26,10,311,17,28,13,243,12,29,41,030,44,31,01,265,*78
$GPGSV,5,4,17,32,17,205,,36,52,277,,40,85,352,34,41,58,082,33*76
$GPGSV,5,5,17,49,32,274,*42
$GLGSV,3,1,10,68,22,039,33,69,64,085,33,70,31,194,,73,41,260,28*64
$GLGSV,3,2,10,74,15,303,09,80,33,187,18,82,01,072,,83,08,026,39*67
$GLGSV,3,3,10,84,01,337,14,,,,23*5A
$GNGLL,0419.71609,S,05539.87122,E,085512.00,A,D*65
$GNGRS,085512.00,1,-2.9,2.0,-7.1,1.5,0.0,3.5,0.6,17.5,23.2,-4.1,,*78
$GNGRS,085512.00,1,2.1,1.5,-4.2,-12.8,11.7,8.3,,,,,,*5D
$GNGST,085512.00,4343719,,,,2.6,2.4,4.7*7C
$GNZDA,085512.00,19,05,2025,00,00*7B
$GNGBS,085512.00,2.6,2.4,4.7,,,,*55
b0X
&-] :&%B#X">>tr!>0
7
+) {4
!U`!:R D!'E"@UFI)&J/=P! RHS'3T
Qbxb$GNRMC,085513.00,A,0419.71606,S,05539.87122,E,0.058,,190525,,,D*75
$GNVTG,,T,,M,0.058,N,0.108,K,D*3C
$GNGNS,085513.00,0419.71606,S,05539.87122,E,DA,15,0.75,18.6,-47.6,,0000*65
$GNGGA,085513.00,0419.71606,S,05539.87122,E,2,12,0.75,18.6,M,-47.6,M,,0000*4E
$GNGSA,A,3,25,23,15,29,10,18,24,28,26,,,,1.39,0.75,1.17*1B
$GNGSA,A,3,69,80,73,68,74,83,,,,,,,1.39,0.75,1.17*17
$GPGSV,5,1,17,10,45,244,38,12,32,154,,13,02,058,,15,37,066,38*76
$GPGSV,5,2,17,18,18,344,35,23,62,318,34,24,16,134,13,25,62,185,33*7F
$GPGSV,5,3,17,26,10,311,17,28,13,243,10,29,41,030,43,31,01,265,*7D
$GPGSV,5,4,17,32,17,205,,36,52,277,,40,85,352,33,41,58,082,33*71
$GPGSV,5,5,17,49,32,274,*42
$GLGSV,3,1,10,68,22,039,33,69,64,085,34,70,31,194,,73,41,260,29*62
$GLGSV,3,2,10,74,15,303,09,80,33,187,18,82,01,072,,83,08,026,39*67
$GLGSV,3,3,10,84,01,337,10,,,,22*5F
$GNGLL,0419.71606,S,05539.87122,E,085513.00,A,D*6B
$GNGRS,085513.00,1,-4.6,1.2,2.5,-0.1,0.9,1.5,-19.3,-53.6,-5.0,,,*5D
$GNGRS,085513.00,1,0.0,0.3,-4.7,-12.8,67.2,8.2,,,,,,*58
$GNGST,085513.00,47,,,,2.7,2.3,4.7*47
$GNZDA,085513.00,19,05,2025,00,00*7A
$GNGBS,085513.00,2.7,2.3,4.7,,,,*52
b0X
- :%BX>>
>
7I%) I{4
U`:R D'CE@UFI)
J/P!RHS!TQ
bx:$GNRMC,085514.00,A,0419.71608,S,05539.87121,E,0.027,,190525,,,D*77
$GNVTG,,T,,M,0.027,N,0.051,K,D*39
$GNGNS,085514.00,0419.71608,S,05539.87121,E,DA,14,0.75,18.5,-47.6,,0000*6D
$GNGGA,085514.00,0419.71608,S,05539.87121,E,2,12,0.75,18.5,M,-47.6,M,,0000*47
$GNGSA,A,3,25,23,15,29,10,18,24,28,26,,,,1.39,0.75,1.17*1B
$GNGSA,A,3,69,80,73,68,83,,,,,,,,1.39,0.75,1.17*14
$GPGSV,5,1,17,10,45,244,30,12,32,154,19,13,02,058,,15,37,066,30*7E
$GPGSV,5,2,17,18,18,344,28,23,62,318,29,24,16,134,10,25,62,185,28*76
$GPGSV,5,3,17,26,10,311,17,28,13,243,11,29,41,030,37,31,01,265,*7F
$GPGSV,5,4,17,32,17,205,14,36,52,277,,40,85,352,28,41,58,082,29*75
$GPGSV,5,5,17,49,32,274,*42
$GLGSV,3,1,10,68,22,039,29,69,64,085,28,70,31,194,,73,41,260,27*6A
$GLGSV,3,2,10,74,15,303,06,80,33,187,16,82,01,072,,83,08,026,33*6C
$GLGSV,3,3,10,84,01,337,12,,,,20*5F
$GNGLL,0419.71608,S,05539.87121,E,085514.00,A,D*61
$GNGRS,085514.00,1,-3.8,-0.2,-0.6,-0.1,0.2,-0.7,17.9,23.8,-3.7,,,*7A
$GNGRS,085514.00,1,-3.3,3.8,0.1,-12.1,7.9,,,,,,,*45
$GNGST,085514.00,3299292,,,,2.7,2.4,4.8*73
$GNZDA,085514.00,19,05,2025,00,00*7D
$GNGBS,085514.00,2.7,2.4,4.8,,,,*5D
b0X
- ~:"%B X >>>
7;9') {4
U`!:R D!'E"@U+FI)?J/wP!fRHS%$TQ]bxy$GNRMC,085515.00,A,0419.71608,S,05539.87119,E,0.043,,190525,,,D*7F
$GNVTG,,T,,M,0.043,N,0.079,K,D*31
$GNGNS,085515.00,0419.71608,S,05539.87119,E,DA,15,0.71,18.5,-47.6,,0000*62
$GNGGA,085515.00,0419.71608,S,05539.87119,E,2,12,0.71,18.5,M,-47.6,M,,0000*49
$GNGSA,A,3,25,23,15,29,10,18,24,28,26,,,,1.33,0.71,1.13*11
$GNGSA,A,3,69,80,73,68,74,83,,,,,,,1.33,0.71,1.13*1D
$GPGSV,5,1,17,10,45,244,31,12,32,154,24,13,02,058,,15,37,066,34*75
$GPGSV,5,2,17,18,18,344,32,23,62,318,32,24,16,134,12,25,62,185,29*74
$GPGSV,5,3,17,26,10,311,17,28,13,243,13,29,41,030,39,31,01,265,*73
$GPGSV,5,4,17,32,17,205,,36,52,277,,40,85,352,28,41,58,082,33*7B
$GPGSV,5,5,17,49,32,274,*42
$GLGSV,3,1,10,68,22,039,33,69,64,085,34,70,31,194,,73,41,260,28*63
$GLGSV,3,2,10,74,15,303,12,80,33,187,18,82,01,072,,83,08,026,37*63
$GLGSV,3,3,10,84,01,337,15,,,,23*5B
$GNGLL,0419.71608,S,05539.87119,E,085515.00,A,D*6B
$GNGRS,085515.00,1,-1.1,1.8,0.1,-0.3,-2.6,-0.6,17.7,23.6,-4.5,,,*51
$GNGRS,085515.00,1,-2.1,6.1,-1.9,-12.7,11.4,8.0,,,,,,*75
$GNGST,085515.00,4496177,,,,2.7,2.4,4.8*74
$GNZDA,085515.00,19,05,2025,00,00*7C
$GNGBS,085515.00,2.7,2.4,4.8,,,,*5C
b0Xp
 -* :%B X>>k>
7l
&) {4
U`:R D'TE@U FI)!J/4P!RHS#,TQbpxg$GNRMC,085516.00,A,0419.71606,S,05539.87120,E,0.096,,190525,,,D*70
$GNVTG,,T,,M,0.096,N,0.177,K,D*36
$GNGNS,085516.00,0419.71606,S,05539.87120,E,DA,14,0.75,18.4,-47.6,,0000*61
$GNGGA,085516.00,0419.71606,S,05539.87120,E,2,12,0.75,18.4,M,-47.6,M,,0000*4B
$GNGSA,A,3,25,23,15,29,10,18,24,28,26,,,,1.39,0.75,1.17*1B
$GNGSA,A,3,69,80,73,68,83,,,,,,,,1.39,0.75,1.17*14
$GPGSV,5,1,17,10,45,244,32,12,32,154,22,13,02,058,,15,37,066,31*75
$GPGSV,5,2,17,18,18,344,32,23,62,318,29,24,16,134,09,25,62,185,30*7C
$GPGSV,5,3,17,26,10,311,14,28,13,243,10,29,41,030,38,31,01,265,*72
$GPGSV,5,4,17,32,17,205,,36,52,277,,40,85,352,29,41,58,082,29*71
$GPGSV,5,5,17,49,32,274,*42
$GLGSV,3,1,10,68,22,039,30,69,64,085,30,70,31,194,,73,41,260,26*6A
$GLGSV,3,2,10,74,15,303,06,80,33,187,17,82,01,072,,83,08,026,35*6B
$GLGSV,3,3,10,84,01,337,14,,,,21*58
$GNGLL,0419.71606,S,05539.87120,E,085516.00,A,D*6C
$GNGRS,085516.00,1,-3.0,1.1,0.2,-0.4,0.4,-0.5,-14.1,-21.5,-11.7,,,*40
$GNGRS,085516.00,1,-2.2,4.2,-4.8,-12.0,8.1,,,,,,,*6C
$GNGST,085516.00,50,,,,2.8,2.4,4.9*42
$GNZDA,085516.00,19,05,2025,00,00*7F
$GNGBS,085516.00,2.8,2.4,4.9,,,,*51
b0XX
!- f: %B+ X>?">#
7L') {4
U`!:R D#'E#@U:FI )ZJ/P!RHS'TQ$bXxOI$GNRMC,085517.00,A,0419.71605,S,05539.87120,E,0.012,,190525,,,D*7E
$GNVTG,,T,,M,0.012,N,0.022,K,D*3B
$GNGNS,085517.00,0419.71605,S,05539.87120,E,DA,14,0.74,18.4,-47.6,,0000*62
$GNGGA,085517.00,0419.71605,S,05539.87120,E,2,12,0.74,18.4,M,-47.6,M,,0000*48
$GNGSA,A,3,25,23,15,29,10,18,24,28,,,,,1.41,0.74,1.20*15
$GNGSA,A,3,69,80,73,68,74,83,,,,,,,1.41,0.74,1.20*1D
$GPGSV,5,1,17,10,45,244,33,12,32,154,26,13,02,058,,15,37,066,32*73
$GPGSV,5,2,17,18,18,344,32,23,62,319,30,24,16,134,12,25,62,185,34*7B
$GPGSV,5,3,17,26,10,311,,28,13,243,07,29,41,030,39,31,01,265,*70
$GPGSV,5,4,17,32,17,205,,36,52,277,,40,85,352,30,41,58,082,33*72
$GPGSV,5,5,17,49,32,274,*42
$GLGSV,3,1,10,68,22,039,35,69,64,085,35,70,31,194,,73,41,260,32*6F
$GLGSV,3,2,10,74,15,303,08,80,33,187,19,82,01,072,,83,08,026,39*67
$GLGSV,3,3,10,84,01,337,18,,,,24*51
$GNGLL,0419.71605,S,05539.87120,E,085517.00,A,D*6E
$GNGRS,085517.00,1,-4.8,2.3,0.4,-0.4,-0.3,-2.5,18.1,23.8,,,,*56
$GNGRS,085517.00,1,0.6,2.7,0.9,-11.1,11.8,7.9,,,,,,*7E
$GNGST,085517.00,4665903,,,,2.8,2.4,4.9*7D
$GNZDA,085517.00,19,05,2025,00,00*7E
$GNGBS,085517.00,2.8,2.4,4.9,,,,*50
b0X@
$- h:$%B!X>?J >i
75*) {4
#U` :R D('E&@UFI )yJ/P!RHS,TQSb@x7$GNRMC,085518.00,A,0419.71603,S,05539.87116,E,0.059,,190525,,,D*7D
$GNVTG,,T,,M,0.059,N,0.109,K,D*3C
$GNGNS,085518.00,0419.71603,S,05539.87116,E,DA,13,0.74,18.5,-47.6,,0000*68
$GNGGA,085518.00,0419.71603,S,05539.87116,E,2,12,0.74,18.5,M,-47.6,M,,0000*45
$GNGSA,A,3,25,23,15,29,10,18,24,,,,,,1.41,0.74,1.20*1F
$GNGSA,A,3,69,80,73,68,74,83,,,,,,,1.41,0.74,1.20*1D
$GPGSV,5,1,17,10,45,244,36,12,32,154,24,13,02,058,,15,37,066,36*70
$GPGSV,5,2,17,18,18,344,33,23,62,319,31,24,16,133,11,25,62,185,32*79
$GPGSV,5,3,17,26,10,311,,28,13,243,07,29,41,030,42,31,01,265,*7C
$GPGSV,5,4,17,32,17,205,,36,52,277,,40,85,352,35,41,58,082,32*76
$GPGSV,5,5,17,49,32,274,*42
$GLGSV,3,1,10,68,22,039,40,69,64,085,38,70,31,194,,73,41,260,32*60
$GLGSV,3,2,10,74,15,303,13,80,33,187,19,82,01,072,,83,08,026,44*67
$GLGSV,3,3,10,84,01,337,12,,,,22*5D
$GNGLL,0419.71603,S,05539.87116,E,085518.00,A,D*62
$GNGRS,085518.00,1,-4.1,0.7,-0.2,-0.2,-0.8,-0.7,18.1,,,,,*67
$GNGRS,085518.00,1,-0.1,1.9,3.8,-10.8,11.7,7.7,,,,,,*5D
$GNGST,085518.00,4665903,,,,2.8,2.4,4.9*72
$GNZDA,085518.00,19,05,2025,00,00*71
$GNGBS,085518.00,2.8,2.4,4.9,,,,*5F
b0X(
&-r &:'%B$X#>?#>/
7+) {4
"U`$:R D#'E"@UFI)QJ/tP!RHS(TQnb(xr$GNRMC,085519.00,A,0419.71602,S,05539.87111,E,0.041,,190525,,,D*73
$GNVTG,,T,,M,0.041,N,0.076,K,D*3C
$GNGNS,085519.00,0419.71602,S,05539.87111,E,DA,14,0.74,18.4,-47.6,,0000*69
$GNGGA,085519.00,0419.71602,S,05539.87111,E,2,12,0.74,18.4,M,-47.6,M,,0000*43
$GNGSA,A,3,25,23,12,15,29,10,18,24,28,,,,1.42,0.74,1.21*14
$GNGSA,A,3,69,73,68,74,83,,,,,,,,1.42,0.74,1.21*17
$GPGSV,5,1,17,10,45,244,38,12,32,154,24,13,02,058,,15,37,066,39*71
$GPGSV,5,2,17,18,18,344,36,23,62,319,35,24,16,133,13,25,62,185,35*7D
$GPGSV,5,3,17,26,10,311,,28,13,243,08,29,41,030,43,31,01,265,*72
$GPGSV,5,4,17,32,17,205,,36,52,277,,40,85,352,34,41,58,082,36*73
$GPGSV,5,5,17,49,32,274,*42
$GLGSV,3,1,10,68,22,039,35,69,64,085,34,70,31,194,,73,41,260,31*6D
$GLGSV,3,2,10,74,15,303,12,80,33,187,,82,01,072,,83,08,026,40*6A
$GLGSV,3,3,10,84,01,337,08,,,,21*55
$GNGLL,0419.71602,S,05539.87111,E,085519.00,A,D*65
$GNGRS,085519.00,1,-2.1,0.1,-4.7,-0.3,-0.5,1.1,1.3,-13.8,-28.5,,,*7E
$GNGRS,085519.00,1,3.9,5.9,-10.7,11.4,7.7,,,,,,,*57
$GNGST,085519.00,51,,,,2.8,2.4,4.9*4C
$GNZDA,085519.00,19,05,2025,00,00*70
$GNGBS,085519.00,2.8,2.4,4.9,,,,*5E
b0X
&- :'%Bq#X >?, >J

7
O,) {4
$U`:R D$'
E @U+FI)wJ/P!RHS(TQbxJ$GNRMC,085520.00,A,0419.71600,S,05539.87109,E,0.082,,190525,,,D*7D
$GNVTG,,T,,M,0.082,N,0.151,K,D*37
$GNGNS,085520.00,0419.71600,S,05539.87109,E,DA,14,0.74,18.4,-47.6,,0000*68
$GNGGA,085520.00,0419.71600,S,05539.87109,E,2,12,0.74,18.4,M,-47.6,M,,0000*42
$GNGSA,A,3,25,23,12,15,29,10,18,24,28,,,,1.42,0.74,1.21*14
$GNGSA,A,3,69,73,68,74,83,,,,,,,,1.42,0.74,1.21*17
$GPGSV,5,1,17,10,45,244,38,12,32,154,30,13,02,058,,15,37,066,39*74
$GPGSV,5,2,17,18,18,344,35,23,62,319,32,24,16,133,07,25,62,185,32*7B
$GPGSV,5,3,17,26,10,311,10,28,13,243,10,29,41,030,44,31,01,265,*7D
$GPGSV,5,4,17,32,17,205,,36,52,277,,40,85,352,36,41,58,082,31*76
$GPGSV,5,5,17,49,32,274,*42
$GLGSV,3,1,10,68,22,039,36,69,64,085,32,70,31,194,,73,41,260,29*61
$GLGSV,3,2,10,74,15,303,09,80,33,187,,82,01,072,,83,08,026,40*60
$GLGSV,3,3,10,84,01,337,08,,,,18*5F
$GNGLL,0419.71600,S,05539.87109,E,085520.00,A,D*64
$GNGRS,085520.00,1,-4.4,-1.2,-2.7,1.1,-0.6,-0.6,1.3,18.4,23.8,,,*59
$GNGRS,085520.00,1,3.0,3.8,-10.1,11.8,7.6,,,,,,,*58
$GNGST,085520.00,3299292,,,,2.8,2.3,4.9*7D
$GNZDA,085520.00,19,05,2025,00,00*7A
$GNGBS,085520.00,2.8,2.3,4.9,,,,*53
b0X
*-  C:+%B5'X$>?G">E
7
Z.) {4
'U`&:R D''+E%@UFI)mJ/P!RHS+TQqbx $GNRMC,085521.00,A,0419.71600,S,05539.87112,E,0.074,,190525,,,D*7F
$GNVTG,,T,,M,0.074,N,0.137,K,D*3E
$GNGNS,085521.00,0419.71600,S,05539.87112,E,DA,14,0.74,18.7,-47.6,,0000*60
$GNGGA,085521.00,0419.71600,S,05539.87112,E,2,12,0.74,18.7,M,-47.6,M,,0000*4A
$GNGSA,A,3,25,23,12,15,29,10,18,24,28,,,,1.42,0.74,1.21*14
$GNGSA,A,3,69,73,68,74,83,,,,,,,,1.42,0.74,1.21*17
$GPGSV,5,1,17,10,45,244,42,12,32,154,32,13,02,058,,15,37,066,43*76
$GPGSV,5,2,17,18,18,344,39,23,62,319,36,24,16,133,12,25,62,185,34*71
$GPGSV,5,3,17,26,10,311,20,28,13,243,10,29,41,030,46,31,01,265,*7C
$GPGSV,5,4,17,32,17,205,,36,52,277,,40,85,352,39,41,58,082,38*70
$GPGSV,5,5,17,49,32,274,*42
$GLGSV,3,1,10,68,22,039,39,69,64,085,37,70,31,194,,73,41,260,31*62
$GLGSV,3,2,10,74,15,303,13,80,33,187,,82,01,072,,83,08,026,43*68
$GLGSV,3,3,10,84,01,337,13,,,,20*5E
$GNGLL,0419.71600,S,05539.87112,E,085521.00,A,D*6F
$GNGRS,085521.00,1,-4.4,-1.0,0.7,0.5,-0.6,-0.9,-0.5,18.6,23.9,,,*56
$GNGRS,085521.00,1,4.4,-1.5,-12.4,11.9,7.9,,,,,,,*71
$GNGST,085521.00,3299292,,,,2.8,2.3,4.9*7C
$GNZDA,085521.00,19,05,2025,00,00*7B
$GNGBS,085521.00,2.8,2.3,4.9,,,,*52
b0X
'- x:q(%BF%X">? >
7,) {4
$U`#:R D''E%@UFI)J
/P!RHS*TQ>bxA$GNRMC,085522.00,A,0419.71601,S,05539.87112,E,0.017,,190525,,,D*78
$GNVTG,,T,,M,0.017,N,0.032,K,D*3F
$GNGNS,085522.00,0419.71601,S,05539.87112,E,DA,15,0.86,18.9,-47.6,,0000*60
$GNGGA,085522.00,0419.71601,S,05539.87112,E,2,12,0.86,18.9,M,-47.6,M,,0000*4B
$GNGSA,A,3,25,23,12,15,29,10,18,24,28,26,,,1.62,0.86,1.37*18
$GNGSA,A,3,69,73,68,74,83,,,,,,,,1.62,0.86,1.37*1F
$GPGSV,5,1,17,10,45,244,39,12,32,154,31,13,02,058,21,15,37,066,40*79
$GPGSV,5,2,17,18,18,344,37,23,62,319,34,24,16,133,12,25,62,185,32*7B
$GPGSV,5,3,17,26,10,311,22,28,13,243,08,29,41,030,44,31,01,265,*75
$GPGSV,5,4,17,32,17,205,,36,52,277,,40,85,352,36,41,58,082,35*72
$GPGSV,5,5,17,49,32,274,*42
$GLGSV,3,1,10,68,22,039,39,69,64,085,37,70,31,194,,73,41,260,31*62
$GLGSV,3,2,10,74,15,303,10,80,33,187,,82,01,072,,83,08,026,42*6A
$GLGSV,3,3,10,84,01,337,17,,,,21*5B
$GNGLL,0419.71601,S,05539.87112,E,085522.00,A,D*6D
$GNGRS,085522.00,1,-2.4,2.7,1.2,0.7,-0.1,-0.2,-0.3,20.6,-71.6,-3.7,,*5F
$GNGRS,085522.00,1,5.1,-0.8,-12.7,7.3,7.9,,,,,,,*44
$GNGST,085522.00,42,,,,2.7,2.2,4.8*4E
$GNZDA,085522.00,19,05,2025,00,00*78
$GNGBS,085522.00,2.7,2.2,4.8,,,,*5E
b0X
'- :)%BU$XF#>?o">
7|[,) {4
$U`#:R D''E#@UEFI )GJ
/P!RHS*TQbx$GNRMC,085523.00,A,0419.71598,S,05539.87113,E,0.018,,190525,,,D*74
$GNVTG,,T,,M,0.018,N,0.033,K,D*31
$GNGNS,085523.00,0419.71598,S,05539.87113,E,DA,15,0.72,19.1,-47.6,,0000*61
$GNGGA,085523.00,0419.71598,S,05539.87113,E,2,12,0.72,19.1,M,-47.6,M,,0000*4A
$GNGSA,A,3,25,23,12,15,29,10,18,24,28,26,,,1.34,0.72,1.13*16
$GNGSA,A,3,69,73,68,74,83,,,,,,,,1.34,0.72,1.13*11
$GPGSV,5,1,17,10,45,244,39,12,32,154,31,13,02,058,,15,37,066,41*7B
$GPGSV,5,2,17,18,18,344,36,23,62,319,35,24,16,133,13,25,62,185,34*7C
$GPGSV,5,3,17,26,10,311,23,28,13,243,08,29,41,031,44,31,01,265,*75
$GPGSV,5,4,17,32,17,205,,36,52,277,,40,85,352,36,41,58,082,35*72
$GPGSV,5,5,17,49,32,274,*42
$GLGSV,3,1,10,68,22,039,39,69,64,085,35,70,31,194,,73,41,260,32*63
$GLGSV,3,2,10,74,15,303,10,80,33,187,,82,01,072,,83,08,026,42*6A
$GLGSV,3,3,10,84,01,337,18,,,,22*57
$GNGLL,0419.71598,S,05539.87113,E,085523.00,A,D*6E
$GNGRS,085523.00,1,-2.4,1.1,-0.9,0.9,0.1,0.1,0.7,18.1,24.0,-3.9,,*71
$GNGRS,085523.00,1,3.2,-7.0,-10.7,11.8,7.7,,,,,,,*7F
$GNGST,085523.00,54766,,,,2.7,2.2,4.8*7F
$GNZDA,085523.00,19,05,2025,00,00*79
$GNGBS,085523.00,2.7,2.2,4.8,,,,*5F
b0X
(- 1:*%BR%X6#>?X!%>
7dU.) {4
'U`%:R D''E#@UYFI)J/P!26RHS+TQbx$GNRMC,085524.00,A,0419.71588,S,05539.87109,E,0.087,,190525,,,D*7F
$GNVTG,,T,,M,0.087,N,0.162,K,D*32
$GNGNS,085524.00,0419.71588,S,05539.87109,E,DA,15,0.72,19.2,-47.6,,0000*6F
$GNGGA,085524.00,0419.71588,S,05539.87109,E,2,12,0.72,19.2,M,-47.6,M,,0000*44
$GNGSA,A,3,25,23,12,15,29,10,18,24,28,26,,,1.34,0.72,1.13*16
$GNGSA,A,3,69,73,68,74,83,,,,,,,,1.34,0.72,1.13*11
$GPGSV,5,1,17,10,45,244,40,12,32,154,31,13,02,058,,15,37,066,42*76
$GPGSV,5,2,17,18,18,344,37,23,62,319,35,24,16,133,15,25,62,185,37*78
$GPGSV,5,3,17,26,10,311,24,28,13,243,08,29,41,031,46,31,01,265,*70
$GPGSV,5,4,17,32,17,205,,36,52,277,,40,85,352,39,41,58,082,37*7F
$GPGSV,5,5,17,49,32,274,*42
$GLGSV,3,1,10,68,22,039,39,69,64,085,35,70,31,194,,73,41,260,31*60
$GLGSV,3,2,10,74,15,303,11,80,33,187,18,82,01,072,,83,08,026,43*63
$GLGSV,3,3,10,84,01,337,17,,,,22*58
$GNGLL,0419.71588,S,05539.87109,E,085524.00,A,D*63
$GNGRS,085524.00,1,-2.7,3.4,-2.1,0.8,0.0,0.1,3.1,18.2,23.9,-1.6,,*7D
$GNGRS,085524.00,1,3.4,-5.1,-10.2,11.6,7.7,,,,,,,*76
$GNGST,085524.00,82148,,,,2.6,2.2,4.8*78
$GNZDA,085524.00,19,05,2025,00,00*7E
$GNGBS,085524.00,2.6,2.2,4.8,,,,*59
b0X
)-
 d:)%B\$X%>?V">d
74f-) {4
(U`$:R D''E#@UHFI )J/P!RHS+TQbxy$GNRMC,085525.00,A,0419.71583,S,05539.87107,E,0.025,,190525,,,D*73
$GNVTG,,T,,M,0.025,N,0.046,K,D*3D
$GNGNS,085525.00,0419.71583,S,05539.87107,E,DA,15,0.89,19.4,-47.6,,0000*69
$GNGGA,085525.00,0419.71583,S,05539.87107,E,2,12,0.89,19.4,M,-47.6,M,,0000*42
$GNGSA,A,3,25,23,12,15,29,10,18,24,28,26,,,1.67,0.89,1.41*13
$GNGSA,A,3,69,73,68,74,83,,,,,,,,1.67,0.89,1.41*14
$GPGSV,5,1,17,10,45,244,41,12,32,154,28,13,02,058,,15,37,066,41*7C
$GPGSV,5,2,17,18,18,344,36,23,62,319,37,24,16,133,09,25,62,185,34*75
$GPGSV,5,3,17,26,10,311,23,28,13,243,09,29,41,031,45,31,01,265,15*71
$GPGSV,5,4,17,32,17,205,,36,52,277,,40,85,352,40,41,58,082,36*70
$GPGSV,5,5,17,49,32,274,*42
$GLGSV,3,1,10,68,22,039,39,69,64,085,35,70,31,194,,73,41,260,32*63
$GLGSV,3,2,10,74,15,303,07,80,33,187,,82,01,072,,83,08,026,43*6D
$GLGSV,3,3,10,84,01,337,17,,,,23*59
$GNGLL,0419.71583,S,05539.87107,E,085525.00,A,D*67
$GNGRS,085525.00,1,-4.1,0.9,-4.1,0.9,0.0,0.1,2.2,-34.0,-24.6,3.1,,*5B
$GNGRS,085525.00,1,3.3,-3.7,-10.4,-87.3,7.9,,,,,,,*5F
$GNGST,085525.00,22,,,,2.6,2.1,4.7*42
$GNZDA,085525.00,19,05,2025,00,00*7F
$GNGBS,085525.00,2.6,2.1,4.7,,,,*54
b0X
'- :'%BN"X#>?\>
7kK*)[ {4
&U`":R D&'E#@UFI )MJ/P!RHS*%TQHbxwY$GNRMC,085526.00,A,0419.71583,S,05539.87106,E,0.088,,190525,,,D*76
$GNVTG,,T,,M,0.088,N,0.162,K,D*3D
$GNGNS,085526.00,0419.71583,S,05539.87106,E,DA,14,0.75,19.5,-47.6,,0000*68
$GNGGA,085526.00,0419.71583,S,05539.87106,E,2,12,0.75,19.5,M,-47.6,M,,0000*42
$GNGSA,A,3,25,23,12,15,29,10,18,24,28,26,,,1.39,0.75,1.18*17
$GNGSA,A,3,69,73,68,83,,,,,,,,,1.39,0.75,1.18*13
$GPGSV,5,1,17,10,45,244,39,12,32,154,28,13,02,058,,15,37,066,39*7C
$GPGSV,5,2,17,18,18,344,34,23,62,319,35,24,16,133,12,25,62,185,31*7A
$GPGSV,5,3,17,26,10,311,22,28,13,243,08,29,41,031,42,31,01,265,11*72
$GPGSV,5,4,17,32,17,205,,36,52,277,,40,85,352,38,41,58,082,34*7D
$GPGSV,5,5,17,49,32,274,*42
$GLGSV,3,1,10,68,22,039,38,69,64,085,35,70,31,194,,73,41,260,32*62
$GLGSV,3,2,10,74,15,303,06,80,33,187,,82,01,072,,83,08,026,42*6D
$GLGSV,3,3,10,84,01,337,17,,,,24*5E
$GNGLL,0419.71583,S,05539.87106,E,085526.00,A,D*65
$GNGRS,085526.00,1,-2.8,0.9,-2.5,0.8,0.1,0.1,4.3,17.9,23.8,3.6,,*54
$GNGRS,085526.00,1,5.3,0.8,-10.4,8.0,,,,,,,,*42
$GNGST,085526.00,3299292,,,,2.6,2.1,4.7*79
$GNZDA,085526.00,19,05,2025,00,00*7C
$GNGBS,085526.00,2.6,2.1,4.7,,,,*57
b0Xh
&- r:(%B@#X#>?D#>
7y-+)
 {4
'U`":R D&'E"@UFI )J
/P!RHS*;TQXbhx_1I$GNRMC,085527.00,A,0419.71583,S,05539.87103,E,0.015,,190525,,,D*76
$GNVTG,,T,,M,0.015,N,0.028,K,D*36
$GNGNS,085527.00,0419.71583,S,05539.87103,E,DA,15,0.72,19.5,-47.6,,0000*6A
$GNGGA,085527.00,0419.71583,S,05539.87103,E,2,12,0.72,19.5,M,-47.6,M,,0000*41
$GNGSA,A,3,25,23,12,15,29,10,18,24,28,26,,,1.34,0.72,1.13*16
$GNGSA,A,3,69,73,68,74,83,,,,,,,,1.34,0.72,1.13*11
$GPGSV,5,1,17,10,45,244,38,12,32,154,28,13,02,058,,15,37,066,40*73
$GPGSV,5,2,17,18,18,344,35,23,62,319,35,24,16,133,14,25,62,185,35*79
$GPGSV,5,3,17,26,10,311,20,28,13,243,08,29,41,031,43,31,01,265,10*70
$GPGSV,5,4,17,32,17,205,,36,52,277,,40,85,352,39,41,58,082,34*7C
$GPGSV,5,5,17,49,32,274,*42
$GLGSV,3,1,10,68,22,039,38,69,64,085,34,70,31,194,,73,41,260,32*63
$GLGSV,3,2,10,74,15,303,10,80,33,187,,82,01,072,,83,08,026,42*6A
$GLGSV,3,3,10,84,01,337,18,,,,24*51
$GNGLL,0419.71583,S,05539.87103,E,085527.00,A,D*61
$GNGRS,085527.00,1,-3.6,0.7,1.1,0.6,-0.1,0.0,1.7,17.7,23.5,3.8,,*50
$GNGRS,085527.00,1,1.7,4.5,-10.3,11.7,8.3,,,,,,,*57
$GNGST,085527.00,4496177,,,,2.6,2.1,4.7*7E
$GNZDA,085527.00,19,05,2025,00,00*7D
$GNGBS,085527.00,2.6,2.1,4.7,,,,*56
b0XP
(- ':)%BH"XF%>?z;#>B
7
,)
 {4
(U`#:R D&'E"@U{FI)J/P!RHS* TQzUbPxG$GNRMC,085528.00,A,0419.71576,S,05539.87098,E,0.078,,190525,,,D*7B
$GNVTG,,T,,M,0.078,N,0.145,K,D*37
$GNGNS,085528.00,0419.71576,S,05539.87098,E,DA,15,0.75,19.6,-47.6,,0000*68
$GNGGA,085528.00,0419.71576,S,05539.87098,E,2,12,0.75,19.6,M,-47.6,M,,0000*43
$GNGSA,A,3,25,23,12,15,29,10,18,24,28,26,,,1.39,0.75,1.18*17
$GNGSA,A,3,69,73,68,74,83,,,,,,,,1.39,0.75,1.18*10
$GPGSV,5,1,17,10,45,244,40,12,32,154,28,13,02,058,,15,37,066,41*7D
$GPGSV,5,2,17,18,18,344,34,23,62,319,37,24,16,133,14,25,62,185,35*7A
$GPGSV,5,3,17,26,10,311,19,28,13,243,10,29,41,031,44,31,01,265,10*74
$GPGSV,5,4,17,32,17,205,,36,52,277,,40,85,352,40,41,58,082,35*73
$GPGSV,5,5,17,49,32,274,*42
$GLGSV,3,1,10,68,22,039,38,69,64,085,34,70,31,194,,73,41,260,31*60
$GLGSV,3,2,10,74,15,303,08,80,33,187,,82,01,072,,83,08,026,42*63
$GLGSV,3,3,10,84,01,337,18,,,,23*56
$GNGLL,0419.71576,S,05539.87098,E,085528.00,A,D*67
$GNGRS,085528.00,1,-4.5,1.2,-2.2,0.7,-0.1,0.0,3.3,-7.1,20.3,5.1,,*65
$GNGRS,085528.00,1,1.2,5.1,-10.6,20.1,8.0,,,,,,,*5A
$GNGST,085528.00,43,,,,2.6,2.0,4.7*49
$GNZDA,085528.00,19,05,2025,00,00*72
$GNGBS,085528.00,2.6,2.0,4.7,,,,*58
b0X8
*- :+%B3#Xb&>?!">
7U-) {4
*U`$:R D&'E$@UFI!)J/P!RHS) TQb8x/$GNRMC,085529.00,A,0419.71575,S,05539.87095,E,0.030,,190525,,,D*78
$GNVTG,,T,,M,0.030,N,0.056,K,D*38
$GNGNS,085529.00,0419.71575,S,05539.87095,E,DA,15,0.72,19.7,-47.6,,0000*61
$GNGGA,085529.00,0419.71575,S,05539.87095,E,2,12,0.72,19.7,M,-47.6,M,,0000*4A
$GNGSA,A,3,25,23,12,15,29,10,18,24,28,26,,,1.34,0.72,1.13*16
$GNGSA,A,3,69,73,68,74,83,,,,,,,,1.34,0.72,1.13*11
$GPGSV,5,1,17,10,45,244,42,12,32,154,29,13,02,058,,15,37,066,43*7C
$GPGSV,5,2,17,18,18,344,35,23,62,319,38,24,16,133,17,25,62,185,34*76
$GPGSV,5,3,17,26,10,311,19,28,13,243,12,29,41,031,45,31,01,265,09*7F
$GPGSV,5,4,17,32,17,205,,36,52,277,,40,85,352,42,41,58,082,36*72
$GPGSV,5,5,17,49,32,274,*42
$GLGSV,3,1,10,68,22,039,38,69,64,085,36,70,31,194,,73,41,260,33*60
$GLGSV,3,2,10,74,15,303,11,80,33,187,,82,01,072,,83,08,026,41*68
$GLGSV,3,3,10,84,01,337,18,,,,23*56
$GNGLL,0419.71575,S,05539.87095,E,085529.00,A,D*68
$GNGRS,085529.00,1,-3.0,0.1,1.7,0.5,0.1,-0.2,1.0,18.2,23.9,4.4,,*53
$GNGRS,085529.00,1,2.7,4.3,-10.8,11.7,8.0,,,,,,,*54
$GNGST,085529.00,3180635,,,,2.5,2.0,4.6*77
$GNZDA,085529.00,19,05,2025,00,00*73
$GNGBS,085529.00,2.5,2.0,4.6,,,,*5B
b0X 
(- 8:*%B"#X%>?(!>
7X+)= {4
)U`#:R D&'E&@U0FI#)J/P!RHS*7TQ
b x#$GNRMC,085530.00,A,0419.71575,S,05539.87094,E,0.012,,190525,,,D*71
$GNVTG,,T,,M,0.012,N,0.021,K,D*38
$GNGNS,085530.00,0419.71575,S,05539.87094,E,DA,15,0.72,19.7,-47.6,,0000*68
$GNGGA,085530.00,0419.71575,S,05539.87094,E,2,12,0.72,19.7,M,-47.6,M,,0000*43
$GNGSA,A,3,25,23,12,15,29,10,18,24,28,26,,,1.34,0.72,1.13*16
$GNGSA,A,3,69,73,68,74,83,,,,,,,,1.34,0.72,1.13*11
$GPGSV,5,1,17,10,45,244,40,12,32,154,29,13,02,058,,15,37,066,42*7F
$GPGSV,5,2,17,18,18,344,35,23,62,319,37,24,16,133,17,25,62,185,33*7E
$GPGSV,5,3,17,26,10,311,21,28,13,243,08,29,41,031,43,31,01,265,07*77
$GPGSV,5,4,17,32,17,205,,36,52,277,,40,85,352,41,41,58,082,35*72
$GPGSV,5,5,17,49,32,274,*42
$GLGSV,3,1,10,68,22,039,38,69,64,085,38,70,31,194,,73,41,260,35*68
$GLGSV,3,2,10,74,15,303,07,80,33,187,,82,01,072,,83,08,026,42*6C
$GLGSV,3,3,10,84,01,337,19,,,,22*56
$GNGLL,0419.71575,S,05539.87094,E,085530.00,A,D*61
$GNGRS,085530.00,1,-2.6,-0.5,3.1,0.3,0.3,-0.4,2.5,18.3,23.9,6.5,,*77
$GNGRS,085530.00,1,3.0,3.9,-10.7,11.5,8.2,,,,,,,*58
$GNGST,085530.00,3182125,,,,2.5,2.0,4.6*7B
$GNZDA,085530.00,19,05,2025,00,00*7B
$GNGBS,085530.00,2.5,2.0,4.6,,,,*53
b0X
(- W:*%B."X$>?
>!>
7P
!+) {4
)U`$:R D%'E$@UuFI!)EJ
/kP!RHS*(TQ<bx&$GNRMC,085531.00,A,0419.71576,S,05539.87091,E,0.059,,190525,,,D*79
$GNVTG,,T,,M,0.059,N,0.110,K,D*34
$GNGNS,085531.00,0419.71576,S,05539.87091,E,DA,14,0.88,19.7,-47.6,,0000*6B
$GNGGA,085531.00,0419.71576,S,05539.87091,E,2,12,0.88,19.7,M,-47.6,M,,0000*41
$GNGSA,A,3,25,23,12,15,29,10,18,28,26,,,,1.67,0.88,1.41*14
$GNGSA,A,3,69,73,68,74,83,,,,,,,,1.67,0.88,1.41*15
$GPGSV,5,1,17,10,45,244,40,12,32,154,29,13,02,058,,15,37,066,42*7F
$GPGSV,5,2,17,18,18,344,34,23,62,319,36,24,16,133,10,25,62,185,33*79
$GPGSV,5,3,17,26,10,311,22,28,13,243,10,29,41,031,43,31,01,265,07*7D
$GPGSV,5,4,17,32,17,205,,36,52,277,,40,85,352,41,41,58,082,36*71
$GPGSV,5,5,17,49,32,274,*42
$GLGSV,3,1,10,68,22,039,37,69,64,085,36,70,31,194,,73,41,260,33*6F
$GLGSV,3,2,10,74,15,303,10,80,33,187,,82,01,072,,83,08,026,42*6A
$GLGSV,3,3,10,84,01,337,18,,,,22*57
$GNGLL,0419.71576,S,05539.87091,E,085531.00,A,D*66
$GNGRS,085531.00,1,-3.5,-0.3,0.9,0.5,0.0,-0.1,2.5,-123,8.5,,,*68
$GNGRS,085531.00,1,3.7,5.8,-10.8,-80.8,8.1,,,,,,,*7D
$GNGST,085531.00,22,,,,2.5,1.9,4.6*4E
$GNZDA,085531.00,19,05,2025,00,00*7A
$GNGBS,085531.00,2.5,1.9,4.6,,,,*58
b0X
*- :,%B/#X%>?">"
7N
I,)* {4
*U`%:R D%'E%@UFI!)=J/P!RHS)=TQbx*g?$GNRMC,085532.00,A,0419.71575,S,05539.87089,E,0.046,,190525,,,D*7E
$GNVTG,,T,,M,0.046,N,0.085,K,D*37
$GNGNS,085532.00,0419.71575,S,05539.87089,E,DA,14,0.86,19.8,-47.6,,0000*63
$GNGGA,085532.00,0419.71575,S,05539.87089,E,2,12,0.86,19.8,M,-47.6,M,,0000*49
$GNGSA,A,3,25,23,12,15,29,10,18,28,26,,,,1.62,0.86,1.37*1E
$GNGSA,A,3,69,73,68,74,83,,,,,,,,1.62,0.86,1.37*1F
$GPGSV,5,1,17,10,45,244,42,12,32,154,30,13,02,058,,15,37,066,44*73
$GPGSV,5,2,17,18,18,344,35,23,62,319,37,24,16,133,,25,62,185,34*7F
$GPGSV,5,3,17,26,10,311,23,28,13,243,10,29,41,031,44,31,01,265,07*7B
$GPGSV,5,4,17,32,17,205,,36,52,277,,40,85,352,42,41,58,082,37*73
$GPGSV,5,5,17,49,32,274,*42
$GLGSV,3,1,10,68,22,039,37,69,64,085,37,70,31,194,,73,41,260,33*6E
$GLGSV,3,2,10,74,15,303,08,80,33,187,,82,01,072,,83,08,026,41*60
$GLGSV,3,3,10,84,01,337,17,,,,21*5B
$GNGLL,0419.71575,S,05539.87089,E,085532.00,A,D*6F
$GNGRS,085532.00,1,-2.2,-0.3,-3.7,0.5,0.1,0.1,2.5,23.8,11.0,,,*56
$GNGRS,085532.00,1,3.8,3.2,-10.9,11.7,8.3,,,,,,,*54
$GNGST,085532.00,3299292,,,,2.4,1.9,4.5*77
$GNZDA,085532.00,19,05,2025,00,00*79
$GNGBS,085532.00,2.4,1.9,4.5,,,,*59
b0X
*- :,%B1#X&>?#>F
7*,) {4
*U`&:R D&'E'@U?FI#)JJ/|P!RHS*ETQ<:bx.?$GNRMC,085533.00,A,0419.71576,S,05539.87088,E,0.009,,190525,,,D*76
$GNVTG,,T,,M,0.009,N,0.016,K,D*36
$GNGNS,085533.00,0419.71576,S,05539.87088,E,DA,14,0.86,19.8,-47.6,,0000*60
$GNGGA,085533.00,0419.71576,S,05539.87088,E,2,12,0.86,19.8,M,-47.6,M,,0000*4A
$GNGSA,A,3,25,23,12,15,29,10,18,28,26,,,,1.62,0.86,1.37*1E
$GNGSA,A,3,69,73,68,74,83,,,,,,,,1.62,0.86,1.37*1F
$GPGSV,5,1,17,10,45,244,42,12,32,154,30,13,02,058,,15,37,066,44*73
$GPGSV,5,2,17,18,18,344,35,23,62,319,38,24,16,133,,25,62,185,35*71
$GPGSV,5,3,17,26,10,311,24,28,13,243,08,29,41,031,44,31,01,265,08*7A
$GPGSV,5,4,17,32,17,205,,36,52,277,,40,85,352,42,41,58,082,38*7C
$GPGSV,5,5,17,49,32,274,*42
$GLGSV,3,1,10,68,22,039,38,69,64,085,39,70,31,194,,73,41,260,35*69
$GLGSV,3,2,10,74,15,303,09,80,33,187,,82,01,072,,83,08,026,42*62
$GLGSV,3,3,10,84,01,337,19,,,,21*55
$GNGLL,0419.71576,S,05539.87088,E,085533.00,A,D*6C
$GNGRS,085533.00,1,-1.9,-0.4,0.0,0.5,0.3,0.1,2.6,23.5,12.0,,,*7E
$GNGRS,085533.00,1,3.2,3.3,-10.8,11.5,8.4,,,,,,,*5A
$GNGST,085533.00,3299292,,,,2.4,1.9,4.5*76
$GNZDA,085533.00,19,05,2025,00,00*78
$GNGBS,085533.00,2.4,1.9,4.5,,,,*58
b0X
,- :+%B!!Xx(>?%>F
7'e.)* {4
*U`':R D"'E#@UFFI")J/P!RHS(;TQQbx23$GNRMC,085534.00,A,0419.71573,S,05539.87086,E,0.074,,190525,,,D*70
$GNVTG,,T,,M,0.074,N,0.136,K,D*3F
$GNGNS,085534.00,0419.71573,S,05539.87086,E,DA,14,0.88,19.8,-47.6,,0000*62
$GNGGA,085534.00,0419.71573,S,05539.87086,E,2,12,0.88,19.8,M,-47.6,M,,0000*48
$GNGSA,A,3,25,23,12,15,29,10,18,28,26,,,,1.67,0.88,1.41*14
$GNGSA,A,3,69,73,68,74,83,,,,,,,,1.67,0.88,1.41*15
$GPGSV,5,1,17,10,45,244,44,12,32,154,31,13,02,058,,15,37,066,43*73
$GPGSV,5,2,17,18,18,344,33,23,62,319,40,24,16,133,,25,62,185,37*7A
$GPGSV,5,3,17,26,10,311,28,28,13,243,12,29,41,031,46,31,01,265,15*73
$GPGSV,5,4,17,32,17,205,,36,52,277,,40,85,352,42,41,58,082,39*7D
$GPGSV,5,5,17,49,32,274,*42
$GLGSV,3,1,10,68,22,039,34,69,64,085,35,70,31,194,,73,41,260,34*68
$GLGSV,3,2,10,74,15,303,12,80,33,187,,82,01,072,,83,08,026,40*6A
$GLGSV,3,3,10,84,01,337,20,,,,26*58
$GNGLL,0419.71573,S,05539.87086,E,085534.00,A,D*60
$GNGRS,085534.00,1,-1.9,-0.3,-1.2,0.3,0.4,-0.3,6.3,29.2,10.6,,,*76
$GNGRS,085534.00,1,3.3,1.4,-11.2,-36.9,8.3,,,,,,,*71
$GNGST,085534.00,22,,,,2.4,1.9,4.4*48
$GNZDA,085534.00,19,05,2025,00,00*7F
$GNGBS,085534.00,2.4,1.9,4.4,,,,*5E
b0X
*- :+%B!X&>?#>
7T,)$ {4
)U`&:R D'E#@U]FI)eJ/P!RHS%*TQbx6w$GNRMC,085535.00,A,0419.71573,S,05539.87086,E,0.100,,190525,,,D*73
$GNVTG,,T,,M,0.100,N,0.185,K,D*35
$GNGNS,085535.00,0419.71573,S,05539.87086,E,DA,13,0.88,19.7,-47.6,,0000*6B
$GNGGA,085535.00,0419.71573,S,05539.87086,E,2,12,0.88,19.7,M,-47.6,M,,0000*46
$GNGSA,A,3,25,23,12,15,29,10,18,28,26,,,,1.67,0.88,1.41*14
$GNGSA,A,3,69,73,68,83,,,,,,,,,1.67,0.88,1.41*16
$GPGSV,5,1,17,10,45,244,42,12,32,154,26,13,02,058,,15,37,066,43*73
$GPGSV,5,2,17,18,18,344,33,23,62,319,38,24,16,133,,25,62,185,35*77
$GPGSV,5,3,17,26,10,311,22,28,13,243,09,29,41,031,44,31,01,265,07*72
$GPGSV,5,4,17,32,17,205,,36,52,277,,40,85,352,41,41,58,082,38*7F
$GPGSV,5,5,17,49,32,274,*42
$GLGSV,3,1,10,68,22,039,31,69,64,085,35,70,31,194,,73,41,260,28*60
$GLGSV,3,2,10,74,15,303,04,80,33,187,,82,01,072,,83,08,026,37*6D
$GLGSV,3,3,10,84,01,337,12,,,,22*5D
$GNGLL,0419.71573,S,05539.87086,E,085535.00,A,D*61
$GNGRS,085535.00,1,-3.0,-0.8,-3.6,0.3,0.4,-0.6,4.9,23.9,10.5,,,*7E
$GNGRS,085535.00,1,3.5,1.0,-11.4,8.1,,,,,,,,*49
$GNGST,085535.00,25,,,,2.4,1.8,4.4*4F
$GNZDA,085535.00,19,05,2025,00,00*7E
$GNGBS,085535.00,2.4,1.8,4.4,,,,*5E
b0X
'- +:(%B!Xm#>?#>d
7I*)5 {4
'U`!:R D%'E)@UFI )QJ
/P!RHS)"TQbx:$GNRMC,085536.00,A,0419.71571,S,05539.87085,E,0.065,,190525,,,D*73
$GNVTG,,T,,M,0.065,N,0.120,K,D*38
$GNGNS,085536.00,0419.71571,S,05539.87085,E,DA,14,0.86,19.8,-47.6,,0000*6F
$GNGGA,085536.00,0419.71571,S,05539.87085,E,2,12,0.86,19.8,M,-47.6,M,,0000*45
$GNGSA,A,3,25,23,12,15,29,10,18,28,26,,,,1.62,0.86,1.37*1E
$GNGSA,A,3,69,73,68,74,83,,,,,,,,1.62,0.86,1.37*1F
$GPGSV,5,1,17,10,45,244,39,12,32,154,30,13,02,058,,15,37,066,40*7B
$GPGSV,5,2,17,18,18,344,33,23,62,319,35,24,16,133,,25,62,185,35*7A
$GPGSV,5,3,17,26,10,311,23,28,13,243,11,29,41,031,42,31,01,265,*7B
$GPGSV,5,4,17,32,17,205,,36,52,277,,40,85,352,39,41,58,082,33*7B
$GPGSV,5,5,17,49,32,274,*42
$GLGSV,3,1,10,68,22,039,37,69,64,085,41,70,31,194,,73,41,260,32*6E
$GLGSV,3,2,10,74,15,303,10,80,33,187,,82,01,072,,83,08,026,41*69
$GLGSV,3,3,10,84,01,337,09,,,,23*56
$GNGLL,0419.71571,S,05539.87085,E,085536.00,A,D*63
$GNGRS,085536.00,1,-4.1,-2.7,-4.7,0.3,0.5,-0.7,6.2,23.8,9.0,,,*45
$GNGRS,085536.00,1,2.4,-1.8,-11.4,11.6,8.0,,,,,,,*76
$GNGST,085536.00,3299292,,,,2.4,1.8,4.4*73
$GNZDA,085536.00,19,05,2025,00,00*7D
$GNGBS,085536.00,2.4,1.8,4.4,,,,*5D
b0Xx
(- :&%B
!X#>? >3
7
()B {4
&U`!:R D&'E*@U%FI#)J
/+P!RHS*+TQ+ZLbxxo>U$GNRMC,085537.00,A,0419.71569,S,05539.87084,E,0.065,,190525,,,D*7A
$GNVTG,,T,,M,0.065,N,0.120,K,D*38
$GNGNS,085537.00,0419.71569,S,05539.87084,E,DA,13,0.88,20.0,-47.6,,0000*6D
$GNGGA,085537.00,0419.71569,S,05539.87084,E,2,12,0.88,20.0,M,-47.6,M,,0000*40
$GNGSA,A,3,25,23,12,15,29,10,18,26,,,,,1.67,0.88,1.41*1E
$GNGSA,A,3,69,73,68,74,83,,,,,,,,1.67,0.88,1.41*15
$GPGSV,5,1,17,10,45,244,40,12,32,154,28,13,02,058,,15,37,066,38*73
$GPGSV,5,2,17,18,18,344,33,23,62,319,35,24,16,133,,25,62,185,32*7D
$GPGSV,5,3,17,26,10,311,23,28,13,243,06,29,41,031,40,31,01,265,*7F
$GPGSV,5,4,17,32,17,205,,36,52,277,,40,85,352,38,41,58,082,33*7A
$GPGSV,5,5,17,49,32,274,*42
$GLGSV,3,1,10,68,22,039,38,69,64,085,42,70,31,194,,73,41,260,35*65
$GLGSV,3,2,10,74,15,303,10,80,33,187,,82,01,072,,83,08,026,42*6A
$GLGSV,3,3,10,84,01,337,12,,,,29*56
$GNGLL,0419.71569,S,05539.87084,E,085537.00,A,D*6A
$GNGRS,085537.00,1,-2.0,2.0,-2.8,0.1,0.7,-0.6,2.1,9.7,,,,*76
$GNGRS,085537.00,1,2.9,-0.7,-11.5,74.7,8.1,,,,,,,*76
$GNGST,085537.00,21,,,,2.3,1.8,4.4*4E
$GNZDA,085537.00,19,05,2025,00,00*7C
$GNGBS,085537.00,2.3,1.8,4.4,,,,*5B
b0X`
)- 0:&%B"X$>?!>
7IN))% {4
(U`":R D('E+@UFI")J
/P!RHS+TQ3b`xWBx$GNRMC,085538.00,A,0419.71567,S,05539.87085,E,0.097,,190525,,,D*77
$GNVTG,,T,,M,0.097,N,0.180,K,D*3F
$GNGNS,085538.00,0419.71567,S,05539.87085,E,DA,13,0.86,20.2,-47.6,,0000*61
$GNGGA,085538.00,0419.71567,S,05539.87085,E,2,12,0.86,20.2,M,-47.6,M,,0000*4C
$GNGSA,A,3,25,23,12,15,29,10,18,26,,,,,1.62,0.86,1.37*14
$GNGSA,A,3,69,73,68,74,83,,,,,,,,1.62,0.86,1.37*1F
$GPGSV,5,1,17,10,45,244,41,12,32,154,29,13,02,058,,15,37,066,38*73
$GPGSV,5,2,17,18,18,344,34,23,62,319,36,24,16,133,,25,62,185,33*78
$GPGSV,5,3,17,26,10,311,24,28,13,243,06,29,41,031,41,31,01,265,*79
$GPGSV,5,4,17,32,17,205,,36,52,277,,40,85,352,40,41,58,082,34*72
$GPGSV,5,5,17,49,32,274,*42
$GLGSV,3,1,10,68,22,039,40,69,64,085,43,70,31,194,,73,41,260,34*6A
$GLGSV,3,2,10,74,15,303,10,80,33,187,,82,01,072,,83,08,026,43*6B
$GLGSV,3,3,10,84,01,337,17,,,,29*53
$GNGLL,0419.71567,S,05539.87085,E,085538.00,A,D*6A
$GNGRS,085538.00,1,-3.7,-0.4,-4.6,0.2,0.4,-0.3,1.9,8.4,,,,*50
$GNGRS,085538.00,1,4.6,-1.0,-11.5,11.9,7.9,,,,,,,*7C
$GNGST,085538.00,3299292,,,,2.3,1.8,4.3*7D
$GNZDA,085538.00,19,05,2025,00,00*73
$GNGBS,085538.00,2.3,1.8,4.3,,,,*53
b0XH
)- %:'%B#X=%>?/!>y
7@*) {4
(U`$:R D''{E)@UFI#)sJ/P!RHS*ETQ+qbHx?FP%$GNRMC,085539.00,A,0419.71564,S,05539.87083,E,0.030,,190525,,,D*7E
$GNVTG,,T,,M,0.030,N,0.055,K,D*3B
$GNGNS,085539.00,0419.71564,S,05539.87083,E,DA,13,0.86,20.4,-47.6,,0000*63
$GNGGA,085539.00,0419.71564,S,05539.87083,E,2,12,0.86,20.4,M,-47.6,M,,0000*4E
$GNGSA,A,3,25,23,12,15,29,10,18,26,,,,,1.62,0.86,1.37*14
$GNGSA,A,3,69,73,68,74,83,,,,,,,,1.62,0.86,1.37*1F
$GPGSV,5,1,17,10,45,244,41,12,32,154,28,13,02,058,,15,37,066,39*73
$GPGSV,5,2,17,18,18,344,35,23,62,319,37,24,16,133,,25,62,185,33*78
$GPGSV,5,3,17,26,10,311,25,28,13,243,09,29,41,031,42,31,01,265,*74
$GPGSV,5,4,17,32,17,205,,36,52,277,,40,85,352,40,41,58,082,36*70
$GPGSV,5,5,17,49,32,274,*42
$GLGSV,3,1,10,68,22,039,39,69,64,085,41,70,31,194,,73,41,260,35*67
$GLGSV,3,2,10,74,15,303,14,80,33,187,,82,01,072,,83,08,026,42*6E
$GLGSV,3,3,10,84,01,337,20,,,,29*57
$GNGLL,0419.71564,S,05539.87083,E,085539.00,A,D*6E
$GNGRS,085539.00,1,-1.3,0.5,-2.2,0.0,0.2,-0.5,3.2,7.8,,,,*71
$GNGRS,085539.00,1,2.5,1.1,-11.6,11.8,8.4,,,,,,,*54
$GNGST,085539.00,3299292,,,,2.3,1.8,4.3*7C
$GNZDA,085539.00,19,05,2025,00,00*72
$GNGBS,085539.00,2.3,1.8,4.3,,,,*52
b0X0
)- !:(%B#X%>?!>
74*) {4
)U`&:R D''OE*@UHFI%)J/P!RHS+zTQ
3b0x'J($GNRMC,085540.00,A,0419.71558,S,05539.87082,E,0.039,,190525,,,D*77
$GNVTG,,T,,M,0.039,N,0.073,K,D*36
$GNGNS,085540.00,0419.71558,S,05539.87082,E,DA,14,0.86,20.6,-47.6,,0000*66
$GNGGA,085540.00,0419.71558,S,05539.87082,E,2,12,0.86,20.6,M,-47.6,M,,0000*4C
$GNGSA,A,3,25,23,12,15,29,10,18,28,26,,,,1.62,0.86,1.37*1E
$GNGSA,A,3,69,73,68,74,83,,,,,,,,1.62,0.86,1.37*1F
$GPGSV,5,1,17,10,45,244,41,12,32,154,29,13,02,058,,15,37,066,40*7C
$GPGSV,5,2,17,18,18,344,35,23,62,319,37,24,16,133,,25,62,185,33*78
$GPGSV,5,3,17,26,10,311,24,28,13,243,09,29,41,031,42,31,01,265,*75
$GPGSV,5,4,17,32,17,205,,36,52,277,,40,85,352,41,41,58,082,38*7F
$GPGSV,5,5,17,49,32,274,*42
$GLGSV,3,1,10,68,22,039,39,69,64,085,42,70,31,194,,73,41,260,37*66
$GLGSV,3,2,10,74,15,303,09,80,33,187,,82,01,072,,83,08,026,43*63
$GLGSV,3,3,10,84,01,337,13,,,,28*56
$GNGLL,0419.71558,S,05539.87082,E,085540.00,A,D*6E
$GNGRS,085540.00,1,-3.0,1.4,-4.8,0.0,0.1,-0.3,1.3,134,6.9,,,*42
$GNGRS,085540.00,1,0.7,-3.3,-12.0,4.2,8.9,,,,,,,*41
$GNGST,085540.00,41,,,,2.3,1.8,4.3*4F
$GNZDA,085540.00,19,05,2025,00,00*7C
$GNGBS,085540.00,2.3,1.8,4.3,,,,*5C
b0X
+- :*%B%X'>?#>
7T+) {4
+U`&:R D''E*@UFI%)rJ/P!RHS+oTQBbxN$GNRMC,085541.00,A,0419.71556,S,05539.87082,E,0.037,,190525,,,D*76
$GNVTG,,T,,M,0.037,N,0.069,K,D*33
$GNGNS,085541.00,0419.71556,S,05539.87082,E,DA,13,0.88,20.6,-47.6,,0000*60
$GNGGA,085541.00,0419.71556,S,05539.87082,E,2,12,0.88,20.6,M,-47.6,M,,0000*4D
$GNGSA,A,3,25,23,12,15,29,10,18,28,26,,,,1.67,0.88,1.41*14
$GNGSA,A,3,69,73,68,83,,,,,,,,,1.67,0.88,1.41*16
$GPGSV,5,1,17,10,45,244,43,12,32,154,29,13,02,058,,15,37,066,42*7C
$GPGSV,5,2,17,18,18,344,37,23,62,319,39,24,16,133,,25,62,185,35*72
$GPGSV,5,3,17,26,10,311,24,28,13,243,09,29,41,031,43,31,01,265,*74
$GPGSV,5,4,17,32,17,205,,36,52,277,,40,85,352,43,41,58,082,38*7D
$GPGSV,5,5,17,49,32,274,*42
$GLGSV,3,1,10,68,22,039,39,69,64,085,42,70,31,194,,73,41,260,37*66
$GLGSV,3,2,10,74,15,303,07,80,33,187,,82,01,072,,83,08,026,43*6D
$GLGSV,3,3,10,84,01,337,15,,,,26*5E
$GNGLL,0419.71556,S,05539.87082,E,085541.00,A,D*61
$GNGRS,085541.00,1,-2.6,-0.5,-3.7,-0.2,0.0,-0.1,2.2,23.9,4.7,,,*63
$GNGRS,085541.00,1,1.7,-1.4,-8.6,8.8,,,,,,,,*50
$GNGST,085541.00,19,,,,2.3,1.7,4.2*4D
$GNZDA,085541.00,19,05,2025,00,00*7D
$GNGBS,085541.00,2.3,1.7,4.2,,,,*53
b0X
)- :'%B#X%>?!>
7J+) {4
)U`%:R D&'E'@UFI#)J
/P!RHS*TQbxQZ$GNRMC,085542.00,A,0419.71553,S,05539.87082,E,0.019,,190525,,,D*7C
$GNVTG,,T,,M,0.019,N,0.036,K,D*35
$GNGNS,085542.00,0419.71553,S,05539.87082,E,DA,14,0.86,20.7,-47.6,,0000*6E
$GNGGA,085542.00,0419.71553,S,05539.87082,E,2,12,0.86,20.7,M,-47.6,M,,0000*44
$GNGSA,A,3,25,23,12,15,29,10,18,28,26,,,,1.62,0.86,1.37*1E
$GNGSA,A,3,69,73,68,74,83,,,,,,,,1.62,0.86,1.37*1F
$GPGSV,5,1,17,10,45,244,41,12,32,154,29,13,02,058,,15,37,066,39*72
$GPGSV,5,2,17,18,18,344,35,23,62,319,37,24,16,133,,25,62,185,33*78
$GPGSV,5,3,17,26,10,311,25,28,13,243,12,29,41,031,43,31,01,265,*7F
$GPGSV,5,4,17,32,17,205,,36,52,277,,40,85,352,41,41,58,082,37*70
$GPGSV,5,5,17,49,32,274,*42
$GLGSV,3,1,10,68,22,039,38,69,64,085,39,70,31,194,,73,41,260,35*69
$GLGSV,3,2,10,74,15,303,10,80,33,187,,82,01,072,,83,08,026,42*6A
$GLGSV,3,3,10,84,01,337,16,,,,25*5E
$GNGLL,0419.71553,S,05539.87082,E,085542.00,A,D*67
$GNGRS,085542.00,1,-2.9,-0.3,-2.5,-0.1,0.0,-0.3,5.0,23.8,4.1,,,*69
$GNGRS,085542.00,1,2.2,-2.6,-8.3,11.7,9.1,,,,,,,*40
$GNGST,085542.00,133036,,,,2.3,1.7,4.2*42
$GNZDA,085542.00,19,05,2025,00,00*7E
$GNGBS,085542.00,2.3,1.7,4.2,,,,*50
b0X
+- :*%B%X'>?!>Z
7Q,) {4
+U`%:R D&'E'@UFI#)J/?P!RHS)TQ>bxU$GNRMC,085543.00,A,0419.71552,S,05539.87082,E,0.067,,190525,,,D*75
$GNVTG,,T,,M,0.067,N,0.124,K,D*3E
$GNGNS,085543.00,0419.71552,S,05539.87082,E,DA,14,0.86,20.8,-47.6,,0000*61
$GNGGA,085543.00,0419.71552,S,05539.87082,E,2,12,0.86,20.8,M,-47.6,M,,0000*4B
$GNGSA,A,3,25,23,12,15,29,10,18,28,26,,,,1.62,0.86,1.37*1E
$GNGSA,A,3,69,73,68,74,83,,,,,,,,1.62,0.86,1.37*1F
$GPGSV,5,1,17,10,45,244,43,12,32,154,30,13,02,058,,15,37,066,42*74
$GPGSV,5,2,17,18,18,344,37,23,62,319,39,24,16,133,,25,62,185,33*74
$GPGSV,5,3,17,26,10,311,25,28,13,243,09,29,41,031,44,31,01,265,*72
$GPGSV,5,4,17,32,17,205,,36,52,277,,40,85,352,43,41,58,082,37*72
$GPGSV,5,5,17,49,32,274,*42
$GLGSV,3,1,10,68,22,039,38,69,64,085,39,70,31,194,,73,41,260,35*69
$GLGSV,3,2,10,74,15,303,08,80,33,187,,82,01,072,,83,08,026,41*60
$GLGSV,3,3,10,84,01,337,17,,,,24*5E
$GNGLL,0419.71552,S,05539.87082,E,085543.00,A,D*67
$GNGRS,085543.00,1,-4.2,-0.9,-0.8,0.0,-0.2,-0.4,2.5,-89.8,3.4,,,*49
$GNGRS,085543.00,1,2.4,-1.2,-11.5,13.4,9.3,,,,,,,*7D
$GNGST,085543.00,42,,,,2.2,1.7,4.1*43
$GNZDA,085543.00,19,05,2025,00,00*7F
$GNGBS,085543.00,2.2,1.7,4.1,,,,*53
b0X
*- :*%B%Xf&>? >%
7zO,) {4
*U`&:R D&'yE'@UFI#)J/P!RHS*TQjbxY$GNRMC,085544.00,A,0419.71550,S,05539.87084,E,0.042,,190525,,,D*71
$GNVTG,,T,,M,0.042,N,0.078,K,D*31
$GNGNS,085544.00,0419.71550,S,05539.87084,E,DA,14,0.86,20.9,-47.6,,0000*63
$GNGGA,085544.00,0419.71550,S,05539.87084,E,2,12,0.86,20.9,M,-47.6,M,,0000*49
$GNGSA,A,3,25,23,12,15,29,10,18,28,26,,,,1.62,0.86,1.37*1E
$GNGSA,A,3,69,73,68,74,83,,,,,,,,1.62,0.86,1.37*1F
$GPGSV,5,1,17,10,45,244,42,12,32,154,31,13,02,058,,15,37,066,42*74
$GPGSV,5,2,17,18,18,344,37,23,62,319,38,24,16,133,,25,62,185,32*74
$GPGSV,5,3,17,26,10,311,26,28,13,243,12,29,41,031,44,31,01,265,*7B
$GPGSV,5,4,17,32,17,205,,36,52,277,,40,85,352,42,41,58,082,38*7C
$GPGSV,5,5,17,49,32,274,*42
$GLGSV,3,1,10,68,22,039,38,69,64,085,39,70,31,194,,73,41,260,35*69
$GLGSV,3,2,10,74,15,303,11,80,33,187,,82,01,072,,83,08,026,42*6B
$GLGSV,3,3,10,84,01,337,19,,,,23*57
$GNGLL,0419.71550,S,05539.87084,E,085544.00,A,D*64
$GNGRS,085544.00,1,-2.2,-0.7,-3.7,0.0,-0.2,-0.3,1.0,23.8,3.8,,,*6A
$GNGRS,085544.00,1,2.5,-6.2,-9.0,11.7,9.1,,,,,,,*43
$GNGST,085544.00,19955,,,,2.2,1.7,4.1*73
$GNZDA,085544.00,19,05,2025,00,00*78
$GNGBS,085544.00,2.2,1.7,4.1,,,,*54
b0X 
+- ;:*%B%X&&>?!>
7:+) {4
+U`&:R D%'8E'@UFI#)LJ/P!RHS*TQRb x]^$GNRMC,085545.00,A,0419.71550,S,05539.87086,E,0.011,,190525,,,D*74
$GNVTG,,T,,M,0.011,N,0.020,K,D*3A
$GNGNS,085545.00,0419.71550,S,05539.87086,E,DA,14,0.86,20.9,-47.6,,0000*60
$GNGGA,085545.00,0419.71550,S,05539.87086,E,2,12,0.86,20.9,M,-47.6,M,,0000*4A
$GNGSA,A,3,25,23,12,15,29,10,18,28,26,,,,1.62,0.86,1.37*1E
$GNGSA,A,3,69,73,68,74,83,,,,,,,,1.62,0.86,1.37*1F
$GPGSV,5,1,17,10,45,244,43,12,32,154,31,13,02,058,,15,37,066,42*75
$GPGSV,5,2,17,18,18,344,37,23,62,319,38,24,16,133,,25,62,185,33*75
$GPGSV,5,3,17,26,10,311,26,28,13,243,11,29,41,031,43,31,01,265,*7F
$GPGSV,5,4,17,32,17,205,,36,52,277,,40,85,352,43,41,58,082,38*7D
$GPGSV,5,5,17,49,32,274,*42
$GLGSV,3,1,10,68,22,039,37,69,64,085,39,70,31,194,,73,41,260,35*66
$GLGSV,3,2,10,74,15,303,09,80,33,187,,82,01,072,,83,08,026,42*62
$GLGSV,3,3,10,84,01,337,19,,,,22*56
$GNGLL,0419.71550,S,05539.87086,E,085545.00,A,D*67
$GNGRS,085545.00,1,-1.2,-0.7,-2.0,-0.1,0.0,-0.2,2.9,23.6,1.8,,,*6A
$GNGRS,085545.00,1,2.0,-6.9,-12.2,11.6,9.2,,,,,,,*76
$GNGST,085545.00,29933,,,,2.2,1.6,4.1*70
$GNZDA,085545.00,19,05,2025,00,00*79
$GNGBS,085545.00,2.2,1.6,4.1,,,,*54
b0X$
)- ':)%B#XX%>? >

7
[B)) {4
)U`%:R D#'E%@UFI!)J/#P!RHS&TQWxvb$xa:$GNRMC,085546.00,A,0419.71548,S,05539.87084,E,0.082,,190525,,,D*76
$GNVTG,,T,,M,0.082,N,0.151,K,D*37
$GNGNS,085546.00,0419.71548,S,05539.87084,E,DA,12,0.88,21.0,-47.6,,0000*68
$GNGGA,085546.00,0419.71548,S,05539.87084,E,2,12,0.88,21.0,M,-47.6,M,,0000*44
$GNGSA,A,3,25,23,12,15,29,10,18,26,,,,,1.67,0.88,1.41*1E
$GNGSA,A,3,69,73,68,83,,,,,,,,,1.67,0.88,1.41*16
$GPGSV,5,1,17,10,45,244,41,12,32,154,30,13,02,058,,15,37,066,41*75
$GPGSV,5,2,17,18,18,344,35,23,62,319,37,24,16,133,20,25,62,185,32*7B
$GPGSV,5,3,17,26,10,311,29,28,13,243,10,29,41,031,41,31,01,265,*73
$GPGSV,5,4,17,32,17,205,,36,52,277,,40,85,352,41,41,58,082,37*70
$GPGSV,5,5,17,49,32,274,*42
$GLGSV,3,1,10,68,22,039,35,69,64,085,37,70,31,194,,73,41,260,33*6C
$GLGSV,3,2,10,74,15,303,09,80,33,187,,82,01,072,,83,08,026,38*6F
$GLGSV,3,3,10,84,01,337,20,,,,23*5D
$GNGLL,0419.71548,S,05539.87084,E,085546.00,A,D*6F
$GNGRS,085546.00,1,0.1,-1.0,-2.2,-0.2,0.3,-0.3,3.4,-0.2,,,,*70
$GNGRS,085546.00,1,2.1,-5.1,-11.2,9.1,,,,,,,,*67
$GNGST,085546.00,22,,,,2.2,1.6,4.1*41
$GNZDA,085546.00,19,05,2025,00,00*7A
$GNGBS,085546.00,2.2,1.6,4.1,,,,*57
b0X(
-- @:-%B$X?'>?%>
7,) {4
,U`(:R D%'E)@UIFI%)]J/P!RHS+TQS<b(xew$GNRMC,085547.00,A,0419.71547,S,05539.87084,E,0.120,,190525,,,D*71
$GNVTG,,T,,M,0.120,N,0.222,K,D*39
$GNGNS,085547.00,0419.71547,S,05539.87084,E,DA,13,0.86,20.9,-47.6,,0000*61
$GNGGA,085547.00,0419.71547,S,05539.87084,E,2,12,0.86,20.9,M,-47.6,M,,0000*4C
$GNGSA,A,3,25,23,12,15,29,10,18,26,,,,,1.62,0.86,1.37*14
$GNGSA,A,3,69,73,68,74,83,,,,,,,,1.62,0.86,1.37*1F
$GPGSV,5,1,17,10,45,244,45,12,32,154,30,13,02,058,,15,37,066,45*75
$GPGSV,5,2,17,18,18,344,36,23,62,319,39,24,16,133,,25,62,185,37*71
$GPGSV,5,3,17,26,10,311,28,28,13,243,,29,41,031,44,31,01,265,15*72
$GPGSV,5,4,17,32,17,205,,36,52,277,,40,85,352,44,41,58,082,40*75
$GPGSV,5,5,17,49,32,274,*42
$GLGSV,3,1,10,68,22,039,37,69,64,085,41,70,31,194,,73,41,260,37*6B
$GLGSV,3,2,10,74,15,303,15,80,33,187,,82,01,072,,83,08,026,43*6E
$GLGSV,3,3,10,84,01,337,20,,,,24*5A
$GNGLL,0419.71547,S,05539.87084,E,085547.00,A,D*61
$GNGRS,085547.00,1,-1.2,-1.0,0.6,-0.4,0.2,-0.6,0.6,2.4,,,,*5F
$GNGRS,085547.00,1,0.7,-4.2,-11.2,11.9,9.1,,,,,,,*77
$GNGST,085547.00,83147,,,,2.2,1.6,4.1*79
$GNZDA,085547.00,19,05,2025,00,00*7B
$GNGBS,085547.00,2.2,1.6,4.1,,,,*56
b0Xp,
-- s:-%B&X{'>?%>
7mr+)#7 {4
-U`):R D$'FE)@UFI#)J/P!RHS*wTQ(sbp,xgi$GNRMC,085548.00,A,0419.71547,S,05539.87086,E,0.041,,190525,,,D*7A
$GNVTG,,T,,M,0.041,N,0.076,K,D*3C
$GNGNS,085548.00,0419.71547,S,05539.87086,E,DA,13,0.86,20.9,-47.6,,0000*6C
$GNGGA,085548.00,0419.71547,S,05539.87086,E,2,12,0.86,20.9,M,-47.6,M,,0000*41
$GNGSA,A,3,25,23,12,15,29,10,18,26,,,,,1.62,0.86,1.37*14
$GNGSA,A,3,69,73,68,74,83,,,,,,,,1.62,0.86,1.37*1F
$GPGSV,5,1,17,10,45,244,45,12,32,154,31,13,02,058,,15,37,066,45*74
$GPGSV,5,2,17,18,18,344,38,23,62,319,39,24,16,133,,25,62,185,37*7F
$GPGSV,5,3,17,26,10,311,29,28,13,243,18,29,41,031,43,31,01,265,13*7B
$GPGSV,5,4,17,32,17,205,,36,52,277,,40,85,352,45,41,58,082,41*75
$GPGSV,5,5,17,49,32,274,*42
