b0X@
,"<&EV6?;@8 '> 6{4
U`:R #D)E@ZjFI)J1P#zRESTOM%b@x7#$GNRMC,085102.00,A,0419.70039,S,05539.87690,E,0.069,,190525,,,D*76
$GNVTG,,T,,M,0.069,N,0.128,K,D*3C
$GNGNS,085102.00,0419.70039,S,05539.87690,E,DA,16,0.64,15.2,-47.6,,0000*6E
$GNGGA,085102.00,0419.70039,S,05539.87690,E,2,12,0.64,15.2,M,-47.6,M,,0000*46
$GNGSA,A,3,25,23,15,29,10,18,24,28,32,26,,,1.17,0.64,0.99*11
$GNGSA,A,3,69,80,73,68,74,83,,,,,,,1.17,0.64,0.99*1C
$GPGSV,5,1,17,10,44,241,27,12,34,154,,13,03,060,,15,38,069,31*79
$GPGSV,5,2,17,18,19,342,24,23,63,315,31,24,16,135,23,25,64,187,26*73
$GPGSV,5,3,17,26,09,312,22,28,13,245,20,29,39,028,32,31,01,267,19*7F
$GPGSV,5,4,17,32,16,206,27,36,52,277,,40,85,352,29,41,58,082,30*7E
$GPGSV,5,5,17,49,32,274,*42
$GLGSV,3,1,10,68,23,041,26,69,64,090,27,70,29,194,,73,41,263,29*64
$GLGSV,3,2,10,74,14,305,15,80,35,189,27,82,00,069,,83,08,024,31*68
$GLGSV,3,3,10,84,01,335,11,,,,26*58
$GNGLL,0419.70039,S,05539.87690,E,085102.00,A,D*6A
$GNGRS,085102.00,1,-5.3,-0.1,0.1,0.6,-0.5,3.1,-0.9,-2.3,0.5,-3.7,,*50
$GNGRS,085102.00,1,-4.1,3.8,0.3,-11.0,12.7,4.1,,,,,,*52
$GNGST,085102.00,83942,,,,1.7,1.7,3.5*75
$GNZDA,085102.00,19,05,2025,00,00*7E
$GNGBS,085102.00,1.7,1.7,3.5,,,,*57
b0X(
",k"<)&EV2&?;[q#@8)'Ce +{4
'U`#:R D)~E@Z2FI)J1P#RES#TO"b(x$GNRMC,085103.00,A,0419.70037,S,05539.87688,E,0.072,,190525,,,D*7A
$GNVTG,,T,,M,0.072,N,0.134,K,D*3B
$GNGNS,085103.00,0419.70037,S,05539.87688,E,DA,15,0.66,15.1,-47.6,,0000*6A
$GNGGA,085103.00,0419.70037,S,05539.87688,E,2,12,0.66,15.1,M,-47.6,M,,0000*41
$GNGSA,A,3,25,23,15,29,10,18,24,28,32,26,,,1.20,0.66,1.00*16
$GNGSA,A,3,69,80,73,68,83,,,,,,,,1.20,0.66,1.00*18
$GPGSV,5,1,17,10,44,241,34,12,34,154,19,13,03,060,,15,38,069,41*74
$GPGSV,5,2,17,18,19,342,26,23,63,315,38,24,16,135,31,25,64,187,35*79
$GPGSV,5,3,17,26,09,312,21,28,13,245,18,29,39,028,41,31,01,267,17*7D
$GPGSV,5,4,17,32,16,206,27,36,52,277,,40,85,352,39,41,58,082,35*7A
$GPGSV,5,5,17,49,32,274,*42
$GLGSV,3,1,10,68,23,041,24,69,64,090,27,70,29,194,,73,41,263,23*6C
$GLGSV,3,2,10,74,14,305,06,80,35,189,24,82,00,069,,83,08,024,35*6D
$GLGSV,3,3,10,84,01,335,08,,,,23*55
$GNGLL,0419.70037,S,05539.87688,E,085103.00,A,D*6C
$GNGRS,085103.00,1,-5.5,-1.7,-0.4,0.7,1.1,8.2,-4.0,-0.2,0.4,-5.1,,*56
$GNGRS,085103.00,1,-4.6,5.0,-0.7,-6.4,3.9,,,,,,,*54
$GNGST,085103.00,37,,,,1.7,1.7,3.5*44
$GNZDA,085103.00,19,05,2025,00,00*7F
$GNGBS,085103.00,1.7,1.7,3.5,,,,*56
b0X
',"<*&EX"V1'?;r$@f8
,'*&  {4
*U`%:R D)E%@ZhFI )iJ1P#RES,TO4bxs$GNRMC,085104.00,A,0419.70038,S,05539.87688,E,0.025,,190525,,,D*70
$GNVTG,,T,,M,0.025,N,0.046,K,D*3D
$GNGNS,085104.00,0419.70038,S,05539.87688,E,DA,17,0.61,14.9,-47.6,,0000*6E
$GNGGA,085104.00,0419.70038,S,05539.87688,E,2,12,0.61,14.9,M,-47.6,M,,0000*47
$GNGSA,A,3,25,23,12,15,29,10,18,24,28,32,26,,1.16,0.61,0.99*16
$GNGSA,A,3,69,80,73,68,74,83,,,,,,,1.16,0.61,0.99*18
$GPGSV,5,1,17,10,44,241,39,12,34,154,31,13,03,060,,15,38,069,42*70
$GPGSV,5,2,17,18,19,342,34,23,63,315,39,24,16,135,31,25,64,187,36*78
$GPGSV,5,3,17,26,09,312,24,28,13,245,17,29,39,028,44,31,01,267,19*7C
$GPGSV,5,4,17,32,16,206,32,36,52,277,,40,85,352,42,41,58,082,37*70
$GPGSV,5,5,17,49,32,274,*42
$GLGSV,3,1,10,68,23,041,30,69,64,090,37,70,29,194,,73,41,263,32*68
$GLGSV,3,2,10,74,14,305,12,80,35,189,26,82,00,069,,83,08,024,44*6C
$GLGSV,3,3,10,84,01,335,11,,,,21*5F
$GNGLL,0419.70038,S,05539.87688,E,085104.00,A,D*64
$GNGRS,085104.00,1,-1.5,-2.7,9.2,0.9,0.4,2.0,3.0,-1.4,0.1,-2.8,-8.3,*58
$GNGRS,085104.00,1,-1.5,4.0,-1.5,-12.7,12.7,3.9,,,,,,*7B
$GNGST,085104.00,2885147,,,,1.7,1.7,3.5*72
$GNZDA,085104.00,19,05,2025,00,00*78
$GNGBS,085104.00,1.7,1.7,3.5,,,,*51
b0X
","<)&E V%?; @8)' !{4
(U`%:R D ))E$@ZYFI$)J1P"RES+TObxII$GNRMC,085105.00,A,0419.70041,S,05539.87693,E,0.038,,190525,,,D*79
$GNVTG,,T,,M,0.038,N,0.069,K,D*3C
$GNGNS,085105.00,0419.70041,S,05539.87693,E,DA,17,0.61,14.8,-47.6,,0000*6A
$GNGGA,085105.00,0419.70041,S,05539.87693,E,2,12,0.61,14.8,M,-47.6,M,,0000*43
$GNGSA,A,3,25,23,12,15,29,10,18,24,28,32,26,,1.16,0.61,0.99*16
$GNGSA,A,3,69,80,73,68,74,83,,,,,,,1.16,0.61,0.99*18
$GPGSV,5,1,17,10,44,241,34,12,34,154,31,13,03,060,,15,38,069,41*7E
$GPGSV,5,2,17,18,19,342,32,23,63,315,37,24,16,135,30,25,64,187,32*75
$GPGSV,5,3,17,26,09,312,25,28,13,245,17,29,39,028,41,31,01,267,19*78
$GPGSV,5,4,17,32,16,206,33,36,52,277,,40,85,352,40,41,58,082,37*73
$GPGSV,5,5,17,49,32,274,*42
$GLGSV,3,1,10,68,23,041,32,69,64,090,36,70,29,194,,73,41,263,36*6F
$GLGSV,3,2,10,74,14,305,15,80,34,189,25,82,00,069,,83,08,024,43*6E
$GLGSV,3,3,10,84,01,335,15,,,,29*53
$GNGLL,0419.70041,S,05539.87693,E,085105.00,A,D*61
$GNGRS,085105.00,1,-2.5,-2.9,0.0,0.1,0.2,2.6,-1.1,2.6,-0.8,-0.7,-8.9,*76
$GNGRS,085105.00,1,0.9,6.5,-5.1,-14.9,12.9,4.0,,,,,,*55
$GNGST,085105.00,2885147,,,,1.7,1.7,3.5*73
$GNZDA,085105.00,19,05,2025,00,00*79
$GNGBS,085105.00,1.7,1.7,3.5,,,,*50
b0X
","<*&E!V%?;!@w8*' !{4
*U`':R D!)E&@Z*FI!)J1P"9RES+TO>V%bx!$GNRMC,085106.00,A,0419.70044,S,05539.87695,E,0.033,,190525,,,D*72
$GNVTG,,T,,M,0.033,N,0.062,K,D*3C
$GNGNS,085106.00,0419.70044,S,05539.87695,E,DA,17,0.61,15.0,-47.6,,0000*63
$GNGGA,085106.00,0419.70044,S,05539.87695,E,2,12,0.61,15.0,M,-47.6,M,,0000*4A
$GNGSA,A,3,25,23,12,15,29,10,18,24,28,32,26,,1.16,0.61,0.99*16
$GNGSA,A,3,69,80,73,68,74,83,,,,,,,1.16,0.61,0.99*18
$GPGSV,5,1,17,10,44,241,34,12,34,154,30,13,03,060,,15,38,069,42*7C
$GPGSV,5,2,17,18,19,342,33,23,63,315,37,24,16,135,29,25,64,187,33*7D
$GPGSV,5,3,17,26,09,312,27,28,13,245,20,29,39,028,42,31,01,267,18*7C
$GPGSV,5,4,17,32,16,206,33,36,52,277,,40,85,352,42,41,58,082,39*7F
$GPGSV,5,5,17,49,32,274,*42
$GLGSV,3,1,10,68,23,041,33,69,64,090,38,70,29,194,,73,41,263,33*65
$GLGSV,3,2,10,74,14,305,09,80,34,189,28,82,00,069,,83,08,024,43*6E
$GLGSV,3,3,10,84,01,335,09,,,,28*5F
$GNGLL,0419.70044,S,05539.87695,E,085106.00,A,D*61
$GNGRS,085106.00,1,-1.4,-1.1,-7.9,-1.1,0.1,2.3,-1.0,2.3,-0.8,-0.9,-11.1,*4F
$GNGRS,085106.00,1,3.0,5.7,-6.2,-10.3,-15.4,3.9,,,,,,*7A
$GNGST,085106.00,42,,,,1.7,1.7,3.4*42
$GNZDA,085106.00,19,05,2025,00,00*7A
$GNGBS,085106.00,1.7,1.7,3.4,,,,*52
b0X
","W<)&EX!V%?; @98[*'
 "{4
*U`':R D!)fE$@ZFI )"J1P"RFS+|TObx$GNRMC,085107.00,A,0419.70044,S,05539.87696,E,0.020,,190525,,,D*72
$GNVTG,,T,,M,0.020,N,0.037,K,D*3E
$GNGNS,085107.00,0419.70044,S,05539.87696,E,DA,17,0.61,15.0,-47.6,,0000*61
$GNGGA,085107.00,0419.70044,S,05539.87696,E,2,12,0.61,15.0,M,-47.6,M,,0000*48
$GNGSA,A,3,25,23,12,15,29,10,18,24,28,32,26,,1.16,0.61,0.99*16
$GNGSA,A,3,69,80,73,68,74,83,,,,,,,1.16,0.61,0.99*18
$GPGSV,5,1,17,10,44,241,34,12,34,154,29,13,03,060,,15,38,069,41*77
$GPGSV,5,2,17,18,19,342,33,23,63,315,37,24,16,135,30,25,64,187,32*74
$GPGSV,5,3,17,26,09,312,29,28,13,245,22,29,39,028,42,31,01,267,16*7E
$GPGSV,5,4,17,32,16,206,34,36,52,277,,40,85,352,42,41,58,082,39*78
$GPGSV,5,5,17,49,32,274,*42
$GLGSV,3,1,10,68,23,041,33,69,64,090,36,70,29,194,,73,41,263,32*6A
$GLGSV,3,2,10,74,14,305,08,80,34,189,29,82,00,070,,83,08,024,43*66
$GLGSV,3,3,10,84,01,335,09,,,,27*50
$GNGLL,0419.70044,S,05539.87696,E,085107.00,A,D*63
$GNGRS,085107.00,1,-2.0,-0.3,-6.8,-1.7,0.1,-1.3,0.2,1.3,-0.3,-1.2,-9.3,*75
$GNGRS,085107.00,1,1.4,2.7,-4.8,-11.8,12.7,3.8,,,,,,*50
$GNGST,085107.00,2885147,,,,1.6,1.7,3.4*71
$GNZDA,085107.00,19,05,2025,00,00*7B
$GNGBS,085107.00,1.6,1.7,3.4,,,,*52
b0X
#,"<)&Ew"V%?; @f8dU*' #|{4
(U`':R D!)&E$@ZhFI)J1P"RFS+TObx#$GNRMC,085108.00,A,0419.70046,S,05539.87695,E,0.012,,190525,,,D*7D
$GNVTG,,T,,M,0.012,N,0.023,K,D*3A
$GNGNS,085108.00,0419.70046,S,05539.87695,E,DA,17,0.61,15.0,-47.6,,0000*6F
$GNGGA,085108.00,0419.70046,S,05539.87695,E,2,12,0.61,15.0,M,-47.6,M,,0000*46
$GNGSA,A,3,25,23,12,15,29,10,18,24,28,32,26,,1.16,0.61,0.99*16
$GNGSA,A,3,69,80,73,68,74,83,,,,,,,1.16,0.61,0.99*18
$GPGSV,5,1,17,10,44,241,35,12,34,154,29,13,03,060,,15,38,069,41*76
$GPGSV,5,2,17,18,19,342,34,23,63,315,37,24,16,135,29,25,64,187,32*7B
$GPGSV,5,3,17,26,09,312,30,28,13,245,24,29,39,028,42,31,01,267,13*75
$GPGSV,5,4,17,32,16,206,35,36,52,277,,40,85,352,40,41,58,082,39*7B
$GPGSV,5,5,17,49,32,274,*42
$GLGSV,3,1,10,68,23,041,33,69,64,090,36,70,29,194,,73,41,263,31*69
$GLGSV,3,2,10,74,14,305,09,80,34,189,29,82,00,070,,83,08,024,43*67
$GLGSV,3,3,10,84,01,335,11,,,,27*59
$GNGLL,0419.70046,S,05539.87695,E,085108.00,A,D*6D
$GNGRS,085108.00,1,-1.5,-0.2,-0.8,-1.4,0.0,1.6,1.8,1.4,-1.7,1.2,-9.2,*74
$GNGRS,085108.00,1,1.0,2.5,-4.9,-12.4,12.5,4.1,,,,,,*5B
$GNGST,085108.00,2885147,,,,1.6,1.7,3.4*7E
$GNZDA,085108.00,19,05,2025,00,00*74
$GNGBS,085108.00,1.6,1.7,3.4,,,,*5D
b0X
$,#"<)&E"VO%?;fP @8T*'% #{4
)U`%:R D!)E%@ZFI")J1P"RFS+T
Obx'$GNRMC,085109.00,A,0419.70048,S,05539.87698,E,0.007,,190525,,,D*7B
$GNVTG,,T,,M,0.007,N,0.012,K,D*3C
$GNGNS,085109.00,0419.70048,S,05539.87698,E,DA,17,0.63,15.1,-47.6,,0000*6E
$GNGGA,085109.00,0419.70048,S,05539.87698,E,2,12,0.63,15.1,M,-47.6,M,,0000*47
$GNGSA,A,3,25,23,12,15,29,10,18,24,28,32,26,,1.18,0.63,1.00*1B
$GNGSA,A,3,69,80,73,68,74,83,,,,,,,1.18,0.63,1.00*15
$GPGSV,5,1,17,10,44,241,36,12,34,154,28,13,03,060,,15,38,069,41*74
$GPGSV,5,2,17,18,19,342,34,23,63,315,37,24,16,135,29,25,64,187,32*7B
$GPGSV,5,3,17,26,09,312,30,28,13,245,23,29,39,028,42,31,01,267,16*77
$GPGSV,5,4,17,32,16,206,35,36,52,277,,40,85,352,41,41,58,082,37*74
$GPGSV,5,5,17,49,32,274,*42
$GLGSV,3,1,10,68,23,041,33,69,64,090,37,70,29,194,,73,41,263,34*6D
$GLGSV,3,2,10,74,14,305,09,80,34,189,29,82,00,070,,83,08,024,43*67
$GLGSV,3,3,10,84,01,335,10,,,,28*57
$GNGLL,0419.70048,S,05539.87698,E,085109.00,A,D*6F
$GNGRS,085109.00,1,-0.2,-1.5,-0.8,-0.5,0.0,0.4,0.8,3.4,-2.9,-0.4,-4.3,*5E
$GNGRS,085109.00,1,2.2,4.5,-3.1,-12.6,-82.9,4.1,,,,,,*78
$GNGST,085109.00,23,,,,1.6,1.7,3.4*4B
$GNZDA,085109.00,19,05,2025,00,00*75
$GNGBS,085109.00,1.6,1.7,3.4,,,,*5C
b0X
$,I"<*&EV"VV%?;! @8+' %{4
+U`':R ,D!)E$@ZFI)J1P"`RFS,T
O+bxw+Q$GNRMC,085110.00,A,0419.70052,S,05539.87703,E,0.190,,190525,,,D*74
$GNVTG,,T,,M,0.190,N,0.352,K,D*34
$GNGNS,085110.00,0419.70052,S,05539.87703,E,DA,16,0.63,15.3,-47.6,,0000*6D
$GNGGA,085110.00,0419.70052,S,05539.87703,E,2,12,0.63,15.3,M,-47.6,M,,0000*45
$GNGSA,A,3,25,23,12,15,29,10,18,24,28,32,26,,1.18,0.63,1.00*1B
$GNGSA,A,3,69,80,73,68,83,,,,,,,,1.18,0.63,1.00*16
$GPGSV,5,1,17,10,44,241,36,12,34,154,27,13,03,060,,15,38,069,42*78
$GPGSV,5,2,17,18,19,342,34,23,63,315,37,24,16,135,33,25,64,187,32*70
$GPGSV,5,3,17,26,09,312,29,28,13,245,22,29,39,028,43,31,01,267,16*7F
$GPGSV,5,4,17,32,16,206,37,36,52,277,,40,85,352,43,41,58,082,39*7A
$GPGSV,5,5,17,49,32,274,*42
$GLGSV,3,1,10,68,23,041,33,69,64,090,36,70,29,194,,73,41,263,28*61
$GLGSV,3,2,10,74,14,305,06,80,34,189,18,82,00,070,,83,08,024,44*6D
$GLGSV,3,3,10,84,01,335,10,,,,27*58
$GNGLL,0419.70052,S,05539.87703,E,085110.00,A,D*6F
$GNGRS,085110.00,1,-0.7,-0.9,2.0,0.9,-0.2,0.7,0.9,1.9,-3.5,-2.5,-7.9,*7D
$GNGRS,085110.00,1,2.8,6.1,-6.1,-14.0,4.1,,,,,,,*49
$GNGST,085110.00,31,,,,1.6,1.7,3.3*47
$GNZDA,085110.00,19,05,2025,00,00*7D
$GNGBS,085110.00,1.6,1.7,3.3,,,,*53
b0Xh
%,_"N<)&E!"V;$?; d @8K*' #s{4
)U`&:R D!)vE%@ZFI )J1P"RFS+TOqbhx_/Y$GNRMC,085111.00,A,0419.70056,S,05539.87706,E,0.014,,190525,,,D*79
$GNVTG,,T,,M,0.014,N,0.026,K,D*39
$GNGNS,085111.00,0419.70056,S,05539.87706,E,DA,17,0.61,15.3,-47.6,,0000*6E
$GNGGA,085111.00,0419.70056,S,05539.87706,E,2,12,0.61,15.3,M,-47.6,M,,0000*47
$GNGSA,A,3,25,23,12,15,29,10,18,24,28,32,26,,1.16,0.61,0.99*16
$GNGSA,A,3,69,80,73,68,74,83,,,,,,,1.16,0.61,0.99*18
$GPGSV,5,1,17,10,44,241,37,12,34,154,27,13,03,060,12,15,38,069,41*79
$GPGSV,5,2,17,18,19,342,34,23,63,315,36,24,16,135,32,25,64,187,32*70
$GPGSV,5,3,17,26,09,312,30,28,13,245,22,29,39,028,42,31,01,267,17*77
$GPGSV,5,4,17,32,16,206,35,36,52,277,,40,85,352,41,41,58,082,38*7B
$GPGSV,5,5,17,49,32,274,*42
$GLGSV,3,1,10,68,23,041,33,69,64,090,37,70,29,194,,73,41,263,32*6B
$GLGSV,3,2,10,74,14,305,08,80,34,189,23,82,00,070,,83,08,024,43*6C
$GLGSV,3,3,10,84,01,335,13,,,,28*54
$GNGLL,0419.70056,S,05539.87706,E,085111.00,A,D*6F
$GNGRS,085111.00,1,-2.7,-1.0,3.3,0.3,-0.5,1.0,0.6,1.0,-3.1,-1.4,-4.4,*71
$GNGRS,085111.00,1,1.8,6.6,-3.2,-14.2,12.6,4.4,,,,,,*56
$GNGST,085111.00,2885147,,,,1.6,1.6,3.3*70
$GNZDA,085111.00,19,05,2025,00,00*7C
$GNGBS,085111.00,1.6,1.6,3.3,,,,*53
b0XP
",I"
<j*&E"Vm$?;!@8*)'@ #{4
)U`&:R D!)IE#@ZFI )=J15>P"FRFS*TOt}bPxG31!$GNRMC,085112.00,A,0419.70058,S,05539.87708,E,0.031,,190525,,,D*7D
$GNVTG,,T,,M,0.031,N,0.057,K,D*38
$GNGNS,085112.00,0419.70058,S,05539.87708,E,DA,16,0.63,15.4,-47.6,,0000*69
$GNGGA,085112.00,0419.70058,S,05539.87708,E,2,12,0.63,15.4,M,-47.6,M,,0000*41
$GNGSA,A,3,25,23,12,15,29,10,18,24,28,32,26,,1.18,0.63,1.00*1B
$GNGSA,A,3,69,80,73,68,83,,,,,,,,1.18,0.63,1.00*16
$GPGSV,5,1,17,10,44,241,34,12,34,154,28,13,03,060,10,15,38,069,42*74
$GPGSV,5,2,17,18,19,342,34,23,63,315,36,24,16,135,28,25,64,187,33*7A
$GPGSV,5,3,17,26,09,312,30,28,13,245,23,29,39,028,41,31,01,267,17*75
$GPGSV,5,4,17,32,16,206,35,36,52,277,,40,85,352,41,41,58,082,38*7B
$GPGSV,5,5,17,49,32,274,*42
$GLGSV,3,1,10,68,23,041,33,69,64,090,35,70,29,194,,73,41,263,32*69
$GLGSV,3,2,10,74,14,305,07,80,34,189,25,82,00,070,,83,08,024,42*64
$GLGSV,3,3,10,84,01,335,12,,,,27*5A
$GNGLL,0419.70058,S,05539.87708,E,085112.00,A,D*6C
$GNGRS,085112.00,1,-0.3,-0.9,-3.5,0.2,-0.4,0.7,-1.5,1.9,-2.3,-3.1,-4.7,*70
$GNGRS,085112.00,1,1.8,8.4,-2.0,-17.2,4.6,,,,,,,*40
$GNGST,085112.00,24,,,,1.6,1.6,3.3*40
$GNZDA,085112.00,19,05,2025,00,00*7F
$GNGBS,085112.00,1.6,1.6,3.3,,,,*50
b0X8
",L"<W*&E!V$?;f @8*' "{4
)U`&:R D")E#@ZFI )J1P"RFS)T
Ob8x/7$GNRMC,085113.00,A,0419.70061,S,05539.87708,E,0.013,,190525,,,D*76
$GNVTG,,T,,M,0.013,N,0.023,K,D*3B
$GNGNS,085113.00,0419.70061,S,05539.87708,E,DA,17,0.61,15.4,-47.6,,0000*61
$GNGGA,085113.00,0419.70061,S,05539.87708,E,2,12,0.61,15.4,M,-47.6,M,,0000*48
$GNGSA,A,3,25,23,12,15,29,10,18,24,28,32,26,,1.16,0.61,0.99*16
$GNGSA,A,3,69,80,73,68,74,83,,,,,,,1.16,0.61,0.99*18
$GPGSV,5,1,17,10,44,241,34,12,34,154,28,13,03,060,08,15,38,069,42*7D
$GPGSV,5,2,17,18,19,342,33,23,63,315,36,24,16,135,28,25,64,187,32*7C
$GPGSV,5,3,17,26,09,312,29,28,13,245,22,29,39,028,42,31,01,267,17*7F
$GPGSV,5,4,17,32,16,206,34,36,52,277,,40,85,352,41,41,58,082,38*7A
$GPGSV,5,5,17,49,32,274,*42
$GLGSV,3,1,10,68,23,041,34,69,64,090,35,70,29,194,,73,41,263,32*6E
$GLGSV,3,2,10,74,14,305,12,80,34,189,26,82,00,070,,83,08,024,41*60
$GLGSV,3,3,10,84,01,335,10,,,,27*58
$GNGLL,0419.70061,S,05539.87708,E,085113.00,A,D*67
$GNGRS,085113.00,1,-2.3,-0.8,-3.0,0.2,-0.3,0.8,0.1,6.1,-1.3,1.7,-8.3,*7A
$GNGRS,085113.00,1,1.7,8.0,-2.6,-18.3,12.6,4.7,,,,,,*58
$GNGST,085113.00,2909,,,,1.6,1.6,3.3*45
$GNZDA,085113.00,19,05,2025,00,00*7E
$GNGBS,085113.00,1.6,1.6,3.3,,,,*51
b0X 
,"<'&EV!?;k@8n,(' a{4
'U`":R D)E@ZFI)J1P"RFS$TOb x;$GNRMC,085114.00,A,0419.70061,S,05539.87708,E,0.067,,190525,,,D*72
$GNVTG,,T,,M,0.067,N,0.124,K,D*3E
$GNGNS,085114.00,0419.70061,S,05539.87708,E,DA,15,0.66,15.3,-47.6,,0000*64
$GNGGA,085114.00,0419.70061,S,05539.87708,E,2,12,0.66,15.3,M,-47.6,M,,0000*4F
$GNGSA,A,3,25,23,15,29,10,18,24,28,32,26,,,1.20,0.66,1.00*16
$GNGSA,A,3,69,80,73,68,83,,,,,,,,1.20,0.66,1.00*18
$GPGSV,5,1,17,10,44,241,31,12,34,154,,13,03,060,,15,38,069,39*76
$GPGSV,5,2,17,18,19,342,30,23,63,315,33,24,16,135,26,25,64,187,28*7F
$GPGSV,5,3,17,26,09,312,24,28,13,245,21,29,39,028,40,31,01,267,17*73
$GPGSV,5,4,17,32,16,206,30,36,52,277,,40,85,352,39,41,58,082,34*7D
$GPGSV,5,5,17,49,32,274,*42
$GLGSV,3,1,10,68,23,041,29,69,64,090,31,70,29,194,,73,41,263,28*6D
$GLGSV,3,2,10,74,14,305,05,80,34,189,25,82,00,070,,83,08,024,36*65
$GLGSV,3,3,10,84,01,335,09,,,,25*52
$GNGLL,0419.70061,S,05539.87708,E,085114.00,A,D*60
$GNGRS,085114.00,1,-0.8,-1.5,0.1,0.0,-2.3,2.7,2.7,-2.1,-4.1,-4.0,,*57
$GNGRS,085114.00,1,-0.2,7.4,-0.1,-16.0,5.2,,,,,,,*6A
$GNGST,085114.00,30,,,,1.6,1.7,3.3*42
$GNZDA,085114.00,19,05,2025,00,00*79
$GNGBS,085114.00,1.6,1.7,3.3,,,,*57
b0X
%,"<,&E#V&?;zH#@85*', #{4
(U`&:R D!)E#@Z/FI$)~J1P"|RFS,TOS"bx>d$GNRMC,085115.00,A,0419.70060,S,05539.87706,E,0.005,,190525,,,D*78
$GNVTG,,T,,M,0.005,N,0.009,K,D*34
$GNGNS,085115.00,0419.70060,S,05539.87706,E,DA,17,0.61,15.4,-47.6,,0000*68
$GNGGA,085115.00,0419.70060,S,05539.87706,E,2,12,0.61,15.4,M,-47.6,M,,0000*41
$GNGSA,A,3,25,23,12,15,29,10,18,24,28,32,26,,1.16,0.61,0.99*16
$GNGSA,A,3,69,80,73,68,74,83,,,,,,,1.16,0.61,0.99*18
$GPGSV,5,1,17,10,44,241,37,12,34,154,28,13,03,060,,15,38,069,44*70
$GPGSV,5,2,17,18,19,342,35,23,63,315,38,24,16,135,25,25,64,187,35*7E
$GPGSV,5,3,17,26,09,312,31,28,13,245,21,29,39,028,42,31,01,267,19*7B
$GPGSV,5,4,17,32,16,206,35,36,52,277,,40,85,352,40,41,58,082,38*7A
$GPGSV,5,5,17,49,32,274,*42
$GLGSV,3,1,10,68,23,041,33,69,64,090,35,70,29,194,,73,41,263,36*6D
$GLGSV,3,2,10,74,14,305,13,80,34,189,25,82,00,070,,83,08,024,44*67
$GLGSV,3,3,10,84,01,335,08,,,,30*57
$GNGLL,0419.70060,S,05539.87706,E,085115.00,A,D*6E
$GNGRS,085115.00,1,-0.3,1.2,-17.6,0.0,0.2,1.9,1.9,3.3,-2.0,0.2,-8.8,*44
$GNGRS,085115.00,1,0.5,6.4,-1.3,-15.5,15.7,5.3,,,,,,*59
$GNGST,085115.00,41,,,,1.6,1.6,3.3*44
$GNZDA,085115.00,19,05,2025,00,00*78
$GNGBS,085115.00,1.6,1.6,3.3,,,,*57
b0X
!,"<&&EV ?;@8&'B {4
&U`!:R D)E@ZFI)J1P":RFS#-TObxB$GNRMC,085116.00,A,0419.70062,S,05539.87710,E,0.212,,190525,,,D*7A
$GNVTG,,T,,M,0.212,N,0.393,K,D*30
$GNGNS,085116.00,0419.70062,S,05539.87710,E,DA,16,0.63,15.5,-47.6,,0000*6C
$GNGGA,085116.00,0419.70062,S,05539.87710,E,2,12,0.63,15.5,M,-47.6,M,,0000*44
$GNGSA,A,3,25,23,12,15,29,10,18,24,28,32,26,,1.18,0.63,1.00*1B
$GNGSA,A,3,69,80,73,68,83,,,,,,,,1.18,0.63,1.00*16
$GPGSV,5,1,17,10,44,241,33,12,34,154,25,13,03,060,,15,38,069,38*72
$GPGSV,5,2,17,18,19,342,28,23,63,315,32,24,16,135,22,25,64,187,29*72
$GPGSV,5,3,17,26,09,312,25,28,13,245,18,29,39,028,38,31,01,267,18*78
$GPGSV,5,4,17,32,16,206,29,36,52,277,,40,85,352,38,41,58,082,33*73
$GPGSV,5,5,17,49,32,274,*42
$GLGSV,3,1,10,68,23,041,24,69,64,090,27,70,29,194,,73,41,263,28*67
$GLGSV,3,2,10,74,14,305,03,80,34,189,23,82,00,070,,83,08,024,35*66
$GLGSV,3,3,10,84,01,335,06,,,,22*5A
$GNGLL,0419.70062,S,05539.87710,E,085116.00,A,D*68
$GNGRS,085116.00,1,-2.8,1.9,-7.8,-0.3,0.2,-0.4,-0.2,4.7,-5.6,-1.2,-8.0,*74
$GNGRS,085116.00,1,-0.4,5.7,1.8,-16.1,5.6,,,,,,,*4F
$GNGST,085116.00,35,,,,1.6,1.7,3.4*42
$GNZDA,085116.00,19,05,2025,00,00*7B
$GNGBS,085116.00,1.6,1.7,3.4,,,,*52
b0X
$,"n<(&E VP#?;n!@8\7(' !{4
(U`$:R ND!)E$@ZvFI$)J1P"1RFS*KTObxFh%$GNRMC,085117.00,A,0419.70063,S,05539.87710,E,0.029,,190525,,,D*70
$GNVTG,,T,,M,0.029,N,0.054,K,D*32
$GNGNS,085117.00,0419.70063,S,05539.87710,E,DA,17,0.61,15.5,-47.6,,0000*6F
$GNGGA,085117.00,0419.70063,S,05539.87710,E,2,12,0.61,15.5,M,-47.6,M,,0000*46
$GNGSA,A,3,25,23,12,15,29,10,18,24,28,32,26,,1.16,0.61,0.99*16
$GNGSA,A,3,69,80,73,68,74,83,,,,,,,1.16,0.61,0.99*18
$GPGSV,5,1,17,10,44,241,36,12,34,154,26,13,03,060,,15,38,069,40*7B
$GPGSV,5,2,17,18,19,342,32,23,63,315,35,24,16,135,21,25,64,187,33*76
$GPGSV,5,3,17,26,09,312,26,28,13,245,18,29,39,028,40,31,01,267,19*75
$GPGSV,5,4,17,32,16,206,33,36,52,277,,40,85,352,40,41,58,082,36*72
$GPGSV,5,5,17,49,32,274,*42
$GLGSV,3,1,10,68,23,041,33,69,64,090,36,70,29,194,,73,41,263,36*6E
$GLGSV,3,2,10,74,14,305,09,80,34,189,26,82,00,070,,83,08,024,42*69
$GLGSV,3,3,10,84,01,335,12,,,,29*54
$GNGLL,0419.70063,S,05539.87710,E,085117.00,A,D*68
$GNGRS,085117.00,1,0.1,1.6,-6.6,-0.4,0.3,0.2,0.8,6.2,-7.1,-0.4,-6.8,*5A
$GNGRS,085117.00,1,1.2,5.6,2.7,-11.3,12.3,5.9,,,,,,*7D
$GNGST,085117.00,55260,,,,1.7,1.7,3.4*70
$GNZDA,085117.00,19,05,2025,00,00*7A
$GNGBS,085117.00,1.7,1.7,3.4,,,,*52
b0X
 ,"<%&E V"?;Bg @k8%'3W {4
$U`#:R TD)E!@ZFI)J
1P"ARFS&HTO,YbxJ@$GNRMC,085118.00,A,0419.70063,S,05539.87710,E,0.019,,190525,,,D*7C
$GNVTG,,T,,M,0.019,N,0.036,K,D*35
$GNGNS,085118.00,0419.70063,S,05539.87710,E,DA,17,0.61,15.6,-47.6,,0000*63
$GNGGA,085118.00,0419.70063,S,05539.87710,E,2,12,0.61,15.6,M,-47.6,M,,0000*4A
$GNGSA,A,3,25,23,12,15,29,10,18,24,28,32,26,,1.16,0.61,0.99*16
$GNGSA,A,3,69,80,73,68,74,83,,,,,,,1.16,0.61,0.99*18
$GPGSV,5,1,17,10,44,241,32,12,34,154,26,13,03,060,,15,38,069,37*7F
$GPGSV,5,2,17,18,19,342,32,23,63,315,34,24,16,135,22,25,64,187,32*75
$GPGSV,5,3,17,26,09,312,26,28,13,245,17,29,39,028,37,31,01,267,19*7A
$GPGSV,5,4,17,32,16,206,29,36,52,277,,40,85,352,36,41,58,082,35*7B
$GPGSV,5,5,17,49,32,274,*42
$GLGSV,3,1,10,68,23,041,28,69,64,090,33,70,29,194,,73,41,263,31*66
$GLGSV,3,2,10,74,14,305,10,80,34,189,26,82,00,070,,83,08,024,38*6C
$GLGSV,3,3,10,84,01,335,12,,,,28*55
$GNGLL,0419.70063,S,05539.87710,E,085118.00,A,D*67
$GNGRS,085118.00,1,-1.5,3.2,-0.4,-0.7,0.5,-0.4,-0.5,6.2,-8.8,1.9,-8.9,*59
$GNGRS,085118.00,1,6.4,5.8,1.5,-13.2,17.0,5.8,,,,,,*78
$GNGST,085118.00,41,,,,1.7,1.7,3.4*4E
$GNZDA,085118.00,19,05,2025,00,00*75
$GNGBS,085118.00,1.7,1.7,3.4,,,,*5D
b0X
!,"K<&&EV ?;@a8}%'J {4
%U`#:R D)E@ZzFI )J1P"RFS'BTObbxN$GNRMC,085119.00,A,0419.70062,S,05539.87711,E,0.082,,190525,,,D*7F
$GNVTG,,T,,M,0.082,N,0.152,K,D*34
$GNGNS,085119.00,0419.70062,S,05539.87711,E,DA,17,0.61,15.7,-47.6,,0000*63
$GNGGA,085119.00,0419.70062,S,05539.87711,E,2,12,0.61,15.7,M,-47.6,M,,0000*4A
$GNGSA,A,3,25,23,12,15,29,10,18,24,28,32,26,,1.16,0.61,0.99*16
$GNGSA,A,3,69,80,73,68,74,83,,,,,,,1.16,0.61,0.99*18
$GPGSV,5,1,17,10,44,241,33,12,34,154,25,13,03,060,,15,38,069,38*72
$GPGSV,5,2,17,18,19,342,27,23,63,315,32,24,16,135,21,25,64,187,28*7F
$GPGSV,5,3,17,26,09,312,25,28,13,245,16,29,39,028,37,31,01,267,19*78
$GPGSV,5,4,17,32,16,206,30,36,52,277,,40,85,352,37,41,58,082,35*72
$GPGSV,5,5,17,49,32,274,*42
$GLGSV,3,1,10,68,23,041,28,69,64,090,29,70,29,194,,73,41,263,32*6E
$GLGSV,3,2,10,74,14,305,08,80,34,189,24,82,00,070,,83,08,024,39*66
$GLGSV,3,3,10,84,01,335,07,,,,25*5C
$GNGLL,0419.70062,S,05539.87711,E,085119.00,A,D*66
$GNGRS,085119.00,1,-1.6,5.4,0.8,-0.7,0.7,0.2,-2.5,6.9,-9.0,-1.1,-13.0,*45
$GNGRS,085119.00,1,6.3,5.1,-2.8,-8.8,12.5,5.8,,,,,,*64
$GNGST,085119.00,46535,,,,1.7,1.7,3.4*7B
$GNZDA,085119.00,19,05,2025,00,00*74
$GNGBS,085119.00,1.7,1.7,3.4,,,,*5C
b0X
',"<*&E#V8$?;k$@8|*'5 ${4
*U`%:R D )DE!@ZFI")J1P"RFS*ETO,bxR]$GNRMC,085120.00,A,0419.70060,S,05539.87710,E,0.082,,190525,,,D*76
$GNVTG,,T,,M,0.082,N,0.152,K,D*34
$GNGNS,085120.00,0419.70060,S,05539.87710,E,DA,17,0.61,15.7,-47.6,,0000*6A
$GNGGA,085120.00,0419.70060,S,05539.87710,E,2,12,0.61,15.7,M,-47.6,M,,0000*43
$GNGSA,A,3,25,23,12,15,29,10,18,24,28,32,26,,1.16,0.61,0.99*16
$GNGSA,A,3,69,80,73,68,74,83,,,,,,,1.16,0.61,0.99*18
$GPGSV,5,1,17,10,44,241,39,12,34,154,25,13,03,060,,15,38,069,42*75
$GPGSV,5,2,17,18,19,342,35,23,63,315,36,24,16,135,20,25,64,187,36*76
$GPGSV,5,3,17,26,09,312,26,28,13,245,18,29,39,028,42,31,01,267,19*77
$GPGSV,5,4,17,32,16,206,36,36,52,277,,40,85,352,42,41,58,082,37*74
$GPGSV,5,5,17,49,32,274,*42
$GLGSV,3,1,10,68,23,041,32,69,64,090,33,70,29,194,,73,41,263,34*68
$GLGSV,3,2,10,74,14,305,08,80,34,189,25,82,00,070,,83,08,024,42*6B
$GLGSV,3,3,10,84,01,335,11,,,,26*58
$GNGLL,0419.70060,S,05539.87710,E,085120.00,A,D*6F
$GNGRS,085120.00,1,0.1,3.6,2.8,0.3,0.5,0.1,3.1,6.8,-6.4,-0.7,-8.9,*5C
$GNGRS,085120.00,1,1.5,4.7,-1.0,-7.0,12.2,5.8,,,,,,*63
$GNGST,085120.00,69802,,,,1.7,1.7,3.4*75
$GNZDA,085120.00,19,05,2025,00,00*7E
$GNGBS,085120.00,1.7,1.7,3.4,,,,*56
b0Xx
','"<+&E\"V%?;"#@8r*'1 $8{4
*U`':R D!)E"@ZFI")J1pP"RFS*FTOfIbxxoV$GNRMC,085121.00,A,0419.70056,S,05539.87711,E,0.012,,190525,,,D*7A
$GNVTG,,T,,M,0.012,N,0.022,K,D*3B
$GNGNS,085121.00,0419.70056,S,05539.87711,E,DA,17,0.63,15.9,-47.6,,0000*63
$GNGGA,085121.00,0419.70056,S,05539.87711,E,2,12,0.63,15.9,M,-47.6,M,,0000*4A
$GNGSA,A,3,25,23,12,15,29,10,18,24,28,32,26,,1.18,0.63,1.00*1B
$GNGSA,A,3,69,80,73,68,74,83,,,,,,,1.18,0.63,1.00*15
$GPGSV,5,1,17,10,44,241,39,12,34,154,30,13,03,060,,15,38,069,43*70
$GPGSV,5,2,17,18,19,342,34,23,63,315,37,24,16,135,22,25,64,187,35*77
$GPGSV,5,3,17,26,09,312,27,28,13,245,20,29,39,028,42,31,01,267,20*77
$GPGSV,5,4,17,32,16,206,36,36,52,277,,40,85,352,42,41,58,082,39*7A
$GPGSV,5,5,17,49,32,274,*42
$GLGSV,3,1,10,68,23,041,33,69,64,090,34,70,29,194,,73,41,263,34*6E
$GLGSV,3,2,10,74,14,305,14,80,34,189,27,82,00,070,,83,08,024,42*64
$GLGSV,3,3,10,84,01,335,09,,,,27*50
$GNGLL,0419.70056,S,05539.87711,E,085121.00,A,D*6A
$GNGRS,085121.00,1,-3.0,4.1,-3.1,0.9,0.5,-2.2,0.1,8.0,-7.6,-2.0,-6.5,*70
$GNGRS,085121.00,1,2.0,4.7,-2.4,-13.3,52.3,5.8,,,,,,*50
$GNGST,085121.00,29,,,,1.7,1.7,3.4*4A
$GNZDA,085121.00,19,05,2025,00,00*7F
$GNGBS,085121.00,1.7,1.7,3.4,,,,*57
b0X`
",V"<'&ETVm#?;@8u''} !{4
'U`$:R D)E@ZIFI)J1P"RFS%3TO+b`xWZ-$GNRMC,085122.00,A,0419.70056,S,05539.87712,E,0.050,,190525,,,D*7C
$GNVTG,,T,,M,0.050,N,0.092,K,D*36
$GNGNS,085122.00,0419.70056,S,05539.87712,E,DA,16,0.63,15.9,-47.6,,0000*62
$GNGGA,085122.00,0419.70056,S,05539.87712,E,2,12,0.63,15.9,M,-47.6,M,,0000*4A
$GNGSA,A,3,25,23,12,15,29,10,18,24,28,32,26,,1.18,0.63,1.00*1B
$GNGSA,A,3,69,80,73,68,83,,,,,,,,1.18,0.63,1.00*16
$GPGSV,5,1,17,10,44,241,34,12,34,154,24,13,03,060,16,15,38,069,39*72
$GPGSV,5,2,17,18,19,342,30,23,63,315,35,24,16,135,23,25,64,187,29*7D
$GPGSV,5,3,17,26,09,312,27,28,13,245,20,29,39,028,39,31,01,267,20*7B
$GPGSV,5,4,17,32,16,206,33,36,52,277,,40,85,352,39,41,58,082,36*7C
$GPGSV,5,5,17,49,32,274,*42
$GLGSV,3,1,10,68,23,041,28,69,64,090,28,70,29,194,,73,41,263,28*64
$GLGSV,3,2,10,74,14,305,06,80,34,189,26,82,00,070,,83,08,024,37*64
$GLGSV,3,3,10,84,01,335,08,,,,26*50
$GNGLL,0419.70056,S,05539.87712,E,085122.00,A,D*6A
$GNGRS,085122.00,1,-2.2,4.8,-2.8,0.8,0.3,0.9,1.1,7.4,-8.7,0.1,-6.5,*78
$GNGRS,085122.00,1,0.7,4.4,-2.6,-11.4,5.6,,,,,,,*46
$GNGST,085122.00,30,,,,1.7,1.7,3.4*41
$GNZDA,085122.00,19,05,2025,00,00*7C
$GNGBS,085122.00,1.7,1.7,3.4,,,,*54
b0XH!
","X<)&E!VF#?;2P @t8N*' ${4
*U`':R D)E"@ZFI)hJ1P"?RFS(8TO;vbH!x?^x$GNRMC,085123.00,A,0419.70056,S,05539.87716,E,0.078,,190525,,,D*73
$GNVTG,,T,,M,0.078,N,0.145,K,D*37
$GNGNS,085123.00,0419.70056,S,05539.87716,E,DA,17,0.61,16.0,-47.6,,0000*6E
$GNGGA,085123.00,0419.70056,S,05539.87716,E,2,12,0.61,16.0,M,-47.6,M,,0000*47
$GNGSA,A,3,25,23,12,15,29,10,18,24,28,32,26,,1.16,0.61,0.99*16
$GNGSA,A,3,69,80,73,68,74,83,,,,,,,1.16,0.61,0.99*18
$GPGSV,5,1,17,10,44,242,34,12,34,154,27,13,03,060,14,15,38,069,41*7F
$GPGSV,5,2,17,18,19,342,33,23,63,315,35,24,16,135,26,25,64,187,32*71
$GPGSV,5,3,17,26,09,312,27,28,13,245,21,29,39,028,42,31,01,267,21*77
$GPGSV,5,4,17,32,16,206,36,36,52,277,,40,85,352,42,41,58,082,39*7A
$GPGSV,5,5,17,49,32,274,*42
$GLGSV,3,1,10,68,23,041,29,69,64,090,34,70,29,194,,73,41,263,29*69
$GLGSV,3,2,10,74,14,305,08,80,34,189,25,82,00,070,,83,08,024,40*69
$GLGSV,3,3,10,84,01,335,07,,,,25*5C
$GNGLL,0419.70056,S,05539.87716,E,085123.00,A,D*6F
$GNGRS,085123.00,1,-4.0,0.5,-1.7,-0.1,0.2,-2.3,-1.9,5.9,-5.9,-2.5,-9.5,*75
$GNGRS,085123.00,1,6.8,3.2,-1.5,-13.0,12.5,5.7,,,,,,*50
$GNGST,085123.00,2885147,,,,1.7,1.7,3.4*76
$GNZDA,085123.00,19,05,2025,00,00*7D
$GNGBS,085123.00,1.7,1.7,3.4,,,,*55
b0X0%
%,, " <+&EH Vi'?;!#@8,'- #0{4
+U`(:R D!)&E%@ZFI)mJ1P"-RFS+TOocb0%x'bP$GNRMC,085124.00,A,0419.70058,S,05539.87720,E,0.024,,190525,,,D*76
$GNVTG,,T,,M,0.024,N,0.045,K,D*3F
$GNGNS,085124.00,0419.70058,S,05539.87720,E,DA,17,0.63,16.1,-47.6,,0000*61
$GNGGA,085124.00,0419.70058,S,05539.87720,E,2,12,0.63,16.1,M,-47.6,M,,0000*48
$GNGSA,A,3,25,23,12,15,29,10,18,24,28,32,26,,1.18,0.63,1.00*1B
$GNGSA,A,3,69,80,73,68,74,83,,,,,,,1.18,0.63,1.00*15
$GPGSV,5,1,17,10,44,242,37,12,34,154,32,13,03,060,14,15,38,069,43*7A
$GPGSV,5,2,17,18,19,342,32,23,63,315,39,24,16,135,33,25,64,187,35*7F
$GPGSV,5,3,17,26,09,312,27,28,13,245,23,29,39,028,44,31,01,267,20*72
$GPGSV,5,4,17,32,16,206,35,36,52,277,,40,85,352,43,41,58,082,40*76
$GPGSV,5,5,17,49,32,274,*42
$GLGSV,3,1,10,68,23,041,33,69,64,090,37,70,29,194,,73,41,263,30*69
$GLGSV,3,2,10,74,14,305,09,80,34,189,27,82,00,070,,83,08,024,43*69
$GLGSV,3,3,10,84,01,335,11,,,,26*58
$GNGLL,0419.70058,S,05539.87720,E,085124.00,A,D*63
$GNGRS,085124.00,1,-2.5,1.3,0.3,0.7,-0.2,-2.1,1.1,2.9,-5.3,0.5,-7.5,*53
$GNGRS,085124.00,1,5.1,3.0,1.1,-15.0,-134,5.2,,,,,,*76
$GNGST,085124.00,23,,,,1.7,1.7,3.4*45
$GNZDA,085124.00,19,05,2025,00,00*7A
$GNGBS,085124.00,1.7,1.7,3.4,,,,*52
b0X)
",/"
<L(&EV%?;~ @H8G*'1 !k{4
(U`&:R D#)E&@ZnFI)J
1P"RFS.TOlb)xf(e$GNRMC,085125.00,A,0419.70059,S,05539.87721,E,0.030,,190525,,,D*72
$GNVTG,,T,,M,0.030,N,0.055,K,D*3B
$GNGNS,085125.00,0419.70059,S,05539.87721,E,DA,17,0.61,16.3,-47.6,,0000*60
$GNGGA,085125.00,0419.70059,S,05539.87721,E,2,12,0.61,16.3,M,-47.6,M,,0000*49
$GNGSA,A,3,25,23,12,15,29,10,18,24,28,32,26,,1.16,0.61,0.99*16
$GNGSA,A,3,69,80,73,68,74,83,,,,,,,1.16,0.61,0.99*18
$GPGSV,5,1,17,10,44,242,34,12,34,154,31,13,03,060,10,15,38,069,40*7D
$GPGSV,5,2,17,18,19,342,31,23,63,315,37,24,16,135,28,25,64,187,32*7F
$GPGSV,5,3,17,26,09,312,27,28,13,245,25,29,39,028,42,31,01,267,21*73
$GPGSV,5,4,17,32,16,206,33,36,52,277,,40,85,352,40,41,58,082,38*7C
$GPGSV,5,5,17,49,32,274,*42
$GLGSV,3,1,10,68,23,041,35,69,64,090,38,70,29,194,,73,41,263,31*61
$GLGSV,3,2,10,74,14,305,10,80,34,189,27,82,00,070,,83,08,024,46*64
$GLGSV,3,3,10,84,01,335,12,,,,26*5B
$GNGLL,0419.70059,S,05539.87721,E,085125.00,A,D*62
$GNGRS,085125.00,1,-4.4,1.3,-3.3,0.1,0.0,0.5,-2.4,2.5,-3.3,-1.5,-7.0,*71
$GNGRS,085125.00,1,3.7,4.8,1.7,-13.5,12.5,4.9,,,,,,*74
$GNGST,085125.00,2909,,,,1.7,1.7,3.4*47
$GNZDA,085125.00,19,05,2025,00,00*7B
$GNGBS,085125.00,1.7,1.7,3.4,,,,*53
b0X-
",!"<s)&E%V%?; @\8*'t !;{4
(U`&:R D")E%@ZcFI)J1P"RFS-TO6b-xi$GNRMC,085126.00,A,0419.70059,S,05539.87720,E,0.011,,190525,,,D*73
$GNVTG,,T,,M,0.011,N,0.021,K,D*3B
$GNGNS,085126.00,0419.70059,S,05539.87720,E,DA,17,0.61,16.4,-47.6,,0000*65
$GNGGA,085126.00,0419.70059,S,05539.87720,E,2,12,0.61,16.4,M,-47.6,M,,0000*4C
$GNGSA,A,3,25,23,12,15,29,10,18,24,28,32,26,,1.16,0.61,0.99*16
$GNGSA,A,3,69,80,73,68,74,83,,,,,,,1.16,0.61,0.99*18
$GPGSV,5,1,17,10,44,242,34,12,34,154,30,13,02,060,09,15,38,069,41*74
$GPGSV,5,2,17,18,19,342,31,23,63,315,37,24,16,135,28,25,64,187,32*7F
$GPGSV,5,3,17,26,09,312,27,28,13,245,25,29,39,028,42,31,01,267,20*72
$GPGSV,5,4,17,32,16,206,33,36,52,277,,40,85,352,40,41,58,082,38*7C
$GPGSV,5,5,17,49,32,274,*42
$GLGSV,3,1,10,68,23,041,34,69,64,090,37,70,29,194,,73,41,263,31*6F
$GLGSV,3,2,10,74,14,305,07,80,34,189,28,82,00,070,,83,08,024,45*6E
$GLGSV,3,3,10,84,01,335,09,,,,26*51
$GNGLL,0419.70059,S,05539.87720,E,085126.00,A,D*60
$GNGRS,085126.00,1,-4.2,2.1,0.3,0.4,-0.2,-2.2,0.2,2.2,-3.7,-2.0,-3.6,*77
$GNGRS,085126.00,1,3.6,2.5,4.9,-11.1,12.2,4.8,,,,,,*76
$GNGST,085126.00,4363,,,,1.7,1.7,3.3*43
$GNZDA,085126.00,19,05,2025,00,00*78
$GNGBS,085126.00,1.7,1.7,3.3,,,,*57
b0X0
,"<$&E"V_"?;xb@K8%' {4
$U`#:R D)E@ZFI)J1w*P"RFS(TO8Gb0xm#$GNRMC,085127.00,A,0419.70060,S,05539.87720,E,0.065,,190525,,,D*7B
$GNVTG,,T,,M,0.065,N,0.121,K,D*39
$GNGNS,085127.00,0419.70060,S,05539.87720,E,DA,16,0.63,16.3,-47.6,,0000*6A
$GNGGA,085127.00,0419.70060,S,05539.87720,E,2,12,0.63,16.3,M,-47.6,M,,0000*42
$GNGSA,A,3,25,23,12,15,29,10,18,24,28,32,26,,1.18,0.63,1.00*1B
$GNGSA,A,3,69,80,73,68,83,,,,,,,,1.18,0.63,1.00*16
$GPGSV,5,1,17,10,44,242,29,12,34,154,29,13,02,060,08,15,38,069,36*71
$GPGSV,5,2,17,18,19,342,30,23,63,315,34,24,16,135,27,25,64,187,27*76
$GPGSV,5,3,17,26,09,312,26,28,13,245,24,29,39,028,37,31,01,267,19*7A
$GPGSV,5,4,17,32,16,206,28,36,52,277,,40,85,352,36,41,58,082,35*7A
$GPGSV,5,5,17,49,32,274,*42
$GLGSV,3,1,10,68,23,041,25,69,64,090,31,70,29,194,,73,41,263,24*6D
$GLGSV,3,2,10,74,14,305,06,80,34,189,27,82,00,070,,83,08,024,40*65
$GLGSV,3,3,10,84,01,335,08,,,,25*53
$GNGLL,0419.70060,S,05539.87720,E,085127.00,A,D*6B
$GNGRS,085127.00,1,-4.4,1.2,-2.7,0.3,-0.2,-3.5,3.5,6.1,-3.5,-2.5,-1.1,*5B
$GNGRS,085127.00,1,5.0,9.6,8.0,-8.7,4.8,,,,,,,*5B
$GNGST,085127.00,31,,,,1.7,1.7,3.4*45
$GNZDA,085127.00,19,05,2025,00,00*79
$GNGBS,085127.00,1.7,1.7,3.4,,,,*51
b0X4
%,!"<+&D"Vu(?; !@8w,'J ${4
,U`):R D )E%@Z;FI)WJ1P"dRFS,TO.b4xq$GNRMC,085128.00,A,0419.70061,S,05539.87724,E,0.055,,190525,,,D*72
$GNVTG,,T,,M,0.055,N,0.101,K,D*38
$GNGNS,085128.00,0419.70061,S,05539.87724,E,DA,17,0.61,16.4,-47.6,,0000*64
$GNGGA,085128.00,0419.70061,S,05539.87724,E,2,12,0.61,16.4,M,-47.6,M,,0000*4D
$GNGSA,A,3,25,23,12,15,29,10,18,24,28,32,26,,1.16,0.61,0.99*16
$GNGSA,A,3,69,80,73,68,74,83,,,,,,,1.16,0.61,0.99*18
$GPGSV,5,1,17,10,44,242,37,12,34,154,33,13,02,060,,15,38,068,43*7E
$GPGSV,5,2,17,18,19,342,34,23,63,315,40,24,16,135,32,25,64,187,33*70
$GPGSV,5,3,17,26,09,312,25,28,13,245,24,29,39,028,44,31,01,267,19*7D
$GPGSV,5,4,17,32,16,206,36,36,52,277,,40,85,352,44,41,58,082,41*73
$GPGSV,5,5,17,49,32,274,*42
$GLGSV,3,1,10,68,23,041,32,69,64,090,37,70,29,194,,73,41,263,31*69
$GLGSV,3,2,10,74,14,305,09,80,34,189,27,82,00,070,,83,08,024,44*6E
$GLGSV,3,3,10,84,01,335,09,,,,25*52
$GNGLL,0419.70061,S,05539.87724,E,085128.00,A,D*61
$GNGRS,085128.00,1,-0.8,-0.9,-0.2,0.2,0.0,-1.1,3.7,2.5,-3.9,-0.7,-0.2,*58
$GNGRS,085128.00,1,8.3,6.1,3.4,-13.7,12.8,4.8,,,,,,*72
$GNGST,085128.00,2885147,,,,1.7,1.7,3.3*7A
$GNZDA,085128.00,19,05,2025,00,00*76
$GNGBS,085128.00,1.7,1.7,3.3,,,,*59
b0X8
$,"}<*&DV'?;< @8+' ${4
+U`':R D!)E%@Z<FI)J1P"<RFS,TOYb8xu$GNRMC,085129.00,A,0419.70061,S,05539.87723,E,0.017,,190525,,,D*72
$GNVTG,,T,,M,0.017,N,0.031,K,D*3C
$GNGNS,085129.00,0419.70061,S,05539.87723,E,DA,17,0.61,16.6,-47.6,,0000*60
$GNGGA,085129.00,0419.70061,S,05539.87723,E,2,12,0.61,16.6,M,-47.6,M,,0000*49
$GNGSA,A,3,25,23,12,15,29,10,18,24,28,32,26,,1.16,0.61,0.99*16
$GNGSA,A,3,69,80,73,68,74,83,,,,,,,1.16,0.61,0.99*18
$GPGSV,5,1,17,10,44,242,36,12,34,154,31,13,02,060,,15,38,068,42*7C
$GPGSV,5,2,17,18,19,342,31,23,63,315,39,24,16,135,31,25,64,187,32*79
$GPGSV,5,3,17,26,09,312,26,28,13,245,25,29,39,028,43,31,01,267,19*78
$GPGSV,5,4,17,32,16,206,36,36,52,277,,40,85,352,43,41,58,082,39*7B
$GPGSV,5,5,17,49,32,274,*42
$GLGSV,3,1,10,68,23,041,33,69,64,090,37,70,29,194,,73,41,263,31*68
$GLGSV,3,2,10,74,14,305,08,80,34,189,27,82,00,070,,83,08,024,44*6F
$GLGSV,3,3,10,84,01,335,13,,,,27*5B
$GNGLL,0419.70061,S,05539.87723,E,085129.00,A,D*67
$GNGRS,085129.00,1,-3.1,1.9,1.3,-0.1,-0.2,-0.4,0.2,3.2,-3.1,-1.3,-0.2,*5A
$GNGRS,085129.00,1,5.7,0.6,2.2,-15.4,12.7,4.6,,,,,,*78
$GNGST,085129.00,2885147,,,,1.6,1.7,3.3*7A
$GNZDA,085129.00,19,05,2025,00,00*77
$GNGBS,085129.00,1.6,1.7,3.3,,,,*59
b0X<
", "<*&DV&?;X! @38C*' ${4
)U`&:R D )E#@ZFI)J1$P"qRFS*TOTb<xy^[$GNRMC,085130.00,A,0419.70063,S,05539.87723,E,0.014,,190525,,,D*7B
$GNVTG,,T,,M,0.014,N,0.026,K,D*39
$GNGNS,085130.00,0419.70063,S,05539.87723,E,DA,17,0.61,16.7,-47.6,,0000*6B
$GNGGA,085130.00,0419.70063,S,05539.87723,E,2,12,0.61,16.7,M,-47.6,M,,0000*42
$GNGSA,A,3,25,23,12,15,29,10,18,24,28,32,26,,1.16,0.61,0.99*16
$GNGSA,A,3,69,80,73,68,74,83,,,,,,,1.16,0.61,0.99*18
$GPGSV,5,1,17,10,44,242,34,12,34,154,32,13,02,060,,15,38,068,42*7D
$GPGSV,5,2,17,18,19,342,31,23,63,315,38,24,16,135,30,25,64,187,32*79
$GPGSV,5,3,17,26,09,312,27,28,13,245,25,29,39,028,42,31,01,267,20*72
$GPGSV,5,4,17,32,16,206,36,36,52,277,,40,85,352,41,41,58,082,38*78
$GPGSV,5,5,17,49,32,274,*42
$GLGSV,3,1,10,68,23,041,32,69,64,090,35,70,29,194,,73,41,263,30*6A
$GLGSV,3,2,10,74,14,305,11,80,34,189,27,82,00,070,,83,08,024,42*61
$GLGSV,3,3,10,84,01,335,07,,,,26*5F
$GNGLL,0419.70063,S,05539.87723,E,085130.00,A,D*6D
$GNGRS,085130.00,1,-2.1,0.9,1.7,-0.4,0.0,-0.7,1.8,2.9,-3.6,0.3,0.7,*7D
$GNGRS,085130.00,1,7.1,6.2,0.1,-13.1,18.3,4.4,,,,,,*78
$GNGST,085130.00,37,,,,1.6,1.7,3.3*43
$GNZDA,085130.00,19,05,2025,00,00*7F
$GNGBS,085130.00,1.6,1.7,3.3,,,,*51
b0X@
 ,"B<(&D V#?;H@
80(' !{4
(U`%:R D )E#@ZFI)J1P",RFS+T
Ob@x}6$GNRMC,085131.00,A,0419.70065,S,05539.87723,E,0.028,,190525,,,D*73
$GNVTG,,T,,M,0.028,N,0.052,K,D*35
$GNGNS,085131.00,0419.70065,S,05539.87723,E,DA,17,0.61,16.7,-47.6,,0000*6C
$GNGGA,085131.00,0419.70065,S,05539.87723,E,2,12,0.61,16.7,M,-47.6,M,,0000*45
$GNGSA,A,3,25,23,12,15,29,10,18,24,28,32,26,,1.16,0.61,0.99*16
$GNGSA,A,3,69,80,73,68,74,83,,,,,,,1.16,0.61,0.99*18
$GPGSV,5,1,17,10,44,242,32,12,34,154,28,13,02,060,,15,38,068,40*72
$GPGSV,5,2,17,18,18,342,32,23,63,315,35,24,16,135,29,25,64,187,28*75
$GPGSV,5,3,17,26,09,312,25,28,13,245,24,29,39,028,40,31,01,267,18*78
$GPGSV,5,4,17,32,16,206,33,36,52,277,,40,85,352,40,41,58,082,37*73
$GPGSV,5,5,17,49,32,274,*42
$GLGSV,3,1,10,68,23,041,32,69,64,090,35,70,29,194,,73,41,263,30*6A
$GLGSV,3,2,10,74,14,305,08,80,34,189,27,82,00,070,,83,08,024,43*68
$GLGSV,3,3,10,84,01,335,10,,,,26*59
$GNGLL,0419.70065,S,05539.87723,E,085131.00,A,D*6A
$GNGRS,085131.00,1,-2.5,-0.9,-1.9,-0.5,0.2,-0.3,-1.2,0.7,-3.5,-1.0,0.5,*74
$GNGRS,085131.00,1,4.7,8.1,2.6,-10.7,12.6,4.2,,,,,,*78
$GNGST,085131.00,55260,,,,1.6,1.7,3.3*72
$GNZDA,085131.00,19,05,2025,00,00*7E
$GNGBS,085131.00,1.6,1.7,3.3,,,,*50
b0XpD
#,"(<(&D V$?;@8)'
U  {4
(U`%:R D )E#@ZFI#)J1P"RFS+T
ObpDxg+$GNRMC,085132.00,A,0419.70065,S,05539.87723,E,0.007,,190525,,,D*7D
$GNVTG,,T,,M,0.007,N,0.013,K,D*3D
$GNGNS,085132.00,0419.70065,S,05539.87723,E,DA,17,0.61,16.8,-47.6,,0000*60
$GNGGA,085132.00,0419.70065,S,05539.87723,E,2,12,0.61,16.8,M,-47.6,M,,0000*49
$GNGSA,A,3,25,23,12,15,29,10,18,24,28,32,26,,1.16,0.61,0.99*16
$GNGSA,A,3,69,80,73,68,74,83,,,,,,,1.16,0.61,0.99*18
$GPGSV,5,1,17,10,44,242,35,12,34,154,26,13,02,060,,15,38,068,40*7B
$GPGSV,5,2,17,18,18,342,32,23,63,315,36,24,16,135,28,25,64,187,30*7E
$GPGSV,5,3,17,26,09,312,26,28,13,245,21,29,39,028,41,31,01,267,17*70
$GPGSV,5,4,17,32,16,206,32,36,52,277,,40,85,352,40,41,58,082,37*72
$GPGSV,5,5,17,49,32,274,*42
$GLGSV,3,1,10,68,23,041,32,69,64,090,35,70,29,194,,73,41,263,35*6F
$GLGSV,3,2,10,74,14,305,11,80,34,189,26,82,00,070,,83,08,024,43*61
$GLGSV,3,3,10,84,01,335,10,,,,27*58
$GNGLL,0419.70065,S,05539.87723,E,085132.00,A,D*69
$GNGRS,085132.00,1,0.0,0.1,0.4,-0.5,0.1,-2.8,-0.3,2.0,-2.7,-0.6,-1.1,*7A
$GNGRS,085132.00,1,4.0,7.8,0.3,-12.7,12.7,4.5,,,,,,*79
$GNGST,085132.00,81436,,,,1.6,1.7,3.3*7D
$GNZDA,085132.00,19,05,2025,00,00*7D
$GNGBS,085132.00,1.6,1.7,3.3,,,,*53
b0XXH
',"<,&D#Vp'?;@8+' "{4
+U`':R D")%E%@ZFI$)9J1zP"RFS,TObXHxO$GNRMC,085133.00,A,0419.70068,S,05539.87729,E,0.076,,190525,,,D*7D
$GNVTG,,T,,M,0.076,N,0.141,K,D*3D
$GNGNS,085133.00,0419.70068,S,05539.87729,E,DA,17,0.61,16.8,-47.6,,0000*66
$GNGGA,085133.00,0419.70068,S,05539.87729,E,2,12,0.61,16.8,M,-47.6,M,,0000*4F
$GNGSA,A,3,25,23,12,15,29,10,18,24,28,32,26,,1.16,0.61,0.99*16
$GNGSA,A,3,69,80,73,68,74,83,,,,,,,1.16,0.61,0.99*18
$GPGSV,5,1,17,10,44,242,39,12,34,154,26,13,02,060,,15,38,068,44*73
$GPGSV,5,2,17,18,18,342,35,23,63,315,39,24,16,135,27,25,64,187,31*78
$GPGSV,5,3,17,26,09,312,26,28,13,245,21,29,39,028,43,31,01,267,19*7C
$GPGSV,5,4,17,32,16,206,34,36,52,277,,40,85,352,43,41,58,082,39*79
$GPGSV,5,5,17,49,32,274,*42
$GLGSV,3,1,10,68,23,041,34,69,64,090,37,70,29,194,,73,41,263,36*68
$GLGSV,3,2,10,74,14,305,13,80,34,189,25,82,00,070,,83,08,024,44*67
$GLGSV,3,3,10,84,01,335,15,,,,31*5A
$GNGLL,0419.70068,S,05539.87729,E,085133.00,A,D*6F
$GNGRS,085133.00,1,1.4,-1.2,-2.4,-0.9,0.0,-3.1,1.1,-3.0,-2.4,2.0,-0.2,*51
$GNGRS,085133.00,1,4.7,6.7,-2.0,-12.4,8.9,4.9,,,,,,*67
$GNGST,085133.00,41,,,,1.6,1.6,3.3*40
$GNZDA,085133.00,19,05,2025,00,00*7C
$GNGBS,085133.00,1.6,1.6,3.3,,,,*53
b0X@L
#,"Y<)&D V$?;@w8)'  {4
(U`$:R D")E%@ZFI$)@J1P"RFS+T
Ob@Lx7$GNRMC,085134.00,A,0419.70069,S,05539.87729,E,0.032,,190525,,,D*7B
$GNVTG,,T,,M,0.032,N,0.059,K,D*35
$GNGNS,085134.00,0419.70069,S,05539.87729,E,DA,17,0.61,16.8,-47.6,,0000*60
$GNGGA,085134.00,0419.70069,S,05539.87729,E,2,12,0.61,16.8,M,-47.6,M,,0000*49
$GNGSA,A,3,25,23,12,15,29,10,18,24,28,32,26,,1.16,0.61,0.99*16
$GNGSA,A,3,69,80,73,68,74,83,,,,,,,1.16,0.61,0.99*18
$GPGSV,5,1,17,10,44,242,35,12,34,154,25,13,02,060,,15,38,068,41*79
$GPGSV,5,2,17,18,18,342,32,23,63,315,36,24,16,135,26,25,64,187,30*70
$GPGSV,5,3,17,26,09,312,26,28,13,245,20,29,39,028,41,31,01,267,21*74
$GPGSV,5,4,17,32,16,206,32,36,52,277,,40,85,352,40,41,58,082,36*73
$GPGSV,5,5,17,49,32,274,*42
$GLGSV,3,1,10,68,23,041,34,69,64,090,37,70,29,194,,73,41,263,36*68
$GLGSV,3,2,10,74,14,305,15,80,34,189,24,82,00,070,,83,08,024,43*67
$GLGSV,3,3,10,84,01,335,10,,,,27*58
$GNGLL,0419.70069,S,05539.87729,E,085134.00,A,D*69
$GNGRS,085134.00,1,-1.4,1.4,3.4,-0.8,0.0,-2.7,1.4,1.7,-3.4,0.0,-0.6,*50
$GNGRS,085134.00,1,1.4,7.7,-1.9,-10.7,12.4,5.3,,,,,,*51
$GNGST,085134.00,40718,,,,1.6,1.6,3.3*78
$GNZDA,085134.00,19,05,2025,00,00*7B
$GNGBS,085134.00,1.6,1.6,3.3,,,,*54
b0X(P
#,j"P<*&D V%?<=@{8*'  {4
)U`%:R D!)E#@ZFI")J1P"!RFS)ETOMFb(Pxc$GNRMC,085135.00,A,0419.70069,S,05539.87729,E,0.007,,190525,,,D*7C
$GNVTG,,T,,M,0.007,N,0.014,K,D*3A
$GNGNS,085135.00,0419.70069,S,05539.87729,E,DA,17,0.61,16.8,-47.6,,0000*61
$GNGGA,085135.00,0419.70069,S,05539.87729,E,2,12,0.61,16.8,M,-47.6,M,,0000*48
$GNGSA,A,3,25,23,12,15,29,10,18,24,28,32,26,,1.16,0.61,0.99*16
$GNGSA,A,3,69,80,73,68,74,83,,,,,,,1.16,0.61,0.99*18
$GPGSV,5,1,17,10,44,242,35,12,34,154,25,13,02,060,,15,38,068,42*7A
$GPGSV,5,2,17,18,18,342,32,23,63,316,37,24,16,135,26,25,64,187,30*72
$GPGSV,5,3,17,26,09,312,25,28,13,245,20,29,39,028,42,31,01,267,22*77
$GPGSV,5,4,17,32,16,206,32,36,52,277,,40,85,352,41,41,58,082,37*73
$GPGSV,5,5,17,49,32,274,*42
$GLGSV,3,1,10,68,23,041,33,69,64,090,35,70,29,194,,73,41,263,34*6F
$GLGSV,3,2,10,74,14,305,15,80,34,189,23,82,00,070,,83,08,024,41*62
$GLGSV,3,3,10,84,01,335,09,,,,26*51
$GNGLL,0419.70069,S,05539.87729,E,085135.00,A,D*68
$GNGRS,085135.00,1,1.2,-0.3,-1.8,-0.9,0.2,-1.5,2.6,5.7,-2.9,-3.0,1.4,*79
$GNGRS,085135.00,1,2.0,8.0,-1.2,-13.7,12.0,5.8,,,,,,*58
$GNGST,085135.00,61077,,,,1.6,1.6,3.3*74
$GNZDA,085135.00,19,05,2025,00,00*7A
$GNGBS,085135.00,1.6,1.6,3.3,,,,*55
b0XT
#,"o<*&D!V%?<@n8*'!  {4
)U`%:R D )aE"@ZAFI!)J1P"jRFS*MT
OQbTxn$GNRMC,085136.00,A,0419.70068,S,05539.87728,E,0.005,,190525,,,D*7D
$GNVTG,,T,,M,0.005,N,0.010,K,D*3C
$GNGNS,085136.00,0419.70068,S,05539.87728,E,DA,17,0.61,16.8,-47.6,,0000*62
$GNGGA,085136.00,0419.70068,S,05539.87728,E,2,12,0.61,16.8,M,-47.6,M,,0000*4B
$GNGSA,A,3,25,23,12,15,29,10,18,24,28,32,26,,1.16,0.61,0.99*16
$GNGSA,A,3,69,80,73,68,74,83,,,,,,,1.16,0.61,0.99*18
$GPGSV,5,1,17,10,44,242,35,12,34,154,25,13,02,060,,15,38,068,42*7A
$GPGSV,5,2,17,18,18,342,33,23,63,316,37,24,16,135,26,25,64,187,30*73
$GPGSV,5,3,17,26,09,312,25,28,13,245,20,29,39,028,42,31,01,267,22*77
$GPGSV,5,4,17,32,16,206,32,36,52,277,,40,85,352,41,41,58,082,37*73
$GPGSV,5,5,17,49,32,274,*42
$GLGSV,3,1,10,68,23,041,32,69,64,090,34,70,29,194,,73,41,263,33*68
$GLGSV,3,2,10,74,14,305,16,80,34,189,23,82,00,070,,83,08,024,42*62
$GLGSV,3,3,10,84,01,335,10,,,,26*59
$GNGLL,0419.70068,S,05539.87728,E,085136.00,A,D*6B
$GNGRS,085136.00,1,1.1,1.3,-6.6,-0.9,0.3,-3.0,4.1,4.7,0.0,-2.8,-0.2,*5F
$GNGRS,085136.00,1,3.2,6.2,1.9,-14.4,7.3,5.9,,,,,,*40
$GNGST,085136.00,39,,,,1.6,1.6,3.3*4A
$GNZDA,085136.00,19,05,2025,00,00*79
$GNGBS,085136.00,1.6,1.6,3.3,,,,*56
b0XW
$,"i<*&D!V%?<@8j$*'d  {4
)U`%:R D )E"@Z_FI!)J1P"RFS*aTObWxD!$GNRMC,085137.00,A,0419.70065,S,05539.87727,E,0.013,,190525,,,D*79
$GNVTG,,T,,M,0.013,N,0.025,K,D*3D
$GNGNS,085137.00,0419.70065,S,05539.87727,E,DA,17,0.61,16.9,-47.6,,0000*60
$GNGGA,085137.00,0419.70065,S,05539.87727,E,2,12,0.61,16.9,M,-47.6,M,,0000*49
$GNGSA,A,3,25,23,12,15,29,10,18,24,28,32,26,,1.16,0.61,0.99*16
$GNGSA,A,3,69,80,73,68,74,83,,,,,,,1.16,0.61,0.99*18
$GPGSV,5,1,17,10,44,242,36,12,34,154,27,13,02,060,,15,38,068,42*7B
$GPGSV,5,2,17,18,18,342,33,23,63,316,37,24,16,135,25,25,64,186,31*70
$GPGSV,5,3,17,26,09,312,25,28,13,245,20,29,39,028,42,31,01,267,22*77
$GPGSV,5,4,17,32,16,206,32,36,52,277,,40,85,352,41,41,58,082,37*73
$GPGSV,5,5,17,49,32,274,*42
$GLGSV,3,1,10,68,23,041,32,69,64,090,34,70,29,194,,73,41,263,33*68
$GLGSV,3,2,10,74,14,305,13,80,34,189,22,82,00,070,,83,08,024,42*66
$GLGSV,3,3,10,84,01,335,09,,,,27*50
$GNGLL,0419.70065,S,05539.87727,E,085137.00,A,D*68
$GNGRS,085137.00,1,1.4,2.1,-1.5,-1.0,0.3,-5.2,2.3,3.9,-2.2,-0.8,1.1,*5F
$GNGRS,085137.00,1,3.5,6.8,-0.4,-15.4,12.6,6.1,,,,,,*56
$GNGST,085137.00,40718,,,,1.6,1.6,3.3*7B
$GNZDA,085137.00,19,05,2025,00,00*78
$GNGBS,085137.00,1.6,1.6,3.3,,,,*57
b0X[
&,"<,&D$VF'?<K!@8,' "{4
,U`(:R D")E#@Z!FI")J1P"MRFS+{TO|b[x$GNRMC,085138.00,A,0419.70065,S,05539.87727,E,0.033,,190525,,,D*74
$GNVTG,,T,,M,0.033,N,0.061,K,D*3F
$GNGNS,085138.00,0419.70065,S,05539.87727,E,DA,17,0.61,16.9,-47.6,,0000*6F
$GNGGA,085138.00,0419.70065,S,05539.87727,E,2,12,0.61,16.9,M,-47.6,M,,0000*46
$GNGSA,A,3,25,23,12,15,29,10,18,24,28,32,26,,1.16,0.61,0.99*16
$GNGSA,A,3,69,80,73,68,74,83,,,,,,,1.16,0.61,0.99*18
$GPGSV,5,1,17,10,44,242,38,12,34,154,26,13,02,060,,15,38,068,44*72
$GPGSV,5,2,17,18,18,342,36,23,63,316,39,24,16,135,26,25,64,186,33*7A
$GPGSV,5,3,17,26,09,312,24,28,13,245,20,29,39,028,44,31,01,267,22*70
$GPGSV,5,4,17,32,16,206,34,36,52,277,,40,85,352,44,41,58,082,40*70
$GPGSV,5,5,17,49,32,274,*42
$GLGSV,3,1,10,68,23,041,34,69,64,090,35,70,29,194,,73,41,263,34*68
$GLGSV,3,2,10,74,14,305,15,80,34,189,21,82,00,070,,83,08,024,43*62
$GLGSV,3,3,10,84,01,335,07,,,,26*5F
$GNGLL,0419.70065,S,05539.87727,E,085138.00,A,D*67
$GNGRS,085138.00,1,4.0,0.8,-3.2,-0.7,0.0,-3.1,0.7,5.0,-3.1,1.4,-0.9,*50
$GNGRS,085138.00,1,0.3,5.9,1.7,-12.9,12.6,6.4,,,,,,*7E
$GNGST,085138.00,61077,,,,1.6,1.6,3.3*79
$GNZDA,085138.00,19,05,2025,00,00*77
$GNGBS,085138.00,1.6,1.6,3.3,,,,*58
b0X_
#,"<*&D!VB%?<C@8\R*' {4
)U`$:R D)E"@ZFI")J1\P"RFS*{TOV_b_x$GNRMC,085139.00,A,0419.70066,S,05539.87726,E,0.037,,190525,,,D*73
$GNVTG,,T,,M,0.037,N,0.068,K,D*32
$GNGNS,085139.00,0419.70066,S,05539.87726,E,DA,17,0.61,16.9,-47.6,,0000*6C
$GNGGA,085139.00,0419.70066,S,05539.87726,E,2,12,0.61,16.9,M,-47.6,M,,0000*45
$GNGSA,A,3,25,23,12,15,29,10,18,24,28,32,26,,1.16,0.61,0.99*16
$GNGSA,A,3,69,80,73,68,74,83,,,,,,,1.16,0.61,0.99*18
$GPGSV,5,1,17,10,44,242,35,12,34,154,27,13,02,060,,15,38,068,42*78
$GPGSV,5,2,17,18,18,342,33,23,63,316,37,24,16,135,25,25,64,186,31*70
$GPGSV,5,3,17,26,09,312,24,28,13,245,20,29,39,028,42,31,01,267,22*76
$GPGSV,5,4,17,32,16,206,31,36,52,277,,40,85,352,41,41,58,082,36*71
$GPGSV,5,5,17,49,32,274,*42
$GLGSV,3,1,10,68,23,041,31,69,64,090,34,70,29,194,,73,41,263,34*6C
$GLGSV,3,2,10,74,14,305,17,80,34,189,21,82,00,070,,83,08,024,42*61
$GLGSV,3,3,10,84,01,335,11,,,,26*58
$GNGLL,0419.70066,S,05539.87726,E,085139.00,A,D*64
$GNGRS,085139.00,1,3.8,0.7,-2.4,-0.8,-0.4,-3.5,-1.9,7.3,-1.7,-0.4,0.9,*52
$GNGRS,085139.00,1,-1.2,4.6,-1.1,-13.9,16.3,6.3,,,,,,*70
$GNGST,085139.00,40,,,,1.6,1.6,3.3*4B
$GNZDA,085139.00,19,05,2025,00,00*76
$GNGBS,085139.00,1.6,1.6,3.3,,,,*59
b0Xc
%,"_<*&D!V%?<G@`8*' {4
)U`':R D )E"@ZMFI")+J1P"
RFS*qTOvbcxY$GNRMC,085140.00,A,0419.70065,S,05539.87725,E,0.013,,190525,,,D*7B
$GNVTG,,T,,M,0.013,N,0.024,K,D*3C
$GNGNS,085140.00,0419.70065,S,05539.87725,E,DA,17,0.61,16.8,-47.6,,0000*63
$GNGGA,085140.00,0419.70065,S,05539.87725,E,2,12,0.61,16.8,M,-47.6,M,,0000*4A
$GNGSA,A,3,25,23,12,15,29,10,18,24,28,32,26,,1.16,0.61,0.99*16
$GNGSA,A,3,69,80,73,68,74,83,,,,,,,1.16,0.61,0.99*18
$GPGSV,5,1,17,10,44,242,37,12,34,154,28,13,02,060,,15,38,068,42*75
$GPGSV,5,2,17,18,18,342,33,23,63,316,37,24,16,135,26,25,64,186,31*73
$GPGSV,5,3,17,26,09,312,24,28,13,244,18,29,39,028,42,31,01,267,21*7F
$GPGSV,5,4,17,32,16,206,31,36,52,277,,40,85,352,41,41,58,082,39*7E
$GPGSV,5,5,17,49,32,274,*42
$GLGSV,3,1,10,68,23,041,32,69,64,090,34,70,29,194,,73,41,263,34*6F
$GLGSV,3,2,10,74,14,305,12,80,34,189,22,82,00,070,,83,08,024,42*67
$GLGSV,3,3,10,84,01,335,11,,,,27*59
$GNGLL,0419.70065,S,05539.87725,E,085140.00,A,D*6A
$GNGRS,085140.00,1,1.0,0.7,-4.2,-0.9,-0.6,-2.8,1.8,7.0,-3.2,-0.4,2.4,*7E
$GNGRS,085140.00,1,-1.8,5.2,0.4,-15.9,12.7,6.2,,,,,,*5F
$GNGST,085140.00,34901,,,,1.6,1.6,3.3*7E
$GNZDA,085140.00,19,05,2025,00,00*78
$GNGBS,085140.00,1.6,1.6,3.3,,,,*57
b0Xg
$,"<)&D!V$?<R @8*(" #{4
)U`%:R D!)E#@ZFI)J1P"RFS*tT
Obgx$GNRMC,085141.00,A,0419.70065,S,05539.87723,E,0.006,,190525,,,D*78
$GNVTG,,T,,M,0.006,N,0.011,K,D*3E
$GNGNS,085141.00,0419.70065,S,05539.87723,E,DA,17,0.61,16.9,-47.6,,0000*65
$GNGGA,085141.00,0419.70065,S,05539.87723,E,2,12,0.61,16.9,M,-47.6,M,,0000*4C
$GNGSA,A,3,25,23,12,15,29,10,18,24,28,32,26,,1.16,0.61,0.99*16
$GNGSA,A,3,69,80,73,68,74,83,,,,,,,1.16,0.61,0.99*18
$GPGSV,5,1,17,10,44,242,36,12,34,154,27,13,02,060,,15,38,068,41*78
$GPGSV,5,2,17,18,18,342,33,23,63,316,36,24,16,135,27,25,64,186,32*70
$GPGSV,5,3,17,26,09,312,25,28,13,244,18,29,40,029,42,31,01,267,18*7B
$GPGSV,5,4,17,32,16,206,35,36,52,277,,40,85,352,41,41,58,082,37*74
$GPGSV,5,5,17,49,32,274,*42
$GLGSV,3,1,10,68,23,041,33,69,64,090,35,70,29,194,,73,41,263,30*6B
$GLGSV,3,2,10,74,14,305,11,80,34,189,22,82,00,070,,83,08,024,42*64
$GLGSV,3,3,10,84,01,335,10,,,,28*57
$GNGLL,0419.70065,S,05539.87723,E,085141.00,A,D*6D
$GNGRS,085141.00,1,2.3,0.8,-5.2,-1.2,-0.7,-2.8,-0.7,4.6,-0.4,-0.9,4.4,*52
$GNGRS,085141.00,1,-0.3,4.9,2.3,-16.1,12.7,6.3,,,,,,*51
$GNGST,085141.00,52351,,,,1.6,1.6,3.3*70
$GNZDA,085141.00,19,05,2025,00,00*79
$GNGBS,085141.00,1.6,1.6,3.3,,,,*56
b0Xk
%,"<)&D"V$?<?@k8b*( !p{4
)U`%:R D!)WE#@ZFI)tJ1wP"fRFS*tTObkxw|)$GNRMC,085142.00,A,0419.70065,S,05539.87722,E,0.022,,190525,,,D*7C
$GNVTG,,T,,M,0.022,N,0.041,K,D*3D
$GNGNS,085142.00,0419.70065,S,05539.87722,E,DA,17,0.61,16.8,-47.6,,0000*66
$GNGGA,085142.00,0419.70065,S,05539.87722,E,2,12,0.61,16.8,M,-47.6,M,,0000*4F
$GNGSA,A,3,25,23,12,15,29,10,18,24,28,32,26,,1.16,0.61,0.99*16
$GNGSA,A,3,69,80,73,68,74,83,,,,,,,1.16,0.61,0.99*18
$GPGSV,5,1,17,10,44,242,37,12,34,154,28,13,02,060,,15,38,068,41*76
$GPGSV,5,2,17,18,18,342,34,23,63,316,36,24,16,135,28,25,64,186,31*7B
$GPGSV,5,3,17,26,09,312,26,28,13,244,16,29,40,029,42,31,01,267,16*78
$GPGSV,5,4,17,32,16,206,33,36,52,277,,40,85,352,41,41,58,082,37*72
$GPGSV,5,5,17,49,32,274,*42
$GLGSV,3,1,10,68,23,041,33,69,64,090,35,70,29,194,,73,41,263,31*6A
$GLGSV,3,2,10,74,14,305,09,80,34,189,22,82,00,070,,83,08,024,42*6D
$GLGSV,3,3,10,84,01,335,14,,,,28*53
$GNGLL,0419.70065,S,05539.87722,E,085142.00,A,D*6F
$GNGRS,085142.00,1,1.1,0.6,-3.4,-1.2,-0.8,-2.6,2.0,4.5,-0.6,1.1,6.1,*55
$GNGRS,085142.00,1,-0.7,6.1,-1.4,-17.1,14.0,6.3,,,,,,*75
$GNGST,085142.00,44,,,,1.6,1.6,3.3*43
$GNZDA,085142.00,19,05,2025,00,00*7A
$GNGBS,085142.00,1.6,1.6,3.3,,,,*55
b0Xho
%,"<)&D!V%?<,!@p8
*(
l "S{4
)U`&:R D!)E#@ZFI)J1P"RFS*TOfbhox_T$GNRMC,085143.00,A,0419.70066,S,05539.87720,E,0.018,,190525,,,D*75
$GNVTG,,T,,M,0.018,N,0.033,K,D*31
$GNGNS,085143.00,0419.70066,S,05539.87720,E,DA,17,0.61,16.8,-47.6,,0000*66
$GNGGA,085143.00,0419.70066,S,05539.87720,E,2,12,0.61,16.8,M,-47.6,M,,0000*4F
$GNGSA,A,3,25,23,12,15,29,10,18,24,28,32,26,,1.16,0.61,0.99*16
$GNGSA,A,3,69,80,73,68,74,83,,,,,,,1.16,0.61,0.99*18
$GPGSV,5,1,17,10,44,242,37,12,34,154,27,13,02,060,,15,38,068,41*79
$GPGSV,5,2,17,18,18,342,33,23,63,316,37,24,16,135,28,25,64,186,31*7D
$GPGSV,5,3,17,26,09,312,26,28,13,244,18,29,40,029,42,31,01,266,13*72
$GPGSV,5,4,17,32,16,206,34,36,52,277,,40,85,352,41,41,58,082,38*7A
$GPGSV,5,5,17,49,32,274,*42
$GLGSV,3,1,10,68,23,041,33,69,64,090,35,70,29,194,,73,41,263,31*6A
$GLGSV,3,2,10,74,14,305,08,80,34,189,23,82,00,070,,83,08,024,42*6D
$GLGSV,3,3,10,84,01,335,12,,,,28*55
$GNGLL,0419.70066,S,05539.87720,E,085143.00,A,D*6F
$GNGRS,085143.00,1,6.2,0.4,-2.5,-1.2,-0.9,-2.4,1.7,2.9,0.1,0.8,7.8,*75
$GNGRS,085143.00,1,-0.3,3.9,-1.2,-15.4,12.6,6.5,,,,,,*7A
$GNGST,085143.00,11634,,,,1.6,1.6,3.3*73
$GNZDA,085143.00,19,05,2025,00,00*7B
$GNGBS,085143.00,1.6,1.6,3.3,,,,*54
b0XPs
$,%"A<*&D!V%?<@ @8+(
 "E{4
)U`%:R D )5E#@ZFI)!J1P"RFS*TOx9bPsxG,$GNRMC,085144.00,A,0419.70065,S,05539.87718,E,0.018,,190525,,,D*7A
$GNVTG,,T,,M,0.018,N,0.033,K,D*31
$GNGNS,085144.00,0419.70065,S,05539.87718,E,DA,17,0.61,16.8,-47.6,,0000*69
$GNGGA,085144.00,0419.70065,S,05539.87718,E,2,12,0.61,16.8,M,-47.6,M,,0000*40
$GNGSA,A,3,25,23,12,15,29,10,18,24,28,32,26,,1.16,0.61,0.99*16
$GNGSA,A,3,69,80,73,68,74,83,,,,,,,1.16,0.61,0.99*18
$GPGSV,5,1,17,10,44,242,36,12,34,154,27,13,02,060,,15,38,068,42*7B
$GPGSV,5,2,17,18,18,342,33,23,63,316,37,24,16,135,28,25,64,186,32*7E
$GPGSV,5,3,17,26,09,312,26,28,13,244,18,29,40,029,43,31,01,266,14*74
$GPGSV,5,4,17,32,16,206,34,36,52,277,,40,85,352,41,41,58,082,37*75
$GPGSV,5,5,17,49,32,274,*42
$GLGSV,3,1,10,68,23,041,32,69,64,090,35,70,29,194,,73,41,263,31*6B
$GLGSV,3,2,10,74,14,305,09,80,34,189,22,82,00,070,,83,08,024,42*6D
$GLGSV,3,3,10,84,01,335,11,,,,28*56
$GNGLL,0419.70065,S,05539.87718,E,085144.00,A,D*60
$GNGRS,085144.00,1,1.4,0.6,-1.9,-1.2,-0.9,-2.2,2.8,1.3,1.6,0.7,9.0,*72
$GNGRS,085144.00,1,0.1,2.8,-2.2,-14.8,12.4,6.4,,,,,,*5F
$GNGST,085144.00,17451,,,,1.6,1.6,3.3*73
$GNZDA,085144.00,19,05,2025,00,00*7C
$GNGBS,085144.00,1.6,1.6,3.3,,,,*53
b0X8w
&,E"h<+&D"VL&?< @82,(
 "_{4
*U`':R D#)E$@ZiFI )J1B(P"RFS,TO?Yb8wx/a$GNRMC,085145.00,A,0419.70062,S,05539.87717,E,0.011,,190525,,,D*7A
$GNVTG,,T,,M,0.011,N,0.021,K,D*3B
$GNGNS,085145.00,0419.70062,S,05539.87717,E,DA,17,0.63,16.9,-47.6,,0000*63
$GNGGA,085145.00,0419.70062,S,05539.87717,E,2,12,0.63,16.9,M,-47.6,M,,0000*4A
$GNGSA,A,3,25,23,12,15,29,10,18,24,28,32,26,,1.18,0.63,1.00*1B
$GNGSA,A,3,69,80,73,68,74,83,,,,,,,1.18,0.63,1.00*15
$GPGSV,5,1,17,10,44,242,38,12,34,154,27,13,02,060,,15,38,068,43*74
$GPGSV,5,2,17,18,18,342,34,23,63,316,38,24,16,135,28,25,64,186,32*76
$GPGSV,5,3,17,26,09,312,26,28,13,244,19,29,40,029,44,31,01,266,15*73
$GPGSV,5,4,17,32,16,206,34,36,52,277,,40,85,352,42,41,58,082,39*78
$GPGSV,5,5,17,49,32,274,*42
$GLGSV,3,1,10,68,23,041,35,69,64,090,36,70,29,194,,73,41,263,32*6C
$GLGSV,3,2,10,74,14,305,09,80,34,189,22,82,00,070,,83,08,024,44*6B
$GLGSV,3,3,10,84,01,335,13,,,,28*54
$GNGLL,0419.70062,S,05539.87717,E,085145.00,A,D*69
$GNGRS,085145.00,1,-0.7,4.4,-1.5,-0.9,-1.0,-4.4,-1.8,0.2,1.5,1.0,10.7,*40
$GNGRS,085145.00,1,1.0,1.3,-5.9,-7.8,103,6.8,,,,,,*4F
$GNGST,085145.00,31,,,,1.6,1.6,3.3*46
$GNZDA,085145.00,19,05,2025,00,00*7D
$GNGBS,085145.00,1.6,1.6,3.3,,,,*52
b0X {
$,i"<*&D"Vi%?< @8+(
v "{4
)U`%:R D")E$@ZFI")HJ1P"8RFS,TOMfb {x$GNRMC,085146.00,A,0419.70062,S,05539.87714,E,0.023,,190525,,,D*7B
$GNVTG,,T,,M,0.023,N,0.042,K,D*3F
$GNGNS,085146.00,0419.70062,S,05539.87714,E,DA,17,0.61,16.9,-47.6,,0000*61
$GNGGA,085146.00,0419.70062,S,05539.87714,E,2,12,0.61,16.9,M,-47.6,M,,0000*48
$GNGSA,A,3,25,23,12,15,29,10,18,24,28,32,26,,1.16,0.61,0.99*16
$GNGSA,A,3,69,80,73,68,74,83,,,,,,,1.16,0.61,0.99*18
$GPGSV,5,1,17,10,44,242,36,12,34,154,27,13,02,060,,15,38,068,42*7B
$GPGSV,5,2,17,18,18,342,34,23,63,316,37,24,16,135,28,25,64,186,32*79
$GPGSV,5,3,17,26,09,312,27,28,13,244,19,29,40,029,43,31,01,266,16*76
$GPGSV,5,4,17,32,16,206,34,36,52,277,,40,85,352,41,41,58,082,37*75
$GPGSV,5,5,17,49,32,274,*42
$GLGSV,3,1,10,68,23,041,34,69,64,090,36,70,29,194,,73,41,263,34*6B
$GLGSV,3,2,10,74,14,305,11,80,34,189,22,82,00,070,,83,08,024,44*62
$GLGSV,3,3,10,84,01,335,13,,,,28*54
$GNGLL,0419.70062,S,05539.87714,E,085146.00,A,D*69
$GNGRS,085146.00,1,1.7,2.5,-1.3,-1.0,-1.1,1.0,1.0,2.4,-0.7,2.2,13.0,*41
$GNGRS,085146.00,1,3.9,0.6,0.7,-5.1,12.3,6.8,,,,,,*42
$GNGST,085146.00,174505,,,,1.6,1.6,3.2*44
$GNZDA,085146.00,19,05,2025,00,00*7E
$GNGBS,085146.00,1.6,1.6,3.2,,,,*50
b0X
$,"<)&D"V%?< @8+(
 !{4
)U`%:R D )iE#@ZFI)CJ1P"RFS*TObx.$GNRMC,085147.00,A,0419.70061,S,05539.87712,E,0.021,,190525,,,D*7D
$GNVTG,,T,,M,0.021,N,0.038,K,D*30
$GNGNS,085147.00,0419.70061,S,05539.87712,E,DA,16,0.63,16.9,-47.6,,0000*66
$GNGGA,085147.00,0419.70061,S,05539.87712,E,2,12,0.63,16.9,M,-47.6,M,,0000*4E
$GNGSA,A,3,25,23,12,15,29,10,18,24,28,32,26,,1.18,0.63,1.00*1B
$GNGSA,A,3,69,80,73,68,83,,,,,,,,1.18,0.63,1.00*16
$GPGSV,5,1,17,10,44,242,36,12,34,154,27,13,02,060,,15,38,068,41*78
$GPGSV,5,2,17,18,18,342,34,23,63,316,37,24,16,135,29,25,64,186,32*78
$GPGSV,5,3,17,26,09,312,27,28,13,244,18,29,40,029,43,31,01,266,16*77
$GPGSV,5,4,17,32,16,206,33,36,52,277,,40,85,352,41,41,58,082,37*72
$GPGSV,5,5,17,49,32,274,*42
$GLGSV,3,1,10,68,23,041,32,69,64,090,35,70,29,194,,73,41,263,30*6A
$GLGSV,3,2,10,74,14,305,06,80,34,189,21,82,00,070,,83,08,024,42*61
$GLGSV,3,3,10,84,01,335,12,,,,27*5A
$GNGLL,0419.70061,S,05539.87712,E,085147.00,A,D*6D
$GNGRS,085147.00,1,-0.8,2.6,-0.9,-0.5,-1.2,-0.8,0.3,1.3,-2.4,1.6,12.3,*4A
$GNGRS,085147.00,1,4.4,0.3,-1.9,-9.2,6.9,,,,,,,*7E
$GNGST,085147.00,31,,,,1.6,1.6,3.2*45
$GNZDA,085147.00,19,05,2025,00,00*7F
$GNGBS,085147.00,1.6,1.6,3.2,,,,*51
b0X
&,"<+&D"V'?<C] @8@,(y
 !${4
+U`':R D#)E%@ZFI),J1P"
RFS+TOGA<bx$GNRMC,085148.00,A,0419.70060,S,05539.87710,E,0.024,,190525,,,D*74
$GNVTG,,T,,M,0.024,N,0.044,K,D*3E
$GNGNS,085148.00,0419.70060,S,05539.87710,E,DA,17,0.63,16.9,-47.6,,0000*6B
$GNGGA,085148.00,0419.70060,S,05539.87710,E,2,12,0.63,16.9,M,-47.6,M,,0000*42
$GNGSA,A,3,25,23,12,15,29,10,18,24,28,32,26,,1.18,0.63,1.00*1B
$GNGSA,A,3,69,80,73,68,74,83,,,,,,,1.18,0.63,1.00*15
$GPGSV,5,1,17,10,44,242,38,12,34,154,27,13,02,060,,15,38,068,43*74
$GPGSV,5,2,17,18,18,342,34,23,63,316,39,24,16,135,29,25,64,186,32*76
$GPGSV,5,3,17,26,09,312,26,28,13,244,19,29,40,029,44,31,01,266,16*70
$GPGSV,5,4,17,32,16,206,33,36,52,277,,40,85,352,43,41,58,082,39*7E
$GPGSV,5,5,17,49,32,274,*42
$GLGSV,3,1,10,68,23,041,35,69,64,090,37,70,29,194,,73,41,263,31*6E
$GLGSV,3,2,10,74,14,305,08,80,34,189,22,82,00,070,,83,08,024,43*6D
$GLGSV,3,3,10,84,01,335,09,,,,29*5E
$GNGLL,0419.70060,S,05539.87710,E,085148.00,A,D*61
$GNGRS,085148.00,1,1.5,0.7,0.1,-0.4,-1.3,-0.8,2.5,-1.6,-3.3,2.9,16.0,*63
$GNGRS,085148.00,1,2.0,0.1,-4.7,-10.1,-66.7,6.8,,,,,,*74
$GNGST,085148.00,30,,,,1.6,1.6,3.2*4B
$GNZDA,085148.00,19,05,2025,00,00*70
$GNGBS,085148.00,1.6,1.6,3.2,,,,*5E
b0X
%,"w<+&D"VQ'?<) @8T,(
 "{4
*U`&:R D )E#@ZFI)J1P"uRFS*TObxb$GNRMC,085149.00,A,0419.70059,S,05539.87709,E,0.021,,190525,,,D*72
$GNVTG,,T,,M,0.021,N,0.039,K,D*31
$GNGNS,085149.00,0419.70059,S,05539.87709,E,DA,17,0.61,16.8,-47.6,,0000*6B
$GNGGA,085149.00,0419.70059,S,05539.87709,E,2,12,0.61,16.8,M,-47.6,M,,0000*42
$GNGSA,A,3,25,23,12,15,29,10,18,24,28,32,26,,1.16,0.61,0.99*16
$GNGSA,A,3,69,80,73,68,74,83,,,,,,,1.16,0.61,0.99*18
$GPGSV,5,1,17,10,44,242,37,12,34,154,29,13,02,060,,15,38,068,43*75
$GPGSV,5,2,17,18,18,342,34,23,63,316,39,24,16,135,29,25,64,186,32*76
$GPGSV,5,3,17,26,09,312,27,28,13,244,20,29,40,029,44,31,01,266,19*74
$GPGSV,5,4,17,32,16,206,34,36,52,277,,40,85,352,42,41,58,082,38*79
$GPGSV,5,5,17,49,32,274,*42
$GLGSV,3,1,10,68,23,041,32,69,64,090,35,70,29,194,,73,41,263,31*6B
$GLGSV,3,2,10,74,14,305,08,80,34,189,22,82,00,070,,83,08,024,42*6C
$GLGSV,3,3,10,84,01,335,15,,,,28*52
$GNGLL,0419.70059,S,05539.87709,E,085149.00,A,D*62
$GNGRS,085149.00,1,-0.6,-0.6,-1.4,-0.1,-1.3,-0.2,3.4,-7.3,-3.7,-0.1,16.2,*65
$GNGRS,085149.00,1,2.6,1.2,-3.4,-11.2,12.5,6.7,,,,,,*54
$GNGST,085149.00,52351,,,,1.6,1.6,3.2*79
$GNZDA,085149.00,19,05,2025,00,00*71
$GNGBS,085149.00,1.6,1.6,3.2,,,,*5F
b0X
$,"s<)&D!V%?<<@8*(
 {4
(U`%:R D )=E#@ZIFI)J1P"RFS*{TO{bx:W$GNRMC,085150.00,A,0419.70057,S,05539.87706,E,0.002,,190525,,,D*7A
$GNVTG,,T,,M,0.002,N,0.003,K,D*39
$GNGNS,085150.00,0419.70057,S,05539.87706,E,DA,17,0.61,16.9,-47.6,,0000*63
$GNGGA,085150.00,0419.70057,S,05539.87706,E,2,12,0.61,16.9,M,-47.6,M,,0000*4A
$GNGSA,A,3,25,23,12,15,29,10,18,24,28,32,26,,1.16,0.61,0.99*16
$GNGSA,A,3,69,80,73,68,74,83,,,,,,,1.16,0.61,0.99*18
$GPGSV,5,1,17,10,44,242,36,12,34,154,29,13,02,060,,15,38,068,41*76
$GPGSV,5,2,17,18,18,342,33,23,63,316,37,24,16,135,28,25,64,186,31*7D
$GPGSV,5,3,17,26,09,312,26,28,13,244,20,29,40,029,42,31,01,266,20*79
$GPGSV,5,4,17,32,16,206,31,36,52,277,,40,85,352,40,41,58,082,37*71
$GPGSV,5,5,17,49,32,274,*42
