b0XH9
%+$=
%'GTA8xB9&7  {4
 U`:R D+#E@aFI%)^J3}P$RDSTM3bH9x?v$GNRMC,084707.00,A,0419.69019,S,05539.87873,E,0.087,,190525,,,A*78
$GNVTG,,T,,M,0.087,N,0.161,K,A*34
$GNGNS,084707.00,0419.69019,S,05539.87873,E,AA,16,0.67,14.4,-47.6,,*64
$GNGGA,084707.00,0419.69019,S,05539.87873,E,1,12,0.67,14.4,M,-47.6,M,,*4A
$GNGSA,A,3,25,23,12,15,10,18,24,28,32,26,,,1.19,0.67,0.99*14
$GNGSA,A,3,69,80,73,68,74,83,,,,,,,1.19,0.67,0.99*11
$GPGSV,5,1,17,10,43,239,37,12,36,154,22,13,03,061,24,15,39,071,37*7B
$GPGSV,5,2,17,18,19,340,22,23,65,312,27,24,16,137,26,25,66,188,30*7C
$GPGSV,5,3,17,26,08,313,30,28,12,247,30,29,38,026,22,31,01,268,32*76
$GPGSV,5,4,17,32,14,207,26,36,52,277,31,40,85,352,32,41,58,082,*77
$GPGSV,5,5,17,49,32,274,*42
$GLGSV,3,1,10,68,25,043,24,69,64,097,28,70,27,194,22,73,41,267,37*6F
$GLGSV,3,2,10,74,13,307,26,80,36,191,21,82,00,068,,83,07,022,17*6D
$GLGSV,3,3,10,84,01,333,20,,,,23*59
$GNGLL,0419.69019,S,05539.87873,E,084707.00,A,A*64
$GNGRS,084707.00,1,0.0,2.6,2.6,-0.3,-0.5,-3.3,-1.4,0.1,-0.6,-3.6,,*5D
$GNGRS,084707.00,1,2.3,2.6,-1.6,-20.1,6.4,-5.2,,,,,,*45
$GNGST,084707.00,41,,,,1.8,1.3,3.3*4B
$GNZDA,084707.00,19,05,2025,00,00*7C
$GNGBS,084707.00,1.8,1.3,3.3,,,,*58
b0X0=
)+$=Z*'GTP#A8C ("B"9^$&%  C{&4
(U`:R D+PE"@alFI))FJ3;P$RDSTM7;b0=x'zvW$GNRMC,084708.00,A,0419.69019,S,05539.87872,E,0.025,,190525,,,A*7E
$GNVTG,,T,,M,0.025,N,0.047,K,A*39
$GNGNS,084708.00,0419.69019,S,05539.87872,E,AA,15,0.66,14.5,-47.6,,*69
$GNGGA,084708.00,0419.69019,S,05539.87872,E,1,12,0.66,14.5,M,-47.6,M,,*44
$GNGSA,A,3,25,23,15,10,18,24,28,32,26,,,,1.19,0.66,0.99*16
$GNGSA,A,3,69,80,73,68,74,83,,,,,,,1.19,0.66,0.99*10
$GPGSV,5,1,17,10,43,239,41,12,36,154,,13,03,061,26,15,39,071,42*7A
$GPGSV,5,2,17,18,19,340,20,23,65,312,35,24,16,137,32,25,66,188,34*7C
$GPGSV,5,3,17,26,08,313,34,28,12,247,36,29,38,026,22,31,01,268,37*71
$GPGSV,5,4,17,32,14,207,32,36,52,277,38,40,85,352,40,41,58,082,*7E
$GPGSV,5,5,17,49,32,274,*42
$GLGSV,3,1,10,68,25,043,24,69,64,097,34,70,27,194,20,73,41,267,41*61
$GLGSV,3,2,10,74,13,307,27,80,36,191,19,82,00,068,,83,07,022,17*67
$GLGSV,3,3,10,84,01,333,17,,,,23*5D
$GNGLL,0419.69019,S,05539.87872,E,084708.00,A,A*6A
$GNGRS,084708.00,1,0.2,0.7,-0.8,-0.5,-4.3,-2.2,-0.9,0.7,-1.6,,,*7B
$GNGRS,084708.00,1,1.1,4.7,-1.9,-19.7,5.7,-5.2,,,,,,*4F
$GNGST,084708.00,41,,,,1.8,1.3,3.3*44
$GNZDA,084708.00,19,05,2025,00,00*73
$GNGBS,084708.00,1.8,1.3,3.3,,,,*57
b0XA
*+$=*'GT~$A8!%B!9X$&&  {'4
(U`:R 7D+nE%@a*FI,)2J3P$YRDSTM%bAx~N$GNRMC,084709.00,A,0419.69018,S,05539.87872,E,0.084,,190525,,,A*75
$GNVTG,,T,,M,0.084,N,0.156,K,A*33
$GNGNS,084709.00,0419.69018,S,05539.87872,E,AA,15,0.66,14.4,-47.6,,*68
$GNGGA,084709.00,0419.69018,S,05539.87872,E,1,12,0.66,14.4,M,-47.6,M,,*45
$GNGSA,A,3,25,23,15,29,10,24,28,32,26,,,,1.18,0.66,0.98*14
$GNGSA,A,3,69,80,73,68,74,83,,,,,,,1.18,0.66,0.98*10
$GPGSV,5,1,17,10,43,239,42,12,36,154,,13,03,061,31,15,39,071,42*7F
$GPGSV,5,2,17,18,19,340,22,23,65,312,36,24,16,137,33,25,66,188,37*7F
$GPGSV,5,3,17,26,08,313,33,28,12,247,36,29,38,026,30,31,01,268,38*7A
$GPGSV,5,4,17,32,14,207,32,36,52,277,39,40,85,352,40,41,58,082,*7F
$GPGSV,5,5,17,49,32,274,*42
$GLGSV,3,1,10,68,25,043,31,69,64,097,37,70,27,194,21,73,41,267,44*62
$GLGSV,3,2,10,74,13,307,31,80,36,191,23,82,00,068,,83,07,022,20*6D
$GLGSV,3,3,10,84,01,333,19,,,,26*56
$GNGLL,0419.69018,S,05539.87872,E,084709.00,A,A*6A
$GNGRS,084709.00,1,-2.5,0.0,1.5,6.6,-0.3,-1.1,2.9,2.5,3.4,,,*5A
$GNGRS,084709.00,1,3.0,3.4,-2.1,-16.8,9.2,2.4,,,,,,*67
$GNGST,084709.00,29,,,,1.8,1.3,3.3*4B
$GNZDA,084709.00,19,05,2025,00,00*72
$GNGBS,084709.00,1.8,1.3,3.3,,,,*56
b0XE
++$=)'GTB$A8:"%Bh%9%i &&  {'4
)U`:R D+E'@a`FI,)1J3P$mRDSTMbEx%$$GNRMC,084710.00,A,0419.69015,S,05539.87873,E,0.035,,190525,,,A*7B
$GNVTG,,T,,M,0.035,N,0.065,K,A*38
$GNGNS,084710.00,0419.69015,S,05539.87873,E,AA,15,0.66,14.5,-47.6,,*6D
$GNGGA,084710.00,0419.69015,S,05539.87873,E,1,12,0.66,14.5,M,-47.6,M,,*40
$GNGSA,A,3,25,23,15,29,10,24,28,32,26,,,,1.18,0.66,0.98*14
$GNGSA,A,3,69,80,73,68,74,83,,,,,,,1.18,0.66,0.98*10
$GPGSV,5,1,17,10,43,239,43,12,36,154,,13,03,061,30,15,39,071,41*7C
$GPGSV,5,2,17,18,19,340,29,23,65,312,36,24,16,137,34,25,66,188,37*73
$GPGSV,5,3,17,26,08,313,37,28,12,247,37,29,38,026,32,31,01,268,38*7D
$GPGSV,5,4,17,32,14,207,32,36,52,277,39,40,85,352,41,41,58,082,*7E
$GPGSV,5,5,17,49,32,274,*42
$GLGSV,3,1,10,68,25,043,25,69,64,097,39,70,27,194,23,73,41,267,44*6B
$GLGSV,3,2,10,74,13,307,31,80,36,191,24,82,00,068,,83,07,022,21*6B
$GLGSV,3,3,10,84,01,333,19,,,,26*56
$GNGLL,0419.69015,S,05539.87873,E,084710.00,A,A*6E
$GNGRS,084710.00,1,-1.5,3.1,0.1,2.1,-0.1,-0.2,1.0,-0.2,0.0,,,*70
$GNGRS,084710.00,1,3.5,1.1,-2.1,-16.0,4.1,-1.1,,,,,,*40
$GNGST,084710.00,28,,,,1.8,1.3,3.3*42
$GNZDA,084710.00,19,05,2025,00,00*7A
$GNGBS,084710.00,1.8,1.3,3.3,,,,*5E
b0XH
,+$L=M)'G T3'A8_%'B)9%&'& {(4
)U`:R D*.E&@aFI,)J#3 P$RDS"3TMvbHx}$GNRMC,084711.00,A,0419.69013,S,05539.87872,E,0.057,,190525,,,A*79
$GNVTG,,T,,M,0.057,N,0.106,K,A*38
$GNGNS,084711.00,0419.69013,S,05539.87872,E,AA,15,0.66,14.5,-47.6,,*6B
$GNGGA,084711.00,0419.69013,S,05539.87872,E,1,12,0.66,14.5,M,-47.6,M,,*46
$GNGSA,A,3,25,23,15,29,10,24,28,32,26,,,,1.18,0.66,0.98*14
$GNGSA,A,3,69,80,73,68,74,83,,,,,,,1.18,0.66,0.98*10
$GPGSV,5,1,17,10,43,239,44,12,36,154,28,13,03,061,30,15,39,071,41*71
$GPGSV,5,2,17,18,19,340,32,23,65,312,39,24,16,137,37,25,66,188,39*7B
$GPGSV,5,3,17,26,08,313,41,28,12,247,37,29,38,026,31,31,01,268,38*7F
$GPGSV,5,4,17,32,14,207,30,36,52,277,40,40,85,352,41,41,58,082,*72
$GPGSV,5,5,17,49,32,274,*42
$GLGSV,3,1,10,68,25,042,24,69,64,097,38,70,27,194,22,73,41,267,44*6B
$GLGSV,3,2,10,74,13,307,35,80,36,191,25,82,00,068,,83,07,022,34*6A
$GLGSV,3,3,10,84,01,333,20,,,,26*5C
$GNGLL,0419.69013,S,05539.87872,E,084711.00,A,A*68
$GNGRS,084711.00,1,-1.1,0.9,-2.2,0.4,-0.1,-0.3,0.2,1.6,-0.3,,,*51
$GNGRS,084711.00,1,1.6,2.3,-2.3,-14.9,2.9,0.5,,,,,,*6E
$GNGST,084711.00,22,,,,1.8,1.3,3.2*48
$GNZDA,084711.00,19,05,2025,00,00*7B
$GNGBS,084711.00,1.8,1.3,3.2,,,,*5E
b0XL
,+$=u&'GT!A8i%($B&9%"&#> {&4
'U`:R D*E&@`FI,)J$3P$.RDSTMpWbLx$GNRMC,084712.00,A,0419.69010,S,05539.87871,E,0.035,,190525,,,A*7E
$GNVTG,,T,,M,0.035,N,0.066,K,A*3B
$GNGNS,084712.00,0419.69010,S,05539.87871,E,AA,15,0.66,14.5,-47.6,,*68
$GNGGA,084712.00,0419.69010,S,05539.87871,E,1,12,0.66,14.5,M,-47.6,M,,*45
$GNGSA,A,3,25,23,15,29,10,24,28,32,26,,,,1.18,0.66,0.98*14
$GNGSA,A,3,69,80,73,68,74,83,,,,,,,1.18,0.66,0.98*10
$GPGSV,5,1,17,10,43,239,44,12,36,154,26,13,03,061,29,15,39,071,38*79
$GPGSV,5,2,17,18,19,340,26,23,65,312,33,24,16,137,37,25,66,188,36*7B
$GPGSV,5,3,17,26,08,313,38,28,12,247,37,29,38,026,34,31,01,268,35*79
$GPGSV,5,4,17,32,14,207,29,36,52,277,38,40,85,352,39,41,58,082,29*71
$GPGSV,5,5,17,49,32,274,*42
$GLGSV,3,1,10,68,25,042,25,69,64,096,38,70,27,194,21,73,41,267,44*68
$GLGSV,3,2,10,74,13,307,36,80,36,191,25,82,00,068,,83,07,022,29*65
$GLGSV,3,3,10,84,01,333,22,,,,27*5F
$GNGLL,0419.69010,S,05539.87871,E,084712.00,A,A*6B
$GNGRS,084712.00,1,-2.6,3.6,-0.8,-0.2,-0.1,-2.2,-0.2,2.9,1.3,,,*77
$GNGRS,084712.00,1,1.3,0.5,-2.4,-12.8,4.1,10.0,,,,,,*56
$GNGST,084712.00,22,,,,1.8,1.3,3.2*4B
$GNZDA,084712.00,19,05,2025,00,00*78
$GNGBS,084712.00,1.8,1.3,3.2,,,,*5D
b0XP
++$=%'GT$A8C%f'B&9%"&='% {(4
+U`&:R D*E&@`/FI,)J!3P$RDSTM-$bPxM$GNRMC,084713.00,A,0419.69006,S,05539.87874,E,0.120,,190525,,,A*78
$GNVTG,,T,,M,0.120,N,0.222,K,A*3C
$GNGNS,084713.00,0419.69006,S,05539.87874,E,AA,17,0.63,14.3,-47.6,,*6A
$GNGGA,084713.00,0419.69006,S,05539.87874,E,1,12,0.63,14.3,M,-47.6,M,,*45
$GNGSA,A,3,25,23,12,15,29,10,18,24,28,32,26,,1.16,0.63,0.98*15
$GNGSA,A,3,69,80,73,68,74,83,,,,,,,1.16,0.63,0.98*1B
$GPGSV,5,1,17,10,43,239,43,12,36,154,30,13,03,061,28,15,39,071,37*77
$GPGSV,5,2,17,18,19,340,26,23,65,312,36,24,16,137,37,25,66,188,39*71
$GPGSV,5,3,17,26,08,313,38,28,12,247,37,29,38,026,34,31,01,268,39*75
$GPGSV,5,4,17,32,14,207,28,36,52,277,40,40,85,352,43,41,58,082,38*72
$GPGSV,5,5,17,49,32,274,*42
$GLGSV,3,1,10,68,25,042,23,69,64,096,38,70,27,194,20,73,41,267,44*6F
$GLGSV,3,2,10,74,13,307,33,80,36,191,26,82,00,068,,83,07,022,28*62
$GLGSV,3,3,10,84,01,333,22,,,,25*5D
$GNGLL,0419.69006,S,05539.87874,E,084713.00,A,A*68
$GNGRS,084713.00,1,-2.8,3.2,-5.4,-0.8,3.2,0.1,22.6,1.0,0.3,4.1,-2.3,*45
$GNGRS,084713.00,1,0.5,-0.3,-2.3,-8.1,1.5,14.3,,,,,,*48
$GNGST,084713.00,25,,,,1.8,1.3,3.1*4E
$GNZDA,084713.00,19,05,2025,00,00*79
$GNGBS,084713.00,1.8,1.3,3.1,,,,*5F
b0XT
&+$=%'GkTA8"B 93#&' {"4
&U`$:R ^D*"E!@`FI&)1J3P$RDSTMbTx$GNRMC,084714.00,A,0419.69008,S,05539.87877,E,0.116,,190525,,,A*77
$GNVTG,,T,,M,0.116,N,0.215,K,A*3D
$GNGNS,084714.00,0419.69008,S,05539.87877,E,AA,17,0.63,14.3,-47.6,,*60
$GNGGA,084714.00,0419.69008,S,05539.87877,E,1,12,0.63,14.3,M,-47.6,M,,*4F
$GNGSA,A,3,25,23,12,15,29,10,18,24,28,32,26,,1.16,0.63,0.98*15
$GNGSA,A,3,69,80,73,68,74,83,,,,,,,1.16,0.63,0.98*1B
$GPGSV,5,1,17,10,43,239,38,12,36,154,25,13,03,061,28,15,39,071,37*7F
$GPGSV,5,2,17,18,19,340,24,23,65,312,31,24,16,137,34,25,66,188,29*76
$GPGSV,5,3,17,26,08,313,32,28,12,247,35,29,38,026,31,31,01,268,39*78
$GPGSV,5,4,17,32,14,207,28,36,52,277,34,40,85,352,38,41,58,082,36*73
$GPGSV,5,5,17,49,32,274,*42
$GLGSV,3,1,10,68,25,042,23,69,64,096,33,70,27,194,18,73,41,267,38*64
$GLGSV,3,2,10,74,13,307,29,80,36,191,25,82,00,068,,83,07,022,29*6B
$GLGSV,3,3,10,84,01,333,22,,,,25*5D
$GNGLL,0419.69008,S,05539.87877,E,084714.00,A,A*62
$GNGRS,084714.00,1,-0.4,1.7,6.7,-1.5,1.9,0.2,23.0,0.2,-1.0,1.3,0.5,*65
$GNGRS,084714.00,1,2.2,-0.5,-2.1,-4.8,-0.3,9.8,,,,,,*56
$GNGST,084714.00,27,,,,1.8,1.3,3.1*4B
$GNZDA,084714.00,19,05,2025,00,00*7E
$GNGBS,084714.00,1.8,1.3,3.1,,,,*58
b0XX
#+$=-%'GT?A8WBh!9Q!,&& |{$4
#U`(:R D*WE@`EFI')J3yP$RDS"TM&bXx\$GNRMC,084715.00,A,0419.69008,S,05539.87878,E,0.030,,190525,,,A*7C
$GNVTG,,T,,M,0.030,N,0.055,K,A*3E
$GNGNS,084715.00,0419.69008,S,05539.87878,E,AA,17,0.61,14.2,-47.6,,*6D
$GNGGA,084715.00,0419.69008,S,05539.87878,E,1,12,0.61,14.2,M,-47.6,M,,*42
$GNGSA,A,3,25,23,12,15,29,10,18,24,28,32,26,,1.15,0.61,0.98*14
$GNGSA,A,3,69,80,73,68,74,83,,,,,,,1.15,0.61,0.98*1A
$GPGSV,5,1,17,10,43,239,35,12,36,154,26,13,03,061,28,15,39,071,37*71
$GPGSV,5,2,17,18,19,340,31,23,65,312,29,24,16,137,29,25,66,188,28*76
$GPGSV,5,3,17,26,08,313,33,28,12,247,33,29,38,026,31,31,01,268,38*7E
$GPGSV,5,4,17,32,14,207,26,36,52,277,36,40,85,352,35,41,58,082,40*73
$GPGSV,5,5,17,49,32,274,*42
$GLGSV,3,1,10,68,25,042,24,69,64,096,20,70,27,194,18,73,41,267,39*60
$GLGSV,3,2,10,74,13,307,28,80,36,191,26,82,00,068,,83,07,022,34*65
$GLGSV,3,3,10,84,01,333,22,,,,26*5E
$GNGLL,0419.69008,S,05539.87878,E,084715.00,A,A*6C
$GNGRS,084715.00,1,-1.5,2.4,0.0,-0.9,4.3,0.3,3.2,-4.3,0.4,3.8,-1.7,*71
$GNGRS,084715.00,1,3.2,2.0,-2.4,-9.4,1.2,8.0,,,,,,*5C
$GNGST,084715.00,32,,,,1.8,1.3,3.2*4D
$GNZDA,084715.00,19,05,2025,00,00*7F
$GNGBS,084715.00,1.8,1.3,3.2,,,,*5A
b0Xp\
'+$=('GTA8 B$9b$'&)? {&4
#U`':R D*E!@`FI()
J3P$RDSTM
bp\xg4$GNRMC,084716.00,A,0419.69003,S,05539.87878,E,0.140,,190525,,,A*72
$GNVTG,,T,,M,0.140,N,0.260,K,A*3C
$GNGNS,084716.00,0419.69003,S,05539.87878,E,AA,17,0.61,14.2,-47.6,,*65
$GNGGA,084716.00,0419.69003,S,05539.87878,E,1,12,0.61,14.2,M,-47.6,M,,*4A
$GNGSA,A,3,25,23,12,15,29,10,18,24,28,32,26,,1.15,0.61,0.98*14
$GNGSA,A,3,69,80,73,68,74,83,,,,,,,1.15,0.61,0.98*1A
$GPGSV,5,1,17,10,43,239,39,12,36,154,25,13,03,061,25,15,39,071,40*73
$GPGSV,5,2,17,18,19,340,31,23,65,312,29,24,16,137,29,25,66,188,32*7D
$GPGSV,5,3,17,26,08,313,36,28,12,247,36,29,38,026,39,31,01,268,41*78
$GPGSV,5,4,17,32,14,207,25,36,52,277,38,40,85,352,35,41,58,082,39*70
$GPGSV,5,5,17,49,32,274,*42
$GLGSV,3,1,10,68,25,042,23,69,64,096,33,70,27,194,18,73,41,266,40*6A
$GLGSV,3,2,10,74,13,307,25,80,36,191,26,82,00,068,,83,07,022,30*6C
$GLGSV,3,3,10,84,01,333,21,,,,25*5E
$GNGLL,0419.69003,S,05539.87878,E,084716.00,A,A*64
$GNGRS,084716.00,1,-0.5,1.5,1.7,-0.9,2.1,0.3,1.9,-3.5,-3.2,-3.7,1.0,*5B
$GNGRS,084716.00,1,4.0,0.1,-2.2,-7.4,0.2,9.1,,,,,,*50
$GNGST,084716.00,29,,,,1.8,1.3,3.2*44
$GNZDA,084716.00,19,05,2025,00,00*7C
$GNGBS,084716.00,1.8,1.3,3.2,,,,*59
b0XX`
%+$=('G%T^A8(B9% g&&' {$4
$U`&:R D"*E @`FI")
J2\P$gRDSTMbX`xO$GNRMC,084717.00,A,0419.69011,S,05539.87884,E,0.537,52.02,190525,,,A*5C
$GNVTG,52.02,T,,M,0.537,N,0.994,K,A*13
$GNGNS,084717.00,0419.69011,S,05539.87884,E,AA,17,0.61,13.8,-47.6,,*69
$GNGGA,084717.00,0419.69011,S,05539.87884,E,1,12,0.61,13.8,M,-47.6,M,,*46
$GNGSA,A,3,25,23,12,15,29,10,18,24,28,32,26,,1.15,0.61,0.98*14
$GNGSA,A,3,69,80,73,68,74,83,,,,,,,1.15,0.61,0.98*1A
$GPGSV,5,1,17,10,43,239,37,12,36,154,31,13,03,061,22,15,39,071,40*7F
$GPGSV,5,2,17,18,19,340,37,23,65,312,31,24,16,137,29,25,66,188,25*74
$GPGSV,5,3,17,26,08,313,28,28,12,247,32,29,38,026,38,31,01,268,39*7D
$GPGSV,5,4,17,32,14,207,24,36,52,277,36,40,85,352,36,41,58,082,38*7D
$GPGSV,5,5,17,49,32,274,*42
$GLGSV,3,1,10,68,25,042,34,69,64,096,32,70,27,194,16,73,41,266,34*60
$GLGSV,3,2,10,74,13,306,21,80,36,191,24,82,00,068,,83,07,022,31*6A
$GLGSV,3,3,10,84,01,333,20,,,,22*58
$GNGLL,0419.69011,S,05539.87884,E,084717.00,A,A*65
$GNGRS,084717.00,1,-0.6,0.4,-0.9,-0.8,2.4,0.1,0.9,-0.6,1.0,4.2,0.4,*7B
$GNGRS,084717.00,1,2.8,1.0,-2.3,-8.4,-1.6,4.0,,,,,,*75
$GNGST,084717.00,29,,,,1.8,1.3,3.2*45
$GNZDA,084717.00,19,05,2025,00,00*7D
$GNGBS,084717.00,1.8,1.3,3.2,,,,*58
b0X@d
'+$=$'GTJA8rB9'&!O {"4
$U`(:R D!*E#@`PFI%)
J2YP$`RDSTMb@dx7U$GNRMC,084718.00,A,0419.69015,S,05539.87884,E,0.221,,190525,,,A*7C
$GNVTG,,T,,M,0.221,N,0.408,K,A*30
$GNGNS,084718.00,0419.69015,S,05539.87884,E,AA,17,0.64,13.6,-47.6,,*69
$GNGGA,084718.00,0419.69015,S,05539.87884,E,1,12,0.64,13.6,M,-47.6,M,,*46
$GNGSA,A,3,25,23,12,15,29,10,18,24,28,32,26,,1.17,0.64,0.98*13
$GNGSA,A,3,69,80,73,68,74,83,,,,,,,1.17,0.64,0.98*1D
$GPGSV,5,1,17,10,43,239,39,12,36,154,30,13,03,061,19,15,39,071,36*79
$GPGSV,5,2,17,18,19,340,27,23,65,312,25,24,16,137,27,25,66,188,31*7B
$GPGSV,5,3,17,26,08,313,30,28,12,247,30,29,38,026,39,31,01,268,33*7D
$GPGSV,5,4,17,32,14,207,28,36,52,277,34,40,85,352,36,41,58,082,40*7C
$GPGSV,5,5,17,49,32,274,*42
$GLGSV,3,1,10,68,25,042,33,69,64,096,35,70,27,194,14,73,41,266,37*61
$GLGSV,3,2,10,74,13,306,21,80,36,191,24,82,00,068,,83,07,022,29*63
$GLGSV,3,3,10,84,01,333,30,,,,22*59
$GNGLL,0419.69015,S,05539.87884,E,084718.00,A,A*6E
$GNGRS,084718.00,1,0.1,1.1,-0.7,-0.9,0.1,-0.1,3.3,0.0,0.2,2.1,-0.1,*73
$GNGRS,084718.00,1,5.9,1.0,-2.4,-11.4,3.5,1.9,,,,,,*63
$GNGST,084718.00,29,,,,1.8,1.3,3.3*4B
$GNZDA,084718.00,19,05,2025,00,00*72
$GNGBS,084718.00,1.8,1.3,3.3,,,,*56
b0X(h
(+$="'GTA8!x$B]9{"$%& u{%4
$U`&:R D*E"@`FI#)
J2zP"$RDSTM"Ib(hx$GNRMC,084719.00,A,0419.69024,S,05539.87874,E,0.658,134.84,190525,,,A*6E
$GNVTG,134.84,T,,M,0.658,N,1.218,K,A*28
$GNGNS,084719.00,0419.69024,S,05539.87874,E,AA,17,0.61,13.6,-47.6,,*60
$GNGGA,084719.00,0419.69024,S,05539.87874,E,1,12,0.61,13.6,M,-47.6,M,,*4F
$GNGSA,A,3,25,23,12,15,29,10,18,24,28,32,26,,1.15,0.61,0.98*14
$GNGSA,A,3,69,80,73,68,74,83,,,,,,,1.15,0.61,0.98*1A
$GPGSV,5,1,17,10,43,239,40,12,36,154,30,13,03,061,19,15,39,071,34*75
$GPGSV,5,2,17,18,19,340,26,23,65,312,25,24,16,137,33,25,66,188,36*78
$GPGSV,5,3,17,26,08,313,30,28,12,247,34,29,38,026,37,31,01,268,25*70
$GPGSV,5,4,17,32,14,207,28,36,52,277,37,40,85,352,36,41,58,082,38*70
$GPGSV,5,5,17,49,32,274,*42
$GLGSV,3,1,10,68,25,042,30,69,64,096,34,70,27,194,15,73,41,266,35*60
$GLGSV,3,2,10,74,13,306,22,80,36,191,34,82,00,068,,83,07,022,29*61
$GLGSV,3,3,10,84,01,333,28,,,,34*57
$GNGLL,0419.69024,S,05539.87874,E,084719.00,A,A*62
$GNGRS,084719.00,1,-1.6,-0.6,1.6,-0.8,1.7,-0.1,4.9,-1.4,-2.2,1.2,1.2,*7C
$GNGRS,084719.00,1,5.1,2.0,-2.3,-12.7,3.8,1.7,,,,,,*6D
$GNGST,084719.00,26,,,,1.8,1.3,3.3*45
$GNZDA,084719.00,19,05,2025,00,00*73
$GNGBS,084719.00,1.8,1.3,3.3,,,,*57
b0Xl
(+$=%'GTA8 !B"9*b'& "{%4
#U`':R D*ZE"@`FI")
J2P$PRDS\TMblx%$GNRMC,084720.00,A,0419.69027,S,05539.87873,E,0.121,,190525,,,A*7D
$GNVTG,,T,,M,0.121,N,0.224,K,A*3B
$GNGNS,084720.00,0419.69027,S,05539.87873,E,AA,17,0.61,13.6,-47.6,,*6E
$GNGGA,084720.00,0419.69027,S,05539.87873,E,1,12,0.61,13.6,M,-47.6,M,,*41
$GNGSA,A,3,25,23,12,15,29,10,18,24,28,32,26,,1.15,0.61,0.98*14
$GNGSA,A,3,69,80,73,68,74,83,,,,,,,1.15,0.61,0.98*1A
$GPGSV,5,1,17,10,43,239,40,12,36,154,22,13,03,061,20,15,39,071,37*7F
$GPGSV,5,2,17,18,19,340,26,23,65,312,25,24,16,137,31,25,66,188,33*7F
$GPGSV,5,3,17,26,08,313,34,28,12,247,42,29,38,026,39,31,01,268,24*7A
$GPGSV,5,4,17,32,14,207,34,36,52,277,37,40,85,352,35,41,58,082,39*7F
$GPGSV,5,5,17,49,32,274,*42
$GLGSV,3,1,10,68,25,042,29,69,64,096,34,70,27,194,17,73,41,266,34*6B
$GLGSV,3,2,10,74,13,306,22,80,36,191,24,82,00,068,,83,07,022,30*68
$GLGSV,3,3,10,84,01,333,27,,,,22*5F
$GNGLL,0419.69027,S,05539.87873,E,084720.00,A,A*6C
$GNGRS,084720.00,1,-0.8,0.3,2.1,-0.7,1.9,-0.2,2.0,-0.2,1.0,-0.5,-1.0,*77
$GNGRS,084720.00,1,2.3,3.4,-2.4,-11.9,4.2,-1.6,,,,,,*4C
$GNGST,084720.00,30,,,,1.8,1.3,3.3*48
$GNZDA,084720.00,19,05,2025,00,00*79
$GNGBS,084720.00,1.8,1.3,3.3,,,,*5D
b0Xo
(+$=-$'GTA8  B."9*'& !q{$4
$U`&:R oD*E$@`$FI!)
J2P$RDS&TMTboxj{$GNRMC,084721.00,A,0419.69027,S,05539.87875,E,0.052,,190525,,,A*7F
$GNVTG,,T,,M,0.052,N,0.097,K,A*34
$GNGNS,084721.00,0419.69027,S,05539.87875,E,AA,17,0.61,13.5,-47.6,,*6A
$GNGGA,084721.00,0419.69027,S,05539.87875,E,1,12,0.61,13.5,M,-47.6,M,,*45
$GNGSA,A,3,25,23,12,15,29,10,18,24,28,32,26,,1.15,0.61,0.98*14
$GNGSA,A,3,69,80,73,68,74,83,,,,,,,1.15,0.61,0.98*1A
$GPGSV,5,1,17,10,43,239,40,12,36,154,21,13,03,061,20,15,39,071,36*7D
$GPGSV,5,2,17,18,19,340,24,23,65,312,26,24,16,137,30,25,66,188,32*7E
$GPGSV,5,3,17,26,08,313,34,28,12,247,42,29,38,026,39,31,01,268,26*78
$GPGSV,5,4,17,32,14,207,33,36,52,277,36,40,85,352,36,41,58,082,38*7B
$GPGSV,5,5,17,49,32,274,*42
$GLGSV,3,1,10,68,25,042,28,69,64,096,36,70,27,194,16,73,41,266,33*6E
$GLGSV,3,2,10,74,13,306,22,80,36,191,27,82,00,068,,83,07,022,29*63
$GLGSV,3,3,10,84,01,333,25,,,,24*5B
$GNGLL,0419.69027,S,05539.87875,E,084721.00,A,A*6B
$GNGRS,084721.00,1,0.5,-2.2,2.6,-0.5,1.6,-0.3,3.9,-0.8,0.2,1.1,-0.5,*5E
$GNGRS,084721.00,1,0.4,4.7,-2.3,-10.4,4.8,0.4,,,,,,*63
$GNGST,084721.00,30,,,,1.7,1.3,3.3*46
$GNZDA,084721.00,19,05,2025,00,00*78
$GNGBS,084721.00,1.7,1.3,3.3,,,,*53
b0Xs
$+ $=n!'GT6A8eB%9(C#&* &{(4
!U`":R D*E!@`FI!)
J2P$RDS#TM8gbsxB$GNRMC,084722.00,A,0419.69029,S,05539.87869,E,0.344,,190525,,,A*7B
$GNVTG,,T,,M,0.344,N,0.636,K,A*3D
$GNGNS,084722.00,0419.69029,S,05539.87869,E,AA,17,0.61,13.5,-47.6,,*6A
$GNGGA,084722.00,0419.69029,S,05539.87869,E,1,12,0.61,13.5,M,-47.6,M,,*45
$GNGSA,A,3,25,23,12,15,29,10,18,24,28,32,26,,1.15,0.61,0.98*14
$GNGSA,A,3,69,80,73,68,74,83,,,,,,,1.15,0.61,0.98*1A
$GPGSV,5,1,17,10,43,239,36,12,36,154,32,13,03,061,20,15,39,071,33*7B
$GPGSV,5,2,17,18,19,340,30,23,65,312,25,24,16,137,31,25,66,188,30*7B
$GPGSV,5,3,17,26,08,313,37,28,12,247,40,29,38,026,35,31,01,268,24*77
$GPGSV,5,4,17,32,14,207,29,36,52,277,40,40,85,352,33,41,58,082,34*78
$GPGSV,5,5,17,49,32,274,*42
$GLGSV,3,1,10,68,25,042,26,69,64,096,33,70,27,194,12,73,41,266,33*61
$GLGSV,3,2,10,74,13,306,22,80,36,191,27,82,00,068,,83,07,022,35*6E
$GLGSV,3,3,10,84,01,333,24,,,,23*5D
$GNGLL,0419.69029,S,05539.87869,E,084722.00,A,A*6B
$GNGRS,084722.00,1,2.7,1.0,2.8,-0.3,1.5,-0.3,3.1,0.1,0.7,0.4,-1.3,*50
$GNGRS,084722.00,1,2.5,2.3,-2.5,-7.5,5.0,-2.6,,,,,,*74
$GNGST,084722.00,27,,,,1.7,1.4,3.3*44
$GNZDA,084722.00,19,05,2025,00,00*7B
$GNGBS,084722.00,1.7,1.4,3.3,,,,*57
b0Xw
++"$
=!'G$"T"A8'`'B(9l,"&+ &{*4
'U`':R D*kE&@`xFI&)
IJ2P#$RDS#,TMbwxK$GNRMC,084723.00,A,0419.69029,S,05539.87868,E,0.042,,190525,,,A*7E
$GNVTG,,T,,M,0.042,N,0.077,K,A*3B
$GNGNS,084723.00,0419.69029,S,05539.87868,E,AA,17,0.61,13.5,-47.6,,*6A
$GNGGA,084723.00,0419.69029,S,05539.87868,E,1,12,0.61,13.5,M,-47.6,M,,*45
$GNGSA,A,3,25,23,12,15,29,10,18,24,28,32,26,,1.15,0.61,0.98*14
$GNGSA,A,3,69,80,73,68,74,83,,,,,,,1.15,0.61,0.98*1A
$GPGSV,5,1,17,10,43,239,43,12,36,154,34,13,03,061,22,15,39,071,33*7D
$GPGSV,5,2,17,18,19,340,34,23,65,312,34,24,16,137,39,25,66,188,39*7E
$GPGSV,5,3,17,26,08,313,40,28,12,247,44,29,38,026,34,31,01,268,26*70
$GPGSV,5,4,17,32,14,207,38,36,52,277,42,40,85,352,39,41,58,082,39*7D
$GPGSV,5,5,17,49,32,274,*42
$GLGSV,3,1,10,68,25,042,24,69,64,096,38,70,27,194,12,73,41,266,38*63
$GLGSV,3,2,10,74,13,306,30,80,36,190,35,82,00,068,,83,07,022,35*6F
$GLGSV,3,3,10,84,01,333,26,,,,31*5C
$GNGLL,0419.69029,S,05539.87868,E,084723.00,A,A*6B
$GNGRS,084723.00,1,-0.1,2.7,2.7,0.4,2.3,-0.5,2.8,1.0,-1.0,0.0,1.1,*52
$GNGRS,084723.00,1,3.8,-0.2,0.7,-9.2,4.0,0.4,,,,,,*5F
$GNGST,084723.00,19,,,,1.7,1.4,3.3*48
$GNZDA,084723.00,19,05,2025,00,00*7A
$GNGBS,084723.00,1.7,1.4,3.3,,,,*56
b0X{
)+$$=_ 'GO"T!A8)%x%B'96-$& $7{+4
)U`&:R D*E$@`FI()
#J2P $RDS%TMb{x$GNRMC,084724.00,A,0419.69027,S,05539.87867,E,0.043,,190525,,,A*79
$GNVTG,,T,,M,0.043,N,0.080,K,A*32
$GNGNS,084724.00,0419.69027,S,05539.87867,E,AA,17,0.61,13.6,-47.6,,*6F
$GNGGA,084724.00,0419.69027,S,05539.87867,E,1,12,0.61,13.6,M,-47.6,M,,*40
$GNGSA,A,3,25,23,12,15,29,10,18,24,28,32,26,,1.15,0.61,0.98*14
$GNGSA,A,3,69,80,73,68,74,83,,,,,,,1.15,0.61,0.98*1A
$GPGSV,5,1,17,10,43,239,41,12,36,154,36,13,03,061,23,15,39,071,32*7D
$GPGSV,5,2,17,18,19,340,34,23,65,312,33,24,16,137,37,25,66,188,37*79
$GPGSV,5,3,17,26,08,313,39,28,12,247,45,29,38,026,36,31,01,268,26*7D
$GPGSV,5,4,17,32,14,207,36,36,52,277,43,40,85,352,41,41,58,082,38*7C
$GPGSV,5,5,17,49,32,274,*42
$GLGSV,3,1,10,68,25,042,24,69,64,096,36,70,27,194,15,73,41,266,40*65
$GLGSV,3,2,10,74,13,306,31,80,36,190,32,82,00,068,,83,07,022,37*6B
$GLGSV,3,3,10,84,01,333,26,,,,28*54
$GNGLL,0419.69027,S,05539.87867,E,084724.00,A,A*6D
$GNGRS,084724.00,1,2.4,3.0,-0.7,-1.8,2.6,-0.6,2.6,1.2,0.3,0.6,0.5,*50
$GNGRS,084724.00,1,4.4,2.2,2.9,-15.1,7.9,-0.6,,,,,,*6B
$GNGST,084724.00,19,,,,1.7,1.3,3.2*49
$GNZDA,084724.00,19,05,2025,00,00*7D
$GNGBS,084724.00,1.7,1.3,3.2,,,,*57
b0X
(+#$=l$'GLT!A8$h'B'9,!& ${+4
)U`%:R D*)E$@`FI()
'J2P!$JRDS"TMpbx$GNRMC,084725.00,A,0419.69026,S,05539.87867,E,0.014,,190525,,,A*7B
$GNVTG,,T,,M,0.014,N,0.026,K,A*3C
$GNGNS,084725.00,0419.69026,S,05539.87867,E,AA,17,0.61,13.7,-47.6,,*6E
$GNGGA,084725.00,0419.69026,S,05539.87867,E,1,12,0.61,13.7,M,-47.6,M,,*41
$GNGSA,A,3,25,23,12,15,29,10,18,24,28,32,26,,1.15,0.61,0.98*14
$GNGSA,A,3,69,80,73,68,74,83,,,,,,,1.15,0.61,0.98*1A
$GPGSV,5,1,17,10,43,239,40,12,36,154,35,13,03,061,24,15,39,071,36*7C
$GPGSV,5,2,17,18,19,340,30,23,65,312,33,24,16,137,36,25,66,188,39*72
$GPGSV,5,3,17,26,08,313,39,28,12,247,44,29,38,026,33,31,01,268,27*78
$GPGSV,5,4,17,32,14,207,36,36,52,277,43,40,85,352,41,41,58,082,37*73
$GPGSV,5,5,17,49,32,274,*42
$GLGSV,3,1,10,68,25,042,31,69,64,096,36,70,27,194,16,73,41,266,40*62
$GLGSV,3,2,10,74,13,306,31,80,36,190,33,82,00,068,,83,07,022,34*69
$GLGSV,3,3,10,84,01,333,27,,,,30*5C
$GNGLL,0419.69026,S,05539.87867,E,084725.00,A,A*6D
$GNGRS,084725.00,1,0.3,1.7,-0.6,0.8,1.7,-0.3,6.7,-1.5,-0.5,2.3,-0.2,*52
$GNGRS,084725.00,1,4.2,-1.8,0.4,-9.8,-0.1,-0.2,,,,,,*55
$GNGST,084725.00,18,,,,1.7,1.3,3.2*49
$GNZDA,084725.00,19,05,2025,00,00*7C
$GNGBS,084725.00,1.7,1.3,3.2,,,,*56
b0X
'+ $l=!'GST A8#&B}%9** &s "S{)4
&U`#:R D*E$@`FI()
IJ2P!$RDS#TMbxw$GNRMC,084726.00,A,0419.69024,S,05539.87867,E,0.026,,190525,,,A*7B
$GNVTG,,T,,M,0.026,N,0.049,K,A*34
$GNGNS,084726.00,0419.69024,S,05539.87867,E,AA,17,0.61,13.7,-47.6,,*6F
$GNGGA,084726.00,0419.69024,S,05539.87867,E,1,12,0.61,13.7,M,-47.6,M,,*40
$GNGSA,A,3,25,23,12,15,29,10,18,24,28,32,26,,1.15,0.61,0.98*14
$GNGSA,A,3,69,80,73,68,74,83,,,,,,,1.15,0.61,0.98*1A
$GPGSV,5,1,17,10,43,239,39,12,36,154,32,13,03,061,24,15,39,071,33*70
$GPGSV,5,2,17,18,19,340,26,23,65,312,32,24,16,137,35,25,66,188,38*76
$GPGSV,5,3,17,26,08,313,37,28,12,247,42,29,38,026,32,31,01,268,27*71
$GPGSV,5,4,17,32,14,207,34,36,52,277,41,40,85,352,38,41,58,082,35*7F
$GPGSV,5,5,17,49,32,274,*42
$GLGSV,3,1,10,68,25,042,31,69,64,096,36,70,27,194,17,73,41,266,40*63
$GLGSV,3,2,10,74,13,306,31,80,36,190,33,82,00,068,,83,08,023,35*66
$GLGSV,3,3,10,84,01,333,28,,,,31*52
$GNGLL,0419.69024,S,05539.87867,E,084726.00,A,A*6C
$GNGRS,084726.00,1,-1.3,3.9,-1.5,0.8,1.2,-0.4,7.8,-0.7,0.3,0.8,0.4,*75
$GNGRS,084726.00,1,4.0,-2.5,-1.8,-11.1,1.3,1.9,,,,,,*43
$GNGST,084726.00,20,,,,1.6,1.3,3.1*43
$GNZDA,084726.00,19,05,2025,00,00*7F
$GNGBS,084726.00,1.6,1.3,3.1,,,,*57
b0Xh
&+!$5="'GT4 A8"%B$9d+ &e$ #{*4
&U`#:R D*8E$@`FI))
XJ2P!$RDS"TM 3bhx_z$GNRMC,084727.00,A,0419.69023,S,05539.87869,E,0.037,,190525,,,A*73
$GNVTG,,T,,M,0.037,N,0.068,K,A*37
$GNGNS,084727.00,0419.69023,S,05539.87869,E,AA,17,0.61,13.7,-47.6,,*67
$GNGGA,084727.00,0419.69023,S,05539.87869,E,1,12,0.61,13.7,M,-47.6,M,,*48
$GNGSA,A,3,25,23,12,15,29,10,18,24,28,32,26,,1.15,0.61,0.98*14
$GNGSA,A,3,69,80,73,68,74,83,,,,,,,1.15,0.61,0.98*1A
$GPGSV,5,1,17,10,43,239,38,12,36,154,33,13,03,061,23,15,39,071,34*70
$GPGSV,5,2,17,18,19,340,28,23,65,312,32,24,16,137,34,25,66,188,37*76
$GPGSV,5,3,17,26,08,313,36,28,12,247,43,29,38,026,32,31,01,268,27*71
$GPGSV,5,4,17,32,14,207,35,36,52,277,42,40,85,352,38,41,58,082,35*7D
$GPGSV,5,5,17,49,32,274,*42
$GLGSV,3,1,10,68,25,042,30,69,64,096,36,70,27,194,16,73,41,266,41*62
$GLGSV,3,2,10,74,13,306,30,80,36,190,33,82,00,068,,83,08,023,34*66
$GLGSV,3,3,10,84,01,333,28,,,,32*51
$GNGLL,0419.69023,S,05539.87869,E,084727.00,A,A*64
$GNGRS,084727.00,1,-0.6,4.3,0.5,-0.9,1.0,-0.5,8.2,0.1,0.1,1.3,1.0,*5D
$GNGRS,084727.00,1,3.9,0.2,-1.7,-9.7,4.1,2.4,,,,,,*5D
$GNGST,084727.00,19,,,,1.6,1.3,3.1*48
$GNZDA,084727.00,19,05,2025,00,00*7E
$GNGBS,084727.00,1.6,1.3,3.1,,,,*56
b0XP
'+!$=R"'GTC!A8#~%B$9e+ & #E{)4
&U`#:R D*E$@`FI))
J2OP!$RDS!,TM bPxGRS$GNRMC,084728.00,A,0419.69024,S,05539.87870,E,0.009,,190525,,,A*7E
$GNVTG,,T,,M,0.009,N,0.016,K,A*33
$GNGNS,084728.00,0419.69024,S,05539.87870,E,AA,17,0.61,13.7,-47.6,,*67
$GNGGA,084728.00,0419.69024,S,05539.87870,E,1,12,0.61,13.7,M,-47.6,M,,*48
$GNGSA,A,3,25,23,12,15,29,10,18,24,28,32,26,,1.15,0.61,0.98*14
$GNGSA,A,3,69,80,73,68,74,83,,,,,,,1.15,0.61,0.98*1A
$GPGSV,5,1,17,10,43,239,39,12,36,154,33,13,03,061,22,15,39,071,34*70
$GPGSV,5,2,17,18,19,340,28,23,65,312,33,24,16,137,35,25,66,188,37*76
$GPGSV,5,3,17,26,08,313,36,28,12,247,43,29,38,026,32,31,01,268,27*71
$GPGSV,5,4,17,32,14,207,35,36,52,277,41,40,85,352,38,41,58,082,35*7E
$GPGSV,5,5,17,49,32,274,*42
$GLGSV,3,1,10,68,25,042,29,69,64,096,36,70,27,194,16,73,41,266,41*6A
$GLGSV,3,2,10,74,13,306,31,80,36,190,33,82,00,068,,83,08,023,33*60
$GLGSV,3,3,10,84,01,333,28,,,,32*51
$GNGLL,0419.69024,S,05539.87870,E,084728.00,A,A*64
$GNGRS,084728.00,1,0.2,1.8,-1.2,-0.8,3.9,-0.4,5.8,-1.3,0.1,3.2,1.0,*7F
$GNGRS,084728.00,1,3.8,-0.9,-2.8,-13.4,3.4,0.4,,,,,,*41
$GNGST,084728.00,22,,,,1.6,1.3,3.1*4F
$GNZDA,084728.00,19,05,2025,00,00*71
$GNGBS,084728.00,1.6,1.3,3.1,,,,*59
b0X8
'+"$N=v!'G?T!A8#&B%9,+ & #{)4
&U`#:R D*E$@`FI))
J2jP!$RDSTM <4b8x/*$GNRMC,084729.00,A,0419.69023,S,05539.87871,E,0.034,,190525,,,A*77
$GNVTG,,T,,M,0.034,N,0.063,K,A*3F
$GNGNS,084729.00,0419.69023,S,05539.87871,E,AA,17,0.61,13.7,-47.6,,*60
$GNGGA,084729.00,0419.69023,S,05539.87871,E,1,12,0.61,13.7,M,-47.6,M,,*4F
$GNGSA,A,3,25,23,12,15,29,10,18,24,28,32,26,,1.15,0.61,0.98*14
$GNGSA,A,3,69,80,73,68,74,83,,,,,,,1.15,0.61,0.98*1A
$GPGSV,5,1,17,10,43,239,39,12,36,154,34,13,03,061,22,15,39,071,33*70
$GPGSV,5,2,17,18,19,340,28,23,65,312,33,24,16,137,35,25,66,188,38*79
$GPGSV,5,3,17,26,08,313,37,28,12,247,43,29,38,026,32,31,01,268,27*70
$GPGSV,5,4,17,32,14,207,35,36,52,277,41,40,85,352,38,41,58,082,35*7E
$GPGSV,5,5,17,49,32,274,*42
$GLGSV,3,1,10,68,25,042,29,69,64,096,36,70,27,194,15,73,41,266,41*69
$GLGSV,3,2,10,74,13,306,31,80,36,190,33,82,00,068,,83,08,023,30*63
$GLGSV,3,3,10,84,01,333,28,,,,32*51
$GNGLL,0419.69023,S,05539.87871,E,084729.00,A,A*63
$GNGRS,084729.00,1,0.1,1.5,-1.8,-1.9,4.2,-0.4,4.7,-0.1,0.1,2.2,0.4,*7F
$GNGRS,084729.00,1,3.9,0.1,-2.9,-13.6,3.6,0.3,,,,,,*62
$GNGST,084729.00,21,,,,1.6,1.3,3.1*4D
$GNZDA,084729.00,19,05,2025,00,00*70
$GNGBS,084729.00,1.6,1.3,3.1,,,,*58
b0X 
)+$$=J"'Gq T$A8%>%B'9+ & #{*4
(U`&:R D*GE$@`FI))
J2P $5RDS!(TMb x9$GNRMC,084730.00,A,0419.69019,S,05539.87874,E,0.080,,190525,,,D*79
$GNVTG,,T,,M,0.080,N,0.148,K,D*3D
$GNGNS,084730.00,0419.69019,S,05539.87874,E,DA,17,0.64,13.7,-47.6,,0000*64
$GNGGA,084730.00,0419.69019,S,05539.87874,E,2,12,0.64,13.7,M,-47.6,M,,0000*4D
$GNGSA,A,3,25,23,12,15,29,10,18,24,28,32,26,,1.17,0.64,0.98*13
$GNGSA,A,3,69,80,73,68,74,83,,,,,,,1.17,0.64,0.98*1D
$GPGSV,5,1,17,10,43,239,41,12,36,154,36,13,03,061,21,15,39,071,34*79
$GPGSV,5,2,17,18,19,340,32,23,65,312,36,24,16,137,37,25,66,188,37*7A
$GPGSV,5,3,17,26,08,313,39,28,12,247,43,29,38,026,32,31,01,268,26*7F
$GPGSV,5,4,17,32,14,207,35,36,52,277,42,40,85,352,40,41,58,082,38*7F
$GPGSV,5,5,17,49,32,274,*42
$GLGSV,3,1,10,68,25,042,28,69,64,096,36,70,27,194,14,73,41,266,41*69
$GLGSV,3,2,10,74,13,306,30,80,36,190,32,82,00,068,,83,08,023,33*60
$GLGSV,3,3,10,84,01,333,27,,,,29*54
$GNGLL,0419.69019,S,05539.87874,E,084730.00,A,D*62
$GNGRS,084730.00,1,-0.2,2.5,-2.6,1.1,2.7,-0.5,6.5,0.6,0.0,2.3,4.7,*5D
$GNGRS,084730.00,1,7.7,0.5,-2.7,-19.8,2.3,-7.3,,,,,,*40
$GNGST,084730.00,18,,,,1.6,1.3,3.0*4E
$GNZDA,084730.00,19,05,2025,00,00*78
$GNGBS,084730.00,1.6,1.3,3.0,,,,*51
b0X
(+"$=s!'GT"A8#1%B&9* & #{)4
'U`$:R D*1E"@`FI()
J2%P$RDS!)TMbx$GNRMC,084731.00,A,0419.69018,S,05539.87877,E,0.028,,190525,,,D*78
$GNVTG,,T,,M,0.028,N,0.052,K,D*35
$GNGNS,084731.00,0419.69018,S,05539.87877,E,DA,17,0.61,13.6,-47.6,,0000*63
$GNGGA,084731.00,0419.69018,S,05539.87877,E,2,12,0.61,13.6,M,-47.6,M,,0000*4A
$GNGSA,A,3,25,23,12,15,29,10,18,24,28,32,26,,1.15,0.61,0.98*14
$GNGSA,A,3,69,80,73,68,74,83,,,,,,,1.15,0.61,0.98*1A
$GPGSV,5,1,17,10,43,239,40,12,36,154,34,13,03,061,21,15,39,071,33*7D
$GPGSV,5,2,17,18,19,340,29,23,65,312,34,24,16,137,35,25,66,188,37*70
$GPGSV,5,3,17,26,08,313,38,28,12,247,42,29,38,026,32,31,01,268,26*7F
$GPGSV,5,4,17,32,14,207,35,36,52,277,41,40,85,352,39,41,58,082,36*7C
$GPGSV,5,5,17,49,32,274,*42
$GLGSV,3,1,10,68,25,042,28,69,64,096,34,70,27,194,14,73,41,266,40*6A
$GLGSV,3,2,10,74,13,306,31,80,36,190,31,82,00,068,,83,08,023,33*62
$GLGSV,3,3,10,84,01,333,26,,,,30*5D
$GNGLL,0419.69018,S,05539.87877,E,084731.00,A,D*61
$GNGRS,084731.00,1,-0.4,-2.6,-2.6,-0.1,6.9,-0.3,6.4,0.5,-0.2,2.2,4.2,*7D
$GNGRS,084731.00,1,4.5,4.3,-2.6,-14.9,2.9,-4.7,,,,,,*42
$GNGST,084731.00,20,,,,1.6,1.3,3.0*44
$GNZDA,084731.00,19,05,2025,00,00*79
$GNGBS,084731.00,1.6,1.3,3.0,,,,*50
b0X
(+"$=g!'G
T"A8#6%B%9+ &A "{)4
'U`$:R D*gE#@`FI*)
J2P$RDS"nTMbx$GNRMC,084732.00,A,0419.69018,S,05539.87879,E,0.016,,190525,,,D*78
$GNVTG,,T,,M,0.016,N,0.030,K,D*3C
$GNGNS,084732.00,0419.69018,S,05539.87879,E,DA,17,0.61,13.5,-47.6,,0000*6D
$GNGGA,084732.00,0419.69018,S,05539.87879,E,2,12,0.61,13.5,M,-47.6,M,,0000*44
$GNGSA,A,3,25,23,12,15,29,10,18,24,28,32,26,,1.15,0.61,0.98*14
$GNGSA,A,3,69,80,73,68,74,83,,,,,,,1.15,0.61,0.98*1A
$GPGSV,5,1,17,10,43,239,40,12,36,154,34,13,03,061,21,15,39,071,33*7D
$GPGSV,5,2,17,18,19,340,30,23,65,312,34,24,16,137,35,25,66,188,37*78
$GPGSV,5,3,17,26,08,313,37,28,12,247,43,29,38,026,32,31,01,268,24*73
$GPGSV,5,4,17,32,14,207,34,36,52,277,41,40,85,352,39,41,58,082,36*7D
$GPGSV,5,5,17,49,32,274,*42
$GLGSV,3,1,10,68,25,042,28,69,64,096,35,70,27,194,13,73,41,266,42*6E
$GLGSV,3,2,10,74,13,306,31,80,36,190,31,82,00,068,,83,08,023,34*65
$GLGSV,3,3,10,84,01,333,26,,,,30*5D
$GNGLL,0419.69018,S,05539.87879,E,084732.00,A,D*6C
$GNGRS,084732.00,1,-0.8,0.3,-2.3,0.1,5.8,-0.4,4.8,0.5,-0.1,2.1,4.1,*78
$GNGRS,084732.00,1,5.3,10.2,-2.6,-14.3,2.2,-1.5,,,,,,*74
$GNGST,084732.00,22,,,,1.6,1.3,3.0*45
$GNZDA,084732.00,19,05,2025,00,00*7A
$GNGBS,084732.00,1.6,1.3,3.0,,,,*53
b0X
(+"$2=r"'GT#A8C#&%B#9+ &/ "{)4
'U`$:R D*E#@`{FI))
J2P$RDS"TM~bx_$GNRMC,084733.00,A,0419.69018,S,05539.87880,E,0.008,,190525,,,D*70
$GNVTG,,T,,M,0.008,N,0.015,K,D*34
$GNGNS,084733.00,0419.69018,S,05539.87880,E,DA,17,0.61,13.5,-47.6,,0000*6A
$GNGGA,084733.00,0419.69018,S,05539.87880,E,2,12,0.61,13.5,M,-47.6,M,,0000*43
$GNGSA,A,3,25,23,12,15,29,10,18,24,28,32,26,,1.15,0.61,0.98*14
$GNGSA,A,3,69,80,73,68,74,83,,,,,,,1.15,0.61,0.98*1A
$GPGSV,5,1,17,10,43,239,40,12,36,154,34,13,03,061,21,15,39,071,34*7A
$GPGSV,5,2,17,18,19,340,29,23,65,312,35,24,16,137,35,25,66,188,37*71
$GPGSV,5,3,17,26,08,313,35,28,12,247,43,29,38,026,32,31,01,268,23*76
$GPGSV,5,4,17,32,14,207,34,36,52,277,41,40,85,352,39,41,58,082,36*7D
$GPGSV,5,5,17,49,32,274,*42
$GLGSV,3,1,10,68,25,042,28,69,64,096,35,70,27,194,12,73,41,266,41*6C
$GLGSV,3,2,10,74,13,306,31,80,36,190,31,82,00,068,,83,08,023,34*65
$GLGSV,3,3,10,84,01,333,26,,,,31*5C
$GNGLL,0419.69018,S,05539.87880,E,084733.00,A,D*6B
$GNGRS,084733.00,1,-0.9,0.7,-2.1,1.3,4.9,-0.5,0.0,0.4,0.0,2.1,4.1,*5D
$GNGRS,084733.00,1,3.8,5.3,-2.9,-15.7,1.6,-0.3,,,,,,*47
$GNGST,084733.00,21,,,,1.6,1.3,3.0*47
$GNZDA,084733.00,19,05,2025,00,00*7B
$GNGBS,084733.00,1.6,1.3,3.0,,,,*52
b0X
*+$$*=#'G"T#A8%(Bd&9N-"& %{+4
)U`%:R D*(E$@`FI*)
J2qP $zRDS!TM Cbxb$GNRMC,084734.00,A,0419.69019,S,05539.87880,E,0.007,,190525,,,D*79
$GNVTG,,T,,M,0.007,N,0.013,K,D*3D
$GNGNS,084734.00,0419.69019,S,05539.87880,E,DA,17,0.61,13.5,-47.6,,0000*6C
$GNGGA,084734.00,0419.69019,S,05539.87880,E,2,12,0.61,13.5,M,-47.6,M,,0000*45
$GNGSA,A,3,25,23,12,15,29,10,18,24,28,32,26,,1.15,0.61,0.98*14
$GNGSA,A,3,69,80,73,68,74,83,,,,,,,1.15,0.61,0.98*1A
$GPGSV,5,1,17,10,43,239,42,12,36,154,36,13,03,061,21,15,39,071,35*7B
$GPGSV,5,2,17,18,19,340,34,23,65,312,35,24,16,137,37,25,66,188,40*7F
$GPGSV,5,3,17,26,08,313,38,28,12,247,45,29,38,026,34,31,01,268,25*7D
$GPGSV,5,4,17,32,14,207,37,36,52,277,43,40,85,352,41,41,58,082,37*72
$GPGSV,5,5,17,49,32,274,*42
$GLGSV,3,1,10,68,25,042,29,69,64,096,36,70,27,194,12,73,41,266,42*6D
$GLGSV,3,2,10,74,13,306,31,80,36,190,32,82,00,068,,83,08,023,33*61
$GLGSV,3,3,10,84,01,333,26,,,,32*5F
$GNGLL,0419.69019,S,05539.87880,E,084734.00,A,D*6D
$GNGRS,084734.00,1,-1.6,-0.4,-2.1,2.7,1.6,-0.4,-2.6,-0.3,-0.1,2.0,3.3,*5D
$GNGRS,084734.00,1,1.3,3.8,-2.7,-17.5,1.1,2.0,,,,,,*61
$GNGST,084734.00,20,,,,1.6,1.3,2.9*49
$GNZDA,084734.00,19,05,2025,00,00*7C
$GNGBS,084734.00,1.6,1.3,2.9,,,,*5D
b0X
(+#$(='#'Gr!T4"A8#&BR&9E+& #{)4
'U`#:R D*E$@`_FI*)
J 2#P!$RDS!rTM!bx:/$GNRMC,084735.00,A,0419.69019,S,05539.87880,E,0.010,,190525,,,D*7E
$GNVTG,,T,,M,0.010,N,0.018,K,D*30
$GNGNS,084735.00,0419.69019,S,05539.87880,E,DA,17,0.61,13.4,-47.6,,0000*6C
$GNGGA,084735.00,0419.69019,S,05539.87880,E,2,12,0.61,13.4,M,-47.6,M,,0000*45
$GNGSA,A,3,25,23,12,15,29,10,18,24,28,32,26,,1.15,0.61,0.98*14
$GNGSA,A,3,69,80,73,68,74,83,,,,,,,1.15,0.61,0.98*1A
$GPGSV,5,1,17,10,43,239,40,12,36,154,35,13,03,061,20,15,39,071,35*7B
$GPGSV,5,2,17,18,19,340,33,23,65,312,34,24,16,137,35,25,66,188,38*74
$GPGSV,5,3,17,26,08,313,38,28,12,247,43,29,38,026,31,31,01,268,25*7E
$GPGSV,5,4,17,32,14,207,35,36,52,277,41,40,85,352,39,41,58,082,35*7F
$GPGSV,5,5,17,49,32,274,*42
$GLGSV,3,1,10,68,25,042,29,69,64,096,36,70,27,194,12,73,41,266,42*6D
$GLGSV,3,2,10,74,13,306,32,80,36,190,33,82,00,068,,83,08,023,33*63
$GLGSV,3,3,10,84,01,333,26,,,,33*5E
$GNGLL,0419.69019,S,05539.87880,E,084735.00,A,D*6C
$GNGRS,084735.00,1,-1.7,1.3,-2.2,-1.4,5.4,-0.2,-2.0,-0.7,0.2,2.0,3.2,*75
$GNGRS,084735.00,1,1.0,-0.8,-2.7,-15.6,0.3,1.1,,,,,,*4D
$GNGST,084735.00,20,,,,1.5,1.3,2.9*4B
$GNZDA,084735.00,19,05,2025,00,00*7D
$GNGBS,084735.00,1.5,1.3,2.9,,,,*5F
b0X
(+"$.=#'G"T"A8G#&B1%95+ &O #{*4
'U`":R D*E%@`GFI*)
J 2vP!$RDS TM!bx$GNRMC,084736.00,A,0419.69020,S,05539.87879,E,0.025,,190525,,,D*77
$GNVTG,,T,,M,0.025,N,0.046,K,D*3D
$GNGNS,084736.00,0419.69020,S,05539.87879,E,DA,17,0.61,13.3,-47.6,,0000*64
$GNGGA,084736.00,0419.69020,S,05539.87879,E,2,12,0.61,13.3,M,-47.6,M,,0000*4D
$GNGSA,A,3,25,23,12,15,29,10,18,24,28,32,26,,1.15,0.61,0.98*14
$GNGSA,A,3,69,80,73,68,74,83,,,,,,,1.15,0.61,0.98*1A
$GPGSV,5,1,17,10,43,239,40,12,36,154,34,13,03,061,20,15,39,071,35*7A
$GPGSV,5,2,17,18,19,340,34,23,65,312,34,24,16,137,35,25,66,188,38*73
$GPGSV,5,3,17,26,08,313,37,28,12,247,43,29,38,026,32,31,01,268,24*73
$GPGSV,5,4,17,32,14,207,35,36,52,277,42,40,85,352,39,41,58,082,34*7D
$GPGSV,5,5,17,49,32,274,*42
$GLGSV,3,1,10,68,25,042,30,69,64,096,37,70,27,194,12,73,41,266,42*64
$GLGSV,3,2,10,74,13,306,32,80,36,190,33,82,00,068,,83,08,023,32*62
$GLGSV,3,3,10,84,01,333,27,,,,33*5F
$GNGLL,0419.69020,S,05539.87879,E,084736.00,A,D*63
$GNGRS,084736.00,1,-2.1,0.7,-2.1,-0.1,1.9,-0.3,-3.2,-1.2,0.2,2.2,3.1,*7F
$GNGRS,084736.00,1,-1.9,-1.1,-2.5,-20.9,-1.4,2.3,,,,,,*43
$GNGST,084736.00,18,,,,1.5,1.3,2.9*43
$GNZDA,084736.00,19,05,2025,00,00*7E
$GNGBS,084736.00,1.5,1.3,2.9,,,,*5C
b0Xx
'+"$.=2#'G!T"A8)#&B>&92+'&^ #{)4
'U`#:R D*E$@`FI*)
"J 2P!$RDS 4TM!hbxxo$GNRMC,084737.00,A,0419.69020,S,05539.87879,E,0.010,,190525,,,D*70
$GNVTG,,T,,M,0.010,N,0.019,K,D*31
$GNGNS,084737.00,0419.69020,S,05539.87879,E,DA,17,0.61,13.3,-47.6,,0000*65
$GNGGA,084737.00,0419.69020,S,05539.87879,E,2,12,0.61,13.3,M,-47.6,M,,0000*4C
$GNGSA,A,3,25,23,12,15,29,10,18,24,28,32,26,,1.15,0.61,0.98*14
$GNGSA,A,3,69,80,73,68,74,83,,,,,,,1.15,0.61,0.98*1A
$GPGSV,5,1,17,10,43,239,39,12,36,154,34,13,03,061,18,15,39,071,35*7F
$GPGSV,5,2,17,18,19,340,33,23,65,312,34,24,16,137,35,25,66,188,38*74
$GPGSV,5,3,17,26,08,313,38,28,12,247,43,29,38,026,31,31,01,268,25*7E
$GPGSV,5,4,17,32,14,207,35,36,52,277,41,40,85,352,39,41,58,082,35*7F
$GPGSV,5,5,17,49,32,274,*42
$GLGSV,3,1,10,68,25,042,29,69,64,096,36,70,27,194,13,73,41,266,42*6C
$GLGSV,3,2,10,74,13,306,32,80,36,190,33,82,00,068,,83,08,023,32*62
$GLGSV,3,3,10,84,01,333,27,,,,33*5F
$GNGLL,0419.69020,S,05539.87879,E,084737.00,A,D*62
$GNGRS,084737.00,1,-1.9,0.4,-2.1,-0.9,3.5,-0.3,0.0,-1.3,0.4,2.1,3.1,*58
$GNGRS,084737.00,1,-0.8,1.6,-2.2,-16.6,-0.1,3.1,,,,,,*62
$GNGST,084737.00,19,,,,1.5,1.3,2.9*43
$GNZDA,084737.00,19,05,2025,00,00*7F
$GNGBS,084737.00,1.5,1.3,2.9,,,,*5D
b0X`
(+#$<=$'G!TN#A8$'Bp'9+ & ${*4
'U`$:R D*E$@`FI*)
J 2P!$RDS!TM!lb`xWQ$GNRMC,084738.00,A,0419.69020,S,05539.87879,E,0.057,,190525,,,A*79
$GNVTG,,T,,M,0.057,N,0.106,K,A*38
$GNGNS,084738.00,0419.69020,S,05539.87879,E,AA,17,0.61,13.2,-47.6,,*6E
$GNGGA,084738.00,0419.69020,S,05539.87879,E,1,12,0.61,13.2,M,-47.6,M,,*41
$GNGSA,A,3,25,23,12,15,29,10,18,24,28,32,26,,1.15,0.61,0.98*14
$GNGSA,A,3,69,80,73,68,74,83,,,,,,,1.15,0.61,0.98*1A
$GPGSV,5,1,17,10,43,239,40,12,36,154,35,13,03,061,20,15,39,071,36*78
$GPGSV,5,2,17,18,19,340,33,23,65,312,35,24,16,137,36,25,66,188,39*77
$GPGSV,5,3,17,26,08,313,39,28,12,247,43,29,38,026,32,31,01,268,25*7C
$GPGSV,5,4,17,32,14,207,36,36,52,277,42,40,85,352,39,41,58,082,36*7C
$GPGSV,5,5,17,49,32,274,*42
$GLGSV,3,1,10,68,25,042,29,69,64,096,36,70,27,194,13,73,41,266,42*6C
$GLGSV,3,2,10,74,13,306,32,80,36,190,33,82,00,068,,83,08,023,33*63
$GLGSV,3,3,10,84,01,333,27,,,,33*5F
$GNGLL,0419.69020,S,05539.87879,E,084738.00,A,A*68
$GNGRS,084738.00,1,-1.4,1.4,-2.0,0.1,2.2,-0.3,0.8,-0.4,0.1,1.7,-0.1,*59
$GNGRS,084738.00,1,-0.7,2.4,-2.3,-21.4,-1.3,2.4,,,,,,*63
$GNGST,084738.00,17,,,,1.5,1.3,2.9*42
$GNZDA,084738.00,19,05,2025,00,00*70
$GNGBS,084738.00,1.5,1.3,2.9,,,,*52
b0XH
)+"$W=M"'GTf#A8$'Bo&9+& #{)4
(U`%:R D*E$@`FI*)
6J2P$^RDS!TM plbHx?$GNRMC,084739.00,A,0419.69019,S,05539.87879,E,0.025,,190525,,,A*77
$GNVTG,,T,,M,0.025,N,0.046,K,A*38
$GNGNS,084739.00,0419.69019,S,05539.87879,E,AA,17,0.61,13.2,-47.6,,*65
$GNGGA,084739.00,0419.69019,S,05539.87879,E,1,12,0.61,13.2,M,-47.6,M,,*4A
$GNGSA,A,3,25,23,12,15,29,10,18,24,28,32,26,,1.15,0.61,0.98*14
$GNGSA,A,3,69,80,73,68,74,83,,,,,,,1.15,0.61,0.98*1A
$GPGSV,5,1,17,10,43,239,41,12,36,154,34,13,03,061,21,15,39,071,34*7B
$GPGSV,5,2,17,18,19,340,28,23,65,312,35,24,16,137,36,25,66,188,39*7D
$GPGSV,5,3,17,26,08,313,38,28,12,247,43,29,38,026,31,31,01,268,25*7E
$GPGSV,5,4,17,32,14,207,35,36,52,277,41,40,85,352,40,41,58,082,37*73
$GPGSV,5,5,17,49,32,274,*42
$GLGSV,3,1,10,68,25,042,28,69,64,096,36,70,27,194,13,73,41,266,42*6D
$GLGSV,3,2,10,74,13,306,31,80,36,190,31,82,00,068,,83,08,023,33*62
$GLGSV,3,3,10,84,01,333,27,,,,32*5E
$GNGLL,0419.69019,S,05539.87879,E,084739.00,A,A*63
$GNGRS,084739.00,1,-1.4,1.4,-1.7,-1.3,4.0,-0.3,-1.5,-0.6,0.2,1.7,-0.1,*56
$GNGRS,084739.00,1,-0.8,6.1,-2.0,-18.1,-1.0,7.2,,,,,,*60
$GNGST,084739.00,19,,,,1.5,1.3,2.8*4C
$GNZDA,084739.00,19,05,2025,00,00*71
$GNGBS,084739.00,1.5,1.3,2.8,,,,*52
b0X0
(+"$d=#'G{!Ty"A8$'Bu'9"+ & #{)4
(U`$:R D*E#@`FI*)
*J2P$XRDS!TM b0x'p!$GNRMC,084740.00,A,0419.69019,S,05539.87879,E,0.017,,190525,,,A*78
$GNVTG,,T,,M,0.017,N,0.031,K,A*39
$GNGNS,084740.00,0419.69019,S,05539.87879,E,AA,17,0.61,13.1,-47.6,,*68
$GNGGA,084740.00,0419.69019,S,05539.87879,E,1,12,0.61,13.1,M,-47.6,M,,*47
$GNGSA,A,3,25,23,12,15,29,10,18,24,28,32,26,,1.15,0.61,0.98*14
$GNGSA,A,3,69,80,73,68,74,83,,,,,,,1.15,0.61,0.98*1A
$GPGSV,5,1,17,10,43,239,40,12,36,154,34,13,03,061,21,15,39,071,35*7B
$GPGSV,5,2,17,18,19,340,33,23,65,312,34,24,16,137,36,25,66,188,39*76
$GPGSV,5,3,17,26,08,313,39,28,12,247,43,29,38,026,32,31,01,268,25*7C
$GPGSV,5,4,17,32,14,207,35,36,52,277,41,40,85,352,40,41,58,082,36*72
$GPGSV,5,5,17,49,32,274,*42
$GLGSV,3,1,10,68,25,042,28,69,64,096,35,70,27,194,13,73,41,266,42*6E
$GLGSV,3,2,10,74,13,306,31,80,36,190,31,82,00,068,,83,08,023,33*62
$GLGSV,3,3,10,84,01,333,27,,,,32*5E
$GNGLL,0419.69019,S,05539.87879,E,084740.00,A,A*6D
$GNGRS,084740.00,1,-1.4,4.3,-1.6,-1.3,6.4,-0.3,-6.5,-0.7,0.3,1.8,0.3,*7A
$GNGRS,084740.00,1,-1.0,3.4,-2.1,-16.2,-0.7,6.8,,,,,,*66
$GNGST,084740.00,18,,,,1.5,1.3,2.8*43
$GNZDA,084740.00,19,05,2025,00,00*7F
$GNGBS,084740.00,1.5,1.3,2.8,,,,*5C
b0X
(+"$e=#'G!T"A8$'Bq'9!+ &4 #{*4
(U`#:R D*E#@`FI))
.J2P$!RDS TM bxH$GNRMC,084741.00,A,0419.69019,S,05539.87878,E,0.011,,190525,,,A*7E
$GNVTG,,T,,M,0.011,N,0.020,K,A*3F
$GNGNS,084741.00,0419.69019,S,05539.87878,E,AA,17,0.61,13.1,-47.6,,*68
$GNGGA,084741.00,0419.69019,S,05539.87878,E,1,12,0.61,13.1,M,-47.6,M,,*47
$GNGSA,A,3,25,23,12,15,29,10,18,24,28,32,26,,1.15,0.61,0.98*14
$GNGSA,A,3,69,80,73,68,74,83,,,,,,,1.15,0.61,0.98*1A
$GPGSV,5,1,17,10,43,239,40,12,36,154,34,13,03,061,21,15,39,071,35*7B
$GPGSV,5,2,17,18,19,340,33,23,65,312,34,24,16,137,36,25,66,188,39*76
$GPGSV,5,3,17,26,08,313,39,28,12,247,43,29,38,026,32,31,01,268,25*7C
$GPGSV,5,4,17,32,14,207,35,36,52,277,42,40,85,352,40,41,58,082,35*72
$GPGSV,5,5,17,49,32,274,*42
$GLGSV,3,1,10,68,25,042,28,69,64,096,35,70,27,194,13,73,41,266,41*6D
$GLGSV,3,2,10,74,13,306,30,80,36,190,31,82,00,068,,83,08,023,32*62
$GLGSV,3,3,10,84,01,333,27,,,,32*5E
$GNGLL,0419.69019,S,05539.87878,E,084741.00,A,A*6D
$GNGRS,084741.00,1,-1.4,4.3,-1.6,-1.1,1.8,-0.2,-0.2,-0.5,0.2,1.7,0.3,*7E
$GNGRS,084741.00,1,-0.8,5.4,-2.1,-15.6,-0.8,2.7,,,,,,*6B
$GNGST,084741.00,19,,,,1.5,1.3,2.8*43
$GNZDA,084741.00,19,05,2025,00,00*7E
$GNGBS,084741.00,1.5,1.3,2.8,,,,*5D
b0X
*+#$=%'G$T$A8&)Bb'9%-#& %{+4
*U`$:R D*E#@`uF
I))
6J2P$RDS TM 1bx$GNRMC,084742.00,A,0419.69019,S,05539.87878,E,0.028,,190525,,,A*77
$GNVTG,,T,,M,0.028,N,0.052,K,A*30
$GNGNS,084742.00,0419.69019,S,05539.87878,E,AA,17,0.61,13.0,-47.6,,*6A
$GNGGA,084742.00,0419.69019,S,05539.87878,E,1,12,0.61,13.0,M,-47.6,M,,*45
$GNGSA,A,3,25,23,12,15,29,10,18,24,28,32,26,,1.15,0.61,0.98*14
$GNGSA,A,3,69,80,73,68,74,83,,,,,,,1.15,0.61,0.98*1A
$GPGSV,5,1,17,10,43,239,42,12,36,154,35,13,03,061,22,15,39,071,37*79
$GPGSV,5,2,17,18,19,340,36,23,65,312,36,24,16,137,38,25,66,188,41*70
$GPGSV,5,3,17,26,08,313,39,28,12,247,45,29,38,026,35,31,01,268,26*7E
$GPGSV,5,4,17,32,14,207,37,36,52,277,43,40,85,352,42,41,58,082,36*70
$GPGSV,5,5,17,49,32,274,*42
$GLGSV,3,1,10,68,25,042,26,69,64,096,35,70,27,194,10,73,41,266,41*60
$GLGSV,3,2,10,74,13,306,31,80,36,190,31,82,00,068,,83,08,023,32*63
$GLGSV,3,3,10,84,01,333,26,,,,32*5F
$GNGLL,0419.69019,S,05539.87878,E,084742.00,A,A*6E
$GNGRS,084742.00,1,-1.6,3.8,0.1,-0.8,1.8,-0.1,-3.6,-0.8,0.2,1.6,0.4,*5F
$GNGRS,084742.00,1,-1.4,0.0,-2.0,-18.1,-0.6,2.8,,,,,,*6E
$GNGST,084742.00,18,,,,1.5,1.3,2.8*41
$GNZDA,084742.00,19,05,2025,00,00*7D
$GNGBS,084742.00,1.5,1.3,2.8,,,,*5E
b0X
++$#=#''G"T%A8a&)Bp(97- #& &{,4
+U`%:R D*E"@`IFI*)
CJ 2P$RDS!TM bxm$GNRMC,084743.00,A,0419.69018,S,05539.87877,E,0.025,,190525,,,A*75
$GNVTG,,T,,M,0.025,N,0.046,K,A*38
$GNGNS,084743.00,0419.69018,S,05539.87877,E,AA,17,0.61,13.0,-47.6,,*65
$GNGGA,084743.00,0419.69018,S,05539.87877,E,1,12,0.61,13.0,M,-47.6,M,,*4A
$GNGSA,A,3,25,23,12,15,29,10,18,24,28,32,26,,1.15,0.61,0.98*14
$GNGSA,A,3,69,80,73,68,74,83,,,,,,,1.15,0.61,0.98*1A
$GPGSV,5,1,17,10,43,239,43,12,35,154,36,13,03,061,26,15,39,071,39*72
$GPGSV,5,2,17,18,19,340,34,23,65,312,37,24,16,137,38,25,66,188,41*73
$GPGSV,5,3,17,26,08,313,40,28,12,247,45,29,38,026,35,31,01,268,29*7F
$GPGSV,5,4,17,32,14,207,38,36,52,277,44,40,85,352,43,41,58,082,37*78
$GPGSV,5,5,17,49,32,274,*42
$GLGSV,3,1,10,68,25,042,28,69,64,096,34,70,27,194,,73,41,266,42*6D
$GLGSV,3,2,10,74,13,306,32,80,36,190,31,82,00,068,,83,08,023,33*61
$GLGSV,3,3,10,84,01,333,29,,,,32*50
$GNGLL,0419.69018,S,05539.87877,E,084743.00,A,A*61
$GNGRS,084743.00,1,-1.4,3.5,-0.9,-0.6,2.2,0.0,-0.5,1.9,0.3,1.5,0.6,*72
$GNGRS,084743.00,1,-4.4,-0.7,-1.9,-15.5,1.5,2.7,,,,,,*63
$GNGST,084743.00,21,,,,1.5,1.3,2.8*4A
$GNZDA,084743.00,19,05,2025,00,00*7C
$GNGBS,084743.00,1.5,1.3,2.8,,,,*5F
b0X
++%#=a''G%Ts%A8&)BM(90.#&, &{,4
+U`%:R D*ZE#@`FI*)
OJ 2P$4RDS!TM!bx$GNRMC,084744.00,A,0419.69016,S,05539.87877,E,0.077,,190525,,,A*7B
$GNVTG,,T,,M,0.077,N,0.143,K,A*3B
$GNGNS,084744.00,0419.69016,S,05539.87877,E,AA,17,0.61,12.9,-47.6,,*64
$GNGGA,084744.00,0419.69016,S,05539.87877,E,1,12,0.61,12.9,M,-47.6,M,,*4B
$GNGSA,A,3,25,23,12,15,29,10,18,24,28,32,26,,1.15,0.61,0.98*14
$GNGSA,A,3,69,80,73,68,74,83,,,,,,,1.15,0.61,0.98*1A
$GPGSV,5,1,17,10,43,239,43,12,35,154,37,13,03,061,25,15,39,071,39*70
$GPGSV,5,2,17,18,19,340,37,23,65,312,37,24,16,137,38,25,66,188,41*70
$GPGSV,5,3,17,26,08,313,40,28,12,247,46,29,38,026,35,31,01,268,28*7D
$GPGSV,5,4,17,32,14,207,38,36,52,277,44,40,85,352,43,41,58,082,37*78
$GPGSV,5,5,17,49,32,274,*42
$GLGSV,3,1,10,68,25,042,27,69,64,096,35,70,27,194,,73,41,266,42*63
$GLGSV,3,2,10,74,13,306,32,80,36,190,31,82,00,068,,83,08,023,33*61
$GLGSV,3,3,10,84,01,333,29,,,,33*51
$GNGLL,0419.69016,S,05539.87877,E,084744.00,A,A*68
$GNGRS,084744.00,1,-1.8,1.7,1.7,-0.5,7.4,-0.1,-1.4,-0.6,0.3,1.6,0.5,*54
$GNGRS,084744.00,1,-1.1,3.1,-1.8,-14.5,6.9,-0.1,,,,,,*6E
$GNGST,084744.00,21,,,,1.5,1.3,2.8*4D
$GNZDA,084744.00,19,05,2025,00,00*7B
$GNGBS,084744.00,1.5,1.3,2.8,,,,*58
b0X
)+$#-="%'G"TM#A8'%'BZ'9:,#&* ${*4
)U`#:R D*EE"@`FI*)
PJ 2+P $RDS!TM!!bx
=$GNRMC,084745.00,A,0419.69016,S,05539.87877,E,0.046,,190525,,,A*78
$GNVTG,,T,,M,0.046,N,0.086,K,A*31
$GNGNS,084745.00,0419.69016,S,05539.87877,E,AA,17,0.61,12.8,-47.6,,*64
$GNGGA,084745.00,0419.69016,S,05539.87877,E,1,12,0.61,12.8,M,-47.6,M,,*4B
$GNGSA,A,3,25,23,12,15,29,10,18,24,28,32,26,,1.15,0.61,0.98*14
$GNGSA,A,3,69,80,73,68,74,83,,,,,,,1.15,0.61,0.98*1A
$GPGSV,5,1,17,10,43,239,41,12,35,154,36,13,03,061,23,15,39,071,37*7B
$GPGSV,5,2,17,18,19,340,34,23,65,312,35,24,16,137,37,25,66,188,39*71
$GPGSV,5,3,17,26,08,313,39,28,12,247,44,29,38,026,35,31,01,268,26*7F
$GPGSV,5,4,17,32,14,207,36,36,52,277,42,40,85,352,41,41,58,082,35*70
$GPGSV,5,5,17,49,32,274,*42
$GLGSV,3,1,10,68,25,042,26,69,64,096,34,70,27,194,,73,41,266,42*63
$GLGSV,3,2,10,74,13,306,32,80,36,190,32,82,00,068,,83,08,023,33*62
$GLGSV,3,3,10,84,01,333,28,,,,33*50
$GNGLL,0419.69016,S,05539.87877,E,084745.00,A,A*69
$GNGRS,084745.00,1,-1.7,0.4,0.5,-0.6,1.3,-0.1,0.8,-2.5,0.3,1.5,0.6,*78
$GNGRS,084745.00,1,2.4,4.5,-1.8,-14.7,8.1,-0.5,,,,,,*47
$GNGST,084745.00,22,,,,1.5,1.3,2.8*4F
$GNZDA,084745.00,19,05,2025,00,00*7A
$GNGBS,084745.00,1.5,1.3,2.8,,,,*59
b0X
)+##=%'F#T#A8~$'Bq%9?,"&% $x{*4
)U`#:R D*E#@`FI*)
^J!2dP $RDS TM"Ubx$GNRMC,084746.00,A,0419.69016,S,05539.87877,E,0.026,,190525,,,A*7D
$GNVTG,,T,,M,0.026,N,0.049,K,A*34
$GNGNS,084746.00,0419.69016,S,05539.87877,E,AA,17,0.61,12.8,-47.6,,*67
$GNGGA,084746.00,0419.69016,S,05539.87877,E,1,12,0.61,12.8,M,-47.6,M,,*48
$GNGSA,A,3,25,23,12,15,29,10,18,24,28,32,26,,1.15,0.61,0.98*14
$GNGSA,A,3,69,80,73,68,74,83,,,,,,,1.15,0.61,0.98*1A
$GPGSV,5,1,17,10,43,239,41,12,35,154,35,13,03,061,22,15,39,070,37*78
$GPGSV,5,2,17,18,19,340,35,23,65,312,35,24,16,137,36,25,66,188,39*71
$GPGSV,5,3,17,26,08,313,37,28,12,247,44,29,38,026,34,31,01,268,26*70
$GPGSV,5,4,17,32,14,207,36,36,52,277,42,40,85,352,41,41,58,082,35*70
$GPGSV,5,5,17,49,32,274,*42
$GLGSV,3,1,10,68,25,042,26,69,64,096,35,70,27,194,,73,41,266,42*62
$GLGSV,3,2,10,74,13,306,33,80,36,190,32,82,00,068,,83,08,023,32*62
$GLGSV,3,3,10,84,01,333,28,,,,34*57
$GNGLL,0419.69016,S,05539.87877,E,084746.00,A,A*6A
$GNGRS,084746.00,1,-1.4,1.3,-1.2,-0.6,3.8,0.0,-3.4,-2.4,0.2,1.2,0.6,*55
$GNGRS,084746.00,1,1.4,2.4,-1.6,-14.0,3.6,2.5,,,,,,*6A
$GNGST,084746.00,23,,,,1.5,1.3,2.8*4D
$GNZDA,084746.00,19,05,2025,00,00*79
$GNGBS,084746.00,1.5,1.3,2.8,,,,*5A
b0X
)+$#=%'F"T#A8$'Bw&9),
#& %g{*4
)U`#:R D*E#@`FI*)
HJ!2P!$RDS!TM"<bx[$GNRMC,084747.00,A,0419.69015,S,05539.87877,E,0.024,,190525,,,A*7D
$GNVTG,,T,,M,0.024,N,0.045,K,A*3A
$GNGNS,084747.00,0419.69015,S,05539.87877,E,AA,17,0.61,12.8,-47.6,,*65
$GNGGA,084747.00,0419.69015,S,05539.87877,E,1,12,0.61,12.8,M,-47.6,M,,*4A
$GNGSA,A,3,25,23,12,15,29,10,18,24,28,32,26,,1.15,0.61,0.98*14
$GNGSA,A,3,69,80,73,68,74,83,,,,,,,1.15,0.61,0.98*1A
$GPGSV,5,1,17,10,43,239,41,12,35,154,36,13,03,061,21,15,39,070,37*78
$GPGSV,5,2,17,18,19,340,34,23,65,312,35,24,16,137,36,25,66,188,39*70
$GPGSV,5,3,17,26,08,313,38,28,12,247,44,29,38,026,35,31,01,268,26*7E
$GPGSV,5,4,17,32,14,207,37,36,52,277,42,40,85,352,41,41,58,082,35*71
$GPGSV,5,5,17,49,32,274,*42
$GLGSV,3,1,10,68,25,042,25,69,64,096,35,70,27,194,,73,41,266,42*61
$GLGSV,3,2,10,74,13,306,33,80,36,190,33,82,00,068,,83,08,023,33*62
$GLGSV,3,3,10,84,01,333,27,,,,34*58
$GNGLL,0419.69015,S,05539.87877,E,084747.00,A,A*68
$GNGRS,084747.00,1,-1.4,1.4,-0.9,-0.5,1.9,0.2,-0.8,0.1,0.1,1.0,0.4,*7D
$GNGRS,084747.00,1,1.7,2.2,-1.8,-13.5,4.5,0.1,,,,,,*60
$GNGST,084747.00,23,,,,1.5,1.3,2.8*4C
$GNZDA,084747.00,19,05,2025,00,00*78
$GNGBS,084747.00,1.5,1.3,2.8,,,,*5B
b0Xp
(+##=%'F!TH#A8$t'Bp&9=,"&[ $d{*4
)U`#:R D*`E#@`FI*)
QJ 2uP!$RDS 4TM"bpxg3u$GNRMC,084748.00,A,0419.69015,S,05539.87877,E,0.061,,190525,,,A*73
$GNVTG,,T,,M,0.061,N,0.113,K,A*39
$GNGNS,084748.00,0419.69015,S,05539.87877,E,AA,17,0.61,12.7,-47.6,,*65
$GNGGA,084748.00,0419.69015,S,05539.87877,E,1,12,0.61,12.7,M,-47.6,M,,*4A
$GNGSA,A,3,25,23,12,15,29,10,18,24,28,32,26,,1.15,0.61,0.98*14
$GNGSA,A,3,69,80,73,68,74,83,,,,,,,1.15,0.61,0.98*1A
$GPGSV,5,1,17,10,43,239,40,12,35,154,35,13,03,061,21,15,39,070,37*7A
$GPGSV,5,2,17,18,19,340,33,23,65,312,35,24,16,137,36,25,66,188,39*77
$GPGSV,5,3,17,26,08,313,38,28,12,247,44,29,38,026,34,31,01,268,26*7F
$GPGSV,5,4,17,32,14,207,36,36,52,277,42,40,85,352,41,41,58,082,35*70
$GPGSV,5,5,17,49,32,274,*42
$GLGSV,3,1,10,68,25,042,26,69,64,096,35,70,27,194,,73,41,266,42*62
$GLGSV,3,2,10,74,13,306,32,80,36,190,33,82,00,068,,83,08,023,32*62
$GLGSV,3,3,10,84,01,333,27,,,,34*58
$GNGLL,0419.69015,S,05539.87877,E,084748.00,A,A*67
$GNGRS,084748.00,1,-1.4,1.4,1.5,-0.5,0.9,0.0,-1.8,-1.4,0.2,1.0,0.6,*78
$GNGRS,084748.00,1,1.6,2.6,-1.7,-14.4,3.7,3.1,,,,,,*65
$GNGST,084748.00,23,,,,1.5,1.3,2.8*43
$GNZDA,084748.00,19,05,2025,00,00*77
$GNGBS,084748.00,1.5,1.3,2.8,,,,*54
b0XX
)+##=$'F!U#A8$'Bo&9M,.!&
w $[{*4
*U`%:R D*E#@`FI*)
ZJ 2P$RDSTM!bXxO$GNRMC,084749.00,A,0419.69013,S,05539.87876,E,0.041,,190525,,,A*77
$GNVTG,,T,,M,0.041,N,0.075,K,A*3A
$GNGNS,084749.00,0419.69013,S,05539.87876,E,AA,17,0.61,12.6,-47.6,,*62
$GNGGA,084749.00,0419.69013,S,05539.87876,E,1,12,0.61,12.6,M,-47.6,M,,*4D
$GNGSA,A,3,25,23,12,15,29,10,18,24,28,32,26,,1.15,0.61,0.98*14
$GNGSA,A,3,69,80,73,68,74,83,,,,,,,1.15,0.61,0.98*1A
$GPGSV,5,1,17,10,43,239,41,12,35,154,35,13,03,061,19,15,39,070,36*71
$GPGSV,5,2,17,18,19,341,33,23,65,312,35,24,16,137,36,25,66,188,39*76
$GPGSV,5,3,17,26,08,313,38,28,12,247,44,29,38,026,33,31,01,268,24*7A
$GPGSV,5,4,17,32,14,207,36,36,52,277,42,40,85,352,42,41,58,082,37*71
$GPGSV,5,5,17,49,32,274,*42
$GLGSV,3,1,10,68,25,042,25,69,64,096,35,70,27,194,,73,41,266,42*61
$GLGSV,3,2,10,74,13,306,32,80,36,190,31,82,00,068,,83,08,023,31*63
$GLGSV,3,3,10,84,01,333,26,,,,33*5E
$GNGLL,0419.69013,S,05539.87876,E,084749.00,A,A*61
$GNGRS,084749.00,1,-1.5,1.5,-2.4,-0.4,2.7,-0.1,2.3,-0.8,0.5,0.9,0.8,*5E
$GNGRS,084749.00,1,1.5,-0.4,-1.7,-13.3,3.9,-0.1,,,,,,*6A
$GNGST,084749.00,19,,,,1.4,1.3,2.8*4A
$GNZDA,084749.00,19,05,2025,00,00*76
$GNGBS,084749.00,1.4,1.3,2.8,,,,*54
b0X@
)+"#x=7$'F UE"A8$&Bv%9U+!& #P{*4
)U`#:R D*EE!@`FI()
\J2P$RDSTM@b@x7!$GNRMC,084750.00,A,0419.69014,S,05539.87878,E,0.052,,190525,,,A*74
$GNVTG,,T,,M,0.052,N,0.096,K,A*35
$GNGNS,084750.00,0419.69014,S,05539.87878,E,AA,17,0.61,12.5,-47.6,,*60
$GNGGA,084750.00,0419.69014,S,05539.87878,E,1,12,0.61,12.5,M,-47.6,M,,*4F
$GNGSA,A,3,25,23,12,15,29,10,18,24,28,32,26,,1.15,0.61,0.98*14
$GNGSA,A,3,69,80,73,68,74,83,,,,,,,1.15,0.61,0.98*1A
$GPGSV,5,1,17,10,43,239,41,12,35,154,34,13,03,061,20,15,39,070,36*7A
$GPGSV,5,2,17,18,19,341,32,23,65,312,34,24,16,137,36,25,66,188,38*77
$GPGSV,5,3,17,26,08,313,37,28,12,247,43,29,38,026,33,31,01,268,25*73
$GPGSV,5,4,17,32,14,207,35,36,52,277,42,40,85,352,41,41,58,082,35*73
$GPGSV,5,5,17,49,32,274,*42
$GLGSV,3,1,10,68,25,042,25,69,64,096,33,70,27,194,,73,41,266,40*65
$GLGSV,3,2,10,74,13,306,31,80,36,190,28,82,00,068,,83,08,023,27*6F
$GLGSV,3,3,10,84,01,333,26,,,,30*5D
$GNGLL,0419.69014,S,05539.87878,E,084750.00,A,A*60
$GNGRS,084750.00,1,-1.4,1.7,3.8,0.1,-0.1,-0.1,0.7,1.8,0.3,0.8,0.8,*59
$GNGRS,084750.00,1,1.6,-0.5,-1.6,-12.1,1.4,-1.3,,,,,,*6E
$GNGST,084750.00,21,,,,1.4,1.3,2.8*49
$GNZDA,084750.00,19,05,2025,00,00*7E
$GNGBS,084750.00,1.4,1.3,2.8,,,,*5C
b0X(
(+"#Z=%'F Up"A8$'B&9a+!& $Q{*4
(U`#:R D*E#@`\FI*)
LJ 2aP $RDSxTM Gb(x"$GNRMC,084751.00,A,0419.69013,S,05539.87878,E,0.017,,190525,,,A*73
$GNVTG,,T,,M,0.017,N,0.031,K,A*39
$GNGNS,084751.00,0419.69013,S,05539.87878,E,AA,17,0.61,12.5,-47.6,,*66
$GNGGA,084751.00,0419.69013,S,05539.87878,E,1,12,0.61,12.5,M,-47.6,M,,*49
$GNGSA,A,3,25,23,12,15,29,10,18,24,28,32,26,,1.15,0.61,0.98*14
$GNGSA,A,3,69,80,73,68,74,83,,,,,,,1.15,0.61,0.98*1A
$GPGSV,5,1,17,10,43,239,40,12,35,154,34,13,03,061,20,15,39,070,37*7A
$GPGSV,5,2,17,18,19,341,32,23,65,312,34,24,16,137,36,25,66,188,39*76
$GPGSV,5,3,17,26,08,313,38,28,12,247,43,29,38,026,33,31,01,268,25*7C
$GPGSV,5,4,17,32,14,207,36,36,52,277,42,40,85,352,40,41,58,082,35*71
$GPGSV,5,5,17,49,32,274,*42
$GLGSV,3,1,10,68,25,042,26,69,64,096,35,70,27,194,,73,41,266,42*62
$GLGSV,3,2,10,74,13,306,32,80,36,190,32,82,00,068,,83,08,023,30*61
$GLGSV,3,3,10,84,01,333,27,,,,32*5E
$GNGLL,0419.69013,S,05539.87878,E,084751.00,A,A*66
$GNGRS,084751.00,1,-1.0,1.8,0.9,0.3,-0.4,0.0,1.1,-1.1,0.2,0.8,1.0,*51
$GNGRS,084751.00,1,3.5,-5.1,-1.8,-12.9,1.0,-3.9,,,,,,*65
$GNGST,084751.00,19,,,,1.4,1.3,2.7*4C
$GNZDA,084751.00,19,05,2025,00,00*7F
$GNGBS,084751.00,1.4,1.3,2.7,,,,*52
b0X
(+##=%'F!U#A8$~'B&9=+ &U $,{*4
)U`#:R D*TE$@`?FI+)
CJ!2P $RDSTM!=bx&$GNRMC,084752.00,A,0419.69011,S,05539.87879,E,0.013,,190525,,,A*77
$GNVTG,,T,,M,0.013,N,0.023,K,A*3E
$GNGNS,084752.00,0419.69011,S,05539.87879,E,AA,17,0.61,12.5,-47.6,,*66
$GNGGA,084752.00,0419.69011,S,05539.87879,E,1,12,0.61,12.5,M,-47.6,M,,*49
$GNGSA,A,3,25,23,12,15,29,10,18,24,28,32,26,,1.15,0.61,0.98*14
$GNGSA,A,3,69,80,73,68,74,83,,,,,,,1.15,0.61,0.98*1A
$GPGSV,5,1,17,10,43,239,40,12,35,154,35,13,03,061,21,15,39,070,37*7A
$GPGSV,5,2,17,18,19,341,33,23,65,312,35,24,16,137,36,25,66,188,39*76
$GPGSV,5,3,17,26,08,313,38,28,12,247,43,29,38,026,32,31,01,268,25*7D
$GPGSV,5,4,17,32,14,207,36,36,52,277,42,40,85,352,41,41,58,082,35*70
$GPGSV,5,5,17,49,32,274,*42
$GLGSV,3,1,10,68,25,042,27,69,64,096,36,70,27,194,,73,41,266,43*61
$GLGSV,3,2,10,74,13,306,33,80,36,190,32,82,00,068,,83,08,023,31*61
$GLGSV,3,3,10,84,01,333,27,,,,33*5F
$GNGLL,0419.69011,S,05539.87879,E,084752.00,A,A*66
$GNGRS,084752.00,1,-0.6,1.5,1.5,0.2,0.8,-0.2,2.5,-1.3,0.0,0.4,0.6,*56
$GNGRS,084752.00,1,3.2,-3.2,-1.9,-12.0,-2.4,7.4,,,,,,*62
$GNGST,084752.00,18,,,,1.4,1.3,2.7*4E
$GNZDA,084752.00,19,05,2025,00,00*7C
$GNGBS,084752.00,1.4,1.3,2.7,,,,*51
b0X
)+$#O=!'F U"@9#&B&98+!& $3{*4
)U`#:R D*$E$@`UFI+)
/J!2}P $RDS TM!bx)eG$GNRMC,084753.00,A,0419.69010,S,05539.87881,E,0.037,,190525,,,A*76
$GNVTG,,T,,M,0.037,N,0.069,K,A*36
$GNGNS,084753.00,0419.69010,S,05539.87881,E,AA,17,0.61,12.5,-47.6,,*61
$GNGGA,084753.00,0419.69010,S,05539.87881,E,1,12,0.61,12.5,M,-47.6,M,,*4E
$GNGSA,A,3,25,23,12,15,29,10,18,24,28,32,26,,1.15,0.61,0.98*14
$GNGSA,A,3,69,80,73,68,74,83,,,,,,,1.15,0.61,0.98*1A
$GPGSV,5,1,17,10,43,239,41,12,35,154,36,13,03,061,21,15,39,070,33*7C
$GPGSV,5,2,17,18,19,341,32,23,64,313,34,24,16,137,35,25,66,188,38*74
$GPGSV,5,3,17,26,08,313,38,28,12,247,43,29,38,026,33,31,01,268,25*7C
$GPGSV,5,4,17,32,14,207,36,36,52,277,42,40,85,352,41,41,58,082,35*70
$GPGSV,5,5,17,49,32,274,*42
$GLGSV,3,1,10,68,25,042,26,69,64,096,36,70,27,194,,73,41,266,43*60
$GLGSV,3,2,10,74,13,306,33,80,36,190,32,82,00,068,,83,08,023,32*62
$GLGSV,3,3,10,84,01,333,27,,,,33*5F
$GNGLL,0419.69010,S,05539.87881,E,084753.00,A,A*61
$GNGRS,084753.00,1,-0.4,1.5,0.8,0.0,1.4,0.0,0.0,-1.1,-0.1,0.5,0.6,*51
$GNGRS,084753.00,1,3.4,2.5,-2.1,-12.4,3.8,10.3,,,,,,*50
$GNGST,084753.00,19,,,,1.4,1.3,2.7*4E
$GNZDA,084753.00,19,05,2025,00,00*7D
$GNGBS,084753.00,1.4,1.3,2.7,,,,*50
b0X
(+$#= 'F
 U#@9#&B&9/+$& #8{*4
)U`$:R D*E$@`hFI,)
.J 2YP $&RDS TM!bx-=$GNRMC,084754.00,A,0419.69009,S,05539.87882,E,0.004,,190525,,,A*7A
$GNVTG,,T,,M,0.004,N,0.008,K,A*31
$GNGNS,084754.00,0419.69009,S,05539.87882,E,AA,17,0.61,12.5,-47.6,,*6D
$GNGGA,084754.00,0419.69009,S,05539.87882,E,1,12,0.61,12.5,M,-47.6,M,,*42
$GNGSA,A,3,25,23,12,15,29,10,18,24,28,32,26,,1.15,0.61,0.98*14
$GNGSA,A,3,69,80,73,68,74,83,,,,,,,1.15,0.61,0.98*1A
$GPGSV,5,1,17,10,43,239,40,12,35,154,36,13,03,061,20,15,39,070,32*7D
$GPGSV,5,2,17,18,19,341,32,23,64,313,35,24,16,136,35,25,66,188,38*74
$GPGSV,5,3,17,26,08,313,38,28,12,247,43,29,38,026,36,31,01,268,25*79
$GPGSV,5,4,17,32,14,207,35,36,52,277,42,40,85,352,41,41,58,082,36*70
$GPGSV,5,5,17,49,32,274,*42
$GLGSV,3,1,10,68,25,042,27,69,64,096,36,70,27,194,,73,41,266,44*66
$GLGSV,3,2,10,74,13,306,32,80,36,190,32,82,00,068,,83,08,023,32*63
$GLGSV,3,3,10,84,01,333,29,,,,33*51
$GNGLL,0419.69009,S,05539.87882,E,084754.00,A,A*6D
$GNGRS,084754.00,1,-0.4,1.3,-0.5,0.1,2.3,0.2,0.3,-0.3,0.1,0.6,0.5,*5A
$GNGRS,084754.00,1,3.6,-2.2,-2.1,-15.2,0.9,4.5,,,,,,*4F
$GNGST,084754.00,18,,,,1.4,1.3,2.7*48
$GNZDA,084754.00,19,05,2025,00,00*7A
$GNGBS,084754.00,1.4,1.3,2.7,,,,*57
b0X
(+$#=S 'F!U#@9}#&A&9+"&)t #@{*4
)U`$:R D*aE"@`FI))
J2P$RDS(TM4(bx1$GNRMC,084755.00,A,0419.69008,S,05539.87883,E,0.010,,190525,,,A*7E
$GNVTG,,T,,M,0.010,N,0.018,K,A*35
$GNGNS,084755.00,0419.69008,S,05539.87883,E,AA,17,0.61,12.5,-47.6,,*6C
$GNGGA,084755.00,0419.69008,S,05539.87883,E,1,12,0.61,12.5,M,-47.6,M,,*43
$GNGSA,A,3,25,23,12,15,29,10,18,24,28,32,26,,1.15,0.61,0.98*14
$GNGSA,A,3,69,80,73,68,74,83,,,,,,,1.15,0.61,0.98*1A
$GPGSV,5,1,17,10,43,239,40,12,35,154,36,13,03,061,19,15,39,070,32*77
$GPGSV,5,2,17,18,19,341,33,23,64,313,35,24,16,136,35,25,65,188,38*76
