b0L 1,CE/u %
"#$&0W,Q{4V_#:R 
Y
tyAsGKH"J
K5L=BMKVbWG=Xb rO.$GNRMC,062510.00,A,0419.99432,S,05539.82344,E,0.174,,230525,,,D*7D
$GNVTG,,T,,M,0.174,N,0.323,K,D*38
$GNGNS,062510.00,0419.99432,S,05539.82344,E,DA,16,0.76,17.3,-47.6,,0000*61
$GNGGA,062510.00,0419.99432,S,05539.82344,E,2,12,0.76,17.3,M,-47.6,M,,0000*49
$GNGSA,A,3,24,20,05,13,15,12,18,25,23,,,,1.48,0.76,1.27*1F
$GNGSA,A,3,86,75,87,71,72,76,65,,,,,,1.48,0.76,1.27*16
$GPGSV,4,1,16,05,49,044,31,12,69,047,28,13,14,117,16,15,37,149,32*7E
$GPGSV,4,2,16,18,34,278,18,20,16,035,22,23,36,207,28,24,38,185,28*71
$GPGSV,4,3,16,25,48,343,27,28,01,300,,29,12,337,,36,52,277,*74
$GPGSV,4,4,16,40,86,351,31,41,58,082,35,49,32,274,,50,10,089,*7D
$GLGSV,3,1,10,65,17,187,18,71,17,075,27,72,34,128,19,74,03,155,10*62
$GLGSV,3,2,10,75,53,163,24,76,61,322,25,77,14,331,,86,06,008,11*65
$GLGSV,3,3,10,87,17,327,11,88,08,270,*66
$GNGLL,0419.99432,S,05539.82344,E,062510.00,A,D*65
$GNGRS,062510.00,1,-2.6,-0.3,3.2,1.8,-5.1,7.2,-12.6,1.9,7.1,,,*4B
$GNGRS,062510.00,1,-50.2,4.3,-73.6,-5.5,-18.5,4.4,8.8,,,,,*40
$GNGST,062510.00,40,,,,3.1,4.0,8.9*4A
$GNZDA,062510.00,23,05,2025,00,00*79
$GNGBS,062510.00,3.1,4.0,8.9,,,,*58
$GNTXT,01,01,01,More than 100 frame errors, UART RX was disabled*70
b0L 1,E/u%
"#$l&0W,Q{4!V_#:R 
Y
tAGKfH"JK5L=B4MKVWGXb r6$GNRMC,062512.00,A,0419.99429,S,05539.82343,E,0.088,,230525,,,D*70
$GNVTG,,T,,M,0.088,N,0.163,K,D*3C
$GNGNS,062512.00,0419.99429,S,05539.82343,E,DA,16,0.69,17.4,-47.6,,0000*67
$GNGGA,062512.00,0419.99429,S,05539.82343,E,2,12,0.69,17.4,M,-47.6,M,,0000*4F
$GNGSA,A,3,24,20,05,13,15,12,18,25,23,,,,1.31,0.69,1.12*19
$GNGSA,A,3,86,75,87,71,72,76,65,,,,,,1.31,0.69,1.12*10
$GPGSV,4,1,16,05,49,044,31,12,69,047,27,13,14,117,16,15,37,149,31*72
$GPGSV,4,2,16,18,34,278,21,20,16,035,20,23,36,207,27,24,38,185,27*79
$GPGSV,4,3,16,25,48,343,27,28,01,300,,29,12,337,,36,52,277,*74
$GPGSV,4,4,16,40,86,351,33,41,58,082,35,49,32,274,,50,10,089,*7F
$GLGSV,3,1,10,65,17,187,14,71,17,075,25,72,34,128,12,74,03,155,07*61
$GLGSV,3,2,10,75,53,163,20,76,61,322,23,77,14,331,,86,05,009,07*62
$GLGSV,3,3,10,87,16,327,08,88,08,270,*6F
$GNGLL,0419.99429,S,05539.82343,E,062512.00,A,D*6A
$GNGRS,062512.00,1,-2.8,-1.0,0.0,2.0,-3.3,5.0,-13.7,1.6,8.8,,,*42
$GNGRS,062512.00,1,23.1,1.9,12.4,-4.1,-30.8,5.6,17.7,,,,,*7F
$GNGST,062512.00,3071473,,,,3.1,4.1,9.0*70
$GNZDA,062512.00,23,05,2025,00,00*7B
$GNGBS,062512.00,3.1,4.1,9.0,,,,*53
$GNTXT,01,01,01,More than 100 frame errors, UART RX was disabled*70
b0Lx  1,E/:u %
"#7$V&60W,Q{4!V_#:R 
Y
tA\GKH"<JEK5L=BJMKV|5WGXbx r:d$GNRMC,062513.00,A,0419.99425,S,05539.82336,E,0.271,,230525,,,D*7B
$GNVTG,,T,,M,0.271,N,0.502,K,D*3B
$GNGNS,062513.00,0419.99425,S,05539.82336,E,DA,16,0.79,17.3,-47.6,,0000*6E
$GNGGA,062513.00,0419.99425,S,05539.82336,E,2,12,0.79,17.3,M,-47.6,M,,0000*46
$GNGSA,A,3,24,20,05,13,15,12,18,25,23,,,,1.52,0.79,1.30*1D
$GNGSA,A,3,86,75,87,71,72,76,65,,,,,,1.52,0.79,1.30*14
$GPGSV,4,1,16,05,49,044,32,12,69,047,28,13,14,117,17,15,37,149,32*7C
$GPGSV,4,2,16,18,34,278,23,20,16,035,20,23,36,207,27,24,38,185,27*7B
$GPGSV,4,3,16,25,48,343,27,28,01,300,,29,12,337,,36,52,277,*74
$GPGSV,4,4,16,40,86,351,33,41,58,082,35,49,32,274,,50,10,089,*7F
$GLGSV,3,1,10,65,17,187,15,71,17,075,27,72,34,128,17,74,03,155,08*68
$GLGSV,3,2,10,75,53,163,24,76,61,322,23,77,14,331,,86,05,009,11*61
$GLGSV,3,3,10,87,16,327,09,88,08,270,*6E
$GNGLL,0419.99425,S,05539.82336,E,062513.00,A,D*65
$GNGRS,062513.00,1,-4.6,0.5,-1.1,1.7,-3.3,3.1,-11.2,2.9,8.5,,,*4A
$GNGRS,062513.00,1,137,2.0,45.6,-5.0,-30.1,5.9,16.3,,,,,*5C
$GNGST,062513.00,39,,,,3.1,4.1,9.0*4E
$GNZDA,062513.00,23,05,2025,00,00*7A
$GNGBS,062513.00,3.1,4.1,9.0,,,,*52
$GNTXT,01,01,01,More than 100 frame errors, UART RX was disabled*70
b0L`  1,lE/{u %4
"#$&0W],Q{4"V_#:R 
Y
tRAGK0H"J
K5L=BMKV&WGXb` r=;Q$GNRMC,062514.00,A,0419.99427,S,05539.82341,E,0.025,,230525,,,D*7D
$GNVTG,,T,,M,0.025,N,0.046,K,D*3D
$GNGNS,062514.00,0419.99427,S,05539.82341,E,DA,16,0.69,17.8,-47.6,,0000*61
$GNGGA,062514.00,0419.99427,S,05539.82341,E,2,12,0.69,17.8,M,-47.6,M,,0000*49
$GNGSA,A,3,24,20,05,13,15,12,18,25,23,,,,1.31,0.69,1.12*19
$GNGSA,A,3,86,75,87,71,72,76,65,,,,,,1.31,0.69,1.12*10
$GPGSV,4,1,16,05,49,044,32,12,69,047,28,13,14,117,17,15,37,149,32*7C
$GPGSV,4,2,16,18,34,278,23,20,16,035,21,23,36,207,28,24,38,185,27*75
$GPGSV,4,3,16,25,48,343,28,28,01,300,,29,12,337,,36,52,277,*7B
$GPGSV,4,4,16,40,86,351,34,41,58,082,35,49,32,274,,50,10,089,*78
$GLGSV,3,1,10,65,17,187,16,71,17,075,27,72,34,128,19,74,03,155,10*6C
$GLGSV,3,2,10,75,53,163,24,76,61,322,24,77,14,331,,86,05,009,09*6F
$GLGSV,3,3,10,87,16,327,11,88,08,270,*67
$GNGLL,0419.99427,S,05539.82341,E,062514.00,A,D*60
$GNGRS,062514.00,1,-2.6,0.1,3.6,4.8,-2.0,6.4,-10.5,3.5,9.5,,,*65
$GNGRS,062514.00,1,23.4,2.7,12.7,-4.6,-28.3,6.9,12.7,,,,,*7E
$GNGST,062514.00,3071473,,,,3.6,4.6,9.3*75
$GNZDA,062514.00,23,05,2025,00,00*7D
$GNGBS,062514.00,3.6,4.6,9.3,,,,*56
$GNTXT,01,01,01,More than 100 frame errors, UART RX was disabled*70
$GNTXT,01,01,01,More than 100 frame errors, UART RX was disabled*70
$GNTXT,01,01,01,More than 100 frame errors, UART RX was disabled*70
$GNTXT,01,01,01,More than 100 frame errors, UART RX was disabled*70
b0L  1,
E/u%1
"#$&0W;,Q{4"V_#:R 
Y
tAGKH"JK5pL=BMKVWG9Xvb rwQrJ$GNRMC,062519.00,A,0419.99426,S,05539.82337,E,0.143,,230525,,,D*71
$GNVTG,,T,,M,0.143,N,0.265,K,D*3F
$GNGNS,062519.00,0419.99426,S,05539.82337,E,DA,16,0.72,19.0,-47.6,,0000*60
$GNGGA,062519.00,0419.99426,S,05539.82337,E,2,12,0.72,19.0,M,-47.6,M,,0000*48
$GNGSA,A,3,24,20,05,13,15,12,18,25,23,,,,1.31,0.72,1.09*19
$GNGSA,A,3,86,75,87,71,72,76,65,,,,,,1.31,0.72,1.09*10
$GPGSV,4,1,16,05,49,044,32,12,69,047,29,13,14,117,21,15,37,149,31*7B
$GPGSV,4,2,16,18,34,278,23,20,16,035,22,23,36,207,27,24,38,185,29*77
$GPGSV,4,3,16,25,48,343,28,28,01,300,,29,12,337,,36,52,277,*7B
$GPGSV,4,4,16,40,86,351,34,41,58,082,35,49,32,274,,50,10,089,*78
$GLGSV,3,1,10,65,17,187,13,71,17,075,26,72,34,128,19,74,03,155,07*6E
$GLGSV,3,2,10,75,53,163,25,76,61,322,28,77,14,331,,86,05,009,08*63
$GLGSV,3,3,10,87,16,327,07,88,08,270,*60
$GNGLL,0419.99426,S,05539.82337,E,062519.00,A,D*6D
$GNGRS,062519.00,1,-0.2,-0.3,2.7,2.1,-2.1,7.4,-10.1,0.6,9.3,,,*4C
$GNGRS,062519.00,1,-5.5,3.7,-83.9,-2.7,-23.1,2.6,10.5,,,,,*44
$GNGST,062519.00,49,,,,3.4,4.4,9.2*41
$GNZDA,062519.00,23,05,2025,00,00*70
$GNGBS,062519.00,3.4,4.4,9.2,,,,*5A
$GNTXT,01,01,01,More than 100 frame errors, UART RX was disabled*70
b0L  1,E/u %
")#$&0Wu,Q{4"V_$:R 
Y
tAGKH"=JDK5L=BMKV:W
GXb r_UJ$GNRMC,062520.00,A,0419.99422,S,05539.82339,E,0.060,,230525,,,D*71
$GNVTG,,T,,M,0.060,N,0.110,K,D*3E
$GNGNS,062520.00,0419.99422,S,05539.82339,E,DA,16,0.69,19.4,-47.6,,0000*6E
$GNGGA,062520.00,0419.99422,S,05539.82339,E,2,12,0.69,19.4,M,-47.6,M,,0000*46
$GNGSA,A,3,24,20,05,13,15,12,18,25,23,,,,1.31,0.69,1.12*19
$GNGSA,A,3,86,75,87,71,72,76,65,,,,,,1.31,0.69,1.12*10
$GPGSV,4,1,16,05,49,044,32,12,69,047,28,13,14,117,20,15,37,149,32*78
$GPGSV,4,2,16,18,34,278,23,20,16,035,20,23,36,207,28,24,38,185,30*72
$GPGSV,4,3,16,25,48,343,28,28,01,300,,29,12,337,,36,52,277,*7B
$GPGSV,4,4,16,40,86,351,34,41,58,082,36,49,32,274,,50,10,089,*7B
$GLGSV,3,1,10,65,17,187,14,71,17,075,26,72,34,128,18,74,03,155,08*67
$GLGSV,3,2,10,75,53,163,26,76,61,322,28,77,14,331,,86,05,009,09*61
$GLGSV,3,3,10,87,16,327,10,88,08,270,*66
$GNGLL,0419.99422,S,05539.82339,E,062520.00,A,D*6D
$GNGRS,062520.00,1,-5.5,1.5,2.8,0.0,-5.5,2.2,-12.4,6.3,11.7,,,*5B
$GNGRS,062520.00,1,23.6,2.7,12.8,-3.6,-22.4,0.2,10.5,,,,,*73
$GNGST,062520.00,3072448,,,,3.4,4.4,9.3*79
$GNZDA,062520.00,23,05,2025,00,00*7A
$GNGBS,062520.00,3.4,4.4,9.3,,,,*51
$GNTXT,01,01,01,More than 100 frame errors, UART RX was disabled*70
b0L  1,E/uU %
"#$&u0WY,Q{4"V_$:R 
Y
tAGKH"J8K5L=BOMKV'WGXb ra$GNRMC,062523.00,A,0419.99417,S,05539.82340,E,0.065,,230525,,,D*7F
$GNVTG,,T,,M,0.065,N,0.120,K,D*38
$GNGNS,062523.00,0419.99417,S,05539.82340,E,DA,15,0.79,20.4,-47.6,,0000*6D
$GNGGA,062523.00,0419.99417,S,05539.82340,E,2,12,0.79,20.4,M,-47.6,M,,0000*46
$GNGSA,A,3,24,20,05,13,15,12,18,25,23,,,,1.52,0.79,1.30*1D
$GNGSA,A,3,86,75,71,72,76,65,,,,,,,1.52,0.79,1.30*1B
$GPGSV,4,1,16,05,49,044,32,12,69,047,29,13,14,117,17,15,37,149,32*7D
$GPGSV,4,2,16,18,34,278,20,20,16,035,19,23,36,207,27,24,38,185,28*7D
$GPGSV,4,3,16,25,48,343,27,28,01,300,,29,12,337,,36,52,277,*74
$GPGSV,4,4,16,40,86,351,34,41,58,082,36,49,32,274,,50,10,089,*7B
$GLGSV,3,1,10,65,17,187,14,71,17,075,26,72,34,128,18,74,03,155,09*66
$GLGSV,3,2,10,75,53,163,26,76,61,322,27,77,14,331,,86,05,009,11*67
$GLGSV,3,3,10,87,16,327,06,88,08,270,*61
$GNGLL,0419.99417,S,05539.82340,E,062523.00,A,D*66
$GNGRS,062523.00,1,1.2,0.1,2.4,-1.7,-4.9,5.4,-13.1,6.0,14.9,,,*54
$GNGRS,062523.00,1,23.4,1.7,-5.7,-22.9,0.8,7.6,,,,,,*51
$GNGST,062523.00,32049,,,,3.3,4.4,9.4*78
$GNZDA,062523.00,23,05,2025,00,00*79
$GNGBS,062523.00,3.3,4.4,9.4,,,,*52
b0Lp  1,E/{u %
"%#$'&0W,Q{4"V_$:R 
Y
tAGKfH"iJ:K5L=BMKV"WGXbp rdO$GNRMC,062524.00,A,0419.99417,S,05539.82340,E,0.033,,230525,,,D*7B
$GNVTG,,T,,M,0.033,N,0.061,K,D*3F
$GNGNS,062524.00,0419.99417,S,05539.82340,E,DA,16,0.69,20.6,-47.6,,0000*6A
$GNGGA,062524.00,0419.99417,S,05539.82340,E,2,12,0.69,20.6,M,-47.6,M,,0000*42
$GNGSA,A,3,24,20,05,13,15,12,18,25,23,,,,1.31,0.69,1.12*19
$GNGSA,A,3,86,75,87,71,72,76,65,,,,,,1.31,0.69,1.12*10
$GPGSV,4,1,16,05,49,044,32,12,69,047,28,13,14,117,16,15,37,149,32*7D
$GPGSV,4,2,16,18,34,278,19,20,16,035,20,23,36,207,27,24,38,185,27*72
$GPGSV,4,3,16,25,48,343,27,28,01,300,,29,12,337,,36,52,277,*74
$GPGSV,4,4,16,40,86,351,34,41,58,082,36,49,32,274,,50,10,089,*7B
$GLGSV,3,1,10,65,17,187,17,71,17,075,25,72,34,128,18,74,03,155,08*67
$GLGSV,3,2,10,75,53,163,27,76,61,322,27,77,14,331,,86,05,009,09*6F
$GLGSV,3,3,10,87,16,327,12,88,08,270,*64
$GNGLL,0419.99417,S,05539.82340,E,062524.00,A,D*61
$GNGRS,062524.00,1,-0.5,1.7,2.2,0.1,-3.7,8.9,-12.4,5.0,13.2,,,*51
$GNGRS,062524.00,1,23.4,2.5,12.4,-4.1,-24.6,0.0,7.5,,,,,*4B
$GNGST,062524.00,46675,,,,3.3,4.3,9.4*72
$GNZDA,062524.00,23,05,2025,00,00*7E
$GNGBS,062524.00,3.3,4.3,9.4,,,,*52
$GNTXT,01,01,01,More than 100 frame errors, UART RX was disabled*70
$GNGSA,A,3,24,20,05,13,15,12,18,25,23,,,,1.52,0.79,1.30*1D
$GNGSA,A,3,86,75,87,71,72,76,65,,,,,,1.52,0.79,1.30*14
$GPGSV,4,1,16,05,49,044,32,12,69,049,28,13,14,117,15,15,37,149,33*71
$GPGSV,4,2,16,18,34,278,20,20,16,035,20,23,36,207,27,24,38,185,27*78
$GPGSV,4,3,16,25,48,343,26,28,01,300,,29,12,337,,36,52,277,*75
$GPGSV,4,4,16,40,86,351,34,41,58,082,36,49,32,274,,50,10,089,*7B
$GLGSV,3,1,10,65,17,187,11,71,17,075,25,72,34,128,19,74,03,155,11*68
$GLGSV,3,2,10,75,53,163,26,76,61,322,27,77,14,331,,86,05,009,09*6E
$GLGSV,3,3,10,87,16,327,08,88,08,270,*6F
$GNGLL,0419.99417,S,05539.82339,E,062525.00,A,D*6E
$GNGRS,062525.00,1,3.0,2.2,2.9,-1.8,-3.4,4.4,-11.3,2.6,10.0,,,*55
$GNGRS,062525.00,1,65.3,1.4,-100,-4.4,-22.9,-1.7,7.5,,,,,*6F
$GNGST,062525.00,41,,,,3.3,4.3,9.4*40
$GNZDA,062525.00,23,05,2025,00,00*7F
$GNGBS,062525.00,3.3,4.3,9.4,,,,*53
$GNTXT,01,01,01,More than 100 frame errors, UART RX was disabled*70
b0L@  1,1E1u'%
"p#${&M0WQ,Q{4!V_$:R 
Y
tA.GKlH"zJPK5L=B,MKV:WGXb@ rlY$GNRMC,062526.00,A,0419.99418,S,05539.82341,E,0.055,,230525,,,D*77
$GNVTG,,T,,M,0.055,N,0.101,K,D*38
$GNGNS,062526.00,0419.99418,S,05539.82341,E,DA,16,0.69,21.0,-47.6,,0000*61
$GNGGA,062526.00,0419.99418,S,05539.82341,E,2,12,0.69,21.0,M,-47.6,M,,0000*49
$GNGSA,A,3,24,20,05,13,15,12,18,25,23,,,,1.31,0.69,1.12*19
$GNGSA,A,3,86,75,87,71,72,76,65,,,,,,1.31,0.69,1.12*10
$GPGSV,4,1,16,05,49,044,32,12,69,049,28,13,14,117,12,15,37,149,31*74
$GPGSV,4,2,16,18,34,278,20,20,16,035,20,23,36,207,27,24,38,185,27*78
$GPGSV,4,3,16,25,48,343,26,28,01,300,,29,12,337,,36,52,277,*75
$GPGSV,4,4,16,40,86,351,33,41,58,082,36,49,32,274,,50,10,089,*7C
$GLGSV,3,1,10,65,17,187,15,71,17,075,25,72,34,128,18,74,03,155,08*65
$GLGSV,3,2,10,75,53,163,27,76,61,322,27,77,14,331,,86,05,009,08*6E
$GLGSV,3,3,10,87,16,327,11,88,08,270,*67
$GNGLL,0419.99418,S,05539.82341,E,062526.00,A,D*6D
$GNGRS,062526.00,1,3.3,2.1,3.1,-2.2,-3.2,6.8,-11.7,3.4,8.9,,,*69
$GNGRS,062526.00,1,23.6,1.3,12.7,-4.0,-24.4,-4.7,5.6,,,,,*61
$GNGST,062526.00,3071473,,,,3.2,4.3,9.5*73
$GNZDA,062526.00,23,05,2025,00,00*7C
$GNGBS,062526.00,3.2,4.3,9.5,,,,*50
$GNTXT,01,01,01,More than 100 frame errors, UART RX was disabled*70
b0L( !1,E1u %
"#$s&0W,Q{4"V_%:R 
Y
t0AGKH"J\K5L=BMKV=W
GXcb( rp1$GNRMC,062527.00,A,0419.99419,S,05539.82342,E,0.197,,230525,,,D*7B
$GNVTG,,T,,M,0.197,N,0.364,K,D*36
$GNGNS,062527.00,0419.99419,S,05539.82342,E,DA,16,0.69,21.3,-47.6,,0000*61
$GNGGA,062527.00,0419.99419,S,05539.82342,E,2,12,0.69,21.3,M,-47.6,M,,0000*49
$GNGSA,A,3,24,20,05,13,15,12,18,25,23,,,,1.31,0.69,1.12*19
$GNGSA,A,3,86,75,87,71,72,76,65,,,,,,1.31,0.69,1.12*10
$GPGSV,4,1,16,05,49,044,33,12,69,049,27,13,14,117,11,15,37,149,32*7A
$GPGSV,4,2,16,18,34,278,20,20,16,035,19,23,36,207,27,24,38,185,27*72
$GPGSV,4,3,16,25,48,343,26,28,01,300,,29,12,337,,36,52,277,*75
$GPGSV,4,4,16,40,86,351,34,41,58,082,37,49,32,274,,50,10,089,*7A
$GLGSV,3,1,10,65,17,187,20,71,17,075,25,72,34,128,19,74,03,155,07*6D
$GLGSV,3,2,10,75,53,163,25,76,61,322,28,77,14,331,,86,05,009,08*63
$GLGSV,3,3,10,87,16,327,10,88,08,270,*66
$GNGLL,0419.99419,S,05539.82342,E,062527.00,A,D*6E
$GNGRS,062527.00,1,2.2,2.0,2.8,-2.4,-3.1,12.0,-10.9,2.4,6.3,,,*53
$GNGRS,062527.00,1,23.7,0.3,12.6,-2.4,-24.0,-5.8,4.6,,,,,*68
$GNGST,062527.00,3071473,,,,3.2,4.3,9.5*72
$GNZDA,062527.00,23,05,2025,00,00*7D
$GNGBS,062527.00,3.2,4.3,9.5,,,,*51
$GNTXT,01,01,01,More than 100 frame errors, UART RX was disabled*70
b0L !1,E1u %
"#$&0W,Q{4"V_$:R 
Y
tAGK5H"@JFK5.L=BMKV
W
GX9Ob rt$GNRMC,062528.00,A,0419.99418,S,05539.82342,E,0.033,,230525,,,D*7A
$GNVTG,,T,,M,0.033,N,0.061,K,D*3F
$GNGNS,062528.00,0419.99418,S,05539.82342,E,DA,15,0.81,21.5,-47.6,,0000*6C
$GNGGA,062528.00,0419.99418,S,05539.82342,E,2,12,0.81,21.5,M,-47.6,M,,0000*47
$GNGSA,A,3,24,20,05,15,12,18,25,23,,,,,1.55,0.81,1.32*1D
$GNGSA,A,3,86,75,87,71,72,76,65,,,,,,1.55,0.81,1.32*16
$GPGSV,4,1,16,05,49,044,33,12,69,049,27,13,14,117,09,15,37,149,32*73
$GPGSV,4,2,16,18,34,278,19,20,16,035,19,23,36,207,27,24,38,185,25*7A
$GPGSV,4,3,16,25,48,343,26,28,01,300,,29,12,337,,36,52,277,*75
$GPGSV,4,4,16,40,86,351,34,41,58,082,36,49,32,274,,50,10,089,*7B
$GLGSV,3,1,10,65,17,187,19,71,17,075,24,72,34,128,18,74,03,155,08*68
$GLGSV,3,2,10,75,53,163,26,76,61,322,27,77,14,331,,86,05,009,10*66
$GLGSV,3,3,10,87,16,327,10,88,08,270,*66
$GNGLL,0419.99418,S,05539.82342,E,062528.00,A,D*60
$GNGRS,062528.00,1,2.5,2.1,2.6,-3.3,11.9,-10.1,4.9,6.7,,,,*5E
$GNGRS,062528.00,1,-87.6,0.5,-134,-2.0,-22.4,-3.3,2.9,,,,,*41
$GNGST,062528.00,38,,,,3.2,4.3,9.6*40
$GNZDA,062528.00,23,05,2025,00,00*72
$GNGBS,062528.00,3.2,4.3,9.6,,,,*5D
$GNTXT,01,01,01,More than 100 frame errors, UART RX was disabled*70
$GNGRS,062529.00,1,1.0,1.5,2.5,-2.9,0.1,11.9,-10.2,4.1,6.0,,,*75
$GNGRS,062529.00,1,23.5,-1.2,12.8,-1.9,-21.0,-4.2,1.2,,,,,*46
$GNGST,062529.00,3097,,,,3.2,4.3,9.6*47
$GNZDA,062529.00,23,05,2025,00,00*73
$GNGBS,062529.00,3.2,4.3,9.6,,,,*5C
$GNTXT,01,01,01,More than 100 frame errors, UART RX was disabled*70
b0L!!1,E1u%
"#u$&0WF,Q{4#V_$:R 
Y
tTAGKH"OJNK5WL=BcMKVW
GXb!ro|$GNRMC,062530.00,A,0419.99414,S,05539.82351,E,0.151,,230525,,,D*78
$GNVTG,,T,,M,0.151,N,0.279,K,D*31
$GNGNS,062530.00,0419.99414,S,05539.82351,E,DA,16,0.67,21.4,-47.6,,0000*61
$GNGGA,062530.00,0419.99414,S,05539.82351,E,2,12,0.67,21.4,M,-47.6,M,,0000*49
$GNGSA,A,3,24,20,05,13,15,12,18,25,23,,,,1.29,0.67,1.11*1D
$GNGSA,A,3,86,75,87,71,72,76,65,,,,,,1.29,0.67,1.11*14
$GPGSV,4,1,16,05,49,044,33,12,69,049,28,13,14,117,11,15,37,149,31*76
$GPGSV,4,2,16,18,34,278,18,20,16,035,19,23,36,207,27,24,38,185,26*78
$GPGSV,4,3,16,25,48,343,26,28,01,300,,29,12,337,,36,52,277,*75
$GPGSV,4,4,16,40,86,351,35,41,58,082,36,49,32,274,,50,10,089,*7A
$GLGSV,3,1,10,65,17,187,18,71,17,075,22,72,34,128,18,74,03,155,07*60
$GLGSV,3,2,10,75,53,163,25,76,61,322,27,77,14,331,,86,05,009,09*6D
$GLGSV,3,3,10,87,16,327,10,88,08,270,*66
$GNGLL,0419.99414,S,05539.82351,E,062530.00,A,D*67
$GNGRS,062530.00,1,1.7,1.2,2.4,-0.5,-2.7,9.7,-8.6,3.3,4.8,,,*5E
$GNGRS,062530.00,1,23.1,-1.7,12.7,-1.2,-19.7,-4.1,2.1,,,,,*44
$GNGST,062530.00,4497,,,,3.2,4.3,9.7*4D
$GNZDA,062530.00,23,05,2025,00,00*7B
$GNGBS,062530.00,3.2,4.3,9.7,,,,*55
$GNTXT,01,01,01,More than 100 frame errors, UART RX was disabled*70
b0L!!1,E1u%
"H#$&0W,Q{4#V_$:R 
Y
tAGK3H"BJ-K5L=BLMKV
@BWG/Xb!rW&$GNRMC,062531.00,A,0419.99414,S,05539.82350,E,0.049,,230525,,,D*70
$GNVTG,,T,,M,0.049,N,0.092,K,D*3E
$GNGNS,062531.00,0419.99414,S,05539.82350,E,DA,16,0.76,21.4,-47.6,,0000*61
$GNGGA,062531.00,0419.99414,S,05539.82350,E,2,12,0.76,21.4,M,-47.6,M,,0000*49
$GNGSA,A,3,24,20,05,13,15,12,18,25,23,,,,1.48,0.76,1.27*1F
$GNGSA,A,3,86,75,87,71,72,76,65,,,,,,1.48,0.76,1.27*16
$GPGSV,4,1,16,05,49,044,33,12,69,049,28,13,14,117,15,15,37,149,31*72
$GPGSV,4,2,16,18,34,279,19,20,16,035,19,23,36,207,27,24,38,185,26*78
$GPGSV,4,3,16,25,48,343,26,28,01,300,,29,12,337,,36,52,277,*75
$GPGSV,4,4,16,40,86,351,35,41,58,082,36,49,32,274,,50,10,089,*7A
$GLGSV,3,1,10,65,17,187,17,71,17,075,22,72,34,128,20,74,03,155,08*6B
$GLGSV,3,2,10,75,53,163,25,76,61,322,26,77,14,331,,86,05,009,10*64
$GLGSV,3,3,10,87,16,327,07,88,08,270,*60
$GNGLL,0419.99414,S,05539.82350,E,062531.00,A,D*67
$GNGRS,062531.00,1,2.2,1.3,2.0,-0.7,-1.0,4.9,-7.0,1.6,7.3,,,*5F
$GNGRS,062531.00,1,170,-0.4,-66.1,-2.0,-19.8,-4.4,2.2,,,,,*4F
$GNGST,062531.00,42,,,,3.2,4.3,9.8*4B
$GNZDA,062531.00,23,05,2025,00,00*7A
$GNGBS,062531.00,3.2,4.3,9.8,,,,*5B
$GNTXT,01,01,01,More than 100 frame errors, UART RX was disabled*70
$GLGSV,3,2,10,75,53,163,26,76,61,322,24,77,14,331,,86,05,009,05*61
$GLGSV,3,3,10,87,16,327,09,88,08,270,*6E
$GNGLL,0419.99414,S,05539.82353,E,062532.00,A,D*67
$GNGRS,062532.00,1,1.3,2.5,2.1,-1.1,-0.8,5.5,-7.4,3.1,6.2,,,*58
$GNGRS,062532.00,1,-0.7,12.7,-2.5,-20.1,-4.1,2.4,,,,,,*54
$GNGST,062532.00,58829,,,,3.2,4.3,9.8*70
$GNZDA,062532.00,23,05,2025,00,00*79
$GNGBS,062532.00,3.2,4.3,9.8,,,,*58
$GNTXT,01,01,01,More than 100 frame errors, UART RX was disabled*70
$GNGSA,A,3,86,75,87,71,72,76,65,,,,,,1.31,0.69,1.12*10
$GPGSV,4,1,16,05,49,044,33,12,69,049,28,13,14,117,20,15,37,149,31*74
$GPGSV,4,2,16,18,34,279,19,20,15,035,20,23,36,207,30,24,38,185,26*77
$GPGSV,4,3,16,25,48,343,27,28,01,300,,29,12,337,,36,52,277,*74
$GPGSV,4,4,16,40,86,351,35,41,58,082,35,49,32,274,,50,10,089,*79
$GLGSV,3,1,10,65,17,187,16,71,17,075,23,72,34,128,20,74,03,155,10*62
$GLGSV,3,2,10,75,53,163,27,76,61,322,24,77,14,331,,86,05,009,14*60
$GLGSV,3,3,10,87,16,327,13,88,08,270,*65
$GNGLL,0419.99416,S,05539.82350,E,062533.00,A,D*67
$GNGRS,062533.00,1,2.2,3.4,2.0,0.3,0.2,9.0,-5.1,2.2,3.0,,,*58
$GNGRS,062533.00,1,23.4,-1.1,12.6,-1.4,-21.8,-2.9,2.3,,,,,*4B
$GNGST,062533.00,86695,,,,3.2,4.3,9.8*7B
$GNZDA,062533.00,23,05,2025,00,00*78
$GNGBS,062533.00,3.2,4.3,9.8,,,,*59
$GNTXT,01,01,01,More than 100 frame errors, UART RX was disabled*70
$GLGSV,3,1,10,65,17,187,16,71,17,075,22,72,34,128,20,74,03,155,08*6A
$GLGSV,3,2,10,75,53,163,26,76,61,322,22,77,14,331,,86,05,009,10*63
$GLGSV,3,3,10,87,16,327,10,88,08,270,*66
$GNGLL,0419.99421,S,05539.82346,E,062534.00,A,D*63
$GNGRS,062534.00,1,2.8,1.6,1.9,-2.7,1.3,3.2,-4.1,2.6,0.6,,,*7C
$GNGRS,062534.00,1,170,-0.9,-20.0,0.0,-22.9,-3.6,1.9,,,,,*6F
$GNGST,062534.00,42,,,,3.2,4.4,9.9*48
$GNZDA,062534.00,23,05,2025,00,00*7F
$GNGBS,062534.00,3.2,4.4,9.9,,,,*58
$GNTXT,01,01,01,More than 100 frame errors, UART RX was disabled*70
b0Lh!!1,!E1vu*%
"# $y&0WI,Q{4 V_$:R 
Y
tAGK.H"%J
K5L=BNMKVEWGX_bh!r$GNRMC,062535.00,A,0419.99423,S,05539.82347,E,0.097,,230525,,,D*75
$GNVTG,,T,,M,0.097,N,0.180,K,D*3F
$GNGNS,062535.00,0419.99423,S,05539.82347,E,DA,16,0.69,22.8,-47.6,,0000*66
$GNGGA,062535.00,0419.99423,S,05539.82347,E,2,12,0.69,22.8,M,-47.6,M,,0000*4E
$GNGSA,A,3,24,20,05,13,15,12,18,25,23,,,,1.31,0.69,1.12*19
$GNGSA,A,3,86,75,87,71,72,76,65,,,,,,1.31,0.69,1.12*10
$GPGSV,4,1,16,05,49,044,33,12,69,049,33,13,14,117,17,15,37,149,29*73
$GPGSV,4,2,16,18,34,279,19,20,15,035,22,23,36,207,32,24,38,185,25*74
$GPGSV,4,3,16,25,48,343,27,28,01,300,,29,12,337,,36,52,277,*74
$GPGSV,4,4,16,40,86,351,32,41,58,082,36,49,32,274,,50,10,089,*7D
$GLGSV,3,1,10,65,17,187,17,71,17,075,23,72,34,128,20,74,03,155,10*63
$GLGSV,3,2,10,75,53,163,25,76,61,322,22,77,14,331,,86,05,009,11*61
$GLGSV,3,3,10,87,16,327,08,88,08,270,*6F
$GNGLL,0419.99423,S,05539.82347,E,062535.00,A,D*61
$GNGRS,062535.00,1,4.4,1.3,2.3,-4.7,2.6,1.2,-3.2,3.3,-1.3,,,*50
$GNGRS,062535.00,1,23.7,0.1,12.9,3.0,-22.7,-4.3,1.8,,,,,*4E
$GNGST,062535.00,3071473,,,,3.2,4.4,9.8*7B
$GNZDA,062535.00,23,05,2025,00,00*7E
$GNGBS,062535.00,3.2,4.4,9.8,,,,*58
b0L8!1,^E1*uz%
"#W$&0WC,Q{4V_":R 
Y
tAGKH"J9K5L=BMKVBWG!Xb8!r$GNRMC,062537.00,A,0419.99427,S,05539.82353,E,0.103,,230525,,,D*7A
$GNVTG,,T,,M,0.103,N,0.192,K,D*30
$GNGNS,062537.00,0419.99427,S,05539.82353,E,DA,15,0.76,23.2,-47.6,,0000*63
$GNGGA,062537.00,0419.99427,S,05539.82353,E,2,12,0.76,23.2,M,-47.6,M,,0000*48
$GNGSA,A,3,24,20,05,13,15,12,18,25,23,,,,1.48,0.76,1.27*1F
$GNGSA,A,3,86,75,71,72,76,65,,,,,,,1.48,0.76,1.27*19
$GPGSV,4,1,16,05,49,044,30,12,69,049,30,13,14,117,13,15,37,149,28*76
$GPGSV,4,2,16,18,34,279,16,20,15,035,21,23,36,207,28,24,38,185,24*72
$GPGSV,4,3,16,25,48,343,27,28,01,300,,29,12,337,,36,52,277,*74
$GPGSV,4,4,16,40,86,351,31,41,58,082,34,49,32,274,,50,10,089,*7C
$GLGSV,3,1,10,65,17,187,14,71,17,075,21,72,34,128,19,74,03,155,06*6F
$GLGSV,3,2,10,75,53,163,22,76,61,322,21,77,14,331,,86,05,009,08*6D
$GLGSV,3,3,10,87,16,327,07,88,08,270,*60
$GNGLL,0419.99427,S,05539.82353,E,062537.00,A,D*62
$GNGRS,062537.00,1,2.7,-1.7,0.9,-6.5,4.8,3.0,-5.6,3.2,-3.0,,,*7C
$GNGRS,062537.00,1,170,-0.2,3.9,-18.3,-3.4,-0.6,,,,,,*7E
$GNGST,062537.00,47,,,,3.2,4.4,10*61
$GNZDA,062537.00,23,05,2025,00,00*7C
$GNGBS,062537.00,3.2,4.4,9.9,,,,*5B
$GNTXT,01,01,01,More than 100 frame errors, UART RX was disabled*70
$GNTXT,01,01,01,More than 100 frame errors, UART RX was disabled*70
b0L%!1,E1Gu%
"#c$@&0W,Q{4V_!:R 
Y
tKAGKH"J
K5L=BMKV,WGX.4b%!rPc$GNRMC,062539.00,A,0419.99429,S,05539.82363,E,0.246,,230525,,,D*7B
$GNVTG,,T,,M,0.246,N,0.455,K,D*3C
$GNGNS,062539.00,0419.99429,S,05539.82363,E,DA,14,0.73,23.5,-47.6,,0000*63
$GNGGA,062539.00,0419.99429,S,05539.82363,E,2,12,0.73,23.5,M,-47.6,M,,0000*49
$GNGSA,A,3,24,20,05,15,12,18,25,23,,,,,1.42,0.73,1.22*17
$GNGSA,A,3,86,75,87,71,72,76,,,,,,,1.42,0.73,1.22*1F
$GPGSV,4,1,16,05,49,044,30,12,69,049,30,13,14,117,09,15,37,149,27*72
$GPGSV,4,2,16,18,34,279,12,20,15,035,20,23,36,207,27,24,38,185,21*7D
$GPGSV,4,3,16,25,48,343,25,28,01,300,,29,12,337,,36,52,277,*76
$GPGSV,4,4,16,40,86,351,31,41,58,082,33,49,32,274,,50,10,089,*7B
$GLGSV,3,1,10,65,17,187,09,71,17,075,19,72,34,128,19,74,03,155,10*6F
$GLGSV,3,2,10,75,53,163,22,76,61,322,21,77,14,331,,86,05,009,08*6D
$GLGSV,3,3,10,87,16,327,08,88,08,270,*6F
$GNGLL,0419.99429,S,05539.82363,E,062539.00,A,D*61
$GNGRS,062539.00,1,4.8,-1.6,3.8,7.3,3.3,-4.8,2.1,-4.5,,,,*7C
$GNGRS,062539.00,1,23.5,0.2,12.4,2.2,-19.1,-3.1,,,,,,*61
$GNGST,062539.00,3179277,,,,3.3,4.5,10*52
$GNZDA,062539.00,23,05,2025,00,00*72
$GNGBS,062539.00,3.3,4.5,10.1,,,,*65
$GNTXT,01,01,01,More than 100 frame errors, UART RX was disabled*70
$GNTXT,01,01,01,More than 100 frame errors, UART RX was disabled*70
b0L,!1,E1uy%K
"f#+$&0W,R{4!V_":R 
Y
taA/GKH"JK5L=BHMKVWGX2wb,!rg$$GNRMC,062541.00,A,0419.99419,S,05539.82344,E,0.545,,230525,,,D*76
$GNVTG,,T,,M,0.545,N,1.009,K,D*34
$GNGNS,062541.00,0419.99419,S,05539.82344,E,DA,16,0.67,23.9,-47.6,,0000*61
$GNGGA,062541.00,0419.99419,S,05539.82344,E,2,12,0.67,23.9,M,-47.6,M,,0000*49
$GNGSA,A,3,24,20,05,13,15,12,18,25,23,,,,1.29,0.67,1.11*1D
$GNGSA,A,3,86,75,87,71,72,76,65,,,,,,1.29,0.67,1.11*14
$GPGSV,4,1,16,05,49,044,31,12,69,049,30,13,14,117,13,15,37,149,26*79
$GPGSV,4,2,16,18,34,279,14,20,15,035,20,23,36,207,28,24,38,185,23*76
$GPGSV,4,3,16,25,48,343,25,28,01,300,,29,12,338,,36,52,277,*79
$GPGSV,4,4,16,40,86,351,33,41,58,082,34,49,32,274,,50,10,089,*7E
$GLGSV,3,1,10,65,17,187,16,71,17,075,22,72,34,128,18,74,03,155,11*69
$GLGSV,3,2,10,75,53,163,20,76,61,322,21,77,14,331,,86,05,009,09*6E
$GLGSV,3,3,10,87,16,327,09,88,08,270,*6E
$GNGLL,0419.99419,S,05539.82344,E,062541.00,A,D*68
$GNGRS,062541.00,1,4.1,0.4,1.9,-9.0,8.4,2.2,-4.1,7.7,-3.6,,,*5B
$GNGRS,062541.00,1,23.3,0.3,12.6,1.7,-21.2,-1.8,3.0,,,,,*43
$GNGST,062541.00,2974885,,,,3.4,4.7,10*5B
$GNZDA,062541.00,23,05,2025,00,00*7D
$GNGBS,062541.00,3.4,4.7,10.3,,,,*6D
$GNTXT,01,01,01,More than 100 frame errors, UART RX was disabled*70
b0L8! 1,E1u%
"`#$p&0W,R{4"V_%:R 
Y
tA
GKH"xJK5L=BJMKVZWGXob8!r\$GNRMC,062544.00,A,0419.99427,S,05539.82355,E,0.162,,230525,,,D*7F
$GNVTG,,T,,M,0.162,N,0.301,K,D*3F
$GNGNS,062544.00,0419.99427,S,05539.82355,E,DA,14,0.76,24.0,-47.6,,0000*65
$GNGGA,062544.00,0419.99427,S,05539.82355,E,2,12,0.76,24.0,M,-47.6,M,,0000*4F
$GNGSA,A,3,24,20,05,13,15,12,18,25,23,,,,1.48,0.76,1.27*1F
$GNGSA,A,3,75,71,72,76,65,,,,,,,,1.48,0.76,1.27*17
$GPGSV,4,1,16,05,49,044,32,12,69,049,31,13,14,117,15,15,37,149,26*7D
$GPGSV,4,2,16,18,34,279,21,20,15,035,22,23,36,207,31,24,38,185,25*7C
$GPGSV,4,3,16,25,48,343,27,28,01,300,,29,12,338,,36,52,277,*7B
$GPGSV,4,4,16,40,86,351,34,41,58,082,37,49,32,274,,50,10,089,*7A
$GLGSV,3,1,10,65,17,187,10,71,17,075,23,72,34,128,15,74,03,155,07*64
$GLGSV,3,2,10,75,53,163,18,76,61,322,21,77,14,331,,86,05,009,06*6A
$GLGSV,3,3,10,87,16,327,06,88,08,270,*61
$GNGLL,0419.99427,S,05539.82355,E,062544.00,A,D*60
$GNGRS,062544.00,1,2.8,0.0,-0.3,-13.9,9.5,-0.6,-1.6,4.7,1.1,,,*43
$GNGRS,062544.00,1,-1.2,1.6,-21.8,-1.8,7.3,,,,,,,*60
$GNGST,062544.00,18578,,,,3.6,4.9,10*5C
$GNZDA,062544.00,23,05,2025,00,00*78
$GNGBS,062544.00,3.6,4.9,10.4,,,,*63
$GNTXT,01,01,01,More than 100 frame errors, UART RX was disabled*70
b0Lx<! 1, E1uX%N
"#$&O0W,R{4"V_$:R 
Y
tAGKH"#J
K5L=BMKVLWGXbx<!r_$GNRMC,062545.00,A,0419.99425,S,05539.82352,E,0.146,,230525,,,D*7D
$GNVTG,,T,,M,0.146,N,0.270,K,D*3E
$GNGNS,062545.00,0419.99425,S,05539.82352,E,DA,16,0.67,23.9,-47.6,,0000*6D
$GNGGA,062545.00,0419.99425,S,05539.82352,E,2,12,0.67,23.9,M,-47.6,M,,0000*45
$GNGSA,A,3,24,20,05,13,15,12,18,25,23,,,,1.29,0.67,1.11*1D
$GNGSA,A,3,86,75,87,71,72,76,65,,,,,,1.29,0.67,1.11*14
$GPGSV,4,1,16,05,49,044,32,12,69,049,32,13,14,117,15,15,37,149,26*7E
$GPGSV,4,2,16,18,34,279,21,20,15,035,22,23,36,207,31,24,38,185,23*7A
$GPGSV,4,3,16,25,48,343,27,28,01,300,,29,12,338,,36,52,277,*7B
$GPGSV,4,4,16,40,86,351,34,41,58,082,36,49,32,274,,50,10,089,*7B
$GLGSV,3,1,10,65,17,187,18,71,17,075,25,72,34,128,15,74,03,155,10*6C
$GLGSV,3,2,10,75,53,163,21,76,61,322,22,77,14,331,,86,05,009,09*6C
$GLGSV,3,3,10,87,16,327,08,88,08,270,*6F
$GNGLL,0419.99425,S,05539.82352,E,062545.00,A,D*64
$GNGRS,062545.00,1,3.4,1.9,1.5,-17.0,11.0,-1.1,-0.4,5.2,-2.5,,,*77
$GNGRS,062545.00,1,23.8,-1.0,12.7,2.7,-20.1,-1.0,7.0,,,,,*6F
$GNGST,062545.00,2974064,,,,3.6,4.9,10*54
$GNZDA,062545.00,23,05,2025,00,00*79
$GNGBS,062545.00,3.6,4.9,10.4,,,,*62
$GNTXT,01,01,01,More than 100 frame errors, UART RX was disabled*70
b0L`@! 1,E1u% 
"#$!&B0W,R{4!V_$:R 
Y
toAGKZH"JK5L=BMKVPWGO#Xb`@!r6)$GNRMC,062546.00,A,0419.99436,S,05539.82366,E,0.684,,230525,,,D*72
$GNVTG,,T,,M,0.684,N,1.267,K,D*30
$GNGNS,062546.00,0419.99436,S,05539.82366,E,DA,16,0.70,24.3,-47.6,,0000*60
$GNGGA,062546.00,0419.99436,S,05539.82366,E,2,12,0.70,24.3,M,-47.6,M,,0000*48
$GNGSA,A,3,24,20,05,13,15,12,18,25,23,,,,1.28,0.70,1.08*12
$GNGSA,A,3,86,75,87,71,72,76,65,,,,,,1.28,0.70,1.08*1B
$GPGSV,4,1,16,05,49,044,32,12,69,049,31,13,14,117,16,15,37,149,25*7D
$GPGSV,4,2,16,18,34,279,19,20,15,035,20,23,36,207,31,24,38,185,23*73
$GPGSV,4,3,16,25,48,343,26,28,01,300,,29,12,338,,36,52,277,*7A
$GPGSV,4,4,16,40,86,351,33,41,58,082,36,49,32,274,,50,10,089,*7C
$GLGSV,3,1,10,65,17,187,13,71,17,075,25,72,34,128,16,74,03,155,05*60
$GLGSV,3,2,10,75,53,163,22,76,61,322,23,77,14,331,,86,05,009,09*6E
$GLGSV,3,3,10,87,16,327,11,88,08,270,*67
$GNGLL,0419.99436,S,05539.82366,E,062546.00,A,D*62
$GNGRS,062546.00,1,3.2,1.6,-0.6,-17.6,10.6,0.3,-0.8,5.4,-2.2,,,*70
$GNGRS,062546.00,1,-9.4,0.1,90.4,3.5,-21.4,-2.6,1.6,,,,,*53
$GNGST,062546.00,54,,,,3.6,4.9,10*6C
$GNZDA,062546.00,23,05,2025,00,00*7A
$GNGBS,062546.00,3.6,4.9,10.4,,,,*61
$GNTXT,01,01,01,More than 100 frame errors, UART RX was disabled*70
$GNTXT,01,01,01,More than 100 frame errors, UART RX was disabled*70
$GNTXT,01,01,01,More than 100 frame errors, UART RX was disabled*70
$GNTXT,01,01,01,More than 100 frame errors, UART RX was disabled*70
$GNTXT,01,01,01,More than 100 frame errors, UART RX was disabled*70
$GNTXT,01,01,01,More than 100 frame errors, UART RX was disabled*70
b0Lc!!1,!E14uU%
"|# $o&0W,R{4#V_@":R 
Y
tAXGKH"JK5L=BtMKV
SWG&XNbc!r$GNRMC,062555.00,A,0419.99464,S,05539.82404,E,0.090,,230525,,,D*77
$GNVTG,,T,,M,0.090,N,0.166,K,D*30
$GNGNS,062555.00,0419.99464,S,05539.82404,E,DA,16,0.78,24.3,-47.6,,0000*6E
$GNGGA,062555.00,0419.99464,S,05539.82404,E,2,12,0.78,24.3,M,-47.6,M,,0000*46
$GNGSA,A,3,24,20,05,13,15,12,18,25,23,40,,,1.41,0.78,1.18*10
$GNGSA,A,3,86,75,87,71,76,65,,,,,,,1.41,0.78,1.18*18
$GPGSV,4,1,16,05,49,044,33,12,69,049,33,13,14,117,15,15,37,149,26*7E
$GPGSV,4,2,16,18,34,279,20,20,15,035,22,23,36,207,32,24,38,185,25*7E
$GPGSV,4,3,16,25,48,343,26,28,01,300,,29,12,338,,36,52,277,*7A
$GPGSV,4,4,16,40,86,351,35,41,58,082,34,49,32,274,,50,10,089,*78
$GLGSV,3,1,10,65,17,187,17,71,17,075,26,72,34,128,,74,03,155,09*6C
$GLGSV,3,2,10,75,53,163,16,76,61,322,24,77,14,331,,86,05,009,10*66
$GLGSV,3,3,10,87,16,327,09,88,08,270,*6E
$GNGLL,0419.99464,S,05539.82404,E,062555.00,A,D*64
$GNGRS,062555.00,1,1.8,2.3,-0.4,-11.9,6.6,-2.0,-1.3,4.9,-6.6,166,,*5B
$GNGRS,062555.00,1,-125,5.2,98.9,-5.3,-6.5,16.2,,,,,,*6B
$GNGST,062555.00,1059,,,,3.8,4.9,10*6C
$GNZDA,062555.00,23,05,2025,00,00*78
$GNGBS,062555.00,3.8,4.9,10.2,,,,*6B
b0Lpg!1,E1u6%
")#$?&0W,R{4 V_A:R 
Y
tAGKH"JK5L=BMKV
dWGXbbpg!r'$GNRMC,062556.00,A,0419.99469,S,05539.82415,E,0.506,,230525,,,D*73
$GNVTG,,T,,M,0.506,N,0.937,K,D*36
$GNGNS,062556.00,0419.99469,S,05539.82415,E,DA,16,0.68,24.1,-47.6,,0000*63
$GNGGA,062556.00,0419.99469,S,05539.82415,E,2,12,0.68,24.1,M,-47.6,M,,0000*4B
$GNGSA,A,3,24,20,05,13,15,12,18,25,23,40,,,1.22,0.68,1.01*1C
$GNGSA,A,3,86,75,87,71,76,65,,,,,,,1.22,0.68,1.01*14
$GPGSV,4,1,16,05,49,044,31,12,69,049,29,13,14,117,12,15,37,149,25*73
$GPGSV,4,2,16,18,34,279,18,20,15,035,21,23,36,207,30,24,38,185,23*72
$GPGSV,4,3,16,25,48,343,25,28,01,300,,29,12,338,,36,52,277,*79
$GPGSV,4,4,16,40,86,351,32,41,58,082,30,49,32,274,,50,10,089,*7B
$GLGSV,3,1,10,65,17,187,17,71,17,075,23,72,34,128,,74,03,155,08*68
$GLGSV,3,2,10,75,53,163,15,76,61,322,22,77,14,331,,86,05,009,10*63
$GLGSV,3,3,10,87,16,327,09,88,08,270,*6E
$GNGLL,0419.99469,S,05539.82415,E,062556.00,A,D*6A
$GNGRS,062556.00,1,1.6,2.6,-0.4,-7.1,7.2,-2.8,-2.1,5.3,-4.5,167,,*6B
$GNGRS,062556.00,1,24.0,6.8,13.1,-5.5,-6.0,17.0,,,,,,*69
$GNTXT,01,01,01,More than 100 frame errors, UART RX was disabled*70
b0LXk! 1,( E1M
u%
"r#$&0W,R{4$V_<A!:R 
Y
tAGKH"MJK5L=BMKVWGXDbXk!r|$GNRMC,062557.00,A,0419.99456,S,05539.82404,E,0.741,,230525,,,D*7F
$GNVTG,,T,,M,0.741,N,1.372,K,D*3D
$GNGNS,062557.00,0419.99456,S,05539.82404,E,DA,14,0.78,23.8,-47.6,,0000*63
$GNGGA,062557.00,0419.99456,S,05539.82404,E,2,12,0.78,23.8,M,-47.6,M,,0000*49
$GNGSA,A,3,24,20,05,13,15,12,18,25,23,40,,,1.41,0.78,1.18*10
$GNGSA,A,3,75,71,76,65,,,,,,,,,1.41,0.78,1.18*19
$GPGSV,4,1,16,05,49,044,32,12,69,049,32,13,14,117,10,15,37,149,24*79
$GPGSV,4,2,16,18,34,279,18,20,15,035,19,23,36,207,31,24,38,185,24*7F
b0L@o!1, E1
u%(
"`#F$!&0W`,R{4"V_FA!:R 
Y
tAGK$H"J K5L=BUMKVBWG
Xwb@o!rT$GNRMC,062558.00,A,0419.99458,S,05539.82408,E,0.158,,230525,,,D*7C
$GNVTG,,T,,M,0.158,N,0.293,K,D*3C
$GNGNS,062558.00,0419.99458,S,05539.82408,E,DA,16,0.80,23.7,-47.6,,0000*64
$GNGGA,062558.00,0419.99458,S,05539.82408,E,2,12,0.80,23.7,M,-47.6,M,,0000*4C
$GNGSA,A,3,24,20,05,13,15,12,18,25,23,40,,,1.44,0.80,1.19*13
$GNGSA,A,3,86,75,87,71,76,65,,,,,,,1.44,0.80,1.19*1B
$GPGSV,4,1,16,05,49,044,31,12,69,049,32,13,14,117,10,15,37,149,25*7B
$GPGSV,4,2,16,18,34,279,19,20,15,035,18,23,36,207,30,24,38,185,25*7F
$GPGSV,4,3,16,25,48,343,26,28,01,300,,29,12,338,,36,52,277,*7A
$GPGSV,4,4,16,40,86,351,34,41,58,082,33,49,32,274,,50,10,089,*7E
$GLGSV,3,1,10,65,17,187,14,71,17,075,22,72,34,128,18,74,03,155,07*6C
$GLGSV,3,2,10,75,53,163,11,76,61,322,21,77,14,331,,86,05,009,11*65
$GLGSV,3,3,10,87,16,327,11,88,08,270,*67
$GNGLL,0419.99458,S,05539.82408,E,062558.00,A,D*6A
$GNGRS,062558.00,1,-2.7,0.7,-1.0,14.6,5.5,-2.3,1.0,3.5,-4.8,167,,*78
$GNGRS,062558.00,1,171,7.2,20.6,-7.3,-4.3,11.7,,,,,,*40
$GNGST,062558.00,1097,,,,3.9,5.1,10*6B
$GNZDA,062558.00,23,05,2025,00,00*75
$GNGBS,062558.00,3.9,5.1,10.3,13,,-14.9,93.2*44
b0L(s!1,j E1u%J
"K#$h&0W<,R{4"V_aA!:R 
Y
t)A4GKH"JK5L=B%MKVNWGXeb(s!r,_$GNRMC,062559.00,A,0419.99454,S,05539.82409,E,0.082,,230525,,,D*76
$GNVTG,,T,,M,0.082,N,0.152,K,D*34
$GNGNS,062559.00,0419.99454,S,05539.82409,E,DA,14,0.72,23.4,-47.6,,0000*64
$GNGGA,062559.00,0419.99454,S,05539.82409,E,2,12,0.72,23.4,M,-47.6,M,,0000*4E
$GNGSA,A,3,24,20,05,15,12,18,25,23,40,,,,1.29,0.72,1.07*18
$GNGSA,A,3,86,87,71,76,65,,,,,,,,1.29,0.72,1.07*10
$GPGSV,4,1,16,05,49,044,31,12,69,049,32,13,14,117,,15,37,149,24*7B
$GPGSV,4,2,16,18,34,279,19,20,15,035,17,23,36,207,30,24,38,185,24*71
$GPGSV,4,3,16,25,48,343,26,28,01,300,,29,12,338,,36,52,277,*7A
$GPGSV,4,4,16,40,86,351,34,41,58,082,33,49,32,274,,50,10,089,*7E
$GLGSV,3,1,10,65,17,187,12,71,17,075,22,72,34,128,17,74,03,155,09*6B
$GLGSV,3,2,10,75,53,163,07,76,61,322,21,77,14,331,,86,05,009,08*6A
$GLGSV,3,3,10,87,16,327,08,88,08,270,*6F
$GNGLL,0419.99454,S,05539.82409,E,062559.00,A,D*66
$GNGRS,062559.00,1,-3.6,2.8,1.1,5.9,-0.5,0.7,3.2,-4.1,167,,,*45
$GNGRS,062559.00,1,23.8,12.5,-8.2,-4.8,13.3,,,,,,,*4B
b0Lw! 1, E13u%
"u#$&0W?,R{4"V_A!:R 
Y
tgAPGKH"JK5[L=BMKVQWGXbw!r$GNRMC,062600.00,A,0419.99456,S,05539.82406,E,0.149,,230525,,,D*72
$GNVTG,,T,,M,0.149,N,0.277,K,D*36
$GNGNS,062600.00,0419.99456,S,05539.82406,E,DA,15,0.71,23.4,-47.6,,0000*64
$GNGGA,062600.00,0419.99456,S,05539.82406,E,2,12,0.71,23.4,M,-47.6,M,,0000*4F
$GNGSA,A,3,24,20,05,15,12,18,25,23,40,,,,1.25,0.71,1.03*13
$GNGSA,A,3,86,75,87,71,76,65,,,,,,,1.25,0.71,1.03*19
$GPGSV,4,1,16,05,49,044,32,12,69,049,32,13,14,117,,15,37,149,24*78
$GPGSV,4,2,16,18,34,279,18,20,15,035,17,23,36,207,30,24,38,185,25*71
$GPGSV,4,3,16,25,48,343,27,28,01,300,,29,12,338,,36,52,277,*7B
$GPGSV,4,4,16,40,86,351,34,41,58,082,33,49,32,274,,50,10,089,*7E
$GLGSV,3,1,10,65,17,187,13,71,17,075,22,72,34,128,17,74,03,155,09*6A
$GLGSV,3,2,10,75,53,163,11,76,61,322,21,77,14,331,,86,05,009,11*65
$GLGSV,3,3,10,87,16,327,11,88,08,270,*67
$GNGLL,0419.99456,S,05539.82406,E,062600.00,A,D*64
$GNGRS,062600.00,1,-3.1,4.7,-1.0,2.8,-2.0,-1.4,3.2,-2.6,168,,,*48
$GNGRS,062600.00,1,23.8,6.0,12.2,-10.6,-3.5,11.0,,,,,,*5D
$GNGST,062600.00,135710,,,,4.1,5.3,10*66
$GNZDA,062600.00,23,05,2025,00,00*7B
$GNGBS,062600.00,4.1,5.3,10.4,,,,*6B
b0Lz! 1, E1Nu%_
"#$&c0W,R{4"V_A":R 
Y
tqAGKH"pJ
"K5TL=BMKV
+5W
GXbz!r $GNRMC,062601.00,A,0419.99447,S,05539.82398,E,0.182,,230525,,,D*74
$GNVTG,,T,,M,0.182,N,0.336,K,D*35
$GNGNS,062601.00,0419.99447,S,05539.82398,E,DA,16,0.68,23.1,-47.6,,0000*6B
$GNGGA,062601.00,0419.99447,S,05539.82398,E,2,12,0.68,23.1,M,-47.6,M,,0000*43
$GNGSA,A,3,24,20,05,15,12,18,25,23,40,,,,1.24,0.68,1.03*1A
$GNGSA,A,3,86,75,87,71,72,76,65,,,,,,1.24,0.68,1.03*15
$GPGSV,4,1,16,05,49,044,32,12,69,049,32,13,14,117,,15,37,149,23*7F
$GPGSV,4,2,16,18,34,279,18,20,15,035,18,23,36,207,30,24,38,185,25*7E
$GPGSV,4,3,16,25,48,343,27,28,01,300,,29,12,338,,36,52,277,*7B
$GPGSV,4,4,16,40,86,351,34,41,58,082,34,49,32,274,,50,10,089,*79
$GLGSV,3,1,10,65,17,187,13,71,17,075,20,72,34,128,18,74,03,155,10*6F
$GLGSV,3,2,10,75,53,163,13,76,61,322,22,77,14,331,,86,05,009,10*65
$GLGSV,3,3,10,87,16,327,10,88,08,270,*66
$GNGLL,0419.99447,S,05539.82398,E,062601.00,A,D*65
$GNGRS,062601.00,1,-4.1,9.4,1.6,1.0,-1.8,-0.9,2.6,-3.5,168,,,*60
$GNGRS,062601.00,1,136,0.8,7.8,-10.6,-19.4,-3.6,10.1,,,,,*73
$GNGST,062601.00,1026,,,,4.1,5.3,10*63
$GNZDA,062601.00,23,05,2025,00,00*7A
$GNGBS,062601.00,4.1,5.3,10.5,,,,*6B
b0L~! 1, E1Du%G
"V#J$T&0W,R{4"V_A:R 
Y
tAGK&H"J8K5L=BmMKVzW
GX?b~!ro$GNRMC,062602.00,A,0419.99444,S,05539.82396,E,0.197,,230525,,,D*7E
b0L! 1, E1u%y
"=# $U&0W,R{4$V_A":R 
Y
tEA
GKH"vJ.K5L=BMKVhWG
Xb!rW$GNRMC,062603.00,A,0419.99439,S,05539.82394,E,0.077,,230525,,,D*78
$GNVTG,,T,,M,0.077,N,0.143,K,D*3E
$GNGNS,062603.00,0419.99439,S,05539.82394,E,DA,15,0.73,23.2,-47.6,,0000*66
$GNGGA,062603.00,0419.99439,S,05539.82394,E,2,12,0.73,23.2,M,-47.6,M,,0000*4D
$GNGSA,A,3,24,20,05,15,12,18,25,23,40,,,,1.32,0.73,1.10*15
$GNGSA,A,3,86,75,87,71,72,76,,,,,,,1.32,0.73,1.10*19
$GPGSV,4,1,16,05,49,044,32,12,69,049,32,13,14,117,,15,37,149,23*7F
$GPGSV,4,2,16,18,34,279,19,20,15,035,19,23,36,207,32,24,38,185,25*7C
$GPGSV,4,3,16,25,48,343,26,28,01,300,,29,12,338,,36,52,277,*7A
$GPGSV,4,4,16,40,86,351,36,41,58,082,34,49,32,274,,50,10,089,*7B
$GLGSV,3,1,10,65,17,187,10,71,17,075,20,72,34,128,17,74,03,155,14*67
$GLGSV,3,2,10,75,53,163,08,76,61,322,21,77,14,331,,86,05,009,11*6D
$GLGSV,3,3,10,87,16,327,09,88,08,270,*6E
$GNGLL,0419.99439,S,05539.82394,E,062603.00,A,D*62
$GNGRS,062603.00,1,-3.3,6.6,2.2,1.2,-3.4,0.6,2.8,-6.8,168,,,*45
$GNGRS,062603.00,1,24.1,-2.4,12.9,-10.8,-16.7,-5.6,,,,,,*50
$GNGST,062603.00,102228,,,,4.1,5.3,11*6E
$GNZDA,062603.00,23,05,2025,00,00*78
$GNGBS,062603.00,4.1,5.3,10.6,65,,0.9,98.6*57
b0L!!1,!E1u%
"y#X!$&0W9,R{4#V_A!:R 
Y
tAGKH"wJK5L=B0MKVWGXb!r?dZ$GNRMC,062604.00,A,0419.99427,S,05539.82395,E,0.161,,230525,,,D*77
$GNVTG,,T,,M,0.161,N,0.299,K,D*3C
$GNGNS,062604.00,0419.99427,S,05539.82395,E,DA,16,0.71,22.4,-47.6,,0000*69
$GNGGA,062604.00,0419.99427,S,05539.82395,E,2,12,0.71,22.4,M,-47.6,M,,0000*41
$GNGSA,A,3,24,20,05,15,12,18,25,23,40,,,,1.25,0.71,1.03*13
$GNGSA,A,3,86,75,87,71,72,76,65,,,,,,1.25,0.71,1.03*1C
$GPGSV,4,1,16,05,49,044,33,12,69,049,33,13,14,117,,15,37,149,23*7F
$GPGSV,4,2,16,18,34,279,20,20,15,035,19,23,36,207,33,24,38,185,25*77
$GPGSV,4,3,16,25,48,343,27,28,01,300,,29,12,338,,36,52,277,*7B
$GPGSV,4,4,16,40,86,351,35,41,58,082,33,49,32,274,,50,10,089,*7F
$GLGSV,3,1,10,65,17,187,12,71,17,075,20,72,34,128,15,74,03,155,07*65
$GLGSV,3,2,10,75,53,163,13,76,61,322,20,77,14,331,,86,05,009,08*6E
$GLGSV,3,3,10,87,16,327,08,88,08,270,*6F
$GNGLL,0419.99427,S,05539.82395,E,062604.00,A,D*6B
$GNGRS,062604.00,1,-3.7,8.6,2.0,-0.8,-3.1,1.2,3.1,-4.8,169,,,*67
$GNGRS,062604.00,1,20.2,-3.9,4.1,-10.5,-21.8,-4.6,-3.5,,,,,*61
$GNGST,062604.00,1060,,,,4.1,5.3,11*65
$GNZDA,062604.00,23,05,2025,00,00*7F
$GNGBS,062604.00,4.1,5.3,10.6,,,,*6D
$GNTXT,01,01,01,More than 100 frame errors, UART RX was disabled*70
$GLGSV,3,2,10,75,53,163,13,76,61,322,21,77,14,331,,86,05,009,10*66
$GLGSV,3,3,10,87,16,327,09,88,08,270,*6E
$GNGLL,0419.99419,S,05539.82398,E,062605.00,A,D*6A
$GNGRS,062605.00,1,-4.6,7.6,2.6,-0.9,-2.1,-1.5,1.4,-5.6,169,,,*4B
$GNGRS,062605.00,1,23.9,-2.4,12.7,-10.2,-21.9,-4.8,-6.4,,,,,*59
$GNGST,062605.00,88073,,,,4.0,5.3,11*56
$GNZDA,062605.00,23,05,2025,00,00*7E
$GNGBS,062605.00,4.0,5.3,10.6,,,,*6D
$GNTXT,01,01,01,More than 100 frame errors, UART RX was disabled*70
$GNTXT,01,01,01,More than 100 frame errors, UART RX was disabled*70
$GNTXT,01,01,01,More than 100 frame errors, UART RX was disabled*70
$GNTXT,01,01,01,More than 100 frame errors, UART RX was disabled*70
b0L8!1,!E1qu%
"#<$&q0W3,R{4!V_BB#:R 
Y
tDA^GKH"J
{K5L=BMKVfWGXSb8!r_$GNRMC,062609.00,A,0419.99421,S,05539.82424,E,0.161,,230525,,,D*71
$GNVTG,,T,,M,0.161,N,0.298,K,D*3D
$GNGNS,062609.00,0419.99421,S,05539.82424,E,DA,15,0.71,22.4,-47.6,,0000*6C
$GNGGA,062609.00,0419.99421,S,05539.82424,E,2,12,0.71,22.4,M,-47.6,M,,0000*47
$GNGSA,A,3,24,20,05,15,12,18,25,23,40,,,,1.25,0.71,1.03*13
$GNGSA,A,3,86,75,87,71,76,65,,,,,,,1.25,0.71,1.03*19
$GPGSV,4,1,16,05,49,044,30,12,69,049,33,13,14,117,,15,37,149,23*7C
$GPGSV,4,2,16,18,34,279,21,20,15,035,21,23,36,207,31,24,38,185,23*79
$GPGSV,4,3,16,25,48,343,28,28,01,300,,29,12,338,,36,52,277,*74
$GPGSV,4,4,16,40,86,351,33,41,58,082,35,49,32,274,,50,10,089,*7F
$GLGSV,3,1,10,65,18,187,15,71,17,075,19,72,34,128,09,74,03,155,10*6C
$GLGSV,3,2,10,75,53,163,11,76,61,322,20,77,14,331,,86,05,009,13*66
$GLGSV,3,3,10,87,16,327,12,88,08,270,*64
$GNGLL,0419.99421,S,05539.82424,E,062609.00,A,D*6D
$GNGRS,062609.00,1,-6.5,3.2,4.1,-0.8,-1.4,-5.1,-2.0,-2.5,170,,,*66
$GNGRS,062609.00,1,24.1,-2.5,13.0,-10.5,-5.5,-4.2,,,,,,*6B
$GNGST,062609.00,4343719,,,,4.0,5.2,10*51
$GNZDA,062609.00,23,05,2025,00,00*72
$GNGBS,062609.00,4.0,5.2,10.4,,,,*62
$GNTXT,01,01,01,More than 100 frame errors, UART RX was disabled*70
b0L !1, E1|u%5
"#$&0Wv,R{4 V_IB":R 
Y
tAGKH"UJK5L=BMKVWGXb !rs$GNRMC,062610.00,A,0419.99423,S,05539.82430,E,0.219,,230525,,,D*72
$GNVTG,,T,,M,0.219,N,0.406,K,D*30
$GNGNS,062610.00,0419.99423,S,05539.82430,E,DA,12,0.77,22.3,-47.6,,0000*65
$GNGGA,062610.00,0419.99423,S,05539.82430,E,2,12,0.77,22.3,M,-47.6,M,,0000*49
$GNGSA,A,3,24,20,05,15,12,18,25,23,40,,,,1.36,0.77,1.12*17
$GNGSA,A,3,87,71,76,,,,,,,,,,1.36,0.77,1.12*12
$GPGSV,4,1,16,05,49,044,31,12,69,049,32,13,14,117,,15,37,149,21*7E
$GPGSV,4,2,16,18,34,279,20,20,15,035,21,23,36,207,31,24,38,185,22*79
$GPGSV,4,3,16,25,48,343,27,28,01,300,,29,12,338,,36,52,277,*7B
$GPGSV,4,4,16,40,86,351,32,41,58,082,34,49,32,274,,50,10,089,*7F
$GLGSV,3,1,10,65,18,187,,71,17,075,16,72,34,128,09,74,03,155,09*6F
$GLGSV,3,2,10,75,53,163,06,76,61,322,19,77,14,331,,86,05,009,06*6E
$GLGSV,3,3,10,87,16,327,13,88,08,270,*65
$GNGLL,0419.99423,S,05539.82430,E,062610.00,A,D*62
$GNGRS,062610.00,1,-6.3,2.5,1.7,0.5,-1.3,-3.5,-1.4,-2.3,170,,,*49
$GNGRS,062610.00,1,11.6,-13.1,-2.6,,,,,,,,,*7C
$GNGST,062610.00,1138,,,,4.0,5.2,10*6D
$GNZDA,062610.00,23,05,2025,00,00*7A
$GNGBS,062610.00,4.0,5.2,10.4,,,,*6A
$GNTXT,01,01,01,More than 100 frame errors, UART RX was disabled*70
$GNTXT,01,01,01,More than 100 frame errors, UART RX was disabled*70
$GNTXT,01,01,01,More than 100 frame errors, UART RX was disabled*70
b0L!"1,0!E1Uub%/
"#$&0W,R{4#V_B":R 
Y
tAGKH#JmK5L=B"MKV
lWGX
b!rO(X$GNRMC,062614.00,A,0419.99422,S,05539.82431,E,0.041,,230525,,,D*79
$GNVTG,,T,,M,0.041,N,0.076,K,D*3C
$GNGNS,062614.00,0419.99422,S,05539.82431,E,DA,15,0.73,22.1,-47.6,,0000*60
$GNGGA,062614.00,0419.99422,S,05539.82431,E,2,12,0.73,22.1,M,-47.6,M,,0000*4B
$GNGSA,A,3,24,20,05,15,12,18,25,23,40,,,,1.32,0.73,1.10*15
$GNGSA,A,3,86,75,87,71,72,76,,,,,,,1.32,0.73,1.10*19
$GPGSV,4,1,16,05,49,044,34,12,69,049,33,13,14,117,11,15,37,149,21*7A
$GPGSV,4,2,16,18,34,279,21,20,15,035,20,23,36,207,31,24,38,185,19*71
$GPGSV,4,3,16,25,48,343,29,28,01,300,,29,12,338,,36,52,277,*75
$GPGSV,4,4,16,40,86,351,35,41,58,082,34,49,32,274,,50,10,089,*78
$GLGSV,3,1,10,65,18,187,,71,16,075,18,72,35,127,16,74,03,155,08*61
$GLGSV,3,2,10,75,53,163,11,76,61,322,22,77,14,331,,86,05,009,10*67
$GLGSV,3,3,10,87,16,327,09,88,08,270,*6E
$GNGLL,0419.99422,S,05539.82431,E,062614.00,A,D*66
$GNGRS,062614.00,1,-8.1,2.8,0.5,0.5,-1.7,-2.4,4.4,-4.8,170,,,*6E
$GNGRS,062614.00,1,24.1,-2.5,12.8,-15.6,2.1,-7.3,,,,,,*44
$GNGST,062614.00,4343719,,,,4.0,5.1,10*5E
$GNZDA,062614.00,23,05,2025,00,00*7E
$GNGBS,062614.00,4.0,5.1,10.4,,,,*6D
$GNTXT,01,01,01,More than 100 frame errors, UART RX was disabled*70
b0L!!1,!E1Ru,%
"#.$&0W',R{4#V_B!:R 
Y
tAGKH#J^K4L=BMKVZW
GXTb!r7,$GNRMC,062615.00,A,0419.99420,S,05539.82436,E,0.106,,230525,,,D*7F
$GNVTG,,T,,M,0.106,N,0.196,K,D*31
$GNGNS,062615.00,0419.99420,S,05539.82436,E,DA,15,0.73,21.9,-47.6,,0000*6F
$GNGGA,062615.00,0419.99420,S,05539.82436,E,2,12,0.73,21.9,M,-47.6,M,,0000*44
$GNGSA,A,3,24,20,05,15,12,18,25,23,40,,,,1.32,0.73,1.10*15
$GNGSA,A,3,86,75,87,71,72,76,,,,,,,1.32,0.73,1.10*19
$GPGSV,4,1,16,05,49,044,33,12,69,049,33,13,14,117,11,15,37,149,20*7C
$GPGSV,4,2,16,18,34,279,21,20,15,035,19,23,36,207,31,24,38,185,17*75
$GPGSV,4,3,16,25,48,343,28,28,01,300,,29,12,338,,36,52,277,*74
$GPGSV,4,4,16,40,86,351,35,41,58,082,33,49,32,274,,50,10,089,*7F
$GLGSV,3,1,10,65,18,187,,71,16,075,18,72,35,127,17,74,03,155,06*6E
$GLGSV,3,2,10,75,52,163,09,76,61,322,21,77,14,331,,86,05,009,08*65
$GLGSV,3,3,10,87,16,327,10,88,08,270,*66
$GNGLL,0419.99420,S,05539.82436,E,062615.00,A,D*62
$GNGRS,062615.00,1,-11.3,3.0,0.1,2.0,-1.7,-0.5,-4.7,-3.4,171,,,*78
$GNGRS,062615.00,1,23.9,-2.5,12.7,-13.3,-0.6,-8.1,,,,,,*63
$GNGST,062615.00,4343719,,,,4.0,5.1,10*5F
$GNZDA,062615.00,23,05,2025,00,00*7F
$GNGBS,062615.00,4.0,5.1,10.5,,,,*6D
b0L!!1,"E1u%
"#$&H0W,R{4"V_B":R 
Y
tAGKWH#JGK
4&L=AMKV
WG4>Xlb!r0($GNRMC,062616.00,A,0419.99421,S,05539.82444,E,0.182,,230525,,,D*74
$GNVTG,,T,,M,0.182,N,0.337,K,D*34
$GNGNS,062616.00,0419.99421,S,05539.82444,E,DA,16,0.80,21.5,-47.6,,0000*6B
$GNGGA,062616.00,0419.99421,S,05539.82444,E,2,12,0.80,21.5,M,-47.6,M,,0000*43
$GNGSA,A,3,24,20,05,13,15,12,18,25,23,40,,,1.48,0.80,1.24*11
$GNGSA,A,3,86,75,87,71,72,76,,,,,,,1.48,0.80,1.24*1F
$GPGSV,4,1,16,05,49,044,33,12,69,049,34,13,14,117,11,15,37,149,20*7B
$GPGSV,4,2,16,18,34,279,21,20,15,035,18,23,36,207,30,24,38,185,19*7B
$GPGSV,4,3,16,25,48,343,28,28,01,300,,29,12,338,,36,52,277,*74
$GPGSV,4,4,16,40,86,351,34,41,58,082,34,49,32,274,,50,10,089,*79
$GLGSV,3,1,10,65,18,187,,71,16,075,17,72,35,127,17,74,03,155,07*60
$GLGSV,3,2,10,75,52,163,10,76,61,321,21,77,14,331,,86,05,009,10*67
$GLGSV,3,3,10,87,16,327,12,88,08,270,*64
$GNGLL,0419.99421,S,05539.82444,E,062616.00,A,D*65
$GNGRS,062616.00,1,-9.5,4.2,-0.7,-3.8,4.6,-1.2,-0.1,-0.8,-5.1,171,,*6B
$GNGRS,062616.00,1,65.5,99.6,159,-14.5,0.0,-7.5,,,,,,*74
$GNGST,062616.00,1060,,,,4.0,5.1,10*64
$GNZDA,062616.00,23,05,2025,00,00*7C
$GNGBS,062616.00,4.0,5.1,10.5,,,,*6E
$GNTXT,01,01,01,More than 100 frame errors, UART RX was disabled*70
b0Lx!!1,("E1wu%
"Y# $&0W,R{4#V_B":R 
Y
tAGKzH#J
K4L=A%MKVlWGXbx!r4Z$GNRMC,062617.00,A,0419.99423,S,05539.82449,E,0.088,,230525,,,D*71
$GNVTG,,T,,M,0.088,N,0.163,K,D*3C
$GNGNS,062617.00,0419.99423,S,05539.82449,E,DA,14,0.73,21.3,-47.6,,0000*6D
$GNGGA,062617.00,0419.99423,S,05539.82449,E,2,12,0.73,21.3,M,-47.6,M,,0000*47
$GNGSA,A,3,24,20,05,15,12,18,25,23,40,,,,1.32,0.73,1.10*15
$GNGSA,A,3,75,87,71,72,76,,,,,,,,1.32,0.73,1.10*17
$GPGSV,4,1,16,05,49,044,33,12,69,049,34,13,14,117,08,15,37,149,18*78
$GPGSV,4,2,16,18,34,279,20,20,15,035,18,23,36,207,32,24,38,185,18*79
$GPGSV,4,3,16,25,48,343,28,28,01,300,,29,12,338,,36,52,277,*74
$GPGSV,4,4,16,40,86,351,35,41,58,082,34,49,32,274,,50,10,089,*78
$GLGSV,3,1,10,65,18,187,,71,16,075,18,72,35,127,15,74,03,155,10*6B
$GLGSV,3,2,10,75,52,163,09,76,61,321,22,77,15,331,,86,05,009,06*6A
$GLGSV,3,3,10,87,16,327,09,88,08,270,*6E
$GNGLL,0419.99423,S,05539.82449,E,062617.00,A,D*6B
$GNGRS,062617.00,1,-7.7,5.4,0.4,6.5,-1.4,0.9,0.2,-2.8,171,,,*4C
$GNGRS,062617.00,1,-2.3,12.7,-14.1,-2.5,-7.3,,,,,,,*78
$GNGST,062617.00,3071475,,,,4.0,5.1,11*50
$GNZDA,062617.00,23,05,2025,00,00*7D
$GNGBS,062617.00,4.0,5.1,10.5,,,,*6F
$GNTXT,01,01,01,More than 100 frame errors, UART RX was disabled*70
b0L`!"1,I"E1cu%8
"m# $&0Wd,R{4#V_B":R 
Y
tAGKH#=JK4*L=AMKV
QWGXtb`!r71$GNRMC,062618.00,A,0419.99423,S,05539.82459,E,0.186,,230525,,,D*70
$GNVTG,,T,,M,0.186,N,0.344,K,D*34
$GNGNS,062618.00,0419.99423,S,05539.82459,E,DA,15,0.73,21.0,-47.6,,0000*61
$GNGGA,062618.00,0419.99423,S,05539.82459,E,2,12,0.73,21.0,M,-47.6,M,,0000*4A
$GNGSA,A,3,24,20,05,15,12,18,25,23,40,,,,1.32,0.73,1.10*15
$GNGSA,A,3,86,75,87,71,72,76,,,,,,,1.32,0.73,1.10*19
$GPGSV,4,1,16,05,49,044,34,12,69,049,34,13,14,117,08,15,37,149,15*72
$GPGSV,4,2,16,18,34,279,20,20,15,035,18,23,36,207,32,24,38,185,18*79
$GPGSV,4,3,16,25,48,343,29,28,01,300,,29,12,338,,36,52,277,*75
$GPGSV,4,4,16,40,86,351,35,41,58,082,34,49,32,274,,50,10,089,*78
$GLGSV,3,1,10,65,18,187,,71,16,075,19,72,35,127,13,74,03,155,09*64
$GLGSV,3,2,10,75,52,163,12,76,61,321,25,77,15,331,,86,05,009,10*60
$GLGSV,3,3,10,87,16,327,12,88,08,270,*64
$GNGLL,0419.99423,S,05539.82459,E,062618.00,A,D*65
$GNGRS,062618.00,1,-5.8,4.4,0.7,5.7,-1.6,1.1,-1.6,-5.3,171,,,*62
$GNGRS,062618.00,1,23.8,-2.1,12.6,-15.2,-2.0,-4.8,,,,,,*6C
$GNGST,062618.00,3071477,,,,4.0,5.1,10*5C
$GNZDA,062618.00,23,05,2025,00,00*72
$GNGBS,062618.00,4.0,5.1,10.5,,,,*60
$GNTXT,01,01,01,More than 100 frame errors, UART RX was disabled*70
b0L0! 1,!E1
u%
"#$&J0Wn,R{4 V_B#:R 
Y
tAGKH#JK4L=AjMKVWGXM\b0!r?$GNRMC,062620.00,A,0419.99422,S,05539.82464,E,0.198,,230525,,,D*7B
$GNVTG,,T,,M,0.198,N,0.367,K,D*3A
$GNGNS,062620.00,0419.99422,S,05539.82464,E,DA,16,0.72,20.5,-47.6,,0000*63
$GNGGA,062620.00,0419.99422,S,05539.82464,E,2,12,0.72,20.5,M,-47.6,M,,0000*4B
$GNGSA,A,3,24,20,05,13,15,12,18,25,23,40,,,1.28,0.72,1.07*1B
$GNGSA,A,3,86,75,87,71,72,76,,,,,,,1.28,0.72,1.07*15
$GPGSV,4,1,16,05,49,044,32,12,69,049,33,13,14,117,10,15,37,149,13*7C
$GPGSV,4,2,16,18,34,279,21,20,15,035,16,23,36,207,30,24,38,185,19*75
$GPGSV,4,3,16,25,48,343,29,28,01,300,,29,12,338,,36,52,277,*75
$GPGSV,4,4,16,40,86,351,32,41,58,082,35,49,32,274,,50,10,089,*7E
$GLGSV,3,1,10,65,18,187,,71,16,075,16,72,35,127,16,74,03,155,08*6F
$GLGSV,3,2,10,75,52,163,09,76,61,321,22,77,15,331,,86,05,009,08*64
$GLGSV,3,3,10,87,16,327,11,88,08,270,*67
$GNGLL,0419.99422,S,05539.82464,E,062620.00,A,D*61
$GNGRS,062620.00,1,-4.4,1.3,0.2,7.5,4.4,-1.1,-0.2,-1.5,-0.5,171,,*65
$GNGRS,062620.00,1,24.3,-2.6,12.8,-15.4,1.3,-4.1,,,,,,*40
$GNGST,062620.00,2973996,,,,4.0,5.1,11*5E
$GNZDA,062620.00,23,05,2025,00,00*79
$GNGBS,062620.00,4.0,5.1,10.5,,,,*6B
b0L! 1,!E1u%^
"<#$&0W,R{4!V_B#:R 
Y
tAGKH#JK4L=AMKVWGXIb!rG$GNRMC,062622.00,A,0419.99421,S,05539.82453,E,0.688,,230525,,,D*78
$GNVTG,,T,,M,0.688,N,1.275,K,D*3F
$GNGNS,062622.00,0419.99421,S,05539.82453,E,DA,15,0.73,20.7,-47.6,,0000*66
$GNGGA,062622.00,0419.99421,S,05539.82453,E,2,12,0.73,20.7,M,-47.6,M,,0000*4D
$GNGSA,A,3,24,20,05,15,12,18,25,23,40,,,,1.32,0.73,1.10*15
$GNGSA,A,3,86,75,87,71,72,76,,,,,,,1.32,0.73,1.10*19
$GPGSV,4,1,16,05,49,044,32,12,69,049,33,13,14,117,,15,37,149,13*7D
$GPGSV,4,2,16,18,34,279,22,20,15,035,13,23,36,207,29,24,38,185,19*7B
$GPGSV,4,3,16,25,48,343,29,28,01,300,,29,12,338,,36,52,277,*75
$GPGSV,4,4,16,40,86,351,33,41,58,082,35,49,32,274,,50,10,089,*7F
$GLGSV,3,1,10,65,18,187,,71,16,075,11,72,35,127,17,74,03,155,11*61
$GLGSV,3,2,10,75,52,163,09,76,61,321,23,77,15,331,,86,05,009,11*6D
$GLGSV,3,3,10,87,16,327,14,88,08,270,*62
$GNGLL,0419.99421,S,05539.82453,E,062622.00,A,D*64
$GNGRS,062622.00,1,-0.3,-0.7,0.2,-1.6,-1.0,0.6,-5.1,1.8,171,,,*43
$GNGRS,062622.00,1,-70.1,-62.3,12.7,-18.7,2.7,-6.0,,,,,,*5A
$GNGST,062622.00,1060,,,,4.0,5.1,11*62
$GNZDA,062622.00,23,05,2025,00,00*7B
$GNGBS,062622.00,4.0,5.1,10.6,,,,*6A
$GNTXT,01,01,01,More than 100 frame errors, UART RX was disabled*70
b0L!1,<E1eu%r
"!#$&0W,R{4 V_C#:R 
Y
tAGKH#MJK4L=AMKV>WG@Xwb!rGS$GNRMC,062625.00,A,0419.99431,S,05539.82468,E,0.376,,230525,,,D*72
$GNVTG,,T,,M,0.376,N,0.695,K,D*30
$GNGNS,062625.00,0419.99431,S,05539.82468,E,DA,15,0.81,20.6,-47.6,,0000*64
$GNGGA,062625.00,0419.99431,S,05539.82468,E,2,12,0.81,20.6,M,-47.6,M,,0000*4F
$GNGSA,A,3,24,20,05,15,12,18,25,23,40,,,,1.51,0.81,1.28*16
$GNGSA,A,3,86,75,87,71,72,76,,,,,,,1.51,0.81,1.28*1A
$GPGSV,4,1,16,05,49,044,30,12,69,049,31,13,14,117,,15,37,149,19*77
$GPGSV,4,2,16,18,34,279,19,20,15,035,16,23,36,207,29,24,38,185,19*76
$GPGSV,4,3,16,25,48,343,29,28,01,300,,29,12,338,,36,52,277,*75
$GPGSV,4,4,16,40,86,351,32,41,58,082,35,49,32,274,,50,10,089,*7E
$GLGSV,3,1,10,65,18,187,,71,16,075,18,72,35,127,16,74,03,155,09*60
$GLGSV,3,2,10,75,52,163,13,76,61,321,25,77,15,331,,86,05,009,09*69
$GLGSV,3,3,10,87,16,327,11,88,08,270,*67
$GNGLL,0419.99431,S,05539.82468,E,062625.00,A,D*6A
$GNGRS,062625.00,1,-2.7,1.6,0.6,1.1,-1.6,0.3,-0.7,2.6,172,,,*4F
$GNGRS,062625.00,1,-122,-23.5,-132,-16.4,0.8,-3.6,,,,,,*73
$GNGST,062625.00,1097,,,,4.0,5.0,11*6C
$GNZDA,062625.00,23,05,2025,00,00*7C
$GNGBS,062625.00,4.0,5.0,10.6,,,,*6C
$GNTXT,01,01,01,More than 100 frame errors, UART RX was disabled*70
b0L!"1,E"E1Su%
"$#$m&,0W,R{4 V_DC%:R 
Y
t.AGK~H#JK4L=AMKV
WG4Xb!r/W&$GNRMC,062626.00,A,0419.99436,S,05539.82474,E,0.093,,230525,,,D*73
$GNVTG,,T,,M,0.093,N,0.171,K,D*35
$GNGNS,062626.00,0419.99436,S,05539.82474,E,DA,14,0.74,20.6,-47.6,,0000*66
$GNGGA,062626.00,0419.99436,S,05539.82474,E,2,12,0.74,20.6,M,-47.6,M,,0000*4C
$GNGSA,A,3,24,20,05,15,12,18,25,23,40,,,,1.34,0.74,1.12*16
$GNGSA,A,3,86,87,71,72,76,,,,,,,,1.34,0.74,1.12*18
$GPGSV,4,1,16,05,49,044,34,12,69,049,34,13,14,117,,15,37,149,18*77
$GPGSV,4,2,16,18,34,279,20,20,15,035,16,23,36,207,29,24,38,185,18*7D
$GPGSV,4,3,16,25,48,343,30,28,01,300,,29,12,338,,36,52,277,*7D
$GPGSV,4,4,16,40,86,351,32,41,58,082,37,49,32,274,,50,10,089,*7C
$GLGSV,3,1,10,65,18,187,,71,16,075,17,72,35,127,15,74,03,155,09*6C
$GLGSV,3,2,10,75,52,163,07,76,61,321,23,77,15,331,,86,05,009,10*62
$GLGSV,3,3,10,87,16,327,09,88,08,270,*6E
$GNGLL,0419.99436,S,05539.82474,E,062626.00,A,D*63
$GNGRS,062626.00,1,0.4,1.9,0.7,-0.3,-1.7,0.4,-6.1,1.1,172,,,*42
$GNGRS,062626.00,1,24.6,13.3,-14.1,3.9,-0.9,,,,,,,*4E
$GNGST,062626.00,3387,,,,4.1,5.0,11*6E
$GNZDA,062626.00,23,05,2025,00,00*7F
$GNGBS,062626.00,4.1,5.0,10.5,,,,*6D
$GNTXT,01,01,01,More than 100 frame errors, UART RX was disabled*70
$GLGSV,3,2,10,75,52,163,12,76,61,321,22,77,15,331,,86,05,009,09*6F
$GLGSV,3,3,10,87,16,328,10,88,08,270,*69
$GNGLL,0419.99437,S,05539.82477,E,062627.00,A,D*60
$GNGRS,062627.00,1,0.2,-1.2,0.7,0.8,-2.3,0.1,-3.7,3.4,172,,,*43
$GNGRS,062627.00,1,24.4,-2.7,13.4,-11.9,1.3,-1.4,,,,,,*45
$GNGST,062627.00,3071477,,,,4.1,5.0,10*50
$GNZDA,062627.00,23,05,2025,00,00*7E
$GNGBS,062627.00,4.1,5.0,10.4,,,,*6D
$GNTXT,01,01,01,More than 100 frame errors, UART RX was disabled*70
$GNTXT,01,01,01,More than 100 frame errors, UART RX was disabled*70
$GNTXT,01,01,01,More than 100 frame errors, UART RX was disabled*70
b0L!!1,l"E12u%
"#$4&0W9,R{4!V_C#:R 
Y
tAGKyH#JK4L=AJMKVW
H XNb!rn$GNRMC,062632.00,A,0419.99466,S,05539.82515,E,0.058,,230525,,,D*72
$GNVTG,,T,,M,0.058,N,0.108,K,D*3C
$GNGNS,062632.00,0419.99466,S,05539.82515,E,DA,15,0.73,19.1,-47.6,,0000*6B
$GNGGA,062632.00,0419.99466,S,05539.82515,E,2,12,0.73,19.1,M,-47.6,M,,0000*40
$GNGSA,A,3,24,20,05,15,12,18,25,23,40,,,,1.32,0.73,1.10*15
$GNGSA,A,3,86,75,87,71,72,76,,,,,,,1.32,0.73,1.10*19
$GPGSV,4,1,16,05,49,044,33,12,69,049,34,13,14,117,,15,37,149,21*7A
$GPGSV,4,2,16,18,34,279,19,20,15,035,19,23,36,207,30,24,38,185,20*7B
$GPGSV,4,3,16,25,48,343,30,28,01,300,,29,12,338,,36,52,277,*7D
$GPGSV,4,4,16,40,86,351,33,41,58,082,35,49,32,274,,50,10,089,*7F
$GLGSV,3,1,10,65,18,187,,71,16,075,19,72,35,127,18,74,03,155,09*6F
$GLGSV,3,2,10,75,52,163,13,76,61,321,21,77,15,331,,86,05,009,13*66
$GLGSV,3,3,10,87,16,328,10,88,08,271,*68
$GNGLL,0419.99466,S,05539.82515,E,062632.00,A,D*65
$GNGRS,062632.00,1,3.9,-3.5,-1.5,1.3,0.5,0.2,-4.5,3.1,173,,,*45
$GNGRS,062632.00,1,24.8,-2.8,13.1,-11.6,-1.2,-1.8,,,,,,*68
$GNGST,062632.00,3071475,,,,4.1,4.9,10*5E
$GNZDA,062632.00,23,05,2025,00,00*7A
$GNGBS,062632.00,4.1,4.9,10.4,,,,*61
b0L!#0+#E1u%
"#$&0W,R{4"V_C#:R 
Y
tzAGKH#RJlK
4L=AMKVWHXb!rovT$GNRMC,062634.00,A,0419.99476,S,05539.82528,E,0.247,,230525,,,D*77
$GNVTG,,T,,M,0.247,N,0.457,K,D*3F
$GNGNS,062634.00,0419.99476,S,05539.82528,E,DA,15,0.77,19.4,-47.6,,0000*63
$GNGGA,062634.00,0419.99476,S,05539.82528,E,2,12,0.77,19.4,M,-47.6,M,,0000*48
$GNGSA,A,3,24,20,05,15,12,18,25,23,40,,,,1.33,0.77,1.08*19
$GNGSA,A,3,86,75,87,71,72,76,,,,,,,1.33,0.77,1.08*15
$GPGSV,4,1,16,05,48,043,35,12,69,049,35,13,14,117,12,15,37,149,19*73
$GPGSV,4,2,16,18,34,279,18,20,15,035,16,23,36,207,31,24,38,185,20*74
$GPGSV,4,3,16,25,48,343,29,28,01,300,,29,12,338,,36,52,277,*75
$GPGSV,4,4,16,40,86,351,34,41,58,082,35,49,32,274,,50,10,089,*78
$GLGSV,3,1,10,65,18,187,,71,16,075,20,72,35,127,19,74,03,155,08*65
$GLGSV,3,2,10,75,52,163,10,76,61,321,21,77,15,331,,86,05,009,08*6F
$GLGSV,3,3,10,87,16,328,11,88,08,271,*69
$GNGLL,0419.99476,S,05539.82528,E,062634.00,A,D*6C
$GNGRS,062634.00,1,1.5,-3.1,1.6,0.2,0.3,-0.9,-2.4,-3.2,173,,,*6E
$GNGRS,062634.00,1,-7.9,-11.1,-105,-11.1,-1.7,-5.3,,,,,,*41
$GNGST,062634.00,1060,,,,4.0,4.9,10*6D
$GNZDA,062634.00,23,05,2025,00,00*7C
$GNGBS,062634.00,4.0,4.9,10.3,,,,*61
$GNTXT,01,01,01,More than 100 frame errors, UART RX was disabled*70
$GNTXT,01,01,01,More than 100 frame errors, UART RX was disabled*70
b0L"%0+$E1u%F
"##!$&&0W5,R{4#V_C$:R 
Y
tOAGKH#JK4LL=AMKVZWHX/b"r'7$GNRMC,062637.00,A,0419.99476,S,05539.82523,E,0.043,,230525,,,D*79
$GNVTG,,T,,M,0.043,N,0.079,K,D*31
$GNGNS,062637.00,0419.99476,S,05539.82523,E,DA,14,0.77,20.0,-47.6,,0000*64
$GNGGA,062637.00,0419.99476,S,05539.82523,E,2,12,0.77,20.0,M,-47.6,M,,0000*4E
$GNGSA,A,3,24,05,15,12,18,25,23,40,,,,,1.39,0.77,1.15*1D
$GNGSA,A,3,86,75,87,71,72,76,,,,,,,1.39,0.77,1.15*13
$GPGSV,4,1,16,05,48,043,37,12,69,049,36,13,14,117,18,15,37,149,24*76
$GPGSV,4,2,16,18,34,279,18,20,15,035,12,23,36,207,33,24,38,185,18*79
$GPGSV,4,3,16,25,48,343,30,28,01,300,,29,12,338,,36,52,277,*7D
$GPGSV,4,4,16,40,86,351,35,41,58,082,36,49,32,274,,50,10,089,*7A
$GLGSV,3,1,10,65,18,187,,71,16,075,18,72,35,127,20,74,03,155,08*64
$GLGSV,3,2,10,75,52,163,14,76,61,321,23,77,15,331,,86,05,009,12*62
$GLGSV,3,3,10,87,16,328,08,88,08,271,*61
$GNGLL,0419.99476,S,05539.82523,E,062637.00,A,D*64
$GNGRS,062637.00,1,2.0,0.0,0.7,0.0,0.3,0.5,-2.2,173,,,,*63
$GNGRS,062637.00,1,36.7,-4.4,19.8,-13.1,-3.3,0.1,,,,,,*4B
$GNGST,062637.00,1097,,,,4.0,4.8,10*67
$GNZDA,062637.00,23,05,2025,00,00*7F
$GNGBS,062637.00,4.0,4.8,10.0,,,,*60
$GNTXT,01,01,01,More than 100 frame errors, UART RX was disabled*70
b0L"%0+v$E1u%%B
"F# $&0W,R{4#V_C%:R 
Y
tAGKFH#JK4L=AMKV
WHXHb"r$GNRMC,062638.00,A,0419.99476,S,05539.82524,E,0.044,,230525,,,D*76
$GNVTG,,T,,M,0.044,N,0.082,K,D*32
$GNGNS,062638.00,0419.99476,S,05539.82524,E,DA,15,0.73,20.1,-47.6,,0000*68
$GNGGA,062638.00,0419.99476,S,05539.82524,E,2,12,0.73,20.1,M,-47.6,M,,0000*43
$GNGSA,A,3,24,20,05,15,12,18,25,23,40,,,,1.32,0.73,1.10*15
$GNGSA,A,3,86,75,87,71,72,76,,,,,,,1.32,0.73,1.10*19
$GPGSV,4,1,16,05,48,043,37,12,69,049,36,13,14,117,15,15,37,149,25*7A
$GPGSV,4,2,16,18,34,279,20,20,15,035,16,23,36,207,32,24,38,185,19*76
$GPGSV,4,3,16,25,48,343,30,28,01,300,,29,12,338,,36,52,277,*7D
$GPGSV,4,4,16,40,86,351,35,41,58,082,37,49,32,274,,50,10,089,*7B
$GLGSV,3,1,10,65,18,187,,71,16,075,18,72,35,127,21,74,03,155,08*65
$GLGSV,3,2,10,75,52,163,16,76,61,321,23,77,15,331,,86,05,009,10*62
$GLGSV,3,3,10,87,16,328,11,88,08,271,*69
$GNGLL,0419.99476,S,05539.82524,E,062638.00,A,D*6C
$GNGRS,062638.00,1,3.9,-3.1,1.2,3.2,0.0,0.7,-0.7,-0.4,173,,,*4F
$GNGRS,062638.00,1,24.5,-2.5,12.9,-12.1,-3.1,-0.4,,,,,,*63
$GNGST,062638.00,65617,,,,3.9,4.8,10*5A
$GNZDA,062638.00,23,05,2025,00,00*70
$GNGBS,062638.00,3.9,4.8,9.9,,,,*50
b0Lh"$0+b$E1u%
"# $&S0W>,R{4#V_C$:R 
Y
tpAGKH#ZJ6K4WL=AMKV
WHXbh"rg$GNRMC,062639.00,A,0419.99475,S,05539.82519,E,0.090,,230525,,,D*73
$GNVTG,,T,,M,0.090,N,0.166,K,D*30
$GNGNS,062639.00,0419.99475,S,05539.82519,E,DA,15,0.73,20.6,-47.6,,0000*63
$GNGGA,062639.00,0419.99475,S,05539.82519,E,2,12,0.73,20.6,M,-47.6,M,,0000*48
$GNGSA,A,3,24,20,05,15,12,18,25,23,40,,,,1.32,0.73,1.10*15
$GNGSA,A,3,86,75,87,71,72,76,,,,,,,1.32,0.73,1.10*19
$GPGSV,4,1,16,05,48,043,36,12,69,049,36,13,14,117,12,15,37,149,23*7A
$GPGSV,4,2,16,18,34,279,18,20,15,035,15,23,36,207,32,24,38,185,18*7F
$GPGSV,4,3,16,25,48,343,29,28,01,300,,29,12,338,,36,52,277,*75
$GPGSV,4,4,16,40,86,351,35,41,58,082,36,49,32,274,,50,10,089,*7A
$GLGSV,3,1,10,65,18,187,,71,16,075,17,72,35,127,21,74,03,155,08*6A
