b0Lp$/*GF6s#%
""&*%1WT+S{4V_:R 
Y
tAGIH#}JK3"L>?MJV

WIXkbp$rWk$GNRMC,062915.00,A,0419.98963,S,05539.81790,E,0.214,,230525,,,A*72
$GNVTG,,T,,M,0.214,N,0.396,K,A*36
$GNGNS,062915.00,0419.98963,S,05539.81790,E,AA,15,0.71,14.7,-47.6,,*68
$GNGGA,062915.00,0419.98963,S,05539.81790,E,1,12,0.71,14.7,M,-47.6,M,,*45
$GNGSA,A,3,24,20,05,13,15,12,18,25,23,,,,1.35,0.71,1.15*13
$GNGSA,A,3,75,87,71,72,76,65,,,,,,,1.35,0.71,1.15*14
$GPGSV,4,1,16,05,47,042,23,12,70,054,23,13,14,115,12,15,37,147,22*7D
$GPGSV,4,2,16,18,34,281,25,20,14,034,08,23,38,207,25,24,37,184,11*75
$GPGSV,4,3,16,25,49,343,11,28,02,299,,29,12,339,,36,52,277,*7C
$GPGSV,4,4,16,40,86,351,,41,58,082,,49,32,274,,50,10,089,*79
$GLGSV,3,1,10,65,18,186,19,71,16,073,15,72,35,125,19,74,02,155,06*61
$GLGSV,3,2,10,75,51,164,21,76,62,319,20,77,16,330,,86,05,010,08*6A
$GLGSV,3,3,10,87,15,329,09,88,08,272,*61
$GNGLL,0419.98963,S,05539.81790,E,062915.00,A,A*6F
$GNGRS,062915.00,1,-11.3,20.8,-1.9,18.3,4.7,-13.2,2.3,8.5,-7.3,,,*77
$GNGRS,062915.00,1,-4.8,15.2,-20.9,-13.8,-8.3,7.6,,,,,,*68
$GNGST,062915.00,439841,,,,6.6,6.3,14*6D
$GNZDA,062915.00,23,05,2025,00,00*70
$GNGBS,062915.00,6.6,6.3,14.2,,,,*64
$GNTXT,01,01,01,More than 100 frame errors, UART RX was disabled*70
b0Lt$/*MF6sY%
!i"wA&%1WV+S{4V_:R 
Y
tAGIRH#}J)K31L>?MJV
*W
IXbt$r?C.$GNRMC,062916.00,A,0419.98972,S,05539.81776,E,0.578,,230525,,,A*74
$GNVTG,,T,,M,0.578,N,1.070,K,A*31
$GNGNS,062916.00,0419.98972,S,05539.81776,E,AA,14,0.86,15.9,-47.6,,*65
$GNGGA,062916.00,0419.98972,S,05539.81776,E,1,12,0.86,15.9,M,-47.6,M,,*49
$GNGSA,A,3,20,05,13,15,12,18,25,23,,,,,1.67,0.86,1.44*1E
$GNGSA,A,3,75,87,71,72,76,65,,,,,,,1.67,0.86,1.44*1F
$GPGSV,4,1,16,05,47,042,22,12,70,054,22,13,14,115,11,15,37,147,20*7C
$GPGSV,4,2,16,18,33,281,23,20,14,034,08,23,38,207,22,24,37,184,09*7A
$GPGSV,4,3,16,25,49,343,08,28,02,299,,29,12,339,,36,52,277,*74
$GPGSV,4,4,16,40,86,351,,41,58,082,,49,32,274,,50,10,089,*79
$GLGSV,3,1,10,65,18,186,18,71,16,073,14,72,35,125,18,74,02,155,06*60
$GLGSV,3,2,10,75,51,164,20,76,62,319,19,77,16,330,,86,05,010,07*6E
$GLGSV,3,3,10,87,15,329,10,88,08,272,*69
$GNGLL,0419.98972,S,05539.81776,E,062916.00,A,A*64
$GNGRS,062916.00,1,168,-1.8,3.4,4.6,-13.9,3.6,0.9,-8.6,,,,*53
$GNGRS,062916.00,1,-4.6,56.2,-19.7,-15.0,-10.6,6.5,,,,,,*56
$GNGST,062916.00,59,,,,6.8,6.4,15*69
$GNZDA,062916.00,23,05,2025,00,00*73
$GNGBS,062916.00,6.8,6.4,14.6,,,,*6A
$GNTXT,01,01,01,More than 100 frame errors, UART RX was disabled*70
b0Lx$/*1F6s%=
!U
"T&%1W+S{4V_:R 
Y
tAGIH#}-JK3L>?TMJV
g
W
IXbx$r'$GNRMC,062917.00,A,0419.98960,S,05539.81767,E,0.258,,230525,,,A*73
$GNVTG,,T,,M,0.258,N,0.478,K,A*39
$GNGNS,062917.00,0419.98960,S,05539.81767,E,AA,15,0.71,15.1,-47.6,,*66
$GNGGA,062917.00,0419.98960,S,05539.81767,E,1,12,0.71,15.1,M,-47.6,M,,*4B
$GNGSA,A,3,24,20,05,13,15,12,18,25,23,,,,1.35,0.71,1.15*13
$GNGSA,A,3,75,87,71,72,76,65,,,,,,,1.35,0.71,1.15*14
$GPGSV,4,1,16,05,47,042,22,12,70,054,23,13,14,115,12,15,37,147,21*7F
$GPGSV,4,2,16,18,33,281,23,20,14,034,10,23,38,207,23,24,37,184,12*78
$GPGSV,4,3,16,25,49,343,15,28,02,299,,29,12,339,,36,52,277,*78
$GPGSV,4,4,16,40,86,351,,41,58,082,,49,32,274,,50,10,089,*79
$GLGSV,3,1,10,65,18,186,18,71,16,073,15,72,35,125,18,74,02,155,07*60
$GLGSV,3,2,10,75,51,164,22,76,62,319,20,77,16,330,,86,05,010,12*62
$GLGSV,3,3,10,87,15,329,10,88,08,272,*69
$GNGLL,0419.98960,S,05539.81767,E,062917.00,A,A*66
$GNGRS,062917.00,1,-7.7,21.3,0.5,19.6,3.2,-15.5,3.4,7.8,-8.0,,,*63
$GNGRS,062917.00,1,-6.0,13.1,-20.3,-14.9,-9.4,7.4,,,,,,*6D
$GNGST,062917.00,3076377,,,,6.9,6.5,15*55
$GNZDA,062917.00,23,05,2025,00,00*72
$GNGBS,062917.00,6.9,6.5,15.0,,,,*6C
$GNTXT,01,01,01,More than 100 frame errors, UART RX was disabled*70
b0L|$/*F6_sm%
!
"s&}%1W+S{4V_:R 
Y
tA8GIH#}JaK3L>?9MJV
r
WIXGb|$r$GNRMC,062918.00,A,0419.98984,S,05539.81763,E,1.013,,230525,,,A*7E
$GNVTG,,T,,M,1.013,N,1.877,K,A*37
$GNGNS,062918.00,0419.98984,S,05539.81763,E,AA,15,0.71,14.4,-47.6,,*63
$GNGGA,062918.00,0419.98984,S,05539.81763,E,1,12,0.71,14.4,M,-47.6,M,,*4E
$GNGSA,A,3,24,20,05,13,15,12,18,25,23,,,,1.35,0.71,1.15*13
$GNGSA,A,3,75,87,71,72,76,65,,,,,,,1.35,0.71,1.15*14
$GPGSV,4,1,16,05,47,042,20,12,70,054,22,13,14,115,12,15,37,147,20*7D
$GPGSV,4,2,16,18,33,281,24,20,14,034,10,23,38,207,24,24,37,184,11*7B
$GPGSV,4,3,16,25,49,343,21,28,02,299,,29,12,339,,36,52,277,*7F
$GPGSV,4,4,16,40,86,351,,41,58,082,,49,32,274,,50,10,089,*79
$GLGSV,3,1,10,65,18,186,18,71,16,073,17,72,35,125,21,74,02,155,07*68
$GLGSV,3,2,10,75,51,164,23,76,62,319,19,77,16,330,,86,05,010,08*62
$GLGSV,3,3,10,87,15,329,11,88,08,272,*68
$GNGLL,0419.98984,S,05539.81763,E,062918.00,A,A*67
$GNGRS,062918.00,1,-3.2,21.6,0.1,19.0,1.4,-17.0,1.7,7.9,-6.4,,,*63
$GNGRS,062918.00,1,-5.6,13.0,-17.6,-15.4,-9.7,5.7,,,,,,*69
$GNGST,062918.00,4345665,,,,7.1,6.6,15*52
$GNZDA,062918.00,23,05,2025,00,00*7D
$GNGBS,062918.00,7.1,6.6,15.3,,,,*6A
$GNTXT,01,01,01,More than 100 frame errors, UART RX was disabled*70
b0Lh$/*GF6
s%
!B
"&&%w1W+S{4V_:R 
Y
tAGGIH#}JK3L>?iMJV
CWI>Xbh$rc$GNRMC,062919.00,A,0419.98985,S,05539.81764,E,0.688,,230525,,,A*7C
$GNVTG,,T,,M,0.688,N,1.274,K,A*3B
$GNGNS,062919.00,0419.98985,S,05539.81764,E,AA,15,0.83,13.1,-47.6,,*6B
$GNGGA,062919.00,0419.98985,S,05539.81764,E,1,12,0.83,13.1,M,-47.6,M,,*46
$GNGSA,A,3,24,20,05,13,15,12,18,25,23,,,,1.65,0.83,1.43*18
$GNGSA,A,3,75,87,71,72,76,65,,,,,,,1.65,0.83,1.43*1F
$GPGSV,4,1,16,05,47,042,18,12,70,054,22,13,14,115,10,15,37,147,20*74
$GPGSV,4,2,16,18,33,281,25,20,14,034,10,23,38,207,25,24,37,184,13*79
$GPGSV,4,3,16,25,49,343,16,28,02,299,,29,12,339,,36,52,277,*7B
$GPGSV,4,4,16,40,86,351,,41,58,082,,49,32,274,,50,10,089,*79
$GLGSV,3,1,10,65,18,186,18,71,16,073,18,72,35,125,20,74,02,155,07*66
$GLGSV,3,2,10,75,51,164,22,76,62,319,19,77,16,330,,86,05,010,06*6D
$GLGSV,3,3,10,87,15,329,11,88,08,272,*68
$GNGLL,0419.98985,S,05539.81764,E,062919.00,A,A*60
$GNGRS,062919.00,1,-3.9,99.4,-1.9,-12.7,0.3,-16.6,0.7,6.7,-7.9,,,*6E
$GNGRS,062919.00,1,-6.0,159,-16.3,-13.4,-9.2,5.8,,,,,,*44
$GNGST,062919.00,55,,,,7.1,6.6,16*63
$GNZDA,062919.00,23,05,2025,00,00*7C
$GNGBS,062919.00,7.1,6.6,15.6,,,,*6E
$GNTXT,01,01,01,More than 100 frame errors, UART RX was disabled*70
b0LP$/*nF6sY%%
!"&%H1W,+S{4V_F:R 
Y
twAvGIH#}YJK3SL>?MJV

WI7XbP$r$GNRMC,062920.00,A,0419.98994,S,05539.81736,E,0.865,,230525,,,A*7C
$GNVTG,,T,,M,0.865,N,1.602,K,A*33
$GNGNS,062920.00,0419.98994,S,05539.81736,E,AA,14,0.84,13.1,-47.6,,*60
$GNGGA,062920.00,0419.98994,S,05539.81736,E,1,12,0.84,13.1,M,-47.6,M,,*4C
$GNGSA,A,3,24,20,05,13,15,12,18,25,23,,,,1.70,0.84,1.48*10
$GNGSA,A,3,75,71,72,76,65,,,,,,,,1.70,0.84,1.48*18
$GPGSV,4,1,16,05,47,042,20,12,70,054,22,13,14,115,12,15,37,147,22*7F
$GPGSV,4,2,16,18,33,281,23,20,14,034,07,23,38,208,25,24,37,184,15*70
$GPGSV,4,3,16,25,49,343,17,28,02,299,,29,12,339,,36,52,277,*7A
$GPGSV,4,4,16,40,86,351,28,41,58,082,,49,32,274,,50,10,089,*73
$GLGSV,3,1,10,65,18,186,18,71,16,073,17,72,35,125,21,74,02,155,11*6F
$GLGSV,3,2,10,75,51,164,22,76,62,319,19,77,16,330,,86,05,010,08*63
$GLGSV,3,3,10,87,15,329,07,88,08,272,*6F
$GNGLL,0419.98994,S,05539.81736,E,062920.00,A,A*6D
$GNGRS,062920.00,1,-4.4,22.4,-4.0,21.4,0.4,-16.4,-1.1,5.6,-7.4,,,*6C
$GNGRS,062920.00,1,-4.3,-16.2,-11.9,-7.5,3.7,,,,,,,*7C
$GNGST,062920.00,52,,,,7.2,6.6,16*6D
$GNZDA,062920.00,23,05,2025,00,00*76
$GNGBS,062920.00,7.2,6.6,15.9,,,,*68
b0L8$/*TF6s%
!
"&T%1W+S{4V_)D:R 
Y
t)AGI~H#}!JK3&L>?.MJV
4
W
IvXb8$r{5$GNRMC,062921.00,A,0419.98964,S,05539.81689,E,1.573,,230525,,,A*7C
$GNVTG,,T,,M,1.573,N,2.913,K,A*34
$GNGNS,062921.00,0419.98964,S,05539.81689,E,AA,15,0.73,11.6,-47.6,,*67
$GNGGA,062921.00,0419.98964,S,05539.81689,E,1,12,0.73,11.6,M,-47.6,M,,*4A
$GNGSA,A,3,24,20,05,13,15,12,18,25,23,,,,1.40,0.73,1.19*1F
$GNGSA,A,3,75,87,71,72,76,65,,,,,,,1.40,0.73,1.19*18
$GPGSV,4,1,16,05,47,042,22,12,70,054,20,13,14,115,12,15,37,147,21*7C
$GPGSV,4,2,16,18,33,281,23,20,14,034,10,23,38,208,26,24,37,183,15*72
$GPGSV,4,3,16,25,49,343,16,28,02,299,,29,12,339,,36,52,277,*7B
$GPGSV,4,4,16,40,86,351,27,41,58,082,,49,32,274,,50,10,089,*7C
$GLGSV,3,1,10,65,18,186,19,71,16,073,16,72,35,125,20,74,02,155,07*69
$GLGSV,3,2,10,75,51,164,21,76,62,319,17,77,16,330,,86,05,010,12*65
$GLGSV,3,3,10,87,15,329,10,88,08,272,*69
$GNGLL,0419.98964,S,05539.81689,E,062921.00,A,A*66
$GNGRS,062921.00,1,-8.1,22.0,-4.3,22.7,2.1,-15.5,-0.6,4.1,-6.8,,,*6B
$GNGRS,062921.00,1,-2.2,11.4,-16.7,-12.5,-7.2,5.3,,,,,,*6F
$GNGST,062921.00,4808,,,,7.2,6.7,16*6E
$GNZDA,062921.00,23,05,2025,00,00*77
$GNGBS,062921.00,7.2,6.7,16.1,,,,*63
$GNTXT,01,01,01,More than 100 frame errors, UART RX was disabled*70
$GNRMC,062922.00,A,0419.98976,S,05539.81664,E,0.783,,230525,,,A*73
$GNVTG,,T,,M,0.783,N,1.450,K,A*31
$GNGNS,062922.00,0419.98976,S,05539.81664,E,AA,16,0.82,11.3,-47.6,,*6C
$GNGGA,062922.00,0419.98976,S,05539.81664,E,1,12,0.82,11.3,M,-47.6,M,,*42
$GNGSA,A,3,24,20,05,13,15,12,18,25,23,40,,,1.54,0.82,1.30*1B
$GNGSA,A,3,75,87,71,72,76,65,,,,,,,1.54,0.82,1.30*18
$GPGSV,4,1,16,05,47,042,25,12,70,054,21,13,14,115,09,15,37,147,23*72
$GPGSV,4,2,16,18,33,281,22,20,14,034,08,23,38,208,26,24,37,183,14*7B
$GPGSV,4,3,16,25,50,343,15,28,02,299,,29,12,339,,36,52,277,*70
$GPGSV,4,4,16,40,86,351,27,41,58,082,,49,32,274,,50,10,089,*7C
$GLGSV,3,1,10,65,18,186,18,71,16,073,14,72,35,125,20,74,02,155,09*64
$GLGSV,3,2,10,75,51,164,20,76,62,319,15,77,16,330,,86,05,010,06*63
$GLGSV,3,3,10,87,15,329,10,88,08,272,*69
$GNGLL,0419.98976,S,05539.81664,E,062922.00,A,A*65
$GNGRS,062922.00,1,-9.1,71.6,-4.6,-5.4,3.0,-14.6,-2.1,-1.9,-6.8,174,,*62
$GNGRS,062922.00,1,-1.7,-23.1,-15.5,-11.2,-8.5,6.0,,,,,,*4E
$GNGST,062922.00,1060,,,,7.2,6.7,16*6E
$GNZDA,062922.00,23,05,2025,00,00*74
$GNGBS,062922.00,7.2,6.7,16.3,,,,*62
b0L$/*F61s%
!""F&%2W+S{4V_:R 
Y
t]AGIBH#}JoK3-L>?MJV
b
W
I Xub$r
+$GNRMC,062923.00,A,0419.98962,S,05539.81637,E,1.025,,230525,,,A*7B
$GNVTG,,T,,M,1.025,N,1.899,K,A*32
$GNGNS,062923.00,0419.98962,S,05539.81637,E,AA,15,0.71,11.0,-47.6,,*62
$GNGGA,062923.00,0419.98962,S,05539.81637,E,1,12,0.71,11.0,M,-47.6,M,,*4F
$GNGSA,A,3,24,20,05,13,15,12,18,25,23,,,,1.35,0.71,1.15*13
$GNGSA,A,3,75,87,71,72,76,65,,,,,,,1.35,0.71,1.15*14
$GPGSV,4,1,16,05,47,042,25,12,70,054,19,13,14,115,08,15,37,147,22*79
$GPGSV,4,2,16,18,33,281,21,20,14,034,07,23,38,208,24,24,37,183,12*73
$GPGSV,4,3,16,25,50,343,12,28,02,299,,29,12,339,,36,52,277,*77
$GPGSV,4,4,16,40,86,351,,41,58,082,,49,32,274,,50,10,089,*79
$GLGSV,3,1,10,65,18,186,17,71,16,073,13,72,35,125,20,74,02,155,07*62
$GLGSV,3,2,10,75,51,164,19,76,62,319,14,77,16,330,,86,05,010,09*67
$GLGSV,3,3,10,87,15,329,10,88,08,272,*69
$GNGLL,0419.98962,S,05539.81637,E,062923.00,A,A*67
$GNGRS,062923.00,1,-5.9,21.2,-5.5,20.0,2.4,-14.9,-2.2,1.7,-8.2,,,*66
$GNGRS,062923.00,1,0.4,13.1,-12.1,-10.2,-8.1,6.5,,,,,,*4D
$GNGST,062923.00,4343719,,,,7.1,6.7,17*55
$GNZDA,062923.00,23,05,2025,00,00*75
$GNGBS,062923.00,7.1,6.7,16.7,,,,*64
$GNTXT,01,01,01,More than 100 frame errors, UART RX was disabled*70
b0L$/*F6"s%}
!g"%&%2W+S{"4V_:R 
Y
tAGIVH#}J?.K3L>?=MJV
%WI&Xb$rg$GNRMC,062925.00,A,0419.98975,S,05539.81615,E,0.213,,230525,,,A*7D
$GNVTG,,T,,M,0.213,N,0.395,K,A*32
$GNGNS,062925.00,0419.98975,S,05539.81615,E,AA,15,0.83,10.2,-47.6,,*6C
$GNTXT,01,01,01,More than 100 frame errors, UART RX was disabled*70
b0L$/*~F6Qs%
!"&% 2W+S{!4V_:R 
Y
t AGIH#}JRK3L>?4MJV


WI]Xb$rO.$GNRMC,062926.00,A,0419.98988,S,05539.81598,E,1.059,,230525,,,A*77
$GNVTG,,T,,M,1.059,N,1.960,K,A*3E
$GNGNS,062926.00,0419.98988,S,05539.81598,E,AA,15,0.76,9.2,-47.6,,*59
$GNGGA,062926.00,0419.98988,S,05539.81598,E,1,12,0.76,9.2,M,-47.6,M,,*74
$GNGSA,A,3,24,20,05,13,15,12,18,25,23,,,,1.53,0.76,1.33*10
$GNGSA,A,3,75,87,71,72,76,65,,,,,,,1.53,0.76,1.33*17
$GPGSV,4,1,16,05,47,042,25,12,70,054,19,13,14,115,14,15,37,147,21*77
$GPGSV,4,2,16,18,33,281,23,20,14,034,09,23,38,208,25,24,37,183,16*7A
$GPGSV,4,3,16,25,50,343,14,28,02,299,,29,12,339,,36,52,277,33*71
$GPGSV,4,4,16,40,86,351,,41,58,082,,49,32,274,,50,10,089,*79
$GLGSV,3,1,10,65,18,186,16,71,16,073,14,72,35,125,19,74,02,155,07*6E
$GLGSV,3,2,10,75,51,164,19,76,62,319,16,77,16,330,,86,05,010,10*6D
$GLGSV,3,3,10,87,15,329,09,88,08,272,*61
$GNGLL,0419.98988,S,05539.81598,E,062926.00,A,A*60
$GNGRS,062926.00,1,-4.8,22.0,-3.9,20.2,4.2,-17.1,-0.6,-5.0,-8.8,,,*43
$GNGRS,062926.00,1,0.3,13.7,-13.1,-8.6,-4.6,6.9,,,,,,*72
$GNGST,062926.00,162561,,,,7.2,6.9,18*6A
$GNZDA,062926.00,23,05,2025,00,00*70
$GNGBS,062926.00,7.2,6.9,17.8,,,,*62
$GNTXT,01,01,01,More than 100 frame errors, UART RX was disabled*70
$GNTXT,01,01,01,More than 100 frame errors, UART RX was disabled*70
$GNTXT,01,01,01,More than 100 frame errors, UART RX was disabled*70
b0Lx$/*"F6/s%g
!
"5&V%G2W+S{ 4V_:R 
Y
tA
G
ISH#}bJ"K3=L>?MJV
M
WIXbx$r":f$GNRMC,062929.00,A,0419.99008,S,05539.81549,E,0.722,,230525,,,A*7E
$GNVTG,,T,,M,0.722,N,1.337,K,A*3C
$GNGNS,062929.00,0419.99008,S,05539.81549,E,AA,15,0.73,7.5,-47.6,,*56
$GNGGA,062929.00,0419.99008,S,05539.81549,E,1,12,0.73,7.5,M,-47.6,M,,*7B
$GNGSA,A,3,24,20,05,13,15,12,18,25,23,,,,1.40,0.73,1.19*1F
$GNGSA,A,3,75,87,71,72,76,65,,,,,,,1.40,0.73,1.19*18
$GPGSV,4,1,16,05,47,042,25,12,70,054,15,13,14,115,08,15,37,147,23*74
$GPGSV,4,2,16,18,33,281,24,20,14,034,10,23,38,208,25,24,37,183,17*74
$GPGSV,4,3,16,25,50,343,18,28,02,299,,29,12,339,,36,52,277,32*7C
$GPGSV,4,4,16,40,86,351,,41,58,082,,49,32,274,,50,10,089,*79
$GLGSV,3,1,10,65,18,186,16,71,16,073,10,72,35,125,20,74,02,155,08*6F
$GLGSV,3,2,10,75,51,164,19,76,62,319,17,77,16,330,,86,05,010,09*64
$GLGSV,3,3,10,87,15,329,08,88,08,272,*60
$GNGLL,0419.99008,S,05539.81549,E,062929.00,A,A*63
$GNGRS,062929.00,1,-1.9,21.0,-4.8,19.5,3.6,-17.4,1.9,-5.1,-9.4,,,*69
$GNGRS,062929.00,1,3.2,13.1,-9.4,-9.3,-3.0,5.2,,,,,,*4A
$GNGST,062929.00,84125,,,,7.2,7.0,19*51
$GNZDA,062929.00,23,05,2025,00,00*7F
$GNGBS,062929.00,7.2,7.0,19.0,,,,*63
b0L`$/*F6sn%A
!"&]%,2W+S{ 4V_:R 
Y
tAGIHH#}JK3L>?MJV

W
IX{Zb`$r%$GNRMC,062930.00,A,0419.99011,S,05539.81557,E,0.070,,230525,,,A*71
$GNVTG,,T,,M,0.070,N,0.130,K,A*38
$GNGNS,062930.00,0419.99011,S,05539.81557,E,AA,15,0.71,6.4,-47.6,,*5B
$GNGGA,062930.00,0419.99011,S,05539.81557,E,1,12,0.71,6.4,M,-47.6,M,,*76
$GNGSA,A,3,24,20,05,13,15,12,18,25,23,,,,1.35,0.71,1.15*13
$GNGSA,A,3,75,87,71,72,76,65,,,,,,,1.35,0.71,1.15*14
$GPGSV,4,1,16,05,47,042,27,12,70,054,16,13,14,115,11,15,37,147,21*7F
$GPGSV,4,2,16,18,33,281,23,20,14,034,12,23,38,208,25,24,37,183,16*70
$GPGSV,4,3,16,25,50,343,18,28,02,299,,29,12,339,,36,52,277,32*7C
$GPGSV,4,4,16,40,86,351,,41,58,082,,49,32,274,,50,10,089,*79
$GLGSV,3,1,10,65,18,186,17,71,16,073,08,72,35,125,19,74,02,155,08*6D
$GLGSV,3,2,10,75,51,164,18,76,62,319,15,77,16,330,,86,05,010,10*6F
$GLGSV,3,3,10,87,15,329,10,88,08,272,*69
$GNGLL,0419.99011,S,05539.81557,E,062930.00,A,A*6C
$GNGRS,062930.00,1,0.4,20.4,-2.8,19.0,3.2,-17.8,1.7,-7.4,-9.3,,,*40
$GNGRS,062930.00,1,4.7,12.9,-9.5,-10.2,-2.7,4.9,,,,,,*7D
$GNGST,062930.00,95495,,,,7.2,7.1,19*56
$GNZDA,062930.00,23,05,2025,00,00*77
$GNGBS,062930.00,7.2,7.1,19.3,,,,*69
b0LH$/*F6U
s%
!g"&%/2W+S{4V_:R 
Y
tA7GII(H#}JOK3"L>?MJV
BWI>XbH$r)3$GNRMC,062931.00,A,0419.98995,S,05539.81572,E,0.350,,230525,,,A*72
$GNVTG,,T,,M,0.350,N,0.649,K,A*30
$GNGNS,062931.00,0419.98995,S,05539.81572,E,AA,14,0.84,4.3,-47.6,,*57
$GNGGA,062931.00,0419.98995,S,05539.81572,E,1,12,0.84,4.3,M,-47.6,M,,*7B
$GNGSA,A,3,24,05,13,15,12,18,25,23,,,,,1.70,0.84,1.48*12
$GNGSA,A,3,75,87,71,72,76,65,,,,,,,1.70,0.84,1.48*17
$GPGSV,4,1,16,05,47,042,27,12,70,054,16,13,14,115,10,15,37,147,21*7E
$GPGSV,4,2,16,18,33,281,23,20,14,034,07,23,38,208,25,24,37,183,16*74
$GPGSV,4,3,16,25,50,343,16,28,02,299,,29,12,339,,36,52,277,31*71
$GPGSV,4,4,16,40,86,351,,41,58,082,,49,32,274,,50,10,089,*79
$GLGSV,3,1,10,65,18,186,18,71,16,073,09,72,35,125,19,74,02,155,08*63
$GLGSV,3,2,10,75,51,164,19,76,62,319,14,77,16,330,,86,05,010,09*67
$GLGSV,3,3,10,87,15,329,09,88,08,272,*61
$GNGLL,0419.98995,S,05539.81572,E,062931.00,A,A*6E
$GNGRS,062931.00,1,0.5,-2.9,-33.5,4.4,-17.1,3.6,-8.8,-8.7,,,,*74
$GNGRS,062931.00,1,5.5,159,103,-11.4,-3.1,3.1,,,,,,*64
$GNGST,062931.00,64,,,,7.2,7.2,20*68
$GNZDA,062931.00,23,05,2025,00,00*76
$GNGBS,062931.00,7.2,7.2,19.7,,,,*6F
$GNTXT,01,01,01,More than 100 frame errors, UART RX was disabled*70
b0L0$/*F6s%
!c"Z&5%2W+S{ 4V_:R 
Y
tAGIH#}JRK3{L
>?MJV

WI4X\b0$r-$GNRMC,062932.00,A,0419.98993,S,05539.81584,E,0.217,,230525,,,A*7C
$GNVTG,,T,,M,0.217,N,0.401,K,A*3C
$GNGNS,062932.00,0419.98993,S,05539.81584,E,AA,14,0.73,3.0,-47.6,,*57
$GNGGA,062932.00,0419.98993,S,05539.81584,E,1,12,0.73,3.0,M,-47.6,M,,*7B
$GNGSA,A,3,24,05,13,15,12,18,25,23,,,,,1.40,0.73,1.19*1D
$GNGSA,A,3,75,87,71,72,76,65,,,,,,,1.40,0.73,1.19*18
$GPGSV,4,1,16,05,47,042,29,12,70,054,18,13,14,115,11,15,37,147,21*7F
$GPGSV,4,2,16,18,33,281,23,20,14,034,07,23,38,208,26,24,37,183,19*78
$GPGSV,4,3,16,25,50,343,17,28,02,299,,29,12,339,,36,52,277,32*73
$GPGSV,4,4,16,40,86,351,,41,58,082,,49,32,274,,50,10,089,*79
$GLGSV,3,1,10,65,18,186,17,71,16,073,12,72,35,125,18,74,02,155,07*68
$GLGSV,3,2,10,75,51,164,18,76,62,319,10,77,16,330,,86,05,010,08*63
$GLGSV,3,3,10,87,15,329,11,88,08,272,*68
$GNGLL,0419.98993,S,05539.81584,E,062932.00,A,A*62
$GNGRS,062932.00,1,2.6,-0.9,19.4,4.2,-16.1,3.6,-10.2,-7.2,,,,*6E
$GNGRS,062932.00,1,3.8,13.3,12.8,-10.8,-3.2,2.4,,,,,,*63
$GNGST,062932.00,3180288,,,,7.2,7.3,20*50
$GNZDA,062932.00,23,05,2025,00,00*75
$GNGBS,062932.00,7.2,7.3,20.0,,,,*60
$GNTXT,01,01,01,More than 100 frame errors, UART RX was disabled*70
b0L$/*DF6!s%
!P"p&L%H2W+S{ 4V_:R 
Y
tAoGIH#}uJK3L>?MJV

WI~Xxb$r1$GNRMC,062933.00,A,0419.99027,S,05539.81626,E,1.685,,230525,,,A*7F
$GNVTG,,T,,M,1.685,N,3.121,K,A*36
$GNGNS,062933.00,0419.99027,S,05539.81626,E,AA,15,0.71,2.0,-47.6,,*58
$GNGGA,062933.00,0419.99027,S,05539.81626,E,1,12,0.71,2.0,M,-47.6,M,,*75
$GNGSA,A,3,24,20,05,13,15,12,18,25,23,,,,1.35,0.71,1.15*13
$GNGSA,A,3,75,87,71,72,76,65,,,,,,,1.35,0.71,1.15*14
$GPGSV,4,1,16,05,47,042,28,12,70,054,17,13,14,115,11,15,37,147,20*70
$GPGSV,4,2,16,18,33,281,23,20,14,034,13,23,38,208,26,24,37,183,18*7C
$GPGSV,4,3,16,25,50,343,16,28,02,299,,29,12,339,,36,52,277,32*72
$GPGSV,4,4,16,40,86,351,,41,58,082,,49,32,274,,50,10,089,*79
$GLGSV,3,1,10,65,18,186,17,71,16,073,11,72,35,125,18,74,02,155,11*6C
$GLGSV,3,2,10,75,51,164,18,76,62,319,17,77,16,330,,86,05,010,11*6C
$GLGSV,3,3,10,87,15,329,12,88,08,272,*6B
$GNGRS,062933.00,1,3.3,21.6,-4.4,18.2,2.6,-15.0,5.9,-13.4,-6.9,,,*78
$GNGRS,062933.00,1,5.1,14.1,12.0,-11.6,-3.0,1.1,,,,,,*6B
$GNGST,062933.00,4344411,,,,7.2,7.4,20*5D
$GNZDA,062933.00,23,05,2025,00,00*74
$GNGBS,062933.00,7.2,7.4,20.4,,,,*62
b0L$/*F6s%1
!
"y&W%2Wy+S{ 4V_mI:R 
Y
tAGI_H#}JLK33L>?MJV
CWIXb$r5qk$GNRMC,062934.00,A,0419.99016,S,05539.81597,E,0.761,,230525,,,A*79
$GNVTG,,T,,M,0.761,N,1.409,K,A*31
$GNGNS,062934.00,0419.99016,S,05539.81597,E,AA,15,0.73,0.6,-47.6,,*52
$GNGGA,062934.00,0419.99016,S,05539.81597,E,1,12,0.73,0.6,M,-47.6,M,,*7F
$GNGSA,A,3,24,20,05,13,15,12,18,25,23,,,,1.40,0.73,1.19*1F
$GNGSA,A,3,75,87,71,72,76,65,,,,,,,1.40,0.73,1.19*18
$GPGSV,4,1,16,05,47,042,28,12,70,054,18,13,14,115,15,15,37,147,20*7B
$GPGSV,4,2,16,18,33,281,23,20,14,034,10,23,38,208,26,24,37,183,16*71
$GPGSV,4,3,16,25,50,343,18,28,02,299,,29,12,339,,36,52,277,32*7C
$GPGSV,4,4,16,40,86,351,27,41,58,082,,49,32,274,,50,10,089,*7C
$GLGSV,3,1,10,65,18,186,16,71,16,073,14,72,35,125,18,74,02,155,09*61
$GLGSV,3,2,10,75,51,164,18,76,62,319,14,77,16,330,,86,05,010,11*6F
$GLGSV,3,3,10,87,15,329,09,88,08,272,*61
$GNGLL,0419.99016,S,05539.81597,E,062934.00,A,A*63
$GNGRS,062934.00,1,2.8,-85.8,-5.0,30.4,3.1,-15.1,5.2,-14.2,-6.8,,,*5D
$GNGRS,062934.00,1,5.6,-0.1,-135,-10.8,7.4,-0.3,,,,,,*78
$GNGST,062934.00,72,,,,7.2,7.4,21*6D
$GNZDA,062934.00,23,05,2025,00,00*73
$GNGBS,062934.00,7.2,7.4,20.6,,,,*67
$GNTXT,01,01,01,More than 100 frame errors, UART RX was disabled*70
$GNTXT,01,01,01,More than 100 frame errors, UART RX was disabled*70
b0L$"/*F6s%
!
" &%2W+S{!4V_P:R 
Y
tkAfGI:H#}JA%K3rL>?bMJV
DW
IXb$rGA$GNRMC,062937.00,A,0419.99012,S,05539.81673,E,0.403,,230525,,,A*70
$GNVTG,,T,,M,0.403,N,0.747,K,A*3E
$GNGNS,062937.00,0419.99012,S,05539.81673,E,AA,16,0.83,-0.6,-47.6,,*7D
$GNGGA,062937.00,0419.99012,S,05539.81673,E,1,12,0.83,-0.6,M,-47.6,M,,*53
$GNGSA,A,3,24,20,05,13,15,12,18,25,23,40,,,1.58,0.83,1.34*12
$GNGSA,A,3,75,87,71,72,76,65,,,,,,,1.58,0.83,1.34*11
$GPGSV,4,1,16,05,47,042,34,12,70,054,21,13,14,115,15,15,37,147,19*76
$GPGSV,4,2,16,18,33,281,23,20,14,034,10,23,38,208,27,24,37,183,24*71
$GPGSV,4,3,16,25,50,343,19,28,02,299,,29,12,339,,36,52,277,33*7C
$GPGSV,4,4,16,40,86,351,29,41,58,082,,49,32,274,,50,10,089,*72
$GLGSV,3,1,10,65,18,186,16,71,16,073,11,72,35,125,16,74,02,155,08*6B
$GLGSV,3,2,10,75,51,164,24,76,62,319,12,77,16,330,,86,05,010,08*6E
$GLGSV,3,3,10,87,15,329,10,88,08,272,*69
$GNGLL,0419.99012,S,05539.81673,E,062937.00,A,A*6D
$GNGRS,062937.00,1,-1.1,83.6,5.2,-39.3,5.1,-10.4,7.0,-11.0,-7.4,207,,*69
$GNGRS,062937.00,1,3.7,-131,46.7,-10.7,3.5,-1.5,,,,,,*6C
$GNGST,062937.00,1097,,,,6.8,7.4,21*6F
$GNZDA,062937.00,23,05,2025,00,00*70
$GNGBS,062937.00,6.8,7.4,21.1,,,,*69
b0L$#/*F6ss%
!u"&%2W+S{!4V_'R:R 
Y
tPA\GIH#}JK3L
>?MJV

6
WI
Xb$r/E$GNRMC,062938.00,A,0419.99004,S,05539.81704,E,0.884,,230525,,,A*7A
$GNVTG,,T,,M,0.884,N,1.637,K,A*3A
$GNGNS,062938.00,0419.99004,S,05539.81704,E,AA,16,0.71,-2.2,-47.6,,*7F
$GNGGA,062938.00,0419.99004,S,05539.81704,E,1,12,0.71,-2.2,M,-47.6,M,,*51
$GNGSA,A,3,24,20,05,13,15,12,18,25,23,40,,,1.26,0.71,1.05*14
$GNGSA,A,3,75,87,71,72,76,65,,,,,,,1.26,0.71,1.05*17
$GPGSV,4,1,16,05,47,042,35,12,70,054,20,13,14,115,16,15,37,147,16*7A
$GPGSV,4,2,16,18,33,281,22,20,14,034,11,23,38,208,27,24,37,183,22*77
$GPGSV,4,3,16,25,50,343,17,28,02,299,,29,12,339,,36,52,277,33*72
$GPGSV,4,4,16,40,86,351,28,41,58,082,,49,32,274,,50,10,089,*73
$GLGSV,3,1,10,65,18,186,16,71,16,073,13,72,35,125,15,74,02,155,08*6A
$GLGSV,3,2,10,75,51,164,22,76,62,319,10,77,16,330,,86,05,010,10*63
$GLGSV,3,3,10,87,15,329,09,88,08,272,*61
$GNGLL,0419.99004,S,05539.81704,E,062938.00,A,A*64
$GNGRS,062938.00,1,-0.5,20.5,2.5,19.1,7.0,-10.7,8.8,-12.7,-8.8,210,,*42
$GNGRS,062938.00,1,0.0,12.9,12.3,-8.1,-5.2,-1.6,,,,,,*78
$GNGST,062938.00,4206457,,,,6.7,7.3,21*51
$GNZDA,062938.00,23,05,2025,00,00*7F
$GNGBS,062938.00,6.7,7.3,21.3,,,,*6C
b0L$"/*lF6
s%
!"~&.%2W+S{!4V_Q:R 
Y
tAGI[H#}#J
+K3SL>?MJV
WIX7b$rId$GNRMC,062939.00,A,0419.99002,S,05539.81734,E,0.966,,230525,,,A*73
$GNVTG,,T,,M,0.966,N,1.788,K,A*32
$GNGNS,062939.00,0419.99002,S,05539.81734,E,AA,16,0.71,-4.5,-47.6,,*7A
b0Lp$"/*F6`s%p
!
"&%2W+S{!4V_:R:R 
Y
tAGIRH#}J,K3L>?MJV
BWIX)bp$rL$GNRMC,062940.00,A,0419.98978,S,05539.81709,E,1.178,297.45,230525,,,A*63
$GNVTG,297.45,T,,M,1.178,N,2.181,K,A*2B
$GNGNS,062940.00,0419.98978,S,05539.81709,E,AA,15,0.83,-4.4,-47.6,,*70
$GNGGA,062940.00,0419.98978,S,05539.81709,E,1,12,0.83,-4.4,M,-47.6,M,,*5D
$GNGSA,A,3,24,05,13,15,12,18,25,23,40,,,,1.58,0.83,1.34*10
$GNGSA,A,3,75,87,71,72,76,65,,,,,,,1.58,0.83,1.34*11
$GPGSV,4,1,16,05,47,042,34,12,70,054,20,13,14,115,15,15,37,147,16*78
$GPGSV,4,2,16,18,33,281,23,20,14,034,10,23,38,208,28,24,37,183,23*79
$GPGSV,4,3,16,25,50,343,17,28,02,299,,29,12,339,,36,52,277,33*72
$GPGSV,4,4,16,40,86,351,28,41,58,082,,49,32,274,,50,10,089,*73
$GLGSV,3,1,10,65,18,186,14,71,16,073,11,72,35,125,13,74,02,155,06*62
$GLGSV,3,2,10,75,51,164,23,76,62,319,19,77,16,330,,86,05,010,07*6D
$GLGSV,3,3,10,87,15,329,09,88,08,272,*61
$GNGLL,0419.98978,S,05539.81709,E,062940.00,A,A*65
$GNGRS,062940.00,1,-5.7,2.3,-30.4,6.2,-9.3,11.6,-15.1,-5.4,210,,,*7F
$GNGRS,062940.00,1,1.9,50.1,0.8,-3.5,-0.5,2.7,,,,,,*6B
$GNGST,062940.00,1097,,,,6.5,7.3,21*65
$GNZDA,062940.00,23,05,2025,00,00*70
$GNGBS,062940.00,6.5,7.3,21.5,,,,*67
$GNTXT,01,01,01,More than 100 frame errors, UART RX was disabled*70
b0L@$#/*9F6s%#
!3"&%2W]+S{!4V_Q:R 
Y
tAGItH#}3JK3L>?MJV
1
WINX5cb@$rT/$GNRMC,062942.00,A,0419.98954,S,05539.81722,E,0.176,,230525,,,A*7A
$GNVTG,,T,,M,0.176,N,0.325,K,A*39
$GNGNS,062942.00,0419.98954,S,05539.81722,E,AA,16,0.67,-7.5,-47.6,,*7E
$GNGGA,062942.00,0419.98954,S,05539.81722,E,1,12,0.67,-7.5,M,-47.6,M,,*50
$GNGSA,A,3,24,20,05,13,15,12,18,25,23,40,,,1.20,0.67,1.00*10
$GNGSA,A,3,75,87,71,72,76,65,,,,,,,1.20,0.67,1.00*13
$GPGSV,4,1,16,05,47,042,35,12,70,054,22,13,14,115,18,15,37,147,16*76
$GPGSV,4,2,16,18,33,281,22,20,14,034,12,23,38,208,28,24,37,183,25*7C
$GPGSV,4,3,16,25,50,343,17,28,02,299,,29,12,339,,36,52,277,33*72
$GPGSV,4,4,16,40,86,351,28,41,58,082,,49,32,274,,50,10,089,*73
$GLGSV,3,1,10,65,18,186,13,71,16,073,12,72,35,125,12,74,02,155,08*69
$GLGSV,3,2,10,75,51,164,22,76,62,319,18,77,16,330,,86,05,010,11*6A
$GLGSV,3,3,10,87,15,329,09,88,08,272,*61
$GNGLL,0419.98954,S,05539.81722,E,062942.00,A,A*60
$GNGRS,062942.00,1,-5.0,17.4,0.6,17.1,5.5,-5.3,13.3,-14.4,-8.7,210,,*49
$GNGRS,062942.00,1,5.0,13.6,11.4,-4.6,-3.3,4.2,,,,,,*5A
$GNGST,062942.00,4083883,,,,6.4,7.3,22*56
$GNZDA,062942.00,23,05,2025,00,00*72
$GNGBS,062942.00,6.4,7.3,21.7,,,,*66
$GLGSV,3,3,10,87,15,329,12,88,08,272,*6B
$GNGLL,0419.98907,S,05539.81691,E,062943.00,A,A*6E
$GNGRS,062943.00,1,-4.4,15.5,0.7,-30.0,4.4,-5.0,14.2,-15.0,-6.6,209,,*61
$GNGRS,062943.00,1,4.2,12.5,8.7,-11.1,-3.0,4.3,,,,,,*50
$GNGST,062943.00,1027,,,,6.3,7.3,21*6B
$GNZDA,062943.00,23,05,2025,00,00*73
$GNGBS,062943.00,6.3,7.3,21.3,,,,*64
$GNTXT,01,01,01,More than 100 frame errors, UART RX was disabled*70
b0L$#/*DF6s%S
!R"&)%2W+S{!4V_@U:R 
Y
tAGI*H#} JK3L>?>MJV

WIJX1b$r\i$GNRMC,062944.00,A,0419.98889,S,05539.81678,E,0.497,,230525,,,A*79
$GNVTG,,T,,M,0.497,N,0.921,K,A*3D
$GNGNS,062944.00,0419.98889,S,05539.81678,E,AA,16,0.72,-11.3,-47.6,,*42
$GNGGA,062944.00,0419.98889,S,05539.81678,E,1,12,0.72,-11.3,M,-47.6,M,,*6C
$GNGSA,A,3,24,20,05,13,15,12,18,25,23,40,,,1.41,0.72,1.21*10
$GNGSA,A,3,75,87,71,72,76,65,,,,,,,1.41,0.72,1.21*13
$GPGSV,4,1,16,05,47,042,35,12,70,054,21,13,14,115,16,15,37,147,14*79
$GPGSV,4,2,16,18,33,281,23,20,14,034,15,23,38,208,28,24,37,183,25*7A
$GPGSV,4,3,16,25,50,343,17,28,02,299,,29,12,339,,36,52,277,33*72
$GPGSV,4,4,16,40,86,351,27,41,58,082,,49,32,274,,50,10,089,*7C
$GLGSV,3,1,10,65,18,186,16,71,16,073,12,72,35,125,13,74,02,155,08*6D
$GLGSV,3,2,10,75,51,164,22,76,62,319,20,77,16,330,,86,05,010,12*62
$GLGSV,3,3,10,87,15,329,08,88,08,272,*60
$GNGLL,0419.98889,S,05539.81678,E,062944.00,A,A*69
$GNGRS,062944.00,1,-5.5,12.4,0.7,19.9,3.4,-3.6,13.6,-13.8,-7.3,218,,*41
$GNGRS,062944.00,1,6.8,13.5,13.2,2.9,-1.9,4.5,,,,,,*7B
$GNGST,062944.00,55418,,,,6.2,7.3,21*54
$GNZDA,062944.00,23,05,2025,00,00*74
$GNGBS,062944.00,6.2,7.3,21.3,40,,-218.2,4098.9*7E
$GNTXT,01,01,01,More than 100 frame errors, UART RX was disabled*70
$GNTXT,01,01,01,More than 100 frame errors, UART RX was disabled*70
b0L$#/*CF6s%j
!/"q&%b2W+S{!4V_:R 
Y
twA~GIH#}JMK3TL>?gMJV
 WIXb$rod*$GNRMC,062946.00,A,0419.98859,S,05539.81676,E,0.249,,230525,,,A*7D
$GNVTG,,T,,M,0.249,N,0.461,K,A*31
$GNGNS,062946.00,0419.98859,S,05539.81676,E,AA,15,0.69,-14.9,-47.6,,*45
$GNGGA,062946.00,0419.98859,S,05539.81676,E,1,12,0.69,-14.9,M,-47.6,M,,*68
$GNGSA,A,3,24,20,05,13,15,12,18,25,23,,,,1.34,0.69,1.15*1B
$GNGSA,A,3,75,87,71,72,76,65,,,,,,,1.34,0.69,1.15*1C
$GPGSV,4,1,16,05,47,042,35,12,70,054,15,13,14,115,13,15,37,147,19*76
$GPGSV,4,2,16,18,33,281,23,20,14,034,15,23,38,208,28,24,37,183,26*79
$GPGSV,4,3,16,25,50,343,17,28,02,299,,29,12,339,,36,52,277,33*72
$GPGSV,4,4,16,40,86,351,,41,58,082,,49,32,274,,50,10,089,*79
$GLGSV,3,1,10,65,18,186,16,71,16,073,12,72,35,125,14,74,02,155,06*64
$GLGSV,3,2,10,75,51,164,22,76,62,319,21,77,16,330,,86,05,010,08*68
$GLGSV,3,3,10,87,15,329,11,88,08,272,*68
$GNGLL,0419.98859,S,05539.81676,E,062946.00,A,A*68
$GNGRS,062946.00,1,-6.7,8.8,0.7,18.1,3.6,-3.0,13.3,-11.0,-6.2,,,*4C
$GNGRS,062946.00,1,6.0,15.1,11.6,12.3,-1.5,3.8,,,,,,*48
$GNGST,062946.00,71,,,,6.0,7.3,21*6F
$GNZDA,062946.00,23,05,2025,00,00*76
$GNGBS,062946.00,6.0,7.3,21.3,,,,*62
$GNTXT,01,01,01,More than 100 frame errors, UART RX was disabled*70
b0L$#/*2F6os<%f
!`"C&h%2W+S{!4V_:R 
Y
u:AGIH#}JK3L>?-MJV

WI[Xe b$rWhf$GNRMC,062947.00,A,0419.98858,S,05539.81692,E,0.159,,230525,,,A*75
$GNVTG,,T,,M,0.159,N,0.295,K,A*3E
$GNGNS,062947.00,0419.98858,S,05539.81692,E,AA,15,0.69,-15.8,-47.6,,*4F
$GNGGA,062947.00,0419.98858,S,05539.81692,E,1,12,0.69,-15.8,M,-47.6,M,,*62
$GNGSA,A,3,24,20,05,13,15,12,18,25,23,,,,1.34,0.69,1.15*1B
$GNGSA,A,3,75,87,71,72,76,65,,,,,,,1.34,0.69,1.15*1C
$GPGSV,4,1,16,05,47,042,35,12,70,054,12,13,14,115,17,15,37,147,17*7B
$GPGSV,4,2,16,18,33,281,23,20,14,034,15,23,38,208,28,24,37,183,25*7A
$GPGSV,4,3,16,25,50,343,16,28,02,299,,29,12,339,,36,52,277,33*73
$GPGSV,4,4,16,40,86,351,,41,58,082,,49,32,274,,50,10,089,*79
$GLGSV,3,1,10,65,18,186,14,71,16,073,15,72,35,125,17,74,02,155,11*64
$GLGSV,3,2,10,75,51,164,21,76,62,319,20,77,16,330,,86,05,010,08*6A
$GLGSV,3,3,10,87,15,329,09,88,08,272,*61
$GNGLL,0419.98858,S,05539.81692,E,062947.00,A,A*62
$GNGRS,062947.00,1,-5.9,8.4,0.5,16.0,3.6,1.1,16.3,-10.6,-6.6,,,*69
$GNGRS,062947.00,1,7.0,13.7,10.4,2.8,-2.1,4.0,,,,,,*79
$GNGST,062947.00,113552,,,,6.0,7.3,21*69
$GNZDA,062947.00,23,05,2025,00,00*77
$GNGBS,062947.00,6.0,7.3,21.2,,,,*62
$GNTXT,01,01,01,More than 100 frame errors, UART RX was disabled*70
$GNTXT,01,01,01,More than 100 frame errors, UART RX was disabled*70
b0L$"/*-F6s%E
!"&l%2W+S{!4V_:R 
Y
uA)GIH#}J;K3L>?MJV

WI_Xgb$rt$GNRMC,062950.00,A,0419.98842,S,05539.81704,E,0.039,,230525,,,A*71
$GNVTG,,T,,M,0.039,N,0.072,K,A*32
$GNGNS,062950.00,0419.98842,S,05539.81704,E,AA,15,0.67,-18.0,-47.6,,*47
$GNGGA,062950.00,0419.98842,S,05539.81704,E,1,12,0.67,-18.0,M,-47.6,M,,*6A
$GNGSA,A,3,24,20,05,13,15,12,18,25,23,,,,1.29,0.67,1.10*1C
$GNGSA,A,3,75,87,71,72,76,65,,,,,,,1.29,0.67,1.10*1B
$GPGSV,4,1,16,05,47,042,34,12,70,054,19,13,14,115,17,15,37,147,20*75
$GPGSV,4,2,16,18,33,281,22,20,14,034,15,23,38,208,28,24,37,183,24*7A
$GPGSV,4,3,16,25,50,343,13,28,02,299,,29,12,339,,36,52,277,33*76
$GPGSV,4,4,16,40,86,351,,41,58,082,,49,32,274,,50,10,089,*79
$GLGSV,3,1,10,65,19,185,13,71,16,073,20,72,35,125,11,74,02,155,08*69
$GLGSV,3,2,10,75,51,164,23,76,62,319,23,77,16,330,,86,05,010,11*63
$GLGSV,3,3,10,87,15,329,09,88,08,272,*61
$GNGLL,0419.98842,S,05539.81704,E,062950.00,A,A*61
$GNGRS,062950.00,1,-6.0,2.7,0.4,6.9,-1.9,1.6,14.9,-10.2,-6.6,,,*7E
$GNGRS,062950.00,1,11.8,13.8,7.5,2.7,-2.4,3.0,,,,,,*75
$GNGST,062950.00,21199,,,,5.9,7.2,20*56
$GNZDA,062950.00,23,05,2025,00,00*71
$GNGBS,062950.00,5.9,7.2,20.1,,,,*6D
$GNTXT,01,01,01,More than 100 frame errors, UART RX was disabled*70
$GNTXT,01,01,01,More than 100 frame errors, UART RX was disabled*70
$GNTXT,01,01,01,More than 100 frame errors, UART RX was disabled*70
$GNTXT,01,01,01,More than 100 frame errors, UART RX was disabled*70
$GNTXT,01,01,01,More than 100 frame errors, UART RX was disabled*70
$GNTXT,01,01,01,More than 100 frame errors, UART RX was disabled*70
$GNTXT,01,01,01,More than 100 frame errors, UART RX was disabled*70
b0L%#/*F6s
%
!~"a&%f2W+S{ 4V_A:R 
Y
uAGIH
#|pJb0L%$/*F6s!%k
!"&8%2W+S{ 4V_1H:R 
Y
uRAGIRH#|?JK3L>?MJV
7W
IXUb%r7n$GNRMC,062959.00,A,0419.98798,S,05539.81662,E,0.115,,230525,,,A*7E
$GNVTG,,T,,M,0.115,N,0.214,K,A*3F
$GNGNS,062959.00,0419.98798,S,05539.81662,E,AA,15,0.69,-16.3,-47.6,,*44
$GNGGA,062959.00,0419.98798,S,05539.81662,E,1,12,0.69,-16.3,M,-47.6,M,,*69
$GNGSA,A,3,24,20,05,13,15,12,18,25,23,40,,,1.22,0.69,1.01*1D
$GNGSA,A,3,75,87,71,76,65,,,,,,,,1.22,0.69,1.01*1B
$GPGSV,4,1,16,05,47,042,36,12,70,054,24,13,14,115,19,15,37,147,24*73
$GPGSV,4,2,16,18,33,281,26,20,14,034,17,23,38,208,27,24,37,183,18*7C
$GPGSV,4,3,16,25,50,343,16,28,02,299,,29,12,339,,36,52,277,32*72
$GPGSV,4,4,16,40,86,351,27,41,58,082,,49,32,274,,50,10,089,*7C
$GLGSV,3,1,10,65,19,185,14,71,16,073,18,72,35,124,07,74,01,155,11*68
$GLGSV,3,2,10,75,51,164,24,76,62,319,26,77,16,330,,86,05,010,11*61
$GLGSV,3,3,10,87,15,329,10,88,08,272,*69
$GNGLL,0419.98798,S,05539.81662,E,062959.00,A,A*61
$GNGRS,062959.00,1,-0.8,-7.8,1.6,0.3,-14.3,1.9,4.6,7.6,-9.7,185,,*73
$GNGRS,062959.00,1,9.6,14.3,0.8,2.7,-0.3,,,,,,,*65
$GNGST,062959.00,107976,,,,5.5,6.7,17*6F
$GNZDA,062959.00,23,05,2025,00,00*78
$GNGBS,062959.00,5.5,6.7,17.1,,,,*68
$GNTXT,01,01,01,More than 100 frame errors, UART RX was disabled*70
b0L %#/*F6fss%
!,"&%2W+S{!4V_iN:R 
Y
u.AGIwH#|HJK2XL>?JMJV
WIXb %r]$GNRMC,063000.00,A,0419.98802,S,05539.81669,E,0.047,,230525,,,A*7B
$GNVTG,,T,,M,0.047,N,0.088,K,A*3E
$GNGNS,063000.00,0419.98802,S,05539.81669,E,AA,16,0.67,-14.7,-47.6,,*4C
$GNGGA,063000.00,0419.98802,S,05539.81669,E,1,12,0.67,-14.7,M,-47.6,M,,*62
$GNGSA,A,3,24,20,05,13,15,12,18,25,23,40,,,1.20,0.67,1.00*10
$GNGSA,A,3,75,87,71,72,76,65,,,,,,,1.20,0.67,1.00*13
$GPGSV,4,1,16,05,47,042,35,12,70,054,23,13,14,115,20,15,37,147,22*7B
$GPGSV,4,2,16,18,33,281,26,20,14,034,15,23,38,208,28,24,37,183,22*78
$GPGSV,4,3,16,25,50,343,14,28,02,299,,29,12,339,,36,52,277,33*71
$GPGSV,4,4,16,40,86,351,27,41,58,082,,49,32,274,,50,10,089,*7C
$GLGSV,3,1,10,65,19,185,13,71,16,073,18,72,35,124,08,74,01,155,07*67
$GLGSV,3,2,10,75,50,164,25,76,62,319,24,77,16,330,,86,05,010,13*61
$GLGSV,3,3,10,87,15,329,09,88,08,272,*61
$GNGLL,0419.98802,S,05539.81669,E,063000.00,A,A*62
$GNGRS,063000.00,1,-3.6,-8.9,1.6,-1.4,-15.8,1.0,3.0,7.1,-10.9,201,,*63
$GNGRS,063000.00,1,8.6,15.1,1.2,3.3,3.3,-3.3,,,,,,*40
$GNGST,063000.00,35198,,,,5.5,6.6,17*52
$GNZDA,063000.00,23,05,2025,00,00*7C
$GNGBS,063000.00,5.5,6.6,16.9,,,,*64
$GNTXT,01,01,01,More than 100 frame errors, UART RX was disabled*70
$GNTXT,01,01,01,More than 100 frame errors, UART RX was disabled*70
b0L`(%$/*F6s%
!
"W&%62W+S{!4V_M:R 
Y
uAGIH#|GJK2L?>MJV

WIMXb`(%r$GNRMC,063002.00,A,0419.98788,S,05539.81659,E,0.131,,230525,,,A*77
$GNVTG,,T,,M,0.131,N,0.243,K,A*3B
$GNGNS,063002.00,0419.98788,S,05539.81659,E,AA,16,0.67,-13.5,-47.6,,*45
$GNGGA,063002.00,0419.98788,S,05539.81659,E,1,12,0.67,-13.5,M,-47.6,M,,*6B
$GNGSA,A,3,24,20,05,13,15,12,18,25,23,40,,,1.20,0.67,1.00*10
$GNGSA,A,3,75,87,71,72,76,65,,,,,,,1.20,0.67,1.00*13
$GPGSV,4,1,16,05,47,042,36,12,70,054,24,13,14,115,20,15,37,147,23*7E
$GPGSV,4,2,16,18,33,281,27,20,14,034,17,23,38,208,28,24,37,183,21*78
$GPGSV,4,3,16,25,50,343,18,28,02,299,,29,12,339,,36,52,277,33*7D
$GPGSV,4,4,16,40,86,351,27,41,58,082,,49,32,274,,50,10,089,*7C
$GLGSV,3,1,10,65,19,185,13,71,16,073,20,72,35,124,11,74,01,155,09*6A
$GLGSV,3,2,10,75,50,164,25,76,63,318,26,77,16,330,,86,05,010,09*68
$GLGSV,3,3,10,87,15,329,12,88,08,272,*6B
$GNGLL,0419.98788,S,05539.81659,E,063002.00,A,A*6E
$GNGRS,063002.00,1,-2.0,-9.4,1.8,-8.5,-15.8,1.7,0.1,7.7,-7.7,199,,*55
$GNGRS,063002.00,1,6.8,13.6,0.1,3.3,2.0,-3.4,,,,,,*44
$GNGST,063002.00,162903,,,,5.3,6.3,17*6A
$GNZDA,063002.00,23,05,2025,00,00*7E
$GNGBS,063002.00,5.3,6.3,16.5,,,,*69
$GNTXT,01,01,01,More than 100 frame errors, UART RX was disabled*70
b0LH,%$/*F6s%
!5"&%"2Wp+S{!4V_:R 
Y
uzAGI0H#|MJ
0K2GL?>MJV

"WIDXbH,%r$GNRMC,063003.00,A,0419.98783,S,05539.81654,E,0.094,,230525,,,A*7E
$GNVTG,,T,,M,0.094,N,0.174,K,A*32
$GNGNS,063003.00,0419.98783,S,05539.81654,E,AA,15,0.68,-12.6,-47.6,,*4C
$GNGGA,063003.00,0419.98783,S,05539.81654,E,1,12,0.68,-12.6,M,-47.6,M,,*61
$GNGSA,A,3,24,20,05,13,15,12,18,25,23,,,,1.29,0.68,1.10*13
$GNGSA,A,3,75,87,71,72,76,65,,,,,,,1.29,0.68,1.10*14
$GPGSV,4,1,16,05,47,042,36,12,70,054,25,13,14,115,19,15,37,147,23*75
$GPGSV,4,2,16,18,33,281,28,20,14,034,17,23,38,208,27,24,37,183,22*7B
$GPGSV,4,3,16,25,50,343,21,28,02,299,,29,12,339,,36,52,277,33*77
$GPGSV,4,4,16,40,86,351,,41,58,082,,49,32,274,,50,10,089,*79
$GLGSV,3,1,10,65,19,185,13,71,16,073,19,72,35,124,13,74,01,155,10*6A
$GLGSV,3,2,10,75,50,164,24,76,63,318,25,77,16,330,,86,05,010,10*62
$GLGSV,3,3,10,87,15,329,11,88,08,272,*68
$GNGLL,0419.98783,S,05539.81654,E,063003.00,A,A*69
$GNGRS,063003.00,1,-2.2,-5.8,1.8,-8.2,-16.5,-0.8,0.5,6.2,-7.6,,,*4C
$GNGRS,063003.00,1,8.4,13.5,0.5,3.3,2.3,-0.6,,,,,,*42
$GNGST,063003.00,2973945,,,,5.3,6.2,16*53
$GNZDA,063003.00,23,05,2025,00,00*7F
$GNGBS,063003.00,5.3,6.2,16.4,,,,*68
$GNTXT,01,01,01,More than 100 frame errors, UART RX was disabled*70
$GNTXT,01,01,01,More than 100 frame errors, UART RX was disabled*70
b0L4%$/*F6s%
!"&%2W+S{!4V_:R 
Y
u=AGIH#|0JK2XL?>"MJV

W
IXWb4%r$GNRMC,063005.00,A,0419.98763,S,05539.81644,E,0.194,,230525,,,A*76
$GNVTG,,T,,M,0.194,N,0.359,K,A*3E
$GNGNS,063005.00,0419.98763,S,05539.81644,E,AA,15,0.68,-13.2,-47.6,,*40
$GNGGA,063005.00,0419.98763,S,05539.81644,E,1,12,0.68,-13.2,M,-47.6,M,,*6D
$GNGSA,A,3,24,20,05,13,15,12,18,25,23,,,,1.29,0.68,1.10*13
$GNGSA,A,3,75,87,71,72,76,65,,,,,,,1.29,0.68,1.10*14
$GPGSV,4,1,16,05,47,042,36,12,70,054,27,13,14,115,20,15,37,147,24*7A
$GPGSV,4,2,16,18,33,281,29,20,14,034,16,23,38,208,27,24,37,183,21*78
$GPGSV,4,3,16,25,50,343,20,28,02,299,,29,12,339,,36,52,277,33*76
$GPGSV,4,4,16,40,86,351,,41,58,082,,49,32,274,,50,10,089,*79
$GLGSV,3,1,10,65,19,185,17,71,16,073,18,72,35,124,09,74,01,155,08*6D
$GLGSV,3,2,10,75,50,164,25,76,63,318,26,77,16,330,,86,05,010,08*69
$GLGSV,3,3,10,87,15,329,10,88,08,272,*69
$GNGLL,0419.98763,S,05539.81644,E,063005.00,A,A*60
$GNGRS,063005.00,1,-2.5,-5.1,1.5,-11.0,-15.4,1.7,-0.6,5.0,-7.5,,,*7E
$GNGRS,063005.00,1,8.6,13.0,-0.5,3.0,5.5,2.3,,,,,,*46
$GNGST,063005.00,2975488,,,,5.2,6.0,16*5C
$GNZDA,063005.00,23,05,2025,00,00*79
$GNGBS,063005.00,5.2,6.0,15.9,,,,*63
$GNTXT,01,01,01,More than 100 frame errors, UART RX was disabled*70
b0L8%$/*F6)s%
!3"}&n%2W|+S{!4V_:R 
Y
uABGIH#|4JK2L?>MJV


WIXNb8%rlC$GNRMC,063006.00,A,0419.98758,S,05539.81639,E,0.103,,230525,,,A*79
$GNVTG,,T,,M,0.103,N,0.191,K,A*36
$GNGNS,063006.00,0419.98758,S,05539.81639,E,AA,15,0.69,-12.7,-47.6,,*44
$GNGGA,063006.00,0419.98758,S,05539.81639,E,1,12,0.69,-12.7,M,-47.6,M,,*69
$GNGSA,A,3,24,20,05,13,15,12,18,25,23,,,,1.34,0.69,1.15*1B
$GNGSA,A,3,75,87,71,72,76,65,,,,,,,1.34,0.69,1.15*1C
$GPGSV,4,1,16,05,47,042,36,12,70,054,26,13,14,115,19,15,37,147,25*70
$GPGSV,4,2,16,18,33,281,29,20,14,034,15,23,38,208,27,24,37,183,21*7B
$GPGSV,4,3,16,25,50,343,21,28,02,299,,29,12,339,,36,52,277,33*77
$GPGSV,4,4,16,40,86,351,,41,58,082,,49,32,274,,50,10,089,*79
$GLGSV,3,1,10,65,19,185,16,71,16,073,18,72,35,124,14,74,01,155,08*60
$GLGSV,3,2,10,75,50,164,24,76,63,318,26,77,16,330,,86,05,010,10*61
$GLGSV,3,3,10,87,15,329,11,88,08,272,*68
$GNGLL,0419.98758,S,05539.81639,E,063006.00,A,A*61
$GNGRS,063006.00,1,-2.7,-9.0,1.8,-10.7,-13.6,0.4,0.5,3.8,-9.1,,,*55
$GNGRS,063006.00,1,7.7,13.0,-2.3,3.1,5.3,3.2,,,,,,*48
$GNGST,063006.00,3075067,,,,5.1,5.9,16*5B
$GNZDA,063006.00,23,05,2025,00,00*7A
$GNGBS,063006.00,5.1,5.9,15.7,,,,*67
$GNTXT,01,01,01,More than 100 frame errors, UART RX was disabled*70
b0L;%$/*F6sc%
!"&%2W+S{ 4V_:R 
Y
u$A
GIH#|J
NK2VL?>MJV
W
IX%Bb;%rwC$GNRMC,063007.00,A,0419.98753,S,05539.81634,E,0.023,,230525,,,A*7D
$GNVTG,,T,,M,0.023,N,0.042,K,A*3A
$GNGNS,063007.00,0419.98753,S,05539.81634,E,AA,15,0.77,-12.0,-47.6,,*4B
$GNGGA,063007.00,0419.98753,S,05539.81634,E,1,12,0.77,-12.0,M,-47.6,M,,*66
$GNGSA,A,3,24,20,05,13,15,12,18,25,23,,,,1.53,0.77,1.32*10
$GNGSA,A,3,75,87,71,72,76,65,,,,,,,1.53,0.77,1.32*17
$GPGSV,4,1,16,05,47,042,36,12,70,054,25,13,14,115,19,15,37,147,25*73
$GPGSV,4,2,16,18,33,281,29,20,14,034,15,23,38,208,27,24,37,183,22*78
$GPGSV,4,3,16,25,50,343,20,28,02,299,,29,12,339,,36,52,277,32*77
$GPGSV,4,4,16,40,86,351,,41,58,082,,49,32,274,,50,10,089,*79
$GLGSV,3,1,10,65,19,185,17,71,16,073,19,72,35,124,12,74,01,155,10*6F
$GLGSV,3,2,10,75,50,164,24,76,63,318,26,77,16,330,,86,05,010,09*69
$GLGSV,3,3,10,87,15,329,10,88,08,272,*69
$GNGLL,0419.98753,S,05539.81634,E,063007.00,A,A*66
$GNGRS,063007.00,1,-2.8,-10.2,1.9,-11.8,-12.6,0.2,-0.6,3.9,-10.9,,,*76
$GNGRS,063007.00,1,8.5,23.0,-3.2,-8.0,4.2,5.2,,,,,,*66
$GNGST,063007.00,56,,,,5.0,5.8,15*6A
$GNZDA,063007.00,23,05,2025,00,00*7B
$GNGBS,063007.00,5.0,5.8,15.5,,,,*64
$GNTXT,01,01,01,More than 100 frame errors, UART RX was disabled*70
b0L?%$/*F6sA%
!B"&g%y2W+S{ 4V_:R 
Y
uzA1GINH#|.JK2L?>MJV
W
IcX|b?%r_$GNRMC,063008.00,A,0419.98756,S,05539.81640,E,0.187,,230525,,,A*7B
$GNVTG,,T,,M,0.187,N,0.347,K,A*33
$GNGNS,063008.00,0419.98756,S,05539.81640,E,AA,15,0.69,-11.6,-47.6,,*48
$GNGGA,063008.00,0419.98756,S,05539.81640,E,1,12,0.69,-11.6,M,-47.6,M,,*65
$GNGSA,A,3,24,20,05,13,15,12,18,25,23,,,,1.34,0.69,1.15*1B
$GNGSA,A,3,75,87,71,72,76,65,,,,,,,1.34,0.69,1.15*1C
$GPGSV,4,1,16,05,47,042,36,12,70,054,26,13,14,115,19,15,37,147,25*70
$GPGSV,4,2,16,18,33,281,30,20,14,034,15,23,38,208,27,24,37,183,20*72
$GPGSV,4,3,16,25,50,343,19,28,02,299,,29,12,339,,36,52,277,32*7D
$GPGSV,4,4,16,40,86,351,,41,58,082,,49,32,274,,50,10,089,*79
$GLGSV,3,1,10,65,19,185,17,71,16,073,19,72,35,124,14,74,01,155,07*6F
$GLGSV,3,2,10,75,50,164,23,76,63,318,25,77,16,330,,86,05,010,06*62
$GLGSV,3,3,10,87,15,329,10,88,08,272,*69
$GNGLL,0419.98756,S,05539.81640,E,063008.00,A,A*6F
$GNGRS,063008.00,1,-1.3,-10.1,2.0,-12.2,-11.5,1.3,-7.0,1.6,-9.2,,,*4E
$GNGRS,063008.00,1,9.4,13.8,-1.8,3.0,4.7,5.6,,,,,,*4D
$GNGST,063008.00,157878,,,,5.0,5.7,15*6D
$GNZDA,063008.00,23,05,2025,00,00*74
$GNGBS,063008.00,5.0,5.7,15.3,,,,*62
$GNTXT,01,01,01,More than 100 frame errors, UART RX was disabled*70
$GNTXT,01,01,01,More than 100 frame errors, UART RX was disabled*70
$GNTXT,01,01,01,More than 100 frame errors, UART RX was disabled*70
b0LpO%$/*%F6Rs%
!k"x&%2W+S{!4V_:R 
Y
u\A?GIH#|
J
HK2L?>FMJVHWJX"bpO%rz$GNRMC,063012.00,A,0419.98757,S,05539.81646,E,0.270,,230525,,,A*7C
$GNVTG,,T,,M,0.270,N,0.500,K,A*3D
$GNGNS,063012.00,0419.98757,S,05539.81646,E,AA,14,0.76,-8.0,-47.6,,*75
$GNGGA,063012.00,0419.98757,S,05539.81646,E,1,12,0.76,-8.0,M,-47.6,M,,*59
$GNGSA,A,3,24,20,05,13,15,12,18,25,23,,,,1.47,0.76,1.26*11
$GNGSA,A,3,75,71,72,76,65,,,,,,,,1.47,0.76,1.26*19
$GPGSV,4,1,16,05,47,042,36,12,70,054,26,13,14,115,16,15,37,147,23*79
$GPGSV,4,2,16,18,33,281,30,20,14,034,16,23,38,208,26,24,37,183,20*70
$GPGSV,4,3,16,25,50,343,22,28,02,299,,29,12,339,,36,52,277,33*74
$GPGSV,4,4,16,40,86,351,27,41,58,082,,49,32,274,,50,10,089,*7C
$GLGSV,3,1,10,65,19,185,18,71,16,073,17,72,35,124,13,74,01,155,10*6F
$GLGSV,3,2,10,75,50,164,23,76,63,318,25,77,16,330,,86,04,011,08*6C
$GLGSV,3,3,10,87,15,330,06,88,08,272,*66
$GNGLL,0419.98757,S,05539.81646,E,063012.00,A,A*63
$GNGRS,063012.00,1,-0.9,-11.6,2.9,-11.1,-5.3,3.4,1.1,-5.5,-8.6,,,*72
$GNGRS,063012.00,1,7.0,-3.0,2.7,5.8,8.3,,,,,,,*52
$GNGST,063012.00,3071473,,,,4.8,5.4,15*5D
$GNZDA,063012.00,23,05,2025,00,00*7F
$GNGBS,063012.00,4.8,5.4,14.8,,,,*69
$GNTXT,01,01,01,More than 100 frame errors, UART RX was disabled*70
b0LXS%$/*$F62s%
!"&p%2W+S{!4V_:R 
Y
uAGIH
#|JpOK2L?>MJV8WJ?XrbXS%rR$GNRMC,063013.00,A,0419.98765,S,05539.81655,E,0.106,,230525,,,A*7C
$GNVTG,,T,,M,0.106,N,0.197,K,A*35
$GNGNS,063013.00,0419.98765,S,05539.81655,E,AA,15,0.79,-7.8,-47.6,,*7E
$GNGGA,063013.00,0419.98765,S,05539.81655,E,1,12,0.79,-7.8,M,-47.6,M,,*53
$GNGSA,A,3,24,20,05,13,15,12,18,25,23,,,,1.52,0.79,1.29*15
$GNGSA,A,3,75,87,71,72,76,65,,,,,,,1.52,0.79,1.29*12
$GPGSV,4,1,16,05,47,042,36,12,70,054,26,13,14,115,16,15,37,147,23*79
$GPGSV,4,2,16,18,33,281,31,20,14,034,16,23,38,208,26,24,37,183,19*7B
$GPGSV,4,3,16,25,50,343,23,28,02,299,,29,12,339,,36,52,277,33*75
$GPGSV,4,4,16,40,86,351,28,41,58,082,,49,32,274,,50,10,089,*73
$GLGSV,3,1,10,65,19,185,18,71,16,073,17,72,35,124,10,74,01,155,09*64
$GLGSV,3,2,10,75,50,164,24,76,63,318,24,77,16,330,,86,04,011,08*6A
$GLGSV,3,3,10,87,15,330,09,88,08,273,*68
$GNGLL,0419.98765,S,05539.81655,E,063013.00,A,A*61
$GNGRS,063013.00,1,-2.3,-11.5,2.9,-7.9,-6.1,3.1,-6.2,-5.5,-6.6,,,*64
$GNGRS,063013.00,1,7.7,161,-3.0,50.1,5.0,7.7,,,,,,*50
$GNGST,063013.00,53,,,,4.8,5.4,15*6F
$GNZDA,063013.00,23,05,2025,00,00*7E
$GNGBS,063013.00,4.8,5.4,14.6,,,,*66
b0L@W%$/*F6s%#
!"}&%L2W+S{!4V_:R 
Y
ujAGI,H#|0JMK2L?>MJVW
JzXCb@W%r*q$GNRMC,063014.00,A,0419.98769,S,05539.81664,E,0.086,,230525,,,A*7C
$GNVTG,,T,,M,0.086,N,0.159,K,A*3E
$GNGNS,063014.00,0419.98769,S,05539.81664,E,AA,15,0.68,-6.9,-47.6,,*77
$GNGGA,063014.00,0419.98769,S,05539.81664,E,1,12,0.68,-6.9,M,-47.6,M,,*5A
$GNGSA,A,3,24,20,05,13,15,12,18,25,23,,,,1.29,0.68,1.10*13
$GNGSA,A,3,75,87,71,72,76,65,,,,,,,1.29,0.68,1.10*14
$GPGSV,4,1,16,05,47,042,36,12,70,054,25,13,14,115,16,15,37,147,22*7B
$GPGSV,4,2,16,18,33,281,31,20,14,034,16,23,38,208,26,24,37,183,19*7B
$GPGSV,4,3,16,25,50,343,22,28,02,299,,29,12,339,,36,52,277,33*74
$GPGSV,4,4,16,40,86,351,28,41,58,082,,49,32,274,,50,10,089,*73
$GLGSV,3,1,10,65,19,185,18,71,16,073,16,72,35,124,08,74,01,155,09*6C
$GLGSV,3,2,10,75,50,164,25,76,63,318,25,77,16,330,,86,04,011,08*6A
$GLGSV,3,3,10,87,15,330,10,88,08,273,*60
$GNGLL,0419.98769,S,05539.81664,E,063014.00,A,A*68
$GNGRS,063014.00,1,-4.4,-11.5,2.8,-7.6,-7.3,5.2,-7.8,-5.3,-7.5,,,*65
$GNGRS,063014.00,1,6.5,14.0,-2.1,3.0,6.7,9.5,,,,,,*46
$GNGST,063014.00,2973943,,,,4.8,5.3,15*58
$GNZDA,063014.00,23,05,2025,00,00*79
$GNGBS,063014.00,4.8,5.3,14.5,,,,*65
$GNTXT,01,01,01,More than 100 frame errors, UART RX was disabled*70
b0L([%$/*F6s6%
!L"k&%2W+S{!4V_:R 
Y
uAGIHH#|"JVK2eL?>gMJVWJkXb([%r$GNRMC,063015.00,A,0419.98771,S,05539.81667,E,0.063,,230525,,,A*7C
$GNVTG,,T,,M,0.063,N,0.116,K,A*3E
$GNGNS,063015.00,0419.98771,S,05539.81667,E,AA,15,0.68,-6.6,-47.6,,*73
$GNGGA,063015.00,0419.98771,S,05539.81667,E,1,12,0.68,-6.6,M,-47.6,M,,*5E
$GNGSA,A,3,24,20,05,13,15,12,18,25,23,,,,1.29,0.68,1.10*13
$GNGSA,A,3,75,87,71,72,76,65,,,,,,,1.29,0.68,1.10*14
$GPGSV,4,1,16,05,47,042,36,12,70,054,26,13,14,115,16,15,37,147,21*7B
$GPGSV,4,2,16,18,33,281,31,20,14,034,17,23,38,208,25,24,37,183,18*78
$GPGSV,4,3,16,25,50,343,23,28,02,299,,29,12,339,,36,52,277,33*75
$GPGSV,4,4,16,40,86,351,28,41,58,082,,49,32,274,,50,10,089,*73
$GLGSV,3,1,10,65,19,185,19,71,16,073,17,72,35,124,11,74,01,155,08*65
$GLGSV,3,2,10,75,50,164,26,76,63,318,26,77,16,330,,86,04,011,08*6A
$GLGSV,3,3,10,87,15,330,13,88,08,273,*63
$GNGLL,0419.98771,S,05539.81667,E,063015.00,A,A*63
$GNGRS,063015.00,1,-3.6,-11.7,2.7,-7.1,-5.7,6.6,-1.8,-6.3,-8.2,,,*67
$GNGRS,063015.00,1,6.1,13.9,-1.8,2.9,6.2,10.0,,,,,,*77
$GNGST,063015.00,2973945,,,,4.7,5.2,14*50
$GNZDA,063015.00,23,05,2025,00,00*78
$GNGBS,063015.00,4.7,5.2,14.4,,,,*6B
$GNTXT,01,01,01,More than 100 frame errors, UART RX was disabled*70
b0Lb%$/*#F6s7%
!"&v%2W+S{!4V_:R 
Y
uAGIH#|$JK2wL?>RMJV

WJRX:?bb%r$GNRMC,063017.00,A,0419.98778,S,05539.81683,E,0.252,,230525,,,A*7D
$GNVTG,,T,,M,0.252,N,0.467,K,A*3D
$GNGNS,063017.00,0419.98778,S,05539.81683,E,AA,15,0.68,-6.2,-47.6,,*76
$GNGGA,063017.00,0419.98778,S,05539.81683,E,1,12,0.68,-6.2,M,-47.6,M,,*5B
$GNGSA,A,3,24,20,05,13,15,12,18,25,23,,,,1.29,0.68,1.10*13
$GNGSA,A,3,75,87,71,72,76,65,,,,,,,1.29,0.68,1.10*14
$GPGSV,4,1,16,05,47,042,36,12,70,054,25,13,14,115,14,15,37,147,21*7A
$GPGSV,4,2,16,18,33,281,31,20,14,034,17,23,38,208,26,24,37,183,19*7A
$GPGSV,4,3,16,25,50,343,21,28,02,299,,29,12,339,,36,52,277,33*77
$GPGSV,4,4,16,40,86,351,28,41,58,082,,49,32,274,,50,10,089,*73
$GLGSV,3,1,10,65,19,185,19,71,16,073,17,72,35,124,12,74,01,155,05*6B
$GLGSV,3,2,10,75,50,164,25,76,63,318,26,77,16,330,,86,04,011,10*60
$GLGSV,3,3,10,87,15,330,08,88,08,273,*69
$GNGLL,0419.98778,S,05539.81683,E,063017.00,A,A*62
$GNGRS,063017.00,1,-5.5,-10.3,2.9,-4.6,-5.5,9.4,-0.5,-7.6,-6.5,,,*61
$GNGRS,063017.00,1,3.7,13.6,-0.1,2.9,5.9,9.8,,,,,,*49
$GNGST,063017.00,2979376,,,,4.7,5.1,14*51
$GNZDA,063017.00,23,05,2025,00,00*7A
$GNGBS,063017.00,4.7,5.1,14.1,,,,*6F
b0Lf%#/)NF6ys%e
 !"&%c2W+S{!4V_:R 
Y
uyAGIH#|JIK2PL?>MJV
W
JTX%bf%ro$GNRMC,063018.00,A,0419.98783,S,05539.81689,E,0.149,,230525,,,A*75
$GNVTG,,T,,M,0.149,N,0.276,K,A*32
$GNGNS,063018.00,0419.98783,S,05539.81689,E,AA,15,0.68,-5.9,-47.6,,*7F
$GNGGA,063018.00,0419.98783,S,05539.81689,E,1,12,0.68,-5.9,M,-47.6,M,,*52
$GNGSA,A,3,24,20,05,13,15,12,18,25,23,,,,1.29,0.68,1.10*13
$GNGSA,A,3,75,87,71,72,76,65,,,,,,,1.29,0.68,1.10*14
$GPGSV,4,1,16,05,47,041,35,12,70,054,26,13,14,115,14,15,37,147,21*79
$GPGSV,4,2,16,18,33,281,32,20,14,034,17,23,38,208,26,24,37,183,19*79
$GPGSV,4,3,16,25,50,343,22,28,02,299,,29,12,339,,36,52,277,33*74
$GPGSV,4,4,16,40,86,351,28,41,58,082,,49,32,274,,50,10,089,*73
$GLGSV,3,1,10,65,19,185,20,71,16,073,15,72,35,124,12,74,01,155,06*60
$GLGSV,3,2,10,75,50,164,25,76,63,318,27,77,16,330,,86,04,011,11*60
$GLGSV,3,3,10,87,15,330,10,88,08,273,*60
$GNGLL,0419.98783,S,05539.81689,E,063018.00,A,A*63
$GNGRS,063018.00,1,-6.7,-10.0,3.3,-2.7,-1.5,8.9,-2.7,-5.9,-7.4,,,*65
$GNGRS,063018.00,1,0.8,13.6,-2.4,2.8,4.8,9.6,,,,,,*42
$GNGST,063018.00,4205788,,,,4.6,5.0,14*5D
$GNZDA,063018.00,23,05,2025,00,00*75
$GNGBS,063018.00,4.6,5.0,14.0,,,,*61
$GNTXT,01,01,01,More than 100 frame errors, UART RX was disabled*70
b0Lj%#/)VF6s%
!"&%K2W+S{ 4V_:R 
Y
uAGIH#|JOK2L?>5MJVWJX$GNTXT,01,01,01,More than 100 frame errors, UART RX was disabled*70
b0Ln%$/)\F6s%"
!4" &%2Wj+S{!4V_:R 
Y
u5AGIH#|!JlK2L?>:MJV
W
JkXbn%r?9$GNRMC,063020.00,A,0419.98768,S,05539.81685,E,0.166,,230525,,,A*7A
$GNVTG,,T,,M,0.166,N,0.307,K,A*38
$GNGNS,063020.00,0419.98768,S,05539.81685,E,AA,15,0.68,-4.9,-47.6,,*7C
$GNGGA,063020.00,0419.98768,S,05539.81685,E,1,12,0.68,-4.9,M,-47.6,M,,*51
$GNGSA,A,3,24,20,05,13,15,12,18,25,23,,,,1.29,0.68,1.10*13
$GNGSA,A,3,75,87,71,72,76,65,,,,,,,1.29,0.68,1.10*14
$GPGSV,4,1,16,05,47,041,36,12,70,054,24,13,14,115,16,15,37,147,19*71
$GPGSV,4,2,16,18,33,281,30,20,14,034,16,23,38,208,27,24,37,183,19*7B
$GPGSV,4,3,16,25,50,343,24,28,02,299,,29,12,339,,36,52,277,33*72
$GPGSV,4,4,16,40,86,351,28,41,58,082,,49,32,274,,50,10,089,*73
$GLGSV,3,1,10,65,19,185,21,71,16,073,08,72,35,124,15,74,01,155,08*64
$GLGSV,3,2,10,75,50,164,25,76,63,318,27,77,16,330,,86,04,011,10*61
$GLGSV,3,3,10,87,15,330,10,88,08,273,*60
$GNGLL,0419.98768,S,05539.81685,E,063020.00,A,A*61
$GNGRS,063020.00,1,-6.3,-9.9,3.5,-0.4,-4.8,7.3,0.5,-1.5,-5.4,,,*76
$GNGRS,063020.00,1,2.7,13.9,0.2,2.9,5.7,9.6,,,,,,*6D
$GNGST,063020.00,2974887,,,,4.6,4.9,14*55
$GNZDA,063020.00,23,05,2025,00,00*7E
$GNGBS,063020.00,4.6,4.9,13.8,,,,*6D
$GNTXT,01,01,01,More than 100 frame errors, UART RX was disabled*70
b0Lr%$/)^F6sd%
!"&%2W+S{ 4V_:R 
Y
usAGIH#|JEK2.L?>MJV
W
JXc#br%r':$GNRMC,063021.00,A,0419.98769,S,05539.81694,E,0.091,,230525,,,A*73
$GNVTG,,T,,M,0.091,N,0.168,K,A*3A
$GNGNS,063021.00,0419.98769,S,05539.81694,E,AA,15,0.68,-4.8,-47.6,,*7D
$GNGGA,063021.00,0419.98769,S,05539.81694,E,1,12,0.68,-4.8,M,-47.6,M,,*50
$GNGSA,A,3,24,20,05,13,15,12,18,25,23,,,,1.29,0.68,1.10*13
$GNGSA,A,3,75,87,71,72,76,65,,,,,,,1.29,0.68,1.10*14
$GPGSV,4,1,16,05,47,041,36,12,70,054,25,13,14,115,16,15,37,147,17*7E
$GPGSV,4,2,16,18,33,281,31,20,14,034,13,23,38,208,27,24,37,183,20*75
$GPGSV,4,3,16,25,50,343,22,28,02,299,,29,12,339,,36,52,277,32*75
$GPGSV,4,4,16,40,86,351,28,41,58,082,,49,32,274,,50,10,089,*73
$GLGSV,3,1,10,65,19,185,20,71,16,073,13,72,35,124,15,74,01,155,08*6F
$GLGSV,3,2,10,75,50,164,25,76,63,318,27,77,16,330,,86,04,011,10*61
$GLGSV,3,3,10,87,15,330,10,88,08,273,*60
$GNGLL,0419.98769,S,05539.81694,E,063021.00,A,A*61
$GNGRS,063021.00,1,-3.8,-8.9,3.5,1.0,-5.1,9.8,-3.6,-1.1,-5.5,,,*75
$GNGRS,063021.00,1,3.0,14.1,-0.3,2.4,6.6,9.4,,,,,,*44
$GNGST,063021.00,2974889,,,,4.6,4.9,14*5A
$GNZDA,063021.00,23,05,2025,00,00*7F
$GNGBS,063021.00,4.6,4.9,13.8,,,,*6C
$GNTXT,01,01,01,More than 100 frame errors, UART RX was disabled*70
$GNTXT,01,01,01,More than 100 frame errors, UART RX was disabled*70
b0Lhz%#/)jF6ks%
!"&B%2W(+S{!4V_:R 
Y
u&A<GI%H#|=JjK2L?>-MJV
W
JHXRebhz%r$GNRMC,063023.00,A,0419.98771,S,05539.81705,E,0.072,,230525,,,A*7C
$GNVTG,,T,,M,0.072,N,0.134,K,A*3E
$GNGNS,063023.00,0419.98771,S,05539.81705,E,AA,14,0.71,-4.4,-47.6,,*7A
$GNGGA,063023.00,0419.98771,S,05539.81705,E,1,12,0.71,-4.4,M,-47.6,M,,*56
$GNGSA,A,3,24,20,05,13,15,12,18,25,23,,,,1.32,0.71,1.11*10
$GNGSA,A,3,75,87,72,76,65,,,,,,,,1.32,0.71,1.11*11
$GPGSV,4,1,16,05,47,041,35,12,70,054,26,13,14,115,15,15,37,147,21*78
$GPGSV,4,2,16,18,33,281,31,20,14,034,11,23,38,208,27,24,37,183,17*73
$GPGSV,4,3,16,25,50,343,23,28,02,299,,29,12,339,,36,52,277,33*75
$GPGSV,4,4,16,40,86,351,27,41,58,082,,49,32,274,,50,10,089,*7C
$GLGSV,3,1,10,65,19,185,20,71,16,073,07,72,35,124,13,74,01,155,07*63
$GLGSV,3,2,10,75,50,164,24,76,63,318,27,77,16,330,,86,04,011,08*69
$GLGSV,3,3,10,87,15,330,10,88,08,273,*60
$GNGLL,0419.98771,S,05539.81705,E,063023.00,A,A*63
$GNGRS,063023.00,1,-5.8,-15.2,3.6,1.4,-5.5,11.3,-3.1,-2.2,-4.5,,,*71
$GNGRS,063023.00,1,-0.8,13.5,0.6,5.6,10.8,,,,,,,*54
$GNGST,063023.00,3097,,,,4.5,4.8,14*66
$GNZDA,063023.00,23,05,2025,00,00*7D
$GNGBS,063023.00,4.5,4.8,13.6,,,,*62
b0LP~%$/)vF6st%<
!7"|&o%2W+S{!4V_:R 
Y
unAGIH#|%JlK2L?>MJV
WJ3XVbP~%ro$GNRMC,063024.00,A,0419.98773,S,05539.81714,E,0.056,,230525,,,A*7F
$GNVTG,,T,,M,0.056,N,0.104,K,A*3B
$GNGNS,063024.00,0419.98773,S,05539.81714,E,AA,15,0.68,-4.2,-47.6,,*70
$GNGGA,063024.00,0419.98773,S,05539.81714,E,1,12,0.68,-4.2,M,-47.6,M,,*5D
$GNGSA,A,3,75,87,71,72,76,65,,,,,,,1.29,0.68,1.10*14
$GPGSV,4,1,16,05,47,041,36,12,70,054,25,13,14,115,16,15,37,147,23*79
$GPGSV,4,2,16,18,33,281,31,20,14,034,12,23,38,208,27,24,37,183,16*71
$GPGSV,4,3,16,25,50,343,23,28,02,299,,29,12,339,,36,52,277,33*75
$GPGSV,4,4,16,40,86,351,28,41,58,082,,49,32,274,,50,10,089,*73
$GLGSV,3,1,10,65,19,185,19,71,16,073,13,72,35,124,15,74,01,155,08*65
$GLGSV,3,2,10,75,50,164,23,76,63,318,27,77,16,330,,86,04,011,09*6F
$GLGSV,3,3,10,87,15,330,07,88,08,273,*66
$GNGLL,0419.98773,S,05539.81714,E,063024.00,A,A*66
$GNGRS,063024.00,1,-6.0,-16.7,3.7,1.2,-4.5,12.2,-4.6,-2.4,-4.0,,,*7C
$GNGRS,063024.00,1,-0.1,13.3,12.9,0.4,5.4,9.6,,,,,,*7E
$GNGST,063024.00,131985,,,,4.5,4.8,14*6B
$GNZDA,063024.00,23,05,2025,00,00*7A
$GNGBS,063024.00,4.5,4.8,13.6,,,,*65
$GNTXT,01,01,01,More than 100 frame errors, UART RX was disabled*70
$GNTXT,01,01,01,More than 100 frame errors, UART RX was disabled*70
b0L %#/)wG7r%a
!"&c%2W+S{ 4V_:R 
Y
uAGIAH#|0JK2L?>MJVWJiXb %rIA$GNRMC,063026.00,A,0419.98775,S,05539.81731,E,0.022,,230525,,,A*7F
$GNVTG,,T,,M,0.022,N,0.040,K,A*39
$GNGNS,063026.00,0419.98775,S,05539.81731,E,AA,15,0.68,-3.6,-47.6,,*70
$GNGGA,063026.00,0419.98775,S,05539.81731,E,1,12,0.68,-3.6,M,-47.6,M,,*5D
$GNGSA,A,3,24,20,05,13,15,12,18,25,23,,,,1.29,0.68,1.10*13
$GNGSA,A,3,75,87,71,72,76,65,,,,,,,1.29,0.68,1.10*14
$GPGSV,4,1,16,05,47,041,35,12,71,055,25,13,14,114,14,15,37,147,20*7A
$GPGSV,4,2,16,18,33,281,31,20,14,034,16,23,38,208,26,24,37,183,18*7A
$GPGSV,4,3,16,25,50,343,20,28,02,299,,29,12,339,,36,52,277,32*77
$GPGSV,4,4,16,40,86,351,27,41,58,082,,49,32,274,,50,10,089,*7C
$GLGSV,3,1,10,65,19,185,20,71,16,073,09,72,35,124,18,74,01,155,09*68
$GLGSV,3,2,10,75,50,164,22,76,63,318,27,77,16,330,,86,04,011,11*67
$GLGSV,3,3,10,87,15,330,11,88,08,273,*61
$GNGLL,0419.98775,S,05539.81731,E,063026.00,A,A*65
$GNGRS,063026.00,1,-7.8,-15.1,3.7,1.9,1.0,12.5,-5.3,-0.6,-1.6,,,*54
$GNGRS,063026.00,1,-2.4,13.9,13.5,0.5,4.1,10.3,,,,,,*44
$GNGST,063026.00,4205788,,,,4.5,4.7,13*52
$GNZDA,063026.00,23,05,2025,00,00*78
$GNGBS,063026.00,4.5,4.7,13.5,,,,*6B
$GNTXT,01,01,01,More than 100 frame errors, UART RX was disabled*70
b0L%#/)G7Jr%@
!a"h&%2W+S{!4V_:R 
Y
uAG
I1H#|J
K2L?>MJVWJxXzb%r!$GNRMC,063027.00,A,0419.98786,S,05539.81743,E,0.281,,230525,,,A*7C
$GNVTG,,T,,M,0.281,N,0.520,K,A*31
$GNGNS,063027.00,0419.98786,S,05539.81743,E,AA,15,0.68,-3.6,-47.6,,*78
$GNGGA,063027.00,0419.98786,S,05539.81743,E,1,12,0.68,-3.6,M,-47.6,M,,*55
$GNGSA,A,3,24,20,05,13,15,12,18,25,23,,,,1.29,0.68,1.10*13
$GNGSA,A,3,75,87,71,72,76,65,,,,,,,1.29,0.68,1.10*14
$GPGSV,4,1,16,05,47,041,35,12,71,055,25,13,14,114,15,15,37,147,19*71
$GPGSV,4,2,16,18,33,281,30,20,14,034,16,23,38,208,25,24,37,183,18*78
$GPGSV,4,3,16,25,50,343,21,28,02,299,,29,12,339,,36,52,277,33*77
$GPGSV,4,4,16,40,86,351,27,41,58,082,,49,32,274,,50,10,089,*7C
$GLGSV,3,1,10,65,19,185,20,71,16,073,10,72,35,124,17,74,01,155,10*67
$GLGSV,3,2,10,75,50,164,22,76,63,318,27,77,16,330,,86,04,011,07*60
$GLGSV,3,3,10,87,15,330,12,88,08,273,*62
$GNGLL,0419.98786,S,05539.81743,E,063027.00,A,A*6D
$GNGRS,063027.00,1,-8.0,-11.8,4.1,2.2,0.6,13.5,-6.7,-0.4,-1.0,,,*53
$GNGRS,063027.00,1,-0.7,14.0,13.3,-1.0,4.5,12.5,,,,,,*65
$GNGST,063027.00,4205788,,,,4.5,4.7,13*53
$GNZDA,063027.00,23,05,2025,00,00*79
$GNGBS,063027.00,4.5,4.7,13.4,,,,*6B
b0L%$/)G7r
%
!w"&q%2W+S{!4V_:R 
Y
uAGIH#|J BK2}L?>5MJVV)W
J:Xb%r$GNRMC,063028.00,A,0419.98797,S,05539.81753,E,0.324,,230525,,,A*7C
$GNVTG,,T,,M,0.324,N,0.599,K,A*3D
$GNGNS,063028.00,0419.98797,S,05539.81753,E,AA,15,0.79,-3.4,-47.6,,*74
$GNGGA,063028.00,0419.98797,S,05539.81753,E,1,12,0.79,-3.4,M,-47.6,M,,*59
$GNGSA,A,3,24,20,05,13,15,12,18,25,23,,,,1.51,0.79,1.29*16
$GNGSA,A,3,75,87,71,72,76,65,,,,,,,1.51,0.79,1.29*11
$GPGSV,4,1,16,05,47,041,36,12,71,055,25,13,14,114,16,15,37,146,21*7B
$GPGSV,4,2,16,18,33,281,31,20,14,034,15,23,38,208,25,24,37,183,20*71
$GPGSV,4,3,16,25,50,343,23,28,02,299,,29,12,339,,36,52,277,33*75
$GPGSV,4,4,16,40,86,351,28,41,58,082,,49,32,274,,50,10,089,*73
$GLGSV,3,1,10,65,19,185,20,71,16,073,09,72,35,124,17,74,01,155,08*66
$GLGSV,3,2,10,75,50,164,23,76,63,318,28,77,16,330,,86,04,011,09*60
$GLGSV,3,3,10,87,15,330,10,88,08,273,*60
$GNGLL,0419.98797,S,05539.81753,E,063028.00,A,A*63
$GNGRS,063028.00,1,-7.6,-10.3,4.0,2.7,-0.3,13.0,-3.9,-0.7,-1.4,,,*7A
$GNGRS,063028.00,1,-1.3,-133,45.7,-0.1,3.1,13.0,,,,,,*68
$GNGST,063028.00,49,,,,4.5,4.6,13*64
$GNZDA,063028.00,23,05,2025,00,00*76
$GNGBS,063028.00,4.5,4.6,13.3,,,,*62
b0L%$/)G7Mr%_
!"&|%2W+S{!4V_:R 
Y
uA>GI_H#|JK2L?>xMJVWJbX}b%rgj$GNRMC,063029.00,A,0419.98799,S,05539.81756,E,0.105,,230525,,,A*77
$GNVTG,,T,,M,0.105,N,0.194,K,A*35
$GNGNS,063029.00,0419.98799,S,05539.81756,E,AA,15,0.68,-2.9,-47.6,,*72
$GNGGA,063029.00,0419.98799,S,05539.81756,E,1,12,0.68,-2.9,M,-47.6,M,,*5F
$GNGSA,A,3,24,20,05,13,15,12,18,25,23,,,,1.29,0.68,1.10*13
$GNGSA,A,3,75,87,71,72,76,65,,,,,,,1.29,0.68,1.10*14
$GPGSV,4,1,16,05,47,041,36,12,71,055,25,13,14,114,17,15,37,146,21*7A
$GPGSV,4,2,16,18,33,281,31,20,14,034,15,23,38,208,27,24,37,183,19*79
$GPGSV,4,3,16,25,50,343,23,28,02,299,,29,12,339,,36,52,277,33*75
$GPGSV,4,4,16,40,86,351,29,41,58,082,,49,32,274,,50,10,089,*72
$GLGSV,3,1,10,65,19,185,20,71,16,073,11,72,35,124,19,74,01,155,07*6E
$GLGSV,3,2,10,75,50,164,22,76,63,318,28,77,16,330,,86,04,011,11*68
$GLGSV,3,3,10,87,15,330,07,88,08,273,*66
$GNGLL,0419.98799,S,05539.81756,E,063029.00,A,A*69
$GNGRS,063029.00,1,-8.6,-10.6,3.9,2.1,3.5,13.6,-2.6,-2.4,-1.3,,,*5F
$GNGRS,063029.00,1,-0.7,13.8,13.8,-2.6,1.2,10.9,,,,,,*66
$GNGST,063029.00,2973943,,,,4.5,4.6,13*59
$GNZDA,063029.00,23,05,2025,00,00*77
$GNGBS,063029.00,4.5,4.6,13.3,,,,*63
$GNTXT,01,01,01,More than 100 frame errors, UART RX was disabled*70
b0L%$/)G7r(%
!"&l%2W+S{ 4V_:R 
Y
uAeG
IH#|JK2/L?>MJVBWJXNb%r7:$GNRMC,063031.00,A,0419.98808,S,05539.81768,E,0.150,,230525,,,A*74
$GNVTG,,T,,M,0.150,N,0.279,K,A*35
$GNGNS,063031.00,0419.98808,S,05539.81768,E,AA,15,0.76,-2.5,-47.6,,*72
$GNGGA,063031.00,0419.98808,S,05539.81768,E,1,12,0.76,-2.5,M,-47.6,M,,*5F
$GNGSA,A,3,24,20,05,13,15,12,18,25,23,,,,1.47,0.76,1.26*11
$GNGSA,A,3,75,87,71,72,76,65,,,,,,,1.47,0.76,1.26*16
$GPGSV,4,1,16,05,47,041,36,12,71,055,25,13,14,114,18,15,37,146,19*7E
$GPGSV,4,2,16,18,33,282,31,20,14,034,13,23,38,208,26,24,37,183,20*77
