$GNTXT,01,01,01,More than 100 frame errors, UART RX was disabled*70
b0((=*77,>O}"p"G&,K&X
J{4Vb 9Q A BHSK
LFM:LNNQW
X7b(=*B$GNRMC,063535.00,A,0438.24091,S,05528.21685,E,0.555,,160525,,,A*76
$GNVTG,,T,,M,0.555,N,1.029,K,A*32
$GNGNS,063535.00,0438.24091,S,05528.21685,E,AA,12,0.82,18.2,-46.7,,*6A
$GNGGA,063535.00,0438.24091,S,05528.21685,E,1,12,0.82,18.2,M,-46.7,M,,*40
$GNGSA,A,3,25,12,05,15,18,20,23,24,,,,,1.75,0.82,1.55*1D
$GNGSA,A,3,88,77,76,65,,,,,,,,,1.75,0.82,1.55*16
$GPGSV,4,1,14,05,55,055,26,12,62,031,28,13,14,125,,15,34,158,18*70
$GPGSV,4,2,14,18,34,268,27,20,22,038,29,23,28,206,27,24,44,193,26*7C
$GPGSV,4,3,14,25,38,344,23,29,10,330,,36,52,277,,40,86,354,29*7C
$GPGSV,4,4,14,41,57,081,32,49,32,274,*7E
$GLGSV,3,1,10,65,32,142,19,66,13,191,,72,16,083,13,75,10,155,*69
$GLGSV,3,2,10,76,70,155,15,77,58,332,22,78,01,334,,81,09,260,*67
$GLGSV,3,3,10,87,05,007,,88,20,311,25*6F
$GNGLL,0438.24091,S,05528.21685,E,063535.00,A,A*6F
$GNGRS,063535.00,1,-3.3,-1.8,0.4,-4.0,-1.9,0.3,5.3,0.8,,,,*5A
$GNGRS,063535.00,1,-10.6,7.6,12.0,1.7,,,,,,,,*78
$GNGST,063535.00,44,,,,2.0,2.5,5.4*4B
$GNZDA,063535.00,16,05,2025,00,00*79
$GNGBS,063535.00,2.0,2.5,5.4,,,,*5D
$GNTXT,01,01,01,More than 100 frame errors, UART RX was disabled*70
b0(A* 77E >}"O"!&c,"&X
J{4"Vb$9Q A BHSK
LFM:LVNNQW
X72JbA*B$GNRMC,063536.00,A,0438.24091,S,05528.21685,E,0.081,,160525,,,A*79
$GNVTG,,T,,M,0.081,N,0.150,K,A*30
$GNGNS,063536.00,0438.24091,S,05528.21685,E,AA,12,0.82,18.1,-46.7,,*6A
$GNGGA,063536.00,0438.24091,S,05528.21685,E,1,12,0.82,18.1,M,-46.7,M,,*40
$GNGSA,A,3,25,12,05,15,18,20,23,24,,,,,1.75,0.82,1.55*1D
$GNGSA,A,3,88,77,76,65,,,,,,,,,1.75,0.82,1.55*16
$GPGSV,4,1,14,05,55,055,32,12,62,031,32,13,14,125,,15,34,158,15*73
$GPGSV,4,2,14,18,34,269,28,20,22,038,33,23,28,206,28,24,44,193,31*70
$GPGSV,4,3,14,25,38,344,34,29,10,330,,36,52,277,,40,86,354,34*76
$GPGSV,4,4,14,41,57,081,36,49,32,274,*7A
$GLGSV,3,1,10,65,32,142,19,66,13,191,,72,16,083,09,75,10,155,*62
$GLGSV,3,2,10,76,70,155,15,77,58,332,25,78,01,334,,81,09,260,*60
$GLGSV,3,3,10,87,05,007,,88,20,311,23*69
$GNGLL,0438.24091,S,05528.21685,E,063536.00,A,A*6C
$GNGRS,063536.00,1,-2.6,2.4,-4.4,-6.9,1.5,1.0,7.2,1.8,,,,*7C
$GNGRS,063536.00,1,-10.1,6.0,15.4,1.7,,,,,,,,*78
$GNGST,063536.00,39,,,,2.0,2.6,5.5*40
$GNZDA,063536.00,16,05,2025,00,00*7A
$GNGBS,063536.00,2.0,2.6,5.5,,,,*5C
$GNTXT,01,01,01,More than 100 frame errors, UART RX was disabled*70
b0(D*#77:#>}"%""& "{$,d&&Xa
J{4"Vb'9Q A iBHSK
LFJM :LNNQW
X7bD*B}$GNRMC,063537.00,A,0438.24101,S,05528.21690,E,0.061,,160525,,,A*7A
$GNVTG,,T,,M,0.061,N,0.112,K,A*38
$GNGNS,063537.00,0438.24101,S,05528.21690,E,AA,12,0.82,18.0,-46.7,,*66
$GNGGA,063537.00,0438.24101,S,05528.21690,E,1,12,0.82,18.0,M,-46.7,M,,*4C
$GNGSA,A,3,25,12,05,15,18,20,23,24,,,,,1.75,0.82,1.55*1D
$GNGSA,A,3,88,77,76,65,,,,,,,,,1.75,0.82,1.55*16
$GPGSV,4,1,14,05,55,055,35,12,62,031,35,13,14,125,,15,34,158,14*72
$GPGSV,4,2,14,18,34,269,31,20,22,038,34,23,28,206,34,24,44,193,36*75
$GPGSV,4,3,14,25,38,344,38,29,10,330,,36,52,277,,40,86,354,34*7A
$GPGSV,4,4,14,41,57,081,39,49,32,274,*75
$GLGSV,3,1,10,65,32,142,19,66,13,191,,72,16,083,08,75,10,155,*63
$GLGSV,3,2,10,76,70,155,24,77,58,332,32,78,01,334,,81,09,260,*64
$GLGSV,3,3,10,87,05,007,,88,20,311,25*6F
$GNGLL,0438.24101,S,05528.21690,E,063537.00,A,A*61
$GNGRS,063537.00,1,-1.6,-1.2,-2.0,-7.3,1.9,2.9,6.3,3.6,,,,*55
$GNGRS,063537.00,1,-12.8,4.1,16.1,1.1,,,,,,,,*71
$GNGST,063537.00,35,,,,2.0,2.6,5.5*4D
$GNZDA,063537.00,16,05,2025,00,00*7B
$GNGBS,063537.00,2.0,2.6,5.5,,,,*5D
$GNTXT,01,01,01,More than 100 frame errors, UART RX was disabled*70
b0(H*"77)>.}""%%t%&,&&X{
J{4(Vb&9Q A BHSK
LFM :LNNQW
X75nbH*BUE$GNRMC,063538.00,A,0438.24110,S,05528.21694,E,0.029,,160525,,,A*7D
$GNVTG,,T,,M,0.029,N,0.053,K,A*30
$GNGNS,063538.00,0438.24110,S,05528.21694,E,AA,12,0.82,18.3,-46.7,,*6E
$GNGGA,063538.00,0438.24110,S,05528.21694,E,1,12,0.82,18.3,M,-46.7,M,,*44
$GNGSA,A,3,25,12,05,15,18,20,23,24,,,,,1.75,0.82,1.55*1D
$GNGSA,A,3,88,77,76,65,,,,,,,,,1.75,0.82,1.55*16
$GPGSV,4,1,14,05,55,055,34,12,62,031,41,13,14,125,,15,34,158,15*71
$GPGSV,4,2,14,18,34,269,28,20,21,037,37,23,28,206,37,24,44,193,38*7F
$GPGSV,4,3,14,25,38,344,38,29,10,330,,36,52,277,,40,86,354,40*79
$GPGSV,4,4,14,41,57,081,38,49,32,274,*74
$GLGSV,3,1,10,65,32,142,20,66,13,191,,72,16,083,07,75,10,155,*66
$GLGSV,3,2,10,76,70,155,27,77,58,332,32,78,01,334,,81,09,260,*67
$GLGSV,3,3,10,87,05,007,,88,20,311,24*6E
$GNGLL,0438.24110,S,05528.21694,E,063538.00,A,A*6A
$GNGRS,063538.00,1,-3.9,0.5,-0.2,-8.6,0.1,-1.4,-0.1,1.6,,,,*77
$GNGRS,063538.00,1,-12.3,4.9,15.6,1.9,,,,,,,,*71
$GNGST,063538.00,35,,,,1.9,2.6,5.4*49
$GNZDA,063538.00,16,05,2025,00,00*74
$GNGBS,063538.00,1.9,2.6,5.4,,,,*59
$GNTXT,01,01,01,More than 100 frame errors, UART RX was disabled*70
b0(L*%77:+>}"!"'%+!%,(&X
J{!4(Vb'9Q A +BHSK
L#FM :LNNQW
X7:bL*B-$GNRMC,063539.00,A,0438.24110,S,05528.21696,E,0.081,,160525,,,A*7C
$GNVTG,,T,,M,0.081,N,0.149,K,A*38
$GNGNS,063539.00,0438.24110,S,05528.21696,E,AA,12,0.82,18.4,-46.7,,*6A
$GNGGA,063539.00,0438.24110,S,05528.21696,E,1,12,0.82,18.4,M,-46.7,M,,*40
$GNGSA,A,3,25,12,05,15,18,20,23,24,,,,,1.75,0.82,1.55*1D
$GNGSA,A,3,88,77,76,65,,,,,,,,,1.75,0.82,1.55*16
$GPGSV,4,1,14,05,55,055,37,12,62,031,43,13,14,125,,15,34,158,15*70
$GPGSV,4,2,14,18,34,269,33,20,21,037,39,23,28,206,33,24,44,193,37*70
$GPGSV,4,3,14,25,38,344,40,29,10,330,,36,52,277,33,40,86,354,40*76
$GPGSV,4,4,14,41,57,081,39,49,32,274,*75
$GLGSV,3,1,10,65,32,142,21,66,13,191,,72,16,083,07,75,10,155,*67
$GLGSV,3,2,10,76,70,155,35,77,58,332,32,78,01,334,,81,09,260,*64
$GLGSV,3,3,10,87,05,007,,88,20,311,25*6F
$GNGLL,0438.24110,S,05528.21696,E,063539.00,A,A*69
$GNGRS,063539.00,1,0.1,-0.9,3.1,-11.5,2.1,0.4,1.8,-0.4,,,,*42
$GNGRS,063539.00,1,-12.2,2.6,2.4,3.0,,,,,,,,*47
$GNGST,063539.00,33,,,,1.9,2.6,5.3*49
$GNZDA,063539.00,16,05,2025,00,00*75
$GNGBS,063539.00,1.9,2.6,5.3,,,,*5F
$GNTXT,01,01,01,More than 100 frame errors, UART RX was disabled*70
b0(P*'77:*>}""X&% %,'&Xo
J{%4(Vb'9Q A BHSK
L!FM :LYNNQW
X7?*bP*B$GNRMC,063540.00,A,0438.24112,S,05528.21704,E,0.030,,160525,,,A*70
$GNVTG,,T,,M,0.030,N,0.055,K,A*3E
$GNGNS,063540.00,0438.24112,S,05528.21704,E,AA,12,0.82,18.3,-46.7,,*6B
$GNGGA,063540.00,0438.24112,S,05528.21704,E,1,12,0.82,18.3,M,-46.7,M,,*41
$GNGSA,A,3,25,12,05,15,18,20,23,24,,,,,1.75,0.82,1.55*1D
$GNGSA,A,3,88,77,76,65,,,,,,,,,1.75,0.82,1.55*16
$GPGSV,4,1,14,05,55,055,39,12,62,031,42,13,14,125,,15,34,158,16*7C
$GPGSV,4,2,14,18,34,269,31,20,21,037,38,23,29,206,32,24,44,193,37*73
$GPGSV,4,3,14,25,38,344,39,29,10,330,,36,52,277,37,40,86,354,40*7C
$GPGSV,4,4,14,41,57,081,39,49,32,274,*75
$GLGSV,3,1,10,65,32,142,21,66,13,191,,72,16,083,07,75,10,155,*67
$GLGSV,3,2,10,76,70,155,33,77,58,332,32,78,01,334,,81,09,260,*62
$GLGSV,3,3,10,87,05,007,,88,20,311,26*6C
$GNGLL,0438.24112,S,05528.21704,E,063540.00,A,A*6F
$GNGRS,063540.00,1,-1.4,-0.3,3.1,-15.5,8.6,1.4,7.1,-0.7,,,,*6B
$GNGRS,063540.00,1,-9.6,6.0,1.9,1.5,,,,,,,,*7C
$GNGST,063540.00,33,,,,1.9,2.6,5.2*46
$GNZDA,063540.00,16,05,2025,00,00*7B
$GNGBS,063540.00,1.9,2.6,5.2,,,,*50
$GNTXT,01,01,01,More than 100 frame errors, UART RX was disabled*70
b0(T*(77~*>}""'% %+S'&XH
J{%4(Vb&9Q A BHSK
L FDM :LNNQW
X7bT*Bj}$GNRMC,063541.00,A,0438.24110,S,05528.21701,E,0.086,,160525,,,A*7B
$GNVTG,,T,,M,0.086,N,0.159,K,A*3E
$GNGNS,063541.00,0438.24110,S,05528.21701,E,AA,12,0.82,18.4,-46.7,,*6A
$GNGGA,063541.00,0438.24110,S,05528.21701,E,1,12,0.82,18.4,M,-46.7,M,,*40
$GNGSA,A,3,25,12,05,15,18,20,23,24,,,,,1.75,0.82,1.55*1D
$GNGSA,A,3,88,77,76,65,,,,,,,,,1.75,0.82,1.55*16
$GPGSV,4,1,14,05,55,055,40,12,62,031,42,13,14,125,,15,34,158,17*73
$GPGSV,4,2,14,18,34,269,30,20,21,037,39,23,29,206,32,24,43,193,37*74
$GPGSV,4,3,14,25,38,344,39,29,10,330,21,36,52,277,37,40,86,354,40*7F
$GPGSV,4,4,14,41,57,081,38,49,32,274,*74
$GLGSV,3,1,10,65,32,142,21,66,13,191,,72,16,083,08,75,10,155,*68
$GLGSV,3,2,10,76,70,155,32,77,58,332,32,78,01,334,,81,09,260,*63
$GLGSV,3,3,10,87,05,007,,88,20,311,27*6D
$GNGLL,0438.24110,S,05528.21701,E,063541.00,A,A*69
$GNGRS,063541.00,1,0.7,-0.3,1.3,-16.2,5.3,-0.5,4.4,-1.7,,,,*63
$GNGRS,063541.00,1,-7.7,7.9,3.2,2.3,,,,,,,,*76
$GNGST,063541.00,32,,,,1.8,2.5,5.1*47
$GNZDA,063541.00,16,05,2025,00,00*7A
$GNGBS,063541.00,1.8,2.5,5.1,,,,*50
$GNTXT,01,01,01,More than 100 frame errors, UART RX was disabled*70
b0(X*)77*>%}""5'%!i"+''X
J{$4(Vb%9Q A BHSK
LFM :LNNQW
X7TbX*BR $GNRMC,063542.00,A,0438.24111,S,05528.21694,E,0.108,,160525,,,A*73
$GNVTG,,T,,M,0.108,N,0.200,K,A*36
$GNGNS,063542.00,0438.24111,S,05528.21694,E,AA,12,0.86,18.5,-46.7,,*60
$GNGGA,063542.00,0438.24111,S,05528.21694,E,1,12,0.86,18.5,M,-46.7,M,,*4A
$GNGSA,A,3,25,12,05,15,18,20,23,24,,,,,1.79,0.86,1.58*18
$GNGSA,A,3,88,77,76,65,,,,,,,,,1.79,0.86,1.58*13
$GPGSV,4,1,14,05,55,055,41,12,62,031,42,13,14,125,,15,34,158,20*76
$GPGSV,4,2,14,18,34,269,31,20,21,037,39,23,29,206,33,24,43,193,34*77
$GPGSV,4,3,14,25,39,344,39,29,10,330,,36,52,277,36,40,86,354,40*7C
$GPGSV,4,4,14,41,57,081,37,49,32,274,*7B
$GLGSV,3,1,10,65,32,142,19,66,13,191,,72,16,083,08,75,10,155,*63
$GLGSV,3,2,10,76,70,155,31,77,58,332,32,78,01,334,,81,09,260,*60
$GLGSV,3,3,10,87,05,007,,88,20,311,28*62
$GNGLL,0438.24111,S,05528.21694,E,063542.00,A,A*66
$GNGRS,063542.00,1,0.1,0.4,-0.8,-20.5,8.2,-1.1,3.6,2.2,,,,*4E
$GNGRS,063542.00,1,-5.7,2.8,4.7,1.6,,,,,,,,*77
$GNGST,063542.00,28,,,,1.8,2.5,5.0*4E
$GNZDA,063542.00,16,05,2025,00,00*79
$GNGBS,063542.00,1.8,2.5,5.0,,,,*52
$GNTXT,01,01,01,More than 100 frame errors, UART RX was disabled*70
b0(h\*'77)>?}"= "n'%$+&'X;
J{#4(Vb&9Q A BHSK
LFM :LWNNQW
X7HZcbh\*B:$M$GNRMC,063543.00,A,0438.24110,S,05528.21689,E,0.013,,160525,,,A*74
$GNVTG,,T,,M,0.013,N,0.023,K,A*3E
$GNGNS,063543.00,0438.24110,S,05528.21689,E,AA,12,0.82,18.7,-46.7,,*6A
$GNGGA,063543.00,0438.24110,S,05528.21689,E,1,12,0.82,18.7,M,-46.7,M,,*40
$GNGSA,A,3,25,12,05,15,18,20,23,24,,,,,1.75,0.82,1.55*1D
$GNGSA,A,3,88,77,76,65,,,,,,,,,1.75,0.82,1.55*16
$GPGSV,4,1,14,05,55,055,39,12,62,031,41,13,14,125,,15,34,158,20*7A
$GPGSV,4,2,14,18,34,269,32,20,21,037,39,23,29,206,30,24,43,193,36*75
$GPGSV,4,3,14,25,39,344,38,29,10,330,,36,52,277,35,40,86,354,40*7E
$GPGSV,4,4,14,41,57,081,38,49,32,274,*74
$GLGSV,3,1,10,65,32,142,19,66,13,191,,72,16,083,08,75,10,155,*63
$GLGSV,3,2,10,76,70,155,31,77,58,332,32,78,01,334,,81,09,260,*60
$GLGSV,3,3,10,87,05,007,,88,20,311,29*63
$GNGLL,0438.24110,S,05528.21689,E,063543.00,A,A*6A
$GNGRS,063543.00,1,0.6,0.6,-0.3,-19.9,3.7,-0.9,5.0,0.3,,,,*43
$GNGRS,063543.00,1,-4.4,3.4,2.5,2.9,,,,,,,,*71
$GNGST,063543.00,28,,,,1.8,2.5,5.0*4F
$GNZDA,063543.00,16,05,2025,00,00*78
$GNGBS,063543.00,1.8,2.5,5.0,,,,*53
$GNTXT,01,01,01,More than 100 frame errors, UART RX was disabled*70
b0(P`*'77)>+}" "'%&+&'XJ
J{$4(Vb&9Q A )BHSK
L FM!:LNNQW
X7bP`*B"(e$GNRMC,063544.00,A,0438.24111,S,05528.21684,E,0.072,,160525,,,A*78
$GNVTG,,T,,M,0.072,N,0.133,K,A*39
$GNGNS,063544.00,0438.24111,S,05528.21684,E,AA,12,0.86,18.7,-46.7,,*65
$GNGGA,063544.00,0438.24111,S,05528.21684,E,1,12,0.86,18.7,M,-46.7,M,,*4F
$GNGSA,A,3,25,12,05,15,18,20,23,24,,,,,1.79,0.86,1.58*18
$GNGSA,A,3,88,77,76,65,,,,,,,,,1.79,0.86,1.58*13
$GPGSV,4,1,14,05,55,055,39,12,62,031,41,13,14,125,,15,34,158,19*70
$GPGSV,4,2,14,18,34,269,32,20,21,037,39,23,29,206,30,24,43,193,38*7B
$GPGSV,4,3,14,25,39,344,38,29,10,330,19,36,52,277,36,40,86,354,40*75
$GPGSV,4,4,14,41,57,081,38,49,32,274,*74
$GLGSV,3,1,10,65,32,142,18,66,13,191,,72,16,083,07,75,10,155,*6D
$GLGSV,3,2,10,76,70,155,32,77,58,332,33,78,01,334,,81,09,260,*62
$GLGSV,3,3,10,87,05,007,,88,20,311,28*62
$GNGLL,0438.24111,S,05528.21684,E,063544.00,A,A*61
$GNGRS,063544.00,1,0.7,0.4,-0.4,-20.5,7.0,-0.9,5.4,0.3,,,,*41
$GNGRS,063544.00,1,-0.9,2.3,2.5,3.0,,,,,,,,*71
$GNGST,063544.00,28,,,,1.8,2.4,4.9*41
$GNZDA,063544.00,16,05,2025,00,00*7F
$GNGBS,063544.00,1.8,2.4,4.9,,,,*5D
$GNTXT,01,01,01,More than 100 frame errors, UART RX was disabled*70
b0(8d*&77)>}"G "M(%|$+&'X9
J{!4(Vb(9Q A BHSK
L FM!:LNNQW
X7gb8d*B
,=$GNRMC,063545.00,A,0438.24111,S,05528.21676,E,0.067,,160525,,,A*70
$GNVTG,,T,,M,0.067,N,0.124,K,A*3B
$GNGNS,063545.00,0438.24111,S,05528.21676,E,AA,12,0.82,18.8,-46.7,,*62
$GNGGA,063545.00,0438.24111,S,05528.21676,E,1,12,0.82,18.8,M,-46.7,M,,*48
$GNGSA,A,3,25,12,05,15,18,20,23,24,,,,,1.75,0.82,1.55*1D
$GNGSA,A,3,88,77,76,65,,,,,,,,,1.75,0.82,1.55*16
$GPGSV,4,1,14,05,55,055,38,12,62,031,41,13,14,125,,15,34,158,16*7E
$GPGSV,4,2,14,18,34,269,32,20,21,037,40,23,29,206,31,24,43,193,36*7A
$GPGSV,4,3,14,25,39,344,38,29,10,330,19,36,52,277,33,40,86,354,40*70
$GPGSV,4,4,14,41,57,081,40,49,32,274,*7B
$GLGSV,3,1,10,65,32,142,17,66,13,191,,72,16,083,07,75,10,155,*62
$GLGSV,3,2,10,76,70,155,32,77,58,332,33,78,01,334,,81,09,260,*62
$GLGSV,3,3,10,87,05,007,,88,20,311,27*6D
$GNGLL,0438.24111,S,05528.21676,E,063545.00,A,A*6D
$GNGRS,063545.00,1,0.6,0.2,-0.1,-19.8,8.4,-0.8,3.8,0.0,,,,*46
$GNGRS,063545.00,1,4.7,1.7,4.3,1.3,,,,,,,,*51
$GNGST,063545.00,39,,,,1.8,2.4,4.8*41
$GNZDA,063545.00,16,05,2025,00,00*7E
$GNGBS,063545.00,1.8,2.4,4.8,,,,*5D
$GNTXT,01,01,01,More than 100 frame errors, UART RX was disabled*70
b0( h*%77(>}"=#"*&% #+#'Xe
K{!4&Vb&9Q A >BHSK
L$FM!:LNNQW
X7,b h*B/$GNRMC,063546.00,A,0438.24112,S,05528.21674,E,0.034,,160525,,,A*74
$GNVTG,,T,,M,0.034,N,0.063,K,A*3F
$GNGNS,063546.00,0438.24112,S,05528.21674,E,AA,12,0.82,18.7,-46.7,,*6F
$GNGGA,063546.00,0438.24112,S,05528.21674,E,1,12,0.82,18.7,M,-46.7,M,,*45
$GNGSA,A,3,25,12,05,15,18,20,23,24,,,,,1.75,0.82,1.55*1D
$GNGSA,A,3,88,77,76,65,,,,,,,,,1.75,0.82,1.55*16
$GPGSV,4,1,14,05,55,055,37,12,62,031,40,13,14,125,,15,34,158,18*7E
$GPGSV,4,2,14,18,34,269,35,20,21,037,38,23,29,206,32,24,43,193,35*72
$GPGSV,4,3,14,25,39,344,35,29,10,331,16,36,52,277,33,40,86,354,38*7C
$GPGSV,4,4,14,41,57,081,38,49,32,274,*74
$GLGSV,3,1,10,65,32,142,21,66,13,191,,72,16,083,,75,10,155,*60
$GLGSV,3,2,10,76,70,155,36,77,58,332,33,78,01,334,,81,09,260,*66
$GLGSV,3,3,10,87,05,007,,88,20,311,26*6C
$GNGLL,0438.24112,S,05528.21674,E,063546.00,A,A*6F
$GNGRS,063546.00,1,1.0,-0.5,0.0,-19.9,0.4,-0.8,2.5,0.0,,,,*41
$GNGRS,063546.00,1,2.2,-2.3,-1.0,0.6,,,,,,,,*54
$GNGST,063546.00,28,,,,1.8,2.4,4.8*42
$GNZDA,063546.00,16,05,2025,00,00*7D
$GNGBS,063546.00,1.8,2.4,4.8,,,,*5E
$GNTXT,01,01,01,More than 100 frame errors, UART RX was disabled*70
b0(l*&77)>}" "&%"+#'X
K{ 4'Vb&9Q A BHSK
L#FM!:LNNQW
X7bl*B3$GNRMC,063547.00,A,0438.24112,S,05528.21673,E,0.022,,160525,,,A*75
$GNVTG,,T,,M,0.022,N,0.041,K,A*38
$GNGNS,063547.00,0438.24112,S,05528.21673,E,AA,12,0.82,18.6,-46.7,,*68
$GNGGA,063547.00,0438.24112,S,05528.21673,E,1,12,0.82,18.6,M,-46.7,M,,*42
$GNGSA,A,3,25,12,05,15,18,20,23,24,,,,,1.75,0.82,1.55*1D
$GNGSA,A,3,88,77,76,65,,,,,,,,,1.75,0.82,1.55*16
$GPGSV,4,1,14,05,55,055,38,12,62,031,41,13,14,125,,15,34,158,18*70
$GPGSV,4,2,14,18,34,269,32,20,21,037,38,23,29,206,31,24,43,193,34*77
$GPGSV,4,3,14,25,39,344,35,29,10,331,,36,52,277,32,40,86,354,39*7B
$GPGSV,4,4,14,41,57,081,38,49,32,274,*74
$GLGSV,3,1,10,65,32,142,22,66,13,191,,72,16,083,,75,10,155,*63
$GLGSV,3,2,10,76,70,155,35,77,58,332,33,78,01,334,,81,09,260,*65
$GLGSV,3,3,10,87,05,007,,88,20,311,26*6C
$GNGLL,0438.24112,S,05528.21673,E,063547.00,A,A*69
$GNGRS,063547.00,1,1.3,-0.6,-0.1,-18.4,2.5,-0.9,4.1,-0.1,,,,*4C
$GNGRS,063547.00,1,4.4,-3.8,-1.0,-0.2,,,,,,,,*76
$GNGST,063547.00,31,,,,1.8,2.4,4.7*44
$GNZDA,063547.00,16,05,2025,00,00*7C
$GNGBS,063547.00,1.8,2.4,4.7,,,,*50
$GNTXT,01,01,01,More than 100 frame errors, UART RX was disabled*70
b0(o*$77)>}""'% #+%'XM
K{"4'Vb%9Q A ~BHSK
LFM!:LNNQW
X7a]Dbo*B7C$GNRMC,063548.00,A,0438.24110,S,05528.21668,E,0.105,,160525,,,A*76
$GNVTG,,T,,M,0.105,N,0.194,K,A*35
$GNGNS,063548.00,0438.24110,S,05528.21668,E,AA,12,0.82,18.5,-46.7,,*6C
$GNGGA,063548.00,0438.24110,S,05528.21668,E,1,12,0.82,18.5,M,-46.7,M,,*46
$GNGSA,A,3,25,12,05,15,18,20,23,24,,,,,1.75,0.82,1.55*1D
$GNGSA,A,3,88,77,76,65,,,,,,,,,1.75,0.82,1.55*16
$GPGSV,4,1,14,05,55,055,36,12,62,031,41,13,14,125,16,15,34,158,18*79
$GPGSV,4,2,14,18,34,269,31,20,21,037,39,23,29,206,32,24,43,193,35*77
$GPGSV,4,3,14,25,39,344,37,29,10,331,,36,52,277,34,40,86,354,39*7F
$GPGSV,4,4,14,41,57,081,37,49,32,274,*7B
$GLGSV,3,1,10,65,32,142,21,66,13,191,,72,16,083,,75,10,155,*60
$GLGSV,3,2,10,76,70,155,26,77,58,332,33,78,01,334,,81,09,260,*67
$GLGSV,3,3,10,87,05,007,,88,20,311,27*6D
$GNGLL,0438.24110,S,05528.21668,E,063548.00,A,A*6E
$GNGRS,063548.00,1,0.8,-0.6,0.0,-18.3,4.5,-0.8,4.0,-0.2,,,,*67
$GNGRS,063548.00,1,8.7,-3.4,2.2,-3.9,,,,,,,,*5E
$GNGST,063548.00,32,,,,1.8,2.4,4.7*48
$GNZDA,063548.00,16,05,2025,00,00*73
$GNGBS,063548.00,1.8,2.4,4.7,,,,*5F
$GNTXT,01,01,01,More than 100 frame errors, UART RX was disabled*70
b0(s*%77*)>}"$"3'%#$+%'Xb
K{"4'Vb%9Q A BHSK
L F8M":LNNQW
X7^bs*B;$GNRMC,063549.00,A,0438.24109,S,05528.21664,E,0.129,,160525,,,A*7D
$GNVTG,,T,,M,0.129,N,0.239,K,A*3F
$GNGNS,063549.00,0438.24109,S,05528.21664,E,AA,12,0.86,18.4,-46.7,,*6C
$GNGGA,063549.00,0438.24109,S,05528.21664,E,1,12,0.86,18.4,M,-46.7,M,,*46
$GNGSA,A,3,25,12,05,15,18,20,23,24,,,,,1.79,0.86,1.57*17
$GNGSA,A,3,88,77,76,65,,,,,,,,,1.79,0.86,1.57*1C
$GPGSV,4,1,14,05,55,055,37,12,62,031,41,13,14,125,,15,34,158,19*7E
$GPGSV,4,2,14,18,34,269,30,20,21,037,39,23,29,206,35,24,43,193,36*72
$GPGSV,4,3,14,25,39,344,37,29,10,331,,36,52,277,34,40,86,354,39*7F
$GPGSV,4,4,14,41,57,081,37,49,32,274,*7B
$GLGSV,3,1,10,65,32,142,19,66,13,191,,72,16,083,,75,10,155,*6B
$GLGSV,3,2,10,76,70,155,32,77,58,332,34,78,01,334,,81,09,260,*65
$GLGSV,3,3,10,87,05,007,,88,20,311,27*6D
$GNGLL,0438.24109,S,05528.21664,E,063549.00,A,A*6B
$GNGRS,063549.00,1,1.0,-0.6,0.4,-20.1,8.2,-0.7,2.3,-0.6,,,,*67
$GNGRS,063549.00,1,6.1,-5.6,3.1,-3.4,,,,,,,,*5C
$GNGST,063549.00,24,,,,1.8,2.4,4.6*4F
$GNZDA,063549.00,16,05,2025,00,00*72
$GNGBS,063549.00,1.8,2.4,4.6,,,,*5F
$GNTXT,01,01,01,More than 100 frame errors, UART RX was disabled*70
b0(w*77<&>}"c "$%#8%+%'Xd
K{!4%Vb 9Q A dBHSK
L#FM!:LaNNQW
X7pbw*B?s$GNRMC,063550.00,A,0438.24106,S,05528.21662,E,0.059,,160525,,,A*7A
$GNVTG,,T,,M,0.059,N,0.109,K,A*39
$GNGNS,063550.00,0438.24106,S,05528.21662,E,AA,12,0.82,18.4,-46.7,,*69
$GNGGA,063550.00,0438.24106,S,05528.21662,E,1,12,0.82,18.4,M,-46.7,M,,*43
$GNGSA,A,3,25,12,05,15,18,20,23,24,,,,,1.75,0.82,1.55*1D
$GNGSA,A,3,88,77,76,65,,,,,,,,,1.75,0.82,1.55*16
$GPGSV,4,1,14,05,55,055,31,12,62,031,38,13,14,125,,15,34,158,19*76
$GPGSV,4,2,14,18,34,269,32,20,21,037,36,23,29,206,35,24,43,193,37*7E
$GPGSV,4,3,14,25,39,344,37,29,10,331,18,36,52,277,33,40,86,354,37*7F
$GPGSV,4,4,14,41,57,081,32,49,32,274,*7E
$GLGSV,3,1,10,65,32,142,15,66,13,191,,72,16,083,,75,10,155,*67
$GLGSV,3,2,10,76,70,155,35,77,58,332,33,78,01,334,,81,09,260,*65
$GLGSV,3,3,10,87,05,007,,88,20,311,25*6F
$GNGLL,0438.24106,S,05528.21662,E,063550.00,A,A*6A
$GNGRS,063550.00,1,1.0,-0.2,0.6,-19.5,-0.6,-0.4,-2.0,-0.6,,,,*6B
$GNGRS,063550.00,1,3.7,-1.6,-0.1,-1.6,,,,,,,,*7D
$GNGST,063550.00,34,,,,1.8,2.4,4.6*46
$GNZDA,063550.00,16,05,2025,00,00*7A
$GNGBS,063550.00,1.8,2.4,4.6,,,,*57
$GNTXT,01,01,01,More than 100 frame errors, UART RX was disabled*70
b0({*#77a'>}""%% L%+%'XS
K{4%Vb 9Q A BHSK
L#FM!:LNNQW
X7@b{*BzCK{$GNRMC,063551.00,A,0438.24107,S,05528.21661,E,0.009,,160525,,,A*7C
$GNVTG,,T,,M,0.009,N,0.017,K,A*32
$GNGNS,063551.00,0438.24107,S,05528.21661,E,AA,12,0.86,18.4,-46.7,,*6E
$GNGGA,063551.00,0438.24107,S,05528.21661,E,1,12,0.86,18.4,M,-46.7,M,,*44
$GNGSA,A,3,25,12,05,15,18,20,23,24,,,,,1.79,0.86,1.57*17
$GNGSA,A,3,88,77,76,65,,,,,,,,,1.79,0.86,1.57*1C
$GPGSV,4,1,14,05,55,055,35,12,62,031,39,13,14,125,,15,34,158,18*72
$GPGSV,4,2,14,18,34,269,30,20,21,037,37,23,29,206,32,24,43,193,37*7A
$GPGSV,4,3,14,25,39,344,37,29,10,331,16,36,52,277,30,40,86,354,37*72
$GPGSV,4,4,14,41,57,081,32,49,32,274,*7E
$GLGSV,3,1,10,65,32,142,14,66,13,191,,72,16,083,,75,10,155,*66
$GLGSV,3,2,10,76,70,155,35,77,58,332,33,78,01,334,,81,09,260,*65
$GLGSV,3,3,10,87,05,007,,88,20,311,24*6E
$GNGLL,0438.24107,S,05528.21661,E,063551.00,A,A*69
$GNGRS,063551.00,1,0.8,-0.5,1.0,-20.6,2.7,-0.4,0.8,-1.0,,,,*64
$GNGRS,063551.00,1,2.4,1.3,2.7,-0.9,,,,,,,,*71
$GNGST,063551.00,32,,,,1.7,2.4,4.6*4E
$GNZDA,063551.00,16,05,2025,00,00*7B
$GNGBS,063551.00,1.7,2.4,4.6,,,,*59
$GNTXT,01,01,01,More than 100 frame errors, UART RX was disabled*70
b0(*%77&>}""%% '+%'Xe
K{4%Vb9Q A BHSK
L$FM!:LNNQW
X7b*BbG#$GNRMC,063552.00,A,0438.24103,S,05528.21661,E,0.110,,160525,,,A*72
$GNVTG,,T,,M,0.110,N,0.204,K,A*3B
$GNGNS,063552.00,0438.24103,S,05528.21661,E,AA,12,0.86,18.4,-46.7,,*69
$GNGGA,063552.00,0438.24103,S,05528.21661,E,1,12,0.86,18.4,M,-46.7,M,,*43
$GNGSA,A,3,25,12,05,15,18,20,23,24,,,,,1.79,0.86,1.57*17
$GNGSA,A,3,88,77,76,65,,,,,,,,,1.79,0.86,1.57*1C
$GPGSV,4,1,14,05,55,055,37,12,62,031,38,13,14,125,,15,34,158,18*71
$GPGSV,4,2,14,18,34,269,31,20,21,037,37,23,29,206,32,24,43,193,39*75
$GPGSV,4,3,14,25,39,344,37,29,10,331,14,36,52,277,28,40,86,354,37*79
$GPGSV,4,4,14,41,57,081,30,49,32,274,*7C
$GLGSV,3,1,10,65,32,142,17,66,13,191,,72,16,083,,75,10,155,*65
$GLGSV,3,2,10,76,70,155,36,77,58,332,33,78,01,334,,81,09,260,*66
$GLGSV,3,3,10,87,05,007,,88,20,311,28*62
$GNGLL,0438.24103,S,05528.21661,E,063552.00,A,A*6E
$GNGRS,063552.00,1,1.0,-0.3,1.4,-21.2,-8.0,-0.4,2.2,-1.1,,,,*40
$GNGRS,063552.00,1,-1.1,2.1,-0.3,-0.3,,,,,,,,*79
$GNGST,063552.00,24,,,,1.7,2.4,4.6*4A
$GNZDA,063552.00,16,05,2025,00,00*78
$GNGBS,063552.00,1.7,2.4,4.6,,,,*5A
$GNTXT,01,01,01,More than 100 frame errors, UART RX was disabled*70
b0(x*%77'>}" "&%"$%+&'X
K{4'Vb9Q A &BHSK
L#FpM!:LhNNQW
X74sbx*BJKK$GNRMC,063553.00,A,0438.24100,S,05528.21662,E,0.077,,160525,,,A*73
$GNVTG,,T,,M,0.077,N,0.143,K,A*3B
$GNGNS,063553.00,0438.24100,S,05528.21662,E,AA,12,0.82,18.5,-46.7,,*6D
$GNGGA,063553.00,0438.24100,S,05528.21662,E,1,12,0.82,18.5,M,-46.7,M,,*47
$GNGSA,A,3,25,12,05,15,18,20,23,24,,,,,1.75,0.82,1.55*1D
$GNGSA,A,3,88,77,76,65,,,,,,,,,1.75,0.82,1.55*16
$GPGSV,4,1,14,05,55,055,37,12,62,031,39,13,14,125,,15,34,158,19*71
$GPGSV,4,2,14,18,34,269,32,20,21,037,38,23,29,206,34,24,43,193,37*71
$GPGSV,4,3,14,25,39,344,38,29,10,331,,36,52,277,28,40,86,354,39*7D
$GPGSV,4,4,14,41,57,081,28,49,32,274,*75
$GLGSV,3,1,10,65,32,142,19,66,13,191,,72,16,083,,75,10,155,*6B
$GLGSV,3,2,10,76,70,155,35,77,58,332,33,78,01,334,,81,09,260,*65
$GLGSV,3,3,10,87,05,007,,88,20,311,29*63
$GNGLL,0438.24100,S,05528.21662,E,063553.00,A,A*6F
$GNGRS,063553.00,1,1.4,-0.5,1.6,-19.2,-7.5,-0.2,0.4,-1.3,,,,*40
$GNGRS,063553.00,1,-4.6,3.6,1.1,0.4,,,,,,,,*78
$GNGST,063553.00,28,,,,1.7,2.4,4.5*44
$GNZDA,063553.00,16,05,2025,00,00*79
$GNGBS,063553.00,1.7,2.4,4.5,,,,*58
$GNTXT,01,01,01,More than 100 frame errors, UART RX was disabled*70
b0(`*%77&>}[""'%!%+i&'X
K{4%Vb9Q A BHSK
L"FM :LNNQW
X7b`*B2O$GNRMC,063554.00,A,0438.24098,S,05528.21663,E,0.049,,160525,,,A*78
$GNVTG,,T,,M,0.049,N,0.092,K,A*3B
$GNGNS,063554.00,0438.24098,S,05528.21663,E,AA,12,0.82,18.6,-46.7,,*68
$GNGGA,063554.00,0438.24098,S,05528.21663,E,1,12,0.82,18.6,M,-46.7,M,,*42
$GNGSA,A,3,25,12,05,15,18,20,23,24,,,,,1.75,0.82,1.55*1D
$GNGSA,A,3,88,77,76,65,,,,,,,,,1.75,0.82,1.55*16
$GPGSV,4,1,14,05,55,055,37,12,62,031,38,13,14,125,18,15,34,158,19*79
$GPGSV,4,2,14,18,34,269,31,20,21,037,39,23,29,206,33,24,43,193,37*74
$GPGSV,4,3,14,25,39,344,38,29,10,331,,36,52,277,27,40,86,354,37*7C
$GPGSV,4,4,14,41,57,081,29,49,32,274,*74
$GLGSV,3,1,10,65,32,142,21,66,13,191,,72,16,083,,75,10,155,*60
$GLGSV,3,2,10,76,70,155,34,77,58,332,32,78,01,334,,81,09,260,*65
$GLGSV,3,3,10,87,05,007,,88,20,311,27*6D
$GNGLL,0438.24098,S,05528.21663,E,063554.00,A,A*69
$GNGRS,063554.00,1,1.5,-0.3,1.9,-17.6,-5.6,-0.3,2.4,-1.5,,,,*41
$GNGRS,063554.00,1,-5.4,-0.5,2.4,-0.9,,,,,,,,*77
$GNGST,063554.00,27,,,,1.7,2.4,4.5*4C
$GNZDA,063554.00,16,05,2025,00,00*7E
$GNGBS,063554.00,1.7,2.4,4.5,,,,*5F
$GNTXT,01,01,01,More than 100 frame errors, UART RX was disabled*70
b0(H*#77)>}""&%!&+h$'X
K{4&Vb9Q A BHSK
L"FM":L NNQW
X7<bH*BS$GNRMC,063555.00,A,0438.24097,S,05528.21664,E,0.015,,160525,,,A*78
$GNVTG,,T,,M,0.015,N,0.027,K,A*3C
$GNGNS,063555.00,0438.24097,S,05528.21664,E,AA,12,0.82,18.6,-46.7,,*61
$GNGGA,063555.00,0438.24097,S,05528.21664,E,1,12,0.82,18.6,M,-46.7,M,,*4B
$GNGSA,A,3,25,12,05,15,18,20,23,24,,,,,1.75,0.82,1.55*1D
$GNGSA,A,3,88,77,76,65,,,,,,,,,1.75,0.82,1.55*16
$GPGSV,4,1,14,05,55,055,35,12,62,031,41,13,14,125,16,15,34,158,21*70
$GPGSV,4,2,14,18,34,269,27,20,21,037,38,23,29,206,33,24,43,193,38*7D
$GPGSV,4,3,14,25,39,344,36,29,10,331,,36,52,277,30,40,86,354,38*7B
$GPGSV,4,4,14,41,57,081,31,49,32,274,*7D
$GLGSV,3,1,10,65,32,142,19,66,13,191,,72,16,083,,75,10,155,*6B
$GLGSV,3,2,10,76,70,155,34,77,58,332,34,78,01,334,,81,09,260,*63
$GLGSV,3,3,10,87,05,007,,88,20,311,20*6A
$GNGLL,0438.24097,S,05528.21664,E,063555.00,A,A*60
$GNGRS,063555.00,1,1.5,-0.5,2.3,-15.8,2.6,-0.5,4.2,-1.5,,,,*6F
$GNGRS,063555.00,1,-7.1,-4.8,4.8,-0.6,,,,,,,,*7D
$GNGST,063555.00,31,,,,1.7,2.4,4.5*4A
$GNZDA,063555.00,16,05,2025,00,00*7F
$GNGBS,063555.00,1.7,2.4,4.5,,,,*5E
$GNTXT,01,01,01,More than 100 frame errors, UART RX was disabled*70
b0(0*"77&>}""#%~"+u"'X
K{4%Vb 9Q A BHSK
L FyM":LNNQW
X7sb0*BW$GNRMC,063556.00,A,0438.24096,S,05528.21663,E,0.025,,160525,,,A*7E
$GNVTG,,T,,M,0.025,N,0.047,K,A*39
$GNGNS,063556.00,0438.24096,S,05528.21663,E,AA,12,0.82,18.6,-46.7,,*64
$GNGGA,063556.00,0438.24096,S,05528.21663,E,1,12,0.82,18.6,M,-46.7,M,,*4E
$GNGSA,A,3,25,12,05,15,18,20,23,24,,,,,1.75,0.82,1.55*1D
$GNGSA,A,3,88,77,76,65,,,,,,,,,1.75,0.82,1.55*16
$GPGSV,4,1,14,05,55,055,34,12,62,031,38,13,14,125,14,15,34,158,21*7D
$GPGSV,4,2,14,18,34,269,28,20,21,037,35,23,29,206,30,24,43,193,34*70
$GPGSV,4,3,14,25,39,344,34,29,10,331,20,36,52,277,31,40,86,354,37*75
$GPGSV,4,4,14,41,57,081,32,49,32,274,*7E
$GLGSV,3,1,10,65,32,142,16,66,13,191,,72,16,083,,75,10,155,*64
$GLGSV,3,2,10,76,70,155,32,77,58,332,34,78,01,334,,81,09,260,*65
$GLGSV,3,3,10,87,05,007,,88,20,311,22*68
$GNGLL,0438.24096,S,05528.21663,E,063556.00,A,A*65
$GNGRS,063556.00,1,1.8,-0.9,2.7,-15.8,2.1,-0.5,-1.3,-1.4,,,,*46
$GNGRS,063556.00,1,-10.5,1.7,3.8,-0.7,,,,,,,,*6D
$GNGST,063556.00,31,,,,1.7,2.4,4.5*49
$GNZDA,063556.00,16,05,2025,00,00*7C
$GNGBS,063556.00,1.7,2.4,4.5,,,,*5D
$GNTXT,01,01,01,More than 100 frame errors, UART RX was disabled*70
b0(* 771'>}""$%".$+t"'X
K{4%Vb!9Q A BHSK
L FjM":L
NNQW
X7CIb*BZZ$GNRMC,063557.00,A,0438.24095,S,05528.21659,E,0.042,,160525,,,A*74
$GNVTG,,T,,M,0.042,N,0.078,K,A*34
$GNGNS,063557.00,0438.24095,S,05528.21659,E,AA,12,0.82,18.6,-46.7,,*6F
$GNGGA,063557.00,0438.24095,S,05528.21659,E,1,12,0.82,18.6,M,-46.7,M,,*45
$GNGSA,A,3,25,12,05,15,18,20,23,24,,,,,1.75,0.82,1.55*1D
$GNGSA,A,3,88,77,76,65,,,,,,,,,1.75,0.82,1.55*16
$GPGSV,4,1,14,05,55,055,32,12,62,031,39,13,14,125,,15,34,158,20*7E
$GPGSV,4,2,14,18,34,269,27,20,21,037,36,23,29,206,34,24,43,193,36*7A
$GPGSV,4,3,14,25,39,344,34,29,10,331,20,36,52,277,31,40,86,354,37*75
$GPGSV,4,4,14,41,57,081,33,49,32,274,*7F
$GLGSV,3,1,10,65,32,142,15,66,13,191,,72,16,083,,75,10,155,*67
$GLGSV,3,2,10,76,70,155,32,77,58,332,34,78,01,334,,81,09,260,*65
$GLGSV,3,3,10,87,05,007,,88,20,311,22*68
$GNGLL,0438.24095,S,05528.21659,E,063557.00,A,A*6E
$GNGRS,063557.00,1,1.8,-1.1,3.1,-15.3,9.0,-0.1,-2.1,-1.4,,,,*4D
$GNGRS,063557.00,1,0.7,2.7,6.2,-1.1,,,,,,,,*79
$GNGST,063557.00,37,,,,1.7,2.4,4.5*4E
$GNZDA,063557.00,16,05,2025,00,00*7D
$GNGBS,063557.00,1.7,2.4,4.5,,,,*5C
$GNTXT,01,01,01,More than 100 frame errors, UART RX was disabled*70
b0(*!77f*>}""?&%"y%+o#'X
K{ 4'Vb"9Q A BHSK
L!FM":LWNNQW
X7ub*B^2P$GNRMC,063558.00,A,0438.24095,S,05528.21656,E,0.028,,160525,,,A*78
$GNVTG,,T,,M,0.028,N,0.052,K,A*30
$GNGNS,063558.00,0438.24095,S,05528.21656,E,AA,12,0.82,18.6,-46.7,,*6F
$GNGGA,063558.00,0438.24095,S,05528.21656,E,1,12,0.82,18.6,M,-46.7,M,,*45
$GNGSA,A,3,25,12,05,15,18,20,23,24,,,,,1.75,0.82,1.55*1D
$GNGSA,A,3,88,77,76,65,,,,,,,,,1.75,0.82,1.55*16
$GPGSV,4,1,14,05,55,055,33,12,62,031,42,13,14,125,,15,34,158,20*73
$GPGSV,4,2,14,18,34,269,27,20,21,037,38,23,29,206,34,24,43,193,37*75
$GPGSV,4,3,14,25,39,344,35,29,10,331,20,36,52,277,32,40,86,354,39*79
$GPGSV,4,4,14,41,57,081,34,49,32,274,*78
$GLGSV,3,1,10,65,32,142,12,66,13,191,,72,16,083,,75,10,155,*60
$GLGSV,3,2,10,76,70,155,33,77,58,332,34,78,01,334,,81,09,260,*64
$GLGSV,3,3,10,87,05,007,,88,20,311,22*68
$GNGLL,0438.24095,S,05528.21656,E,063558.00,A,A*6E
$GNGRS,063558.00,1,1.8,-1.2,3.6,-15.3,8.3,-0.2,1.2,-1.5,,,,*6B
$GNGRS,063558.00,1,-1.0,0.9,5.1,0.0,,,,,,,,*7C
$GNGST,063558.00,38,,,,1.7,2.4,4.5*4E
$GNZDA,063558.00,16,05,2025,00,00*72
$GNGBS,063558.00,1.7,2.4,4.5,,,,*53
$GNTXT,01,01,01,More than 100 frame errors, UART RX was disabled*70
b0(*$77)>]}""&%&+C$'X
K{!4'Vb#9Q A MBHSK
L%FM":LNNQW
X7b*Bb$GNRMC,063559.00,A,0438.24096,S,05528.21657,E,0.019,,160525,,,A*79
$GNVTG,,T,,M,0.019,N,0.035,K,A*33
$GNGNS,063559.00,0438.24096,S,05528.21657,E,AA,12,0.82,18.7,-46.7,,*6D
$GNGGA,063559.00,0438.24096,S,05528.21657,E,1,12,0.82,18.7,M,-46.7,M,,*47
$GNGSA,A,3,25,12,05,15,18,20,23,24,,,,,1.75,0.82,1.55*1D
$GNGSA,A,3,88,77,76,65,,,,,,,,,1.75,0.82,1.55*16
$GPGSV,4,1,14,05,55,055,36,12,62,031,41,13,14,125,,15,34,158,20*75
$GPGSV,4,2,14,18,34,269,28,20,21,037,38,23,29,206,31,24,43,193,38*70
$GPGSV,4,3,14,25,39,344,36,29,10,331,16,36,52,277,33,40,86,354,39*7E
$GPGSV,4,4,14,41,57,081,35,49,32,274,*79
$GLGSV,3,1,10,65,32,142,09,66,13,191,,72,16,083,,75,10,155,*6A
$GLGSV,3,2,10,76,70,155,37,77,58,332,34,78,01,334,,81,09,260,*60
$GLGSV,3,3,10,87,05,007,,88,20,311,21*6B
$GNGLL,0438.24096,S,05528.21657,E,063559.00,A,A*6D
$GNGRS,063559.00,1,1.8,-1.6,3.8,-13.4,5.0,-0.4,1.8,-1.9,,,,*6F
$GNGRS,063559.00,1,-7.7,-0.2,4.8,0.8,,,,,,,,*5A
$GNGST,063559.00,86543,,,,1.7,2.4,4.4*79
$GNZDA,063559.00,16,05,2025,00,00*73
$GNGBS,063559.00,1.7,2.4,4.4,,,,*53
$GNTXT,01,01,01,More than 100 frame errors, UART RX was disabled*70
b0(*$77y*>E}"H"&% &+$'X
K{ 4(Vb"9Q A EBHSK
L#FM!:LPNNQW
X7b*Bf$GNRMC,063600.00,A,0438.24095,S,05528.21656,E,0.033,,160525,,,A*7C
$GNVTG,,T,,M,0.033,N,0.061,K,A*3A
$GNGNS,063600.00,0438.24095,S,05528.21656,E,AA,12,0.82,18.6,-46.7,,*61
$GNGGA,063600.00,0438.24095,S,05528.21656,E,1,12,0.82,18.6,M,-46.7,M,,*4B
$GNGSA,A,3,25,12,05,15,18,20,23,24,,,,,1.75,0.82,1.55*1D
$GNGSA,A,3,88,77,76,65,,,,,,,,,1.75,0.82,1.55*16
$GPGSV,4,1,14,05,55,055,36,12,62,031,42,13,14,125,,15,34,158,19*7C
$GPGSV,4,2,14,18,34,269,28,20,21,037,38,23,29,206,32,24,43,193,38*73
$GPGSV,4,3,14,25,39,344,36,29,10,331,15,36,52,277,32,40,86,354,40*72
$GPGSV,4,4,14,41,57,081,34,49,32,274,*78
$GLGSV,3,1,10,65,32,142,07,66,13,191,,72,16,083,,75,10,155,*64
$GLGSV,3,2,10,76,70,155,35,77,58,332,33,78,01,334,,81,09,260,*65
$GLGSV,3,3,10,87,05,007,,88,20,311,20*6A
$GNGLL,0438.24095,S,05528.21656,E,063600.00,A,A*60
$GNGRS,063600.00,1,1.5,-1.9,3.8,-9.5,9.4,-0.5,2.4,-2.4,,,,*50
$GNGRS,063600.00,1,-8.5,-1.8,4.4,0.7,,,,,,,,*50
$GNGST,063600.00,86543,,,,1.7,2.4,4.4*76
$GNZDA,063600.00,16,05,2025,00,00*7C
$GNGBS,063600.00,1.7,2.4,4.4,,,,*5C
$GNTXT,01,01,01,More than 100 frame errors, UART RX was disabled*70
b0(*"77(>/}"p"&%#u&+)%'X
K{ 4(Vb#9Q A
 BHSK
L#FM!:LGNNQW
X7b]b*Bjy$GNRMC,063601.00,A,0438.24095,S,05528.21653,E,0.082,,160525,,,A*72
$GNVTG,,T,,M,0.082,N,0.151,K,A*32
$GNGNS,063601.00,0438.24095,S,05528.21653,E,AA,12,0.89,18.5,-46.7,,*6D
$GNGGA,063601.00,0438.24095,S,05528.21653,E,1,12,0.89,18.5,M,-46.7,M,,*47
$GNGSA,A,3,25,12,05,15,18,20,23,24,,,,,1.85,0.89,1.62*1D
$GNGSA,A,3,88,77,76,65,,,,,,,,,1.85,0.89,1.62*16
$GPGSV,4,1,14,05,55,055,34,12,62,031,40,13,14,125,,15,34,158,18*7D
$GPGSV,4,2,14,18,34,269,29,20,21,037,38,23,29,206,35,24,43,193,38*75
$GPGSV,4,3,14,25,39,344,37,29,10,331,15,36,52,277,32,40,86,354,40*73
$GPGSV,4,4,14,41,57,081,35,49,32,274,*79
$GLGSV,3,1,10,65,32,142,10,66,13,191,,72,16,083,,75,10,155,*62
$GLGSV,3,2,10,76,70,155,35,77,58,332,33,78,01,334,,81,09,260,*65
$GLGSV,3,3,10,87,05,007,,88,20,311,18*61
$GNGLL,0438.24095,S,05528.21653,E,063601.00,A,A*64
$GNGRS,063601.00,1,1.5,-2.1,3.9,-11.7,9.7,-0.5,1.2,-2.2,,,,*60
$GNGRS,063601.00,1,-8.9,-1.8,3.9,-69.9,,,,,,,,*4B
$GNGST,063601.00,29,,,,1.7,2.4,4.4*40
$GNZDA,063601.00,16,05,2025,00,00*7D
$GNGBS,063601.00,1.7,2.4,4.4,,,,*5D
$GNTXT,01,01,01,More than 100 frame errors, UART RX was disabled*70
b0(*$77z)>}""%%J$+%'X
K{#4'Vb%9Q A
 LBHSK
L%F<M!:LNNQW
X7pRlb*Brn$GNRMC,063602.00,A,0438.24097,S,05528.21652,E,0.039,,160525,,,A*72
$GNVTG,,T,,M,0.039,N,0.072,K,A*32
$GNGNS,063602.00,0438.24097,S,05528.21652,E,AA,12,0.82,18.5,-46.7,,*66
$GNGGA,063602.00,0438.24097,S,05528.21652,E,1,12,0.82,18.5,M,-46.7,M,,*4C
$GNGSA,A,3,25,12,05,15,18,20,23,24,,,,,1.75,0.82,1.55*1D
$GNGSA,A,3,88,77,76,65,,,,,,,,,1.75,0.82,1.55*16
$GPGSV,4,1,14,05,55,055,36,12,62,031,41,13,14,125,,15,34,158,18*7E
$GPGSV,4,2,14,18,34,269,29,20,21,037,37,23,29,206,31,24,43,193,36*70
$GPGSV,4,3,14,25,39,344,37,29,10,331,15,36,52,277,35,40,86,354,39*7A
$GPGSV,4,4,14,41,57,081,37,49,32,274,*7B
$GLGSV,3,1,10,65,32,142,10,66,13,191,,72,16,083,,75,10,155,*62
$GLGSV,3,2,10,76,70,155,37,77,58,332,33,78,01,334,,81,09,260,*67
$GLGSV,3,3,10,87,05,007,,88,20,311,20*6A
$GNGLL,0438.24097,S,05528.21652,E,063602.00,A,A*64
$GNGRS,063602.00,1,1.4,-2.3,3.8,-10.9,10.3,-0.4,3.3,-2.5,,,,*57
$GNGRS,063602.00,1,-9.1,-0.6,3.2,3.3,,,,,,,,*5E
$GNGST,063602.00,3434011,,,,1.7,2.4,4.4*78
$GNZDA,063602.00,16,05,2025,00,00*7E
$GNGBS,063602.00,1.7,2.4,4.4,,,,*5E
$GNTXT,01,01,01,More than 100 frame errors, UART RX was disabled*70
b0(*#77(>7}"h"[%%%+%'X}
K{"4'Vb$9Q A ?BHSK
L#FM:LNNQW
X7D
b*BZriI$GNRMC,063603.00,A,0438.24097,S,05528.21648,E,0.017,,160525,,,A*74
$GNVTG,,T,,M,0.017,N,0.031,K,A*39
$GNGNS,063603.00,0438.24097,S,05528.21648,E,AA,12,0.82,18.4,-46.7,,*6D
$GNGGA,063603.00,0438.24097,S,05528.21648,E,1,12,0.82,18.4,M,-46.7,M,,*47
$GNGSA,A,3,25,12,05,15,18,20,23,24,,,,,1.75,0.82,1.55*1D
$GNGSA,A,3,88,77,76,65,,,,,,,,,1.75,0.82,1.55*16
$GPGSV,4,1,14,05,55,055,35,12,62,031,40,13,14,125,,15,34,158,16*72
$GPGSV,4,2,14,18,34,269,29,20,21,037,37,23,29,206,30,24,43,193,37*70
$GPGSV,4,3,14,25,39,344,37,29,10,331,12,36,52,277,34,40,86,354,39*7C
$GPGSV,4,4,14,41,57,081,36,49,32,274,*7A
$GLGSV,3,1,10,65,32,142,08,66,13,191,,72,16,083,,75,10,155,*6B
$GLGSV,3,2,10,76,70,155,35,77,58,332,31,78,01,334,,81,09,260,*67
$GLGSV,3,3,10,87,05,007,,88,20,311,19*60
$GNGLL,0438.24097,S,05528.21648,E,063603.00,A,A*6E
$GNGRS,063603.00,1,1.2,-2.0,3.8,-9.2,11.1,-0.6,9.9,-2.8,,,,*6C
$GNGRS,063603.00,1,-7.0,1.6,2.6,3.2,,,,,,,,*78
$GNGST,063603.00,3434011,,,,1.7,2.4,4.4*79
$GNZDA,063603.00,16,05,2025,00,00*7F
$GNGBS,063603.00,1.7,2.4,4.4,,,,*5F
b0(p*$77)>l}""'%'+%'X[
K{"4(Vb&9Q A BHSK
L$FM :L
NNQW
X70Qbp*BBvA$GNRMC,063604.00,A,0438.24094,S,05528.21645,E,0.042,,160525,,,A*7D
$GNVTG,,T,,M,0.042,N,0.078,K,A*34
$GNGNS,063604.00,0438.24094,S,05528.21645,E,AA,12,0.89,18.4,-46.7,,*6F
$GNGGA,063604.00,0438.24094,S,05528.21645,E,1,12,0.89,18.4,M,-46.7,M,,*45
$GNGSA,A,3,25,12,05,15,18,20,23,24,,,,,1.84,0.89,1.62*1C
$GNGSA,A,3,88,77,76,65,,,,,,,,,1.84,0.89,1.62*17
$GPGSV,4,1,14,05,55,055,36,12,62,031,41,13,14,125,,15,34,158,17*71
$GPGSV,4,2,14,18,34,269,29,20,21,037,39,23,29,206,31,24,43,193,39*71
$GPGSV,4,3,14,25,39,344,37,29,10,331,09,36,52,277,34,40,86,354,40*78
$GPGSV,4,4,14,41,57,081,38,49,32,274,*74
$GLGSV,3,1,10,65,32,142,12,66,13,191,,72,16,083,,75,10,155,*60
$GLGSV,3,2,10,76,70,155,36,77,58,332,32,78,01,334,,81,09,260,*67
$GLGSV,3,3,10,87,05,007,,88,20,311,21*6B
$GNGLL,0438.24094,S,05528.21645,E,063604.00,A,A*67
$GNGRS,063604.00,1,0.9,-1.5,4.0,-7.9,6.6,-0.8,7.3,-3.1,,,,*5E
$GNGRS,063604.00,1,-7.2,5.2,2.2,-46.5,,,,,,,,*62
$GNGST,063604.00,31,,,,1.6,2.4,4.4*4D
$GNZDA,063604.00,16,05,2025,00,00*78
$GNGBS,063604.00,1.6,2.4,4.4,,,,*59
$GNTXT,01,01,01,More than 100 frame errors, UART RX was disabled*70
b0(X*$77{)>}""&% &+%'XW
K{"4(Vb%9Q A IBHSK
L%FM!:LNNQW
X7-c(bX*B*z$GNRMC,063605.00,A,0438.24090,S,05528.21643,E,0.085,,160525,,,A*75
$GNVTG,,T,,M,0.085,N,0.157,K,A*33
$GNGNS,063605.00,0438.24090,S,05528.21643,E,AA,12,0.82,18.6,-46.7,,*65
$GNGGA,063605.00,0438.24090,S,05528.21643,E,1,12,0.82,18.6,M,-46.7,M,,*4F
$GNGSA,A,3,25,12,05,15,18,20,23,24,,,,,1.75,0.82,1.55*1D
$GNGSA,A,3,88,77,76,65,,,,,,,,,1.75,0.82,1.55*16
$GPGSV,4,1,14,05,55,055,36,12,62,031,41,13,14,125,,15,34,158,19*7F
$GPGSV,4,2,14,18,34,269,30,20,21,037,38,23,29,206,32,24,43,193,38*7A
$GPGSV,4,3,14,25,39,344,37,29,10,331,15,36,52,277,34,40,86,354,40*75
$GPGSV,4,4,14,41,57,081,37,49,32,274,*7B
$GLGSV,3,1,10,65,32,142,12,66,13,191,,72,16,083,,75,10,155,*60
$GLGSV,3,2,10,76,70,155,37,77,58,332,33,78,01,334,,81,09,260,*67
$GLGSV,3,3,10,87,05,007,,88,20,311,24*6E
$GNGLL,0438.24090,S,05528.21643,E,063605.00,A,A*64
$GNGRS,063605.00,1,0.9,-1.0,3.8,-11.2,5.1,-1.1,4.0,-3.3,,,,*67
$GNGRS,063605.00,1,-7.2,7.5,2.0,3.3,,,,,,,,*7E
$GNGST,063605.00,3434011,,,,1.6,2.4,4.3*79
$GNZDA,063605.00,16,05,2025,00,00*79
$GNGBS,063605.00,1.6,2.4,4.3,,,,*5F
$GNTXT,01,01,01,More than 100 frame errors, UART RX was disabled*70
b0(@*&77u'>}""'% '+$'XR
K{"4(Vb%9Q A :BHSK
L&FM!:L`NNQW
X79db@*B~$GNRMC,063606.00,A,0438.24085,S,05528.21645,E,0.042,,160525,,,A*7F
$GNVTG,,T,,M,0.042,N,0.078,K,A*34
$GNGNS,063606.00,0438.24085,S,05528.21645,E,AA,12,0.82,18.8,-46.7,,*6A
$GNGGA,063606.00,0438.24085,S,05528.21645,E,1,12,0.82,18.8,M,-46.7,M,,*40
$GNGSA,A,3,25,12,05,15,18,20,23,24,,,,,1.75,0.82,1.55*1D
$GNGSA,A,3,88,77,76,65,,,,,,,,,1.75,0.82,1.55*16
$GPGSV,4,1,14,05,55,055,38,12,62,031,39,13,14,125,,15,34,158,20*74
$GPGSV,4,2,14,18,34,269,30,20,21,037,39,23,29,206,32,24,43,193,39*7A
$GPGSV,4,3,14,25,39,344,36,29,10,331,16,36,52,277,34,40,86,354,40*77
$GPGSV,4,4,14,41,57,081,37,49,32,274,*7B
$GLGSV,3,1,10,65,32,142,15,66,13,191,,72,16,083,21,75,10,155,*64
$GLGSV,3,2,10,76,70,155,38,77,58,332,33,78,01,334,,81,09,260,*68
$GLGSV,3,3,10,87,05,007,,88,20,311,25*6F
$GNGLL,0438.24085,S,05528.21645,E,063606.00,A,A*65
$GNGRS,063606.00,1,0.8,-0.7,3.7,-12.9,4.4,-1.3,6.7,-3.5,,,,*61
$GNGRS,063606.00,1,-7.1,1.0,1.4,3.1,,,,,,,,*78
$GNGST,063606.00,3434011,,,,1.6,2.4,4.3*7A
$GNZDA,063606.00,16,05,2025,00,00*7A
$GNGBS,063606.00,1.6,2.4,4.3,,,,*5C
$GNTXT,01,01,01,More than 100 frame errors, UART RX was disabled*70
b0((*"77\'>}""'%x R%+%'X8
K{"4'Vb'9Q A BHSK
L$FbM :LQNNQW
X7
b(*B$GNRMC,063607.00,A,0438.24083,S,05528.21641,E,0.061,,160525,,,A*7D
$GNVTG,,T,,M,0.061,N,0.114,K,A*3E
$GNGNS,063607.00,0438.24083,S,05528.21641,E,AA,12,0.89,18.8,-46.7,,*62
$GNGGA,063607.00,0438.24083,S,05528.21641,E,1,12,0.89,18.8,M,-46.7,M,,*48
$GNGSA,A,3,25,12,05,15,18,20,23,24,,,,,1.84,0.89,1.61*1F
$GNGSA,A,3,88,77,76,65,,,,,,,,,1.84,0.89,1.61*14
$GPGSV,4,1,14,05,55,055,34,12,62,031,39,13,14,125,,15,34,158,21*79
$GPGSV,4,2,14,18,34,269,30,20,21,037,39,23,29,206,32,24,43,193,37*74
$GPGSV,4,3,14,25,39,344,37,29,10,331,16,36,52,277,34,40,86,354,39*78
$GPGSV,4,4,14,41,57,081,39,49,32,274,*75
$GLGSV,3,1,10,65,32,142,14,66,13,191,,72,16,083,21,75,10,155,*65
$GLGSV,3,2,10,76,70,155,36,77,58,332,32,78,01,334,,81,09,260,*67
$GLGSV,3,3,10,87,05,007,,88,20,311,22*68
$GNGLL,0438.24083,S,05528.21641,E,063607.00,A,A*66
$GNGRS,063607.00,1,0.6,-0.2,3.5,-12.7,7.6,-1.4,8.5,-3.3,,,,*6B
$GNGRS,063607.00,1,-5.0,-1.7,1.0,-28.0,,,,,,,,*41
$GNGST,063607.00,27,,,,1.6,2.4,4.3*4E
$GNZDA,063607.00,16,05,2025,00,00*7B
$GNGBS,063607.00,1.6,2.4,4.3,,,,*5D
$GNTXT,01,01,01,More than 100 frame errors, UART RX was disabled*70
b0(*"77P'>}""('%X3&+%'XF
K{"4&Vb'9Q A EBHSK
L(F.M!:LNNQW
X7b*BN$GNRMC,063608.00,A,0438.24080,S,05528.21635,E,0.094,,160525,,,A*78
$GNVTG,,T,,M,0.094,N,0.173,K,A*35
$GNGNS,063608.00,0438.24080,S,05528.21635,E,AA,12,0.82,18.9,-46.7,,*67
$GNGGA,063608.00,0438.24080,S,05528.21635,E,1,12,0.82,18.9,M,-46.7,M,,*4D
$GNGSA,A,3,25,12,05,15,18,20,23,24,,,,,1.75,0.82,1.55*1D
$GNGSA,A,3,88,77,76,65,,,,,,,,,1.75,0.82,1.55*16
$GPGSV,4,1,14,05,55,055,34,12,62,031,39,13,14,125,,15,34,158,20*78
$GPGSV,4,2,14,18,34,269,28,20,21,037,39,23,29,206,31,24,43,193,38*71
$GPGSV,4,3,14,25,39,344,37,29,10,331,16,36,52,277,34,40,86,354,38*79
$GPGSV,4,4,14,41,57,081,39,49,32,274,*75
$GLGSV,3,1,10,65,32,142,16,66,13,191,,72,16,083,23,75,10,155,*65
$GLGSV,3,2,10,76,70,155,40,77,58,332,33,78,01,334,,81,09,260,*67
$GLGSV,3,3,10,87,05,007,,88,20,311,22*68
$GNGLL,0438.24080,S,05528.21635,E,063608.00,A,A*69
$GNGRS,063608.00,1,0.7,0.0,3.4,-10.8,15.8,-1.7,8.2,-3.2,,,,*7E
$GNGRS,063608.00,1,-5.1,-3.6,0.5,3.2,,,,,,,,*5E
$GNGST,063608.00,3434011,,,,1.6,2.4,4.2*75
$GNZDA,063608.00,16,05,2025,00,00*74
$GNGBS,063608.00,1.6,2.4,4.2,,,,*53
$GNTXT,01,01,01,More than 100 frame errors, UART RX was disabled*70
b0(*!77+%>}""'%}D&+$'XN
K{!4$Vb'9Q A ?BHSK
L)FM!:LpNNQW
X7i:b*Bw$GNRMC,063609.00,A,0438.24075,S,05528.21630,E,0.096,,160525,,,A*74
$GNVTG,,T,,M,0.096,N,0.177,K,A*33
$GNGNS,063609.00,0438.24075,S,05528.21630,E,AA,12,0.82,19.0,-46.7,,*61
$GNGGA,063609.00,0438.24075,S,05528.21630,E,1,12,0.82,19.0,M,-46.7,M,,*4B
$GNGSA,A,3,25,12,05,15,18,20,23,24,,,,,1.75,0.82,1.55*1D
$GNGSA,A,3,88,77,76,65,,,,,,,,,1.75,0.82,1.55*16
$GPGSV,4,1,14,05,55,055,33,12,62,031,37,13,14,125,,15,34,158,20*71
$GPGSV,4,2,14,18,34,269,27,20,21,037,39,23,29,206,31,24,43,193,38*7E
$GPGSV,4,3,14,25,39,344,36,29,10,331,17,36,52,277,33,40,86,354,36*70
$GPGSV,4,4,14,41,57,081,39,49,32,274,*75
$GLGSV,3,1,10,65,32,142,13,66,13,191,,72,16,083,23,75,10,155,*60
$GLGSV,3,2,10,76,70,155,41,77,58,332,33,78,01,334,,81,09,260,*66
$GLGSV,3,3,10,87,05,007,,88,20,311,21*6B
$GNGLL,0438.24075,S,05528.21630,E,063609.00,A,A*67
$GNGRS,063609.00,1,0.8,0.2,3.0,-8.7,12.0,-1.3,5.8,-3.3,,,,*4D
$GNGRS,063609.00,1,-4.1,-1.4,0.1,3.2,,,,,,,,*5A
$GNGST,063609.00,3434011,,,,1.6,2.4,4.2*74
$GNZDA,063609.00,16,05,2025,00,00*75
$GNGBS,063609.00,1.6,2.4,4.2,,,,*52
$GNTXT,01,01,01,More than 100 frame errors, UART RX was disabled*70
b0(*"77&>1}""'%'+%'X4
K{"4&Vb'9Q A UBHSK
L(FM":LNNQW
X7<b*BO$GNRMC,063610.00,A,0438.24068,S,05528.21623,E,0.032,,160525,,,A*7C
$GNVTG,,T,,M,0.032,N,0.060,K,A*3A
$GNGNS,063610.00,0438.24068,S,05528.21623,E,AA,12,0.89,19.0,-46.7,,*6C
$GNGGA,063610.00,0438.24068,S,05528.21623,E,1,12,0.89,19.0,M,-46.7,M,,*46
$GNGSA,A,3,25,12,05,15,18,20,23,24,,,,,1.84,0.89,1.61*1F
$GNGSA,A,3,88,77,76,65,,,,,,,,,1.84,0.89,1.61*14
$GPGSV,4,1,14,05,55,055,34,12,62,031,38,13,14,125,,15,34,158,21*78
$GPGSV,4,2,14,18,34,269,28,20,21,037,39,23,29,206,31,24,43,193,39*70
$GPGSV,4,3,14,25,39,344,37,29,10,331,17,36,52,277,34,40,86,354,38*78
$GPGSV,4,4,14,41,57,081,39,49,32,274,*75
$GLGSV,3,1,10,65,32,142,15,66,13,191,,72,16,083,22,75,10,155,*67
$GLGSV,3,2,10,76,70,155,40,77,58,332,34,78,01,334,,81,09,260,*60
$GLGSV,3,3,10,87,05,007,,88,20,311,20*6A
$GNGLL,0438.24068,S,05528.21623,E,063610.00,A,A*61
$GNGRS,063610.00,1,0.5,0.5,2.6,-5.0,19.4,-1.2,4.8,-3.2,,,,*4C
$GNGRS,063610.00,1,-6.3,2.4,-0.3,-22.2,,,,,,,,*4D
$GNGST,063610.00,26,,,,1.6,2.4,4.2*48
$GNZDA,063610.00,16,05,2025,00,00*7D
$GNGBS,063610.00,1.6,2.4,4.2,,,,*5A
$GNTXT,01,01,01,More than 100 frame errors, UART RX was disabled*70
b0(*!77&>I}"+"'% '+%'X\
K{"4&Vb(9Q A JBHSK
L)FM":LINNQW
X71zb*B'w$GNRMC,063611.00,A,0438.24062,S,05528.21621,E,0.053,,160525,,,A*72
$GNVTG,,T,,M,0.053,N,0.098,K,A*3A
$GNGNS,063611.00,0438.24062,S,05528.21621,E,AA,12,0.92,19.1,-46.7,,*6E
$GNGGA,063611.00,0438.24062,S,05528.21621,E,1,12,0.92,19.1,M,-46.7,M,,*44
$GNGSA,A,3,25,12,05,15,18,20,23,24,,,,,1.80,0.92,1.55*16
$GNGSA,A,3,88,77,76,65,,,,,,,,,1.80,0.92,1.55*1D
$GPGSV,4,1,14,05,55,055,33,12,62,031,38,13,14,125,,15,34,158,21*7F
$GPGSV,4,2,14,18,34,269,27,20,21,037,39,23,29,206,32,24,43,193,39*7C
$GPGSV,4,3,14,25,39,344,37,29,10,331,16,36,52,277,34,40,86,354,38*79
$GPGSV,4,4,14,41,57,081,40,49,32,274,*7B
$GLGSV,3,1,10,65,32,142,15,66,13,191,,72,16,083,23,75,10,155,*66
$GLGSV,3,2,10,76,70,155,41,77,58,332,34,78,01,334,,81,09,260,*61
$GLGSV,3,3,10,87,05,007,,88,20,311,21*6B
$GNGLL,0438.24062,S,05528.21621,E,063611.00,A,A*68
$GNGRS,063611.00,1,0.9,0.7,2.4,-4.7,24.4,-0.9,6.6,-3.0,,,,*4D
$GNGRS,063611.00,1,-4.6,3.3,-0.4,3.3,,,,,,,,*55
$GNGST,063611.00,3586708,,,,1.5,2.4,4.2*79
$GNZDA,063611.00,16,05,2025,00,00*7C
$GNGBS,063611.00,1.5,2.4,4.2,,,,*58
$GNTXT,01,01,01,More than 100 frame errors, UART RX was disabled*70
b0(*"77&>V}""'%'+&'Xj
K{"4%Vb(9Q A <BHSK
L(FM":LNNQW
X7;b*B$GNRMC,063612.00,A,0438.24055,S,05528.21614,E,0.094,,160525,,,A*78
$GNVTG,,T,,M,0.094,N,0.174,K,A*32
$GNGNS,063612.00,0438.24055,S,05528.21614,E,AA,12,0.82,19.1,-46.7,,*6E
$GNGGA,063612.00,0438.24055,S,05528.21614,E,1,12,0.82,19.1,M,-46.7,M,,*44
$GNGSA,A,3,25,12,05,15,18,20,23,24,,,,,1.75,0.82,1.55*1D
$GNGSA,A,3,88,77,76,65,,,,,,,,,1.75,0.82,1.55*16
$GPGSV,4,1,14,05,55,055,34,12,62,031,38,13,14,125,,15,34,158,21*78
$GPGSV,4,2,14,18,34,269,29,20,21,037,39,23,29,206,31,24,43,193,39*71
$GPGSV,4,3,14,25,39,344,38,29,10,331,16,36,52,277,34,40,86,354,37*79
$GPGSV,4,4,14,41,57,081,40,49,32,274,*7B
$GLGSV,3,1,10,65,32,142,12,66,13,191,,72,16,083,23,75,10,155,*61
$GLGSV,3,2,10,76,70,155,40,77,58,332,34,78,01,334,,81,09,260,*60
$GLGSV,3,3,10,87,05,007,,88,20,311,22*68
$GNGLL,0438.24055,S,05528.21614,E,063612.00,A,A*69
$GNGRS,063612.00,1,1.1,0.9,2.2,-3.7,12.2,-1.0,8.0,-3.0,,,,*4B
$GNGRS,063612.00,1,-4.5,-1.2,-0.8,3.2,,,,,,,,*76
$GNGST,063612.00,3434011,,,,1.5,2.4,4.1*7E
$GNZDA,063612.00,16,05,2025,00,00*7F
$GNGBS,063612.00,1.5,2.4,4.1,,,,*58
$GNTXT,01,01,01,More than 100 frame errors, UART RX was disabled*70
b0(*%77&>b}"E "8'%'+&'XZ
K{"4'Vb(9Q A BHSK
L%FM":LNNQW
X7b*BjG$GNRMC,063613.00,A,0438.24050,S,05528.21611,E,0.068,,160525,,,A*7A
$GNVTG,,T,,M,0.068,N,0.126,K,A*36
$GNGNS,063613.00,0438.24050,S,05528.21611,E,AA,12,0.82,19.2,-46.7,,*6C
$GNGGA,063613.00,0438.24050,S,05528.21611,E,1,12,0.82,19.2,M,-46.7,M,,*46
$GNGSA,A,3,25,12,05,15,18,20,23,24,,,,,1.75,0.82,1.55*1D
$GNGSA,A,3,88,77,76,65,,,,,,,,,1.75,0.82,1.55*16
$GPGSV,4,1,14,05,55,055,37,12,62,031,38,13,14,125,,15,34,158,22*78
$GPGSV,4,2,14,18,34,269,32,20,21,037,39,23,29,206,31,24,43,193,39*7B
$GPGSV,4,3,14,25,39,344,38,29,10,331,16,36,52,277,34,40,86,354,39*77
$GPGSV,4,4,14,41,57,081,40,49,32,274,*7B
$GLGSV,3,1,10,65,32,142,14,66,13,191,,72,16,083,23,75,10,155,*67
$GLGSV,3,2,10,76,70,155,37,77,58,332,34,78,01,334,,81,09,260,*60
$GLGSV,3,3,10,87,05,007,,88,20,311,20*6A
$GNGLL,0438.24050,S,05528.21611,E,063613.00,A,A*68
$GNGRS,063613.00,1,0.9,1.0,2.0,-7.0,8.2,-1.0,10.5,-3.0,,,,*4D
$GNGRS,063613.00,1,-5.0,-3.5,-1.0,-5.5,,,,,,,,*53
$GNGST,063613.00,40,,,,1.5,2.4,4.1*4B
$GNZDA,063613.00,16,05,2025,00,00*7E
$GNGBS,063613.00,1.5,2.4,4.1,,,,*59
$GNTXT,01,01,01,More than 100 frame errors, UART RX was disabled*70
b0(*%77'>Y}"""7&%#%+&'X?
K{!4(Vb'9Q A 9BHSK
L%FM":L1NNQW
X7<b*BR$GNRMC,063614.00,A,0438.24048,S,05528.21611,E,0.023,,160525,,,A*7B
$GNVTG,,T,,M,0.023,N,0.043,K,A*3B
$GNGNS,063614.00,0438.24048,S,05528.21611,E,AA,11,0.89,19.2,-46.7,,*6A
$GNGGA,063614.00,0438.24048,S,05528.21611,E,1,11,0.89,19.2,M,-46.7,M,,*40
$GNGSA,A,3,25,12,05,15,18,20,23,24,,,,,1.94,0.89,1.73*1D
$GNGSA,A,3,77,76,65,,,,,,,,,,1.94,0.89,1.73*16
$GPGSV,4,1,14,05,55,055,37,12,62,031,39,13,14,125,,15,34,158,22*79
$GPGSV,4,2,14,18,34,269,34,20,21,037,38,23,29,206,31,24,43,193,37*72
$GPGSV,4,3,14,25,39,344,38,29,10,331,,36,52,277,33,40,86,354,40*79
$GPGSV,4,4,14,41,57,081,39,49,32,274,*75
$GLGSV,3,1,10,65,32,142,11,66,13,191,,72,16,083,22,75,10,155,*63
$GLGSV,3,2,10,76,70,155,37,77,58,332,34,78,01,334,,81,09,260,*60
$GLGSV,3,3,10,87,05,007,,88,20,311,17*6E
$GNGLL,0438.24048,S,05528.21611,E,063614.00,A,A*66
$GNGRS,063614.00,1,0.6,0.9,1.9,-11.5,3.1,-0.9,8.0,-3.1,,,,*48
$GNGRS,063614.00,1,-7.2,-1.1,3.1,,,,,,,,,*7F
$GNGST,063614.00,104853,,,,1.5,2.4,4.1*43
$GNZDA,063614.00,16,05,2025,00,00*79
$GNGBS,063614.00,1.5,2.4,4.1,88,,-0.1,71.7*43
$GNTXT,01,01,01,More than 100 frame errors, UART RX was disabled*70
b0(h*#77%>M}" "%%#+%'X
K{4&Vb&9Q A &BHSK
L#FM":LNNQW
X7@bh*B:$GNRMC,063615.00,A,0438.24049,S,05528.21612,E,0.049,,160525,,,A*74
$GNVTG,,T,,M,0.049,N,0.091,K,A*38
$GNGNS,063615.00,0438.24049,S,05528.21612,E,AA,11,0.89,19.2,-46.7,,*69
$GNGGA,063615.00,0438.24049,S,05528.21612,E,1,11,0.89,19.2,M,-46.7,M,,*43
$GNGSA,A,3,25,12,05,15,18,20,23,24,,,,,1.94,0.89,1.73*1D
$GNGSA,A,3,77,76,65,,,,,,,,,,1.94,0.89,1.73*16
$GPGSV,4,1,14,05,55,055,35,12,62,031,37,13,14,125,,15,34,158,20*77
$GPGSV,4,2,14,18,34,269,32,20,21,037,37,23,29,206,30,24,43,193,35*78
$GPGSV,4,3,14,25,39,344,37,29,10,331,,36,52,277,31,40,86,354,38*7B
$GPGSV,4,4,14,41,57,081,38,49,32,274,*74
$GLGSV,3,1,10,65,32,142,07,66,13,191,,72,16,083,21,75,10,155,*67
$GLGSV,3,2,10,76,70,155,35,77,58,332,34,78,01,334,,81,09,260,*62
$GLGSV,3,3,10,87,05,007,,88,20,311,11*68
$GNGLL,0438.24049,S,05528.21612,E,063615.00,A,A*65
$GNGRS,063615.00,1,0.2,0.8,1.7,-13.9,0.1,-0.9,4.9,-3.2,,,,*49
$GNGRS,063615.00,1,-7.8,-0.9,2.9,,,,,,,,,*74
$GNGST,063615.00,151857,,,,1.5,2.4,4.1*46
$GNZDA,063615.00,16,05,2025,00,00*78
$GNGBS,063615.00,1.5,2.4,4.1,88,,-13.0,100.3*42
$GNTXT,01,01,01,More than 100 frame errors, UART RX was disabled*70
b0(P*!77#>8}"i$"'%<$+%'X
K{4'Vb&9Q A "BHSK
L"FM":LJNNQW
X7PbP*B"_$GNRMC,063616.00,A,0438.24050,S,05528.21615,E,0.088,,160525,,,A*75
$GNVTG,,T,,M,0.088,N,0.162,K,A*38
$GNGNS,063616.00,0438.24050,S,05528.21615,E,AA,11,0.89,19.3,-46.7,,*64
$GNGGA,063616.00,0438.24050,S,05528.21615,E,1,11,0.89,19.3,M,-46.7,M,,*4E
$GNGSA,A,3,25,12,05,15,18,20,23,24,,,,,1.94,0.89,1.73*1D
$GNGSA,A,3,77,76,65,,,,,,,,,,1.94,0.89,1.73*16
$GPGSV,4,1,14,05,55,055,33,12,62,031,35,13,14,125,,15,34,158,19*79
$GPGSV,4,2,14,18,34,269,36,20,21,037,39,23,29,206,30,24,43,193,36*71
$GPGSV,4,3,14,25,39,344,37,29,10,331,,36,52,277,30,40,86,354,39*7B
$GPGSV,4,4,14,41,57,081,38,49,32,274,*74
$GLGSV,3,1,10,65,32,142,11,66,13,191,,72,16,083,22,75,10,155,*63
$GLGSV,3,2,10,76,70,155,34,77,58,332,34,78,01,334,,81,09,260,*63
$GLGSV,3,3,10,87,05,007,,88,20,311,08*60
$GNGLL,0438.24050,S,05528.21615,E,063616.00,A,A*69
$GNGRS,063616.00,1,0.2,0.6,1.4,-14.3,-2.4,-0.9,3.2,-2.9,,,,*66
$GNGRS,063616.00,1,-6.9,-0.7,-4.8,,,,,,,,,*53
$GNGST,063616.00,42,,,,1.5,2.4,4.2*4F
$GNZDA,063616.00,16,05,2025,00,00*7B
$GNGBS,063616.00,1.5,2.4,4.2,88,,-23.7,111.9*4C
$GNTXT,01,01,01,More than 100 frame errors, UART RX was disabled*70
b0(8*#77&>8}"+&")%;#+)%'X
K{4)Vb(9Q A 9BHSK
L"FM":LNNQW
X7_b8*B
7$GNRMC,063617.00,A,0438.24050,S,05528.21622,E,0.096,,160525,,,A*7F
$GNVTG,,T,,M,0.096,N,0.179,K,A*3D
$GNGNS,063617.00,0438.24050,S,05528.21622,E,AA,11,0.89,19.3,-46.7,,*61
$GNGGA,063617.00,0438.24050,S,05528.21622,E,1,11,0.89,19.3,M,-46.7,M,,*4B
$GNGSA,A,3,25,12,05,15,18,20,23,24,,,,,1.94,0.89,1.73*1D
$GNGSA,A,3,77,76,65,,,,,,,,,,1.94,0.89,1.73*16
$GPGSV,4,1,14,05,55,055,35,12,62,031,38,13,14,125,,15,34,158,20*78
$GPGSV,4,2,14,18,34,269,38,20,21,037,41,23,29,206,31,24,43,193,35*72
$GPGSV,4,3,14,25,39,344,37,29,10,331,,36,52,277,28,40,86,354,41*7D
$GPGSV,4,4,14,41,57,081,40,49,32,274,*7B
$GLGSV,3,1,10,65,32,142,15,66,13,191,,72,16,083,22,75,10,155,*67
$GLGSV,3,2,10,76,70,155,34,77,58,332,34,78,01,334,,81,09,260,*63
$GLGSV,3,3,10,87,05,007,,88,20,311,06*6E
$GNGLL,0438.24050,S,05528.21622,E,063617.00,A,A*6C
$GNGRS,063617.00,1,0.2,0.6,1.4,-12.4,-2.3,-0.9,3.2,-2.2,,,,*6A
$GNGRS,063617.00,1,-7.7,-0.7,3.1,,,,,,,,,*7E
$GNGST,063617.00,94006,,,,1.5,2.3,4.1*77
$GNZDA,063617.00,16,05,2025,00,00*7A
$GNGBS,063617.00,1.5,2.3,4.1,,,,*5A
$GNTXT,01,01,01,More than 100 frame errors, UART RX was disabled*70
b0( *$77x%>;}"&"(%#+Z%'X
K{4(Vb'9Q A
 BHSK
L#EM!:L"NNQW
X7Qx+b *BL$GNRMC,063618.00,A,0438.24049,S,05528.21626,E,0.067,,160525,,,A*72
$GNVTG,,T,,M,0.067,N,0.124,K,A*3B
$GNGNS,063618.00,0438.24049,S,05528.21626,E,AA,12,0.89,19.4,-46.7,,*66
$GNGGA,063618.00,0438.24049,S,05528.21626,E,1,12,0.89,19.4,M,-46.7,M,,*4C
$GNGSA,A,3,25,12,05,15,18,20,23,24,,,,,1.94,0.89,1.73*1D
$GNGSA,A,3,88,77,76,65,,,,,,,,,1.94,0.89,1.73*16
$GPGSV,4,1,14,05,55,055,36,12,62,031,37,13,14,125,,15,34,158,17*70
$GPGSV,4,2,14,18,34,269,38,20,21,037,40,23,29,206,23,24,43,193,35*70
$GPGSV,4,3,14,25,39,344,37,29,10,331,,36,52,277,29,40,86,354,40*7D
$GPGSV,4,4,14,41,57,081,39,49,32,274,*75
$GLGSV,3,1,10,65,32,142,10,66,13,191,,72,16,083,22,75,10,155,*62
$GLGSV,3,2,10,76,69,156,35,77,58,332,33,78,01,334,,81,09,260,*6E
$GLGSV,3,3,10,87,05,007,,88,20,311,08*60
$GNGLL,0438.24049,S,05528.21626,E,063618.00,A,A*6F
$GNGRS,063618.00,1,-0.2,0.6,1.2,-13.6,-0.9,-0.8,7.2,-1.7,,,,*46
$GNGRS,063618.00,1,23.9,-7.3,-0.4,2.9,,,,,,,,*69
$GNGST,063618.00,137394,,,,1.6,2.3,4.2*48
$GNZDA,063618.00,16,05,2025,00,00*75
$GNGBS,063618.00,1.6,2.3,4.2,,,,*55
$GNTXT,01,01,01,More than 100 frame errors, UART RX was disabled*70
b0(*#77j#>d}"#"_'%$+i$'X
K{4'Vb&9Q A &BHSK
L#EM!:L/NNQW
X7/b*B$GNRMC,063619.00,A,0438.24049,S,05528.21630,E,0.014,,160525,,,A*70
$GNVTG,,T,,M,0.014,N,0.025,K,A*3F
$GNGNS,063619.00,0438.24049,S,05528.21630,E,AA,12,0.82,19.4,-46.7,,*6B
$GNGGA,063619.00,0438.24049,S,05528.21630,E,1,12,0.82,19.4,M,-46.7,M,,*41
$GNGSA,A,3,25,12,05,15,18,20,23,24,,,,,1.75,0.82,1.55*1D
$GNGSA,A,3,88,77,76,65,,,,,,,,,1.75,0.82,1.55*16
$GPGSV,4,1,14,05,55,055,35,12,62,031,35,13,14,125,,15,34,158,16*70
$GPGSV,4,2,14,18,34,269,35,20,21,037,39,23,29,206,24,24,43,193,36*77
$GPGSV,4,3,14,25,39,344,36,29,10,331,,36,52,277,31,40,86,354,39*7B
$GPGSV,4,4,14,41,57,081,38,49,32,274,*74
$GLGSV,3,1,10,65,32,142,13,66,13,191,,72,16,083,22,75,10,155,*61
$GLGSV,3,2,10,76,69,156,35,77,58,332,33,78,01,334,,81,09,260,*6E
$GLGSV,3,3,10,87,05,007,,88,20,311,18*61
$GNGLL,0438.24049,S,05528.21630,E,063619.00,A,A*69
$GNGRS,063619.00,1,-0.2,1.0,1.1,-13.1,-1.6,-1.0,7.8,-1.5,,,,*4B
$GNGRS,063619.00,1,-8.5,-7.2,-0.6,2.9,,,,,,,,*73
$GNGST,063619.00,48,,,,1.6,2.3,4.2*4E
$GNZDA,063619.00,16,05,2025,00,00*74
$GNGBS,063619.00,1.6,2.3,4.2,,,,*54
$GNTXT,01,01,01,More than 100 frame errors, UART RX was disabled*70
b0(* 77t%>^}"#"'%g$+$'X
K{4'Vb%9Q A 5BHSK
L%EM":L'NNQW
X76:b*B$GNRMC,063620.00,A,0438.24050,S,05528.21632,E,0.079,,160525,,,A*7B
$GNVTG,,T,,M,0.079,N,0.147,K,A*31
$GNGNS,063620.00,0438.24050,S,05528.21632,E,AA,12,0.82,19.3,-46.7,,*6C
$GNGGA,063620.00,0438.24050,S,05528.21632,E,1,12,0.82,19.3,M,-46.7,M,,*46
$GNGSA,A,3,25,12,05,15,18,20,23,24,,,,,1.75,0.82,1.55*1D
$GNGSA,A,3,88,77,76,65,,,,,,,,,1.75,0.82,1.55*16
$GPGSV,4,1,14,05,55,055,32,12,62,031,37,13,14,125,,15,34,158,15*76
$GPGSV,4,2,14,18,34,269,35,20,21,037,39,23,29,206,26,24,43,193,36*75
$GPGSV,4,3,14,25,39,344,36,29,10,331,,36,52,277,31,40,86,354,39*7B
$GPGSV,4,4,14,41,57,081,37,49,32,274,*7B
$GLGSV,3,1,10,65,32,142,14,66,13,191,,72,16,083,23,75,10,155,*67
$GLGSV,3,2,10,76,69,156,37,77,58,332,34,78,01,334,,81,09,260,*6B
$GLGSV,3,3,10,87,05,007,,88,20,311,17*6E
$GNGLL,0438.24050,S,05528.21632,E,063620.00,A,A*69
$GNGRS,063620.00,1,-0.2,0.9,1.2,-12.9,-0.7,-0.8,13.8,-1.1,,,,*7B
$GNGRS,063620.00,1,10.3,-7.3,-0.7,3.1,,,,,,,,*62
$GNGST,063620.00,3434013,,,,1.6,2.3,4.2*7A
$GNZDA,063620.00,16,05,2025,00,00*7E
$GNGBS,063620.00,1.6,2.3,4.2,,,,*5E
$GNTXT,01,01,01,More than 100 frame errors, UART RX was disabled*70
b0(* 77$>}"P "'%&+$'X
K{4'Vb'9Q A BHSK
L'EM$:L0NNQW
X7b*Bu$GNRMC,063621.00,A,0438.24049,S,05528.21636,E,0.129,,160525,,,A*72
$GNVTG,,T,,M,0.129,N,0.238,K,A*3E
$GNGNS,063621.00,0438.24049,S,05528.21636,E,AA,12,0.82,19.3,-46.7,,*61
$GNGGA,063621.00,0438.24049,S,05528.21636,E,1,12,0.82,19.3,M,-46.7,M,,*4B
$GNGSA,A,3,25,12,05,15,18,20,23,24,,,,,1.75,0.82,1.55*1D
$GNGSA,A,3,88,77,76,65,,,,,,,,,1.75,0.82,1.55*16
$GPGSV,4,1,14,05,55,055,32,12,62,031,36,13,14,125,,15,34,158,15*77
$GPGSV,4,2,14,18,34,269,32,20,21,037,39,23,29,206,28,24,43,193,38*72
$GPGSV,4,3,14,25,39,344,36,29,10,331,,36,52,277,31,40,86,354,39*7B
$GPGSV,4,4,14,41,57,081,39,49,32,274,*75
$GLGSV,3,1,10,65,32,142,15,66,13,191,,72,16,083,22,75,10,155,*67
$GLGSV,3,2,10,76,69,156,39,77,58,332,36,78,01,334,,81,09,260,*67
$GLGSV,3,3,10,87,05,007,,88,20,311,18*61
$GNGLL,0438.24049,S,05528.21636,E,063621.00,A,A*64
$GNGRS,063621.00,1,-0.4,1.3,1.3,-12.0,-0.2,-1.2,12.7,-1.1,,,,*7F
$GNGRS,063621.00,1,9.2,-7.2,-0.5,2.8,,,,,,,,*51
$GNGST,063621.00,5193,,,,1.6,2.3,4.2*47
$GNZDA,063621.00,16,05,2025,00,00*7F
$GNGBS,063621.00,1.6,2.3,4.2,,,,*5F
$GNTXT,01,01,01,More than 100 frame errors, UART RX was disabled*70
b0(*$77&>}""j%%#m&+!'X
K{ 4'Vb9Q A BHSK
L$EM":LKNNQW
X7b*Bm$GNRMC,063622.00,A,0438.24046,S,05528.21639,E,0.033,,160525,,,A*7B
$GNVTG,,T,,M,0.033,N,0.062,K,A*39
$GNGNS,063622.00,0438.24046,S,05528.21639,E,AA,12,0.82,19.3,-46.7,,*62
$GNGGA,063622.00,0438.24046,S,05528.21639,E,1,12,0.82,19.3,M,-46.7,M,,*48
$GNGSA,A,3,25,12,05,15,18,20,23,24,,,,,1.75,0.82,1.54*1C
$GNGSA,A,3,88,77,76,65,,,,,,,,,1.75,0.82,1.54*17
$GPGSV,4,1,14,05,55,055,36,12,62,031,38,13,14,125,,15,34,158,16*7E
$GPGSV,4,2,14,18,34,269,31,20,21,037,37,23,29,206,35,24,43,193,38*73
$GPGSV,4,3,14,25,39,344,33,29,10,331,,36,52,277,32,40,86,354,39*7D
$GPGSV,4,4,14,41,57,081,30,49,32,274,*7C
$GLGSV,3,1,10,65,32,142,12,66,13,191,,72,16,083,22,75,10,155,*60
$GLGSV,3,2,10,76,69,156,36,77,58,332,34,78,01,334,,81,09,260,*6A
$GLGSV,3,3,10,87,05,007,,88,20,311,25*6F
$GNGLL,0438.24046,S,05528.21639,E,063622.00,A,A*67
$GNGRS,063622.00,1,-0.1,1.5,2.0,-11.3,1.1,-1.1,-1.5,-1.3,,,,*4C
$GNGRS,063622.00,1,9.0,-6.9,-0.7,-16.5,,,,,,,,*4D
$GNGST,063622.00,42,,,,1.6,2.3,4.2*4C
$GNZDA,063622.00,16,05,2025,00,00*7C
$GNGBS,063622.00,1.6,2.3,4.2,,,,*5C
$GNTXT,01,01,01,More than 100 frame errors, UART RX was disabled*70
b0(*$77&>}"="$%$M'+T"'X'
K{#4'Vb#9Q A DBHSK
L$EM%:LlNNQW
X7mb*BzEE$GNRMC,063623.00,A,0438.24044,S,05528.21647,E,0.085,,160525,,,A*7C
$GNVTG,,T,,M,0.085,N,0.157,K,A*33
$GNGNS,063623.00,0438.24044,S,05528.21647,E,AA,12,0.82,19.4,-46.7,,*6F
$GNGGA,063623.00,0438.24044,S,05528.21647,E,1,12,0.82,19.4,M,-46.7,M,,*45
$GNGSA,A,3,25,12,05,15,18,20,23,24,,,,,1.75,0.82,1.54*1C
$GNGSA,A,3,88,77,76,65,,,,,,,,,1.75,0.82,1.54*17
$GPGSV,4,1,14,05,55,055,36,12,62,031,38,13,14,125,,15,34,158,20*7B
$GPGSV,4,2,14,18,34,269,26,20,21,037,36,23,29,206,36,24,43,193,39*76
$GPGSV,4,3,14,25,39,344,34,29,10,331,,36,52,277,35,40,86,354,39*7D
$GPGSV,4,4,14,41,57,081,35,49,32,274,*79
$GLGSV,3,1,10,65,32,142,13,66,13,191,,72,16,083,20,75,10,155,*63
$GLGSV,3,2,10,76,69,156,36,77,58,332,37,78,01,334,,81,09,260,*69
$GLGSV,3,3,10,87,05,007,,88,20,311,26*6C
$GNGLL,0438.24044,S,05528.21647,E,063623.00,A,A*6D
$GNGRS,063623.00,1,0.4,1.9,1.8,-9.6,0.2,-1.0,-1.8,-1.7,,,,*54
$GNGRS,063623.00,1,4.9,-6.6,-0.7,3.2,,,,,,,,*59
$GNGST,063623.00,3434011,,,,1.6,2.3,4.2*7B
$GNZDA,063623.00,16,05,2025,00,00*7D
$GNGBS,063623.00,1.6,2.3,4.2,,,,*5D
$GNTXT,01,01,01,More than 100 frame errors, UART RX was disabled*70
b0(*"77U'>}""$%$h&+c#'X@
K{#4&Vb"9Q A ;BHSK
L$EM":LNNQW
X7b*Bb$GNRMC,063624.00,A,0438.24040,S,05528.21649,E,0.060,,160525,,,A*7A
$GNVTG,,T,,M,0.060,N,0.111,K,A*3A
$GNGNS,063624.00,0438.24040,S,05528.21649,E,AA,12,0.82,19.5,-46.7,,*63
$GNGGA,063624.00,0438.24040,S,05528.21649,E,1,12,0.82,19.5,M,-46.7,M,,*49
$GNGSA,A,3,25,12,05,15,18,20,23,24,,,,,1.75,0.82,1.54*1C
$GNGSA,A,3,88,77,76,65,,,,,,,,,1.75,0.82,1.54*17
$GPGSV,4,1,14,05,55,055,34,12,62,031,39,13,14,125,,15,34,158,21*79
$GPGSV,4,2,14,18,34,269,27,20,21,037,36,23,29,206,36,24,43,193,38*76
$GPGSV,4,3,14,25,39,344,35,29,10,331,,36,52,277,35,40,86,354,38*7D
$GPGSV,4,4,14,41,57,081,34,49,32,274,*78
