b0(241A&iy$u"$ W)%+X%N{4Vc9Q A"BHNKL@sM?FNMQW

X%;Yb2Ba$GNRMC,064443.00,A,0438.27039,S,05528.16808,E,0.080,,160525,,,A*72
$GNVTG,,T,,M,0.080,N,0.147,K,A*37
$GNGNS,064443.00,0438.27039,S,05528.16808,E,AA,15,0.71,19.5,-46.7,,*6E
$GNGGA,064443.00,0438.27039,S,05528.16808,E,1,12,0.71,19.5,M,-46.7,M,,*43
$GNGSA,A,3,25,12,05,15,18,29,20,13,24,,,,1.30,0.71,1.09*11
$GNGSA,A,3,88,77,76,65,66,72,,,,,,,1.30,0.71,1.09*17
$GPGSV,4,1,14,05,52,049,23,12,65,038,22,13,14,121,12,15,36,154,24*7D
$GPGSV,4,2,14,18,34,274,25,20,18,036,31,23,32,206,15,24,41,189,20*7F
$GPGSV,4,3,14,25,43,344,37,29,11,334,37,36,52,277,,40,86,355,*7E
$GPGSV,4,4,14,41,57,081,,49,32,274,*7F
$GLGSV,3,1,10,65,34,137,30,66,16,187,13,72,16,078,24,75,06,155,*61
$GLGSV,3,2,10,76,64,161,19,77,63,326,20,78,04,333,,81,09,264,*60
$GLGSV,3,3,10,87,03,010,,88,19,315,37*62
$GNGLL,0438.27039,S,05528.16808,E,064443.00,A,A*66
$GNGRS,064443.00,1,0.2,-16.9,9.3,-1.4,-2.4,0.3,2.9,20.6,-6.4,,,*74
$GNGRS,064443.00,1,-4.2,-3.5,-14.2,6.5,4.0,-26.7,,,,,,*52
$GNGST,064443.00,3179277,,,,3.2,3.5,5.4*70
$GNZDA,064443.00,16,05,2025,00,00*7E
$GNGBS,064443.00,3.2,3.5,5.4,,,,*58
$GNTXT,01,01,01,More than 100 frame errors, UART RX was disabled*70
b0(241A&
y$"$~ )Z$+X.$N{4Vc9Q A"MBpHNKL@{M?FNMQW

X ;N"b2Be$GNRMC,064444.00,A,0438.27044,S,05528.16808,E,0.136,,160525,,,A*73
$GNVTG,,T,,M,0.136,N,0.251,K,A*3F
$GNGNS,064444.00,0438.27044,S,05528.16808,E,AA,14,0.81,19.5,-46.7,,*6D
$GNGGA,064444.00,0438.27044,S,05528.16808,E,1,12,0.81,19.5,M,-46.7,M,,*41
$GNGSA,A,3,25,12,05,15,18,29,20,13,24,,,,1.51,0.81,1.27*15
$GNGSA,A,3,88,77,65,66,72,,,,,,,,1.51,0.81,1.27*12
$GPGSV,4,1,14,05,52,049,19,12,65,038,21,13,14,121,10,15,36,154,23*72
$GPGSV,4,2,14,18,34,274,25,20,18,036,27,23,32,206,11,24,41,189,18*77
$GPGSV,4,3,14,25,43,344,36,29,11,334,36,36,52,277,,40,86,355,*7E
$GPGSV,4,4,14,41,57,081,,49,32,274,*7F
$GLGSV,3,1,10,65,34,137,24,66,16,187,08,72,16,078,22,75,06,155,*68
$GLGSV,3,2,10,76,64,161,17,77,63,326,18,78,05,333,,81,09,264,*64
$GLGSV,3,3,10,87,03,010,,88,19,315,32*67
$GNGLL,0438.27044,S,05528.16808,E,064444.00,A,A*6B
$GNGRS,064444.00,1,0.5,-16.5,9.0,5.3,-2.4,0.2,1.3,20.2,-6.8,,,*55
$GNGRS,064444.00,1,-1.8,-1.2,5.9,3.7,-26.6,,,,,,,*65
$GNGST,064444.00,3434011,,,,3.3,3.5,5.5*79
$GNZDA,064444.00,16,05,2025,00,00*79
$GNGBS,064444.00,3.3,3.5,5.5,76,,8.8,64.2*6E
$GNTXT,01,01,01,More than 100 frame errors, UART RX was disabled*70
b0(241A&|y$N"!$)
 }))+X((N{4Vc9Q A"BHNXKL@2M?FqNMQW

X$;b2Biic$GNRMC,064445.00,A,0438.27042,S,05528.16809,E,0.036,,160525,,,A*74
$GNVTG,,T,,M,0.036,N,0.067,K,A*39
$GNGNS,064445.00,0438.27042,S,05528.16809,E,AA,14,0.87,19.5,-46.7,,*6D
$GNGGA,064445.00,0438.27042,S,05528.16809,E,1,12,0.87,19.5,M,-46.7,M,,*41
$GNGSA,A,3,25,12,05,15,18,29,20,13,24,,,,1.60,0.87,1.34*13
$GNGSA,A,3,88,77,76,65,72,,,,,,,,1.60,0.87,1.34*15
$GPGSV,4,1,14,05,52,049,19,12,65,038,23,13,14,121,12,15,36,154,25*74
$GPGSV,4,2,14,18,34,274,31,20,18,036,33,23,32,206,10,24,41,189,19*77
$GPGSV,4,3,14,25,43,344,41,29,11,334,40,36,52,277,,40,86,355,*7F
$GPGSV,4,4,14,41,57,081,,49,32,274,*7F
$GLGSV,3,1,10,65,34,137,26,66,16,187,07,72,16,078,20,75,06,155,*67
$GLGSV,3,2,10,76,64,161,13,77,63,326,17,78,05,333,,81,09,264,*6F
$GLGSV,3,3,10,87,03,010,,88,19,315,36*63
$GNGLL,0438.27042,S,05528.16809,E,064445.00,A,A*6D
$GNGRS,064445.00,1,0.4,-11.6,9.8,-4.3,-0.4,0.2,-2.1,28.2,-7.5,,,*5F
$GNGRS,064445.00,1,-3.2,-1.4,-4.6,7.2,-27.3,,,,,,,*4C
$GNGST,064445.00,48,,,,3.3,3.5,5.4*45
$GNZDA,064445.00,16,05,2025,00,00*78
$GNGBS,064445.00,3.3,3.5,5.4,,,,*5F
$GNTXT,01,01,01,More than 100 frame errors, UART RX was disabled*70
b0(241A&y$ " $^ ))+X*N{4Vc9Q A"BHNKL@1M?F!NMQW

X$;b2BQm^$GNRMC,064446.00,A,0438.27032,S,05528.16819,E,0.019,,160525,,,A*7C
$GNVTG,,T,,M,0.019,N,0.036,K,A*30
$GNGNS,064446.00,0438.27032,S,05528.16819,E,AA,15,0.81,19.5,-46.7,,*6F
$GNGGA,064446.00,0438.27032,S,05528.16819,E,1,12,0.81,19.5,M,-46.7,M,,*42
$GNGSA,A,3,25,12,05,15,18,29,20,13,24,,,,1.44,0.81,1.19*1C
$GNGSA,A,3,88,77,76,65,66,72,,,,,,,1.44,0.81,1.19*1A
$GPGSV,4,1,14,05,52,049,20,12,65,038,26,13,14,121,14,15,36,154,27*7F
$GPGSV,4,2,14,18,34,274,32,20,18,036,32,23,32,206,11,24,41,189,22*7C
$GPGSV,4,3,14,25,43,344,41,29,11,334,42,36,52,277,,40,86,355,*7D
$GPGSV,4,4,14,41,57,081,,49,32,274,*7F
$GLGSV,3,1,10,65,34,137,27,66,16,187,12,72,16,078,19,75,06,155,*68
$GLGSV,3,2,10,76,64,161,11,77,63,326,18,78,05,333,,81,09,264,*62
$GLGSV,3,3,10,87,03,010,,88,19,315,36*63
$GNGLL,0438.27032,S,05528.16819,E,064446.00,A,A*68
$GNGRS,064446.00,1,0.3,-11.2,6.5,-8.5,-6.0,-0.2,3.5,20.7,-5.3,,,*59
$GNGRS,064446.00,1,-1.2,-2.2,-2.1,2.1,3.9,-26.0,,,,,,*69
$GNGST,064446.00,3299292,,,,3.2,3.4,5.4*72
$GNZDA,064446.00,16,05,2025,00,00*7B
$GNGBS,064446.00,3.2,3.4,5.4,,,,*5C
$GNTXT,01,01,01,More than 100 frame errors, UART RX was disabled*70
b0(h241A&y$"I$ ))+X'N{4Vc9Q A"BHNKL@M?FNMQW

X%;bh2B9q63$GNRMC,064447.00,A,0438.27020,S,05528.16827,E,0.107,,160525,,,A*7D
$GNVTG,,T,,M,0.107,N,0.198,K,A*3B
$GNGNS,064447.00,0438.27020,S,05528.16827,E,AA,15,0.81,19.5,-46.7,,*60
$GNGGA,064447.00,0438.27020,S,05528.16827,E,1,12,0.81,19.5,M,-46.7,M,,*4D
$GNGSA,A,3,25,12,05,15,18,29,20,13,24,,,,1.44,0.81,1.19*1C
$GNGSA,A,3,88,77,76,65,66,72,,,,,,,1.44,0.81,1.19*1A
$GPGSV,4,1,14,05,52,049,21,12,65,038,26,13,14,121,15,15,36,154,26*7E
$GPGSV,4,2,14,18,34,274,31,20,18,036,30,23,32,206,09,24,41,189,21*77
$GPGSV,4,3,14,25,43,344,41,29,11,334,39,36,52,277,,40,86,355,*71
$GPGSV,4,4,14,41,57,081,,49,32,274,*7F
$GLGSV,3,1,10,65,34,137,29,66,16,187,11,72,16,078,21,75,06,155,*6E
$GLGSV,3,2,10,76,64,161,11,77,63,326,19,78,05,333,,81,09,265,*62
$GLGSV,3,3,10,87,03,010,,88,19,315,37*62
$GNGLL,0438.27020,S,05528.16827,E,064447.00,A,A*67
$GNGRS,064447.00,1,0.3,-12.6,2.0,-7.9,-6.9,-0.4,2.1,20.8,-5.1,,,*5A
$GNGRS,064447.00,1,-0.6,-0.8,-5.8,-3.0,4.0,-23.0,,,,,,*4D
$GNGST,064447.00,3299292,,,,3.2,3.4,5.4*73
$GNZDA,064447.00,16,05,2025,00,00*7A
$GNGBS,064447.00,3.2,3.4,5.4,,,,*5D
$GNTXT,01,01,01,More than 100 frame errors, UART RX was disabled*70
b0(P241A&[y$""$a
 _)I++X#)N{4Vc9Q A"BSHNKL@QM?FNMQW

X&;bP2B!u$GNRMC,064448.00,A,0438.27014,S,05528.16828,E,0.047,,160525,,,A*7F
$GNVTG,,T,,M,0.047,N,0.088,K,A*3E
$GNGNS,064448.00,0438.27014,S,05528.16828,E,AA,16,0.87,19.5,-46.7,,*62
$GNGGA,064448.00,0438.27014,S,05528.16828,E,1,12,0.87,19.5,M,-46.7,M,,*4C
$GNGSA,A,3,25,12,05,15,18,29,20,13,23,24,,,1.59,0.87,1.34*18
$GNGSA,A,3,88,77,76,65,66,72,,,,,,,1.59,0.87,1.34*1F
$GPGSV,4,1,14,05,52,049,22,12,65,038,28,13,14,121,08,15,36,154,27*7E
$GPGSV,4,2,14,18,34,274,31,20,18,036,34,23,32,206,10,24,41,189,19*70
$GPGSV,4,3,14,25,43,344,43,29,11,334,41,36,52,277,,40,86,355,*7C
$GPGSV,4,4,14,41,57,081,,49,32,274,*7F
$GLGSV,3,1,10,65,34,137,28,66,16,187,14,72,16,078,23,75,06,155,*68
$GLGSV,3,2,10,76,64,161,15,77,63,326,17,78,05,333,,81,09,265,*68
$GLGSV,3,3,10,87,03,010,,88,19,315,38*6D
$GNGLL,0438.27014,S,05528.16828,E,064448.00,A,A*60
$GNGRS,064448.00,1,0.4,-22.1,0.2,-3.7,-5.1,-0.5,-1.6,-26.1,-150,-4.4,,*40
$GNGRS,064448.00,1,-0.8,-2.7,-6.9,-3.9,-63.2,-20.6,,,,,,*51
$GNGST,064448.00,48,,,,3.2,3.4,5.4*48
$GNZDA,064448.00,16,05,2025,00,00*75
$GNGBS,064448.00,3.2,3.4,5.4,,,,*52
$GNTXT,01,01,01,More than 100 frame errors, UART RX was disabled*70
b0(8241vA&y $#"!$ A))+XB#N{4Vc9Q A$"BwHNKL@M?FNMQW

X';1b82By$GNRMC,064449.00,A,0438.27013,S,05528.16827,E,0.099,,160525,,,A*75
$GNVTG,,T,,M,0.099,N,0.184,K,A*30
$GNGNS,064449.00,0438.27013,S,05528.16827,E,AA,15,0.71,19.4,-46.7,,*60
$GNGGA,064449.00,0438.27013,S,05528.16827,E,1,12,0.71,19.4,M,-46.7,M,,*4D
$GNGSA,A,3,25,12,05,15,18,29,20,13,24,,,,1.30,0.71,1.09*11
$GNGSA,A,3,88,77,76,65,66,72,,,,,,,1.30,0.71,1.09*17
$GPGSV,4,1,14,05,52,049,24,12,65,038,29,13,14,121,18,15,36,154,32*7C
$GPGSV,4,2,14,18,34,274,35,20,18,036,33,23,32,206,09,24,41,189,18*7A
$GPGSV,4,3,14,25,43,344,41,29,11,334,35,36,52,277,,40,86,355,*7D
$GPGSV,4,4,14,41,57,081,,49,32,274,*7F
$GLGSV,3,1,10,65,34,137,36,66,16,187,17,72,16,078,25,75,06,155,*62
$GLGSV,3,2,10,76,64,161,16,77,63,326,17,78,05,333,,81,09,265,*6B
$GLGSV,3,3,10,87,03,010,,88,19,315,39*6C
$GNGLL,0438.27013,S,05528.16827,E,064449.00,A,A*69
$GNGRS,064449.00,1,0.7,-33.0,-3.9,2.8,-3.3,-0.5,-0.6,20.7,-2.7,,,*71
$GNGRS,064449.00,1,-2.9,-2.5,-2.4,-0.7,3.8,-18.1,,,,,,*48
$GNGST,064449.00,3179277,,,,3.1,3.3,5.3*78
$GNZDA,064449.00,16,05,2025,00,00*74
$GNGBS,064449.00,3.1,3.3,5.3,,,,*50
$GNTXT,01,01,01,More than 100 frame errors, UART RX was disabled*70
b0( 241A&y$"" $' a))+X&N{4Vc9Q A$"$BmHNKL@M?FNMQW

X&;ob 2B|h$GNRMC,064450.00,A,0438.27012,S,05528.16833,E,0.047,,160525,,,A*7A
$GNVTG,,T,,M,0.047,N,0.087,K,A*31
$GNGNS,064450.00,0438.27012,S,05528.16833,E,AA,15,0.72,19.5,-46.7,,*6E
$GNGGA,064450.00,0438.27012,S,05528.16833,E,1,12,0.72,19.5,M,-46.7,M,,*43
$GNGSA,A,3,25,12,05,15,18,29,20,13,24,,,,1.40,0.72,1.20*1E
$GNGSA,A,3,88,77,76,65,66,72,,,,,,,1.40,0.72,1.20*18
$GPGSV,4,1,14,05,52,049,26,12,65,038,30,13,14,121,18,15,36,154,27*72
$GPGSV,4,2,14,18,34,274,34,20,18,036,32,23,32,206,09,24,41,189,20*71
$GPGSV,4,3,14,25,43,344,41,29,11,334,38,36,52,277,,40,86,355,*70
$GPGSV,4,4,14,41,57,081,,49,32,274,*7F
$GLGSV,3,1,10,65,34,137,36,66,16,187,13,72,16,078,26,75,06,155,*65
$GLGSV,3,2,10,76,64,161,19,77,63,326,18,78,05,333,,81,09,265,*6B
$GLGSV,3,3,10,87,03,010,,88,19,315,38*6D
$GNGLL,0438.27012,S,05528.16833,E,064450.00,A,A*65
$GNGRS,064450.00,1,0.3,-35.8,-6.1,4.0,-5.0,0.2,-2.2,20.5,-3.7,,,*5A
$GNGRS,064450.00,1,-4.0,-2.5,-5.1,2.9,3.7,-16.2,,,,,,*6E
$GNGST,064450.00,3299292,,,,3.0,3.2,5.3*76
$GNZDA,064450.00,16,05,2025,00,00*7C
$GNGBS,064450.00,3.0,3.2,5.3,12,,35.9,24.3*51
$GNTXT,01,01,01,More than 100 frame errors, UART RX was disabled*70
b0(2416A&y$F!" $w ))+XE&N+{4Vc9Q A""B
CHNKL@M?FNMQW

X';Sb2B$GNRMC,064451.00,A,0438.27010,S,05528.16842,E,0.053,,160525,,,A*7A
$GNVTG,,T,,M,0.053,N,0.098,K,A*3A
$GNGNS,064451.00,0438.27010,S,05528.16842,E,AA,15,0.68,19.4,-46.7,,*61
$GNGGA,064451.00,0438.27010,S,05528.16842,E,1,12,0.68,19.4,M,-46.7,M,,*4C
$GNGSA,A,3,25,12,05,15,18,29,20,13,24,,,,1.24,0.68,1.03*16
$GNGSA,A,3,88,77,76,65,66,72,,,,,,,1.24,0.68,1.03*10
$GPGSV,4,1,14,05,52,049,27,12,65,038,29,13,14,121,17,15,36,154,28*7B
$GPGSV,4,2,14,18,34,274,33,20,18,036,32,23,32,206,09,24,41,189,21*77
$GPGSV,4,3,14,25,43,344,41,29,11,334,38,36,52,277,,40,86,355,*70
$GPGSV,4,4,14,41,57,081,,49,32,274,*7F
$GLGSV,3,1,10,65,34,137,34,66,16,187,10,72,16,078,25,75,06,155,*67
$GLGSV,3,2,10,76,64,161,21,77,63,326,19,78,05,333,,81,09,265,*61
$GLGSV,3,3,10,87,03,010,,88,19,315,39*6C
$GNGLL,0438.27010,S,05528.16842,E,064451.00,A,A*60
$GNGRS,064451.00,1,0.7,-33.7,-9.7,3.3,-6.0,0.4,1.2,15.4,-4.9,,,*7E
$GNGRS,064451.00,1,-4.3,-2.3,-8.3,4.8,-12.1,-16.1,,,,,,*7A
$GNGST,064451.00,52,,,,3.0,3.2,5.3*48
$GNZDA,064451.00,16,05,2025,00,00*7D
$GNGBS,064451.00,3.0,3.2,5.3,,,,*59
$GNTXT,01,01,01,More than 100 frame errors, UART RX was disabled*70
b0(241A&y$ " $ ))+Xc&NV{4Vc9Q A!"'BmHN\KL@[M?FNMQW

X&;r]b2Bl)$GNRMC,064452.00,A,0438.27008,S,05528.16845,E,0.053,,160525,,,A*77
$GNVTG,,T,,M,0.053,N,0.098,K,A*3A
$GNGNS,064452.00,0438.27008,S,05528.16845,E,AA,16,0.68,19.3,-46.7,,*68
$GNGGA,064452.00,0438.27008,S,05528.16845,E,1,12,0.68,19.3,M,-46.7,M,,*46
$GNGSA,A,3,25,12,05,15,18,29,20,13,23,24,,,1.24,0.68,1.03*17
$GNGSA,A,3,88,77,76,65,66,72,,,,,,,1.24,0.68,1.03*10
$GPGSV,4,1,14,05,52,049,28,12,65,038,31,13,14,121,20,15,36,154,27*76
$GPGSV,4,2,14,18,34,274,32,20,18,036,32,23,32,206,11,24,41,189,22*7C
$GPGSV,4,3,14,25,43,344,41,29,11,334,38,36,52,277,,40,86,355,*70
$GPGSV,4,4,14,41,57,081,,49,32,274,*7F
$GLGSV,3,1,10,65,34,137,33,66,16,187,11,72,16,078,24,75,06,155,*60
$GLGSV,3,2,10,76,64,161,21,77,63,326,20,78,05,333,,81,09,265,*6B
$GLGSV,3,3,10,87,03,010,,88,19,315,38*6D
$GNGLL,0438.27008,S,05528.16845,E,064452.00,A,A*6D
$GNGRS,064452.00,1,1.0,-38.3,-10.8,4.8,-7.8,0.9,-3.6,4.3,-128,-5.7,,*4E
$GNGRS,064452.00,1,-4.0,-2.7,-11.9,2.9,3.7,-14.4,,,,,,*57
$GNGST,064452.00,167197,,,,2.9,3.1,5.2*49
$GNZDA,064452.00,16,05,2025,00,00*7E
$GNGBS,064452.00,2.9,3.1,5.2,,,,*50
$GNTXT,01,01,01,More than 100 frame errors, UART RX was disabled*70
b0(241x A&y$ "!$ y)/*+XX&Nn{4Vc9Q A!";BXHNrKL@$M?FNMQW
X&;fb2BD$GNRMC,064453.00,A,0438.27005,S,05528.16848,E,0.017,,160525,,,A*76
$GNVTG,,T,,M,0.017,N,0.032,K,A*3A
$GNGNS,064453.00,0438.27005,S,05528.16848,E,AA,16,0.68,19.2,-46.7,,*68
$GNGGA,064453.00,0438.27005,S,05528.16848,E,1,12,0.68,19.2,M,-46.7,M,,*46
$GNGSA,A,3,25,12,05,15,18,29,20,13,23,24,,,1.24,0.68,1.03*17
$GNGSA,A,3,88,77,76,65,66,72,,,,,,,1.24,0.68,1.03*10
$GPGSV,4,1,14,05,52,049,30,12,65,038,32,13,14,121,20,15,36,154,27*7C
$GPGSV,4,2,14,18,34,274,32,20,18,036,33,23,32,206,14,24,41,189,21*7B
$GPGSV,4,3,14,25,43,344,42,29,11,334,38,36,52,277,,40,86,355,*73
$GPGSV,4,4,14,41,57,081,,49,32,274,*7F
$GLGSV,3,1,10,65,34,137,33,66,16,187,17,72,16,078,24,75,06,155,*66
$GLGSV,3,2,10,76,64,161,20,77,63,326,20,78,05,333,,81,09,265,*6A
$GLGSV,3,3,10,87,03,011,,88,19,315,38*6C
$GNGLL,0438.27005,S,05528.16848,E,064453.00,A,A*6C
$GNGRS,064453.00,1,0.9,-36.0,-3.9,0.0,-8.4,1.1,-3.1,-3.3,-129,-7.2,,*54
$GNGRS,064453.00,1,-4.1,-5.6,-9.9,5.7,3.4,-16.8,,,,,,*6C
$GNGST,064453.00,3071473,,,,2.9,3.1,5.2*72
$GNZDA,064453.00,16,05,2025,00,00*7F
$GNGBS,064453.00,2.9,3.1,5.2,23,,129.5,89.3*6D
$GNTXT,01,01,01,More than 100 frame errors, UART RX was disabled*70
b0(241A&^y$A!" $ )(+Xd#N{4Vc9Q A""BGHN|KL@M?FNMQW
X%<mb2B$GNRMC,064454.00,A,0438.27005,S,05528.16853,E,0.070,,160525,,,A*7A
$GNVTG,,T,,M,0.070,N,0.130,K,A*38
$GNGNS,064454.00,0438.27005,S,05528.16853,E,AA,16,0.68,19.0,-46.7,,*67
$GNGGA,064454.00,0438.27005,S,05528.16853,E,1,12,0.68,19.0,M,-46.7,M,,*49
$GNGSA,A,3,25,12,05,15,18,29,20,13,23,24,,,1.24,0.68,1.03*17
$GNGSA,A,3,88,77,76,65,66,72,,,,,,,1.24,0.68,1.03*10
$GPGSV,4,1,14,05,52,049,29,12,65,038,31,13,14,121,19,15,36,154,27*7D
$GPGSV,4,2,14,18,34,274,33,20,18,036,32,23,32,206,14,24,41,189,21*7B
$GPGSV,4,3,14,25,43,344,40,29,11,334,35,36,52,277,,40,86,355,*7C
$GPGSV,4,4,14,41,57,081,,49,32,274,*7F
$GLGSV,3,1,10,65,34,137,34,66,16,187,12,72,16,078,24,75,06,155,*64
$GLGSV,3,2,10,76,64,161,19,77,63,326,20,78,05,333,,81,09,265,*60
$GLGSV,3,3,10,87,03,011,,88,18,316,37*61
$GNGLL,0438.27005,S,05528.16853,E,064454.00,A,A*61
$GNGRS,064454.00,1,1.0,-32.3,-5.4,-7.0,-8.2,1.7,-1.3,-15.8,-131,-8.0,,*45
$GNGRS,064454.00,1,-4.0,-5.0,-7.5,10.3,0.7,-16.7,,,,,,*51
$GNGST,064454.00,47,,,,2.8,3.0,5.2*43
$GNZDA,064454.00,16,05,2025,00,00*78
$GNGBS,064454.00,2.8,3.0,5.2,,,,*56
$GNTXT,01,01,01,More than 100 frame errors, UART RX was disabled*70
b0(241A&"y $!"$ )(+Xp"N{4Vc9Q A%"B.HN"KL@M?FNMQW
X&<8b2Bya$GNRMC,064455.00,A,0438.27022,S,05528.16871,E,0.003,,160525,,,A*7A
$GNVTG,,T,,M,0.003,N,0.006,K,A*38
$GNGNS,064455.00,0438.27022,S,05528.16871,E,AA,16,0.72,18.8,-46.7,,*61
$GNGGA,064455.00,0438.27022,S,05528.16871,E,1,12,0.72,18.8,M,-46.7,M,,*4F
$GNGSA,A,3,25,12,05,15,18,29,20,13,23,24,,,1.40,0.72,1.20*1F
$GNGSA,A,3,88,77,76,65,66,72,,,,,,,1.40,0.72,1.20*18
$GPGSV,4,1,14,05,52,049,27,12,65,038,31,13,14,121,18,15,36,154,32*76
$GPGSV,4,2,14,18,34,274,33,20,18,036,31,23,32,206,14,24,41,189,22*7B
$GPGSV,4,3,14,25,43,344,40,29,11,334,34,36,52,277,,40,86,355,*7D
$GPGSV,4,4,14,41,57,081,,49,32,274,*7F
$GLGSV,3,1,10,65,34,137,37,66,16,187,13,72,16,078,25,75,06,155,*67
$GLGSV,3,2,10,76,64,161,17,77,63,326,20,78,05,333,,81,09,265,*6E
$GLGSV,3,3,10,87,03,011,,88,18,316,38*6E
$GNGLL,0438.27022,S,05528.16871,E,064455.00,A,A*65
$GNGRS,064455.00,1,1.1,-38.1,-2.8,-2.7,-8.0,2.2,-0.6,-20.8,-131,-5.1,,*4E
$GNGRS,064455.00,1,-3.6,-6.1,-10.1,12.3,3.0,-17.6,,,,,,*67
$GNGST,064455.00,26607,,,,2.8,3.0,5.2*74
$GNZDA,064455.00,16,05,2025,00,00*79
$GNGBS,064455.00,2.8,3.0,5.2,12,,37.8,24.2*5C
$GNTXT,01,01,01,More than 100 frame errors, UART RX was disabled*70
b0(241A&y/$v!"$^ 
))+Xy%N{4Vc9Q A!"tB HN_KL@M?FNMQW
X&<b2Ba$GNRMC,064456.00,A,0438.27021,S,05528.16877,E,0.078,,160525,,,A*70
$GNVTG,,T,,M,0.078,N,0.145,K,A*32
$GNGNS,064456.00,0438.27021,S,05528.16877,E,AA,16,0.68,18.8,-46.7,,*6C
$GNGGA,064456.00,0438.27021,S,05528.16877,E,1,12,0.68,18.8,M,-46.7,M,,*42
$GNGSA,A,3,25,12,05,15,18,29,20,13,23,24,,,1.24,0.68,1.03*17
$GNGSA,A,3,88,77,76,65,66,72,,,,,,,1.24,0.68,1.03*10
$GPGSV,4,1,14,05,52,049,26,12,65,038,30,13,14,121,16,15,36,154,30*7A
$GPGSV,4,2,14,18,34,274,33,20,18,036,30,23,32,206,16,24,41,189,21*7B
$GPGSV,4,3,14,25,43,344,41,29,11,334,37,36,52,277,,40,86,355,*7F
$GPGSV,4,4,14,41,57,081,,49,32,274,*7F
$GLGSV,3,1,10,65,34,137,33,66,16,187,14,72,16,078,25,75,06,155,*64
$GLGSV,3,2,10,76,64,161,16,77,63,326,19,78,05,333,,81,09,265,*65
$GLGSV,3,3,10,87,03,011,,88,18,316,38*6E
$GNGLL,0438.27021,S,05528.16877,E,064456.00,A,A*63
$GNGRS,064456.00,1,1.2,-31.1,-2.3,-1.4,-7.5,2.2,-1.6,-14.9,-128,-6.0,,*4B
$GNGRS,064456.00,1,-3.5,-8.8,-11.0,11.4,2.9,-17.0,,,,,,*6A
$GNGST,064456.00,37155,,,,2.7,3.0,5.1*7B
$GNZDA,064456.00,16,05,2025,00,00*7A
$GNGBS,064456.00,2.7,3.0,5.1,23,,128.0,88.3*61
$GNTXT,01,01,01,More than 100 frame errors, UART RX was disabled*70
b0(x241A&?y0$ "m$A ))+Xz$N{4Vc9Q A!"B
`HNKL@M?FNMQW
X&<(;bx2BI1$GNRMC,064457.00,A,0438.27026,S,05528.16879,E,0.090,,160525,,,A*7E
$GNVTG,,T,,M,0.090,N,0.166,K,A*35
$GNGNS,064457.00,0438.27026,S,05528.16879,E,AA,16,0.68,18.7,-46.7,,*6B
$GNGGA,064457.00,0438.27026,S,05528.16879,E,1,12,0.68,18.7,M,-46.7,M,,*45
$GNGSA,A,3,25,12,05,15,18,29,20,13,23,24,,,1.24,0.68,1.03*17
$GNGSA,A,3,88,77,76,65,66,72,,,,,,,1.24,0.68,1.03*10
$GPGSV,4,1,14,05,52,049,25,12,65,038,29,13,14,121,16,15,36,154,29*79
$GPGSV,4,2,14,18,34,274,32,20,18,036,31,23,32,206,16,24,41,189,22*78
$GPGSV,4,3,14,25,43,344,41,29,11,334,36,36,52,277,,40,86,355,*7E
$GPGSV,4,4,14,41,57,081,,49,32,274,*7F
$GLGSV,3,1,10,65,34,137,33,66,16,187,10,72,16,078,25,75,06,155,*60
$GLGSV,3,2,10,76,64,161,14,77,63,326,17,78,05,333,,81,09,265,*69
$GLGSV,3,3,10,87,03,011,,88,18,316,38*6E
$GNGLL,0438.27026,S,05528.16879,E,064457.00,A,A*6B
$GNGRS,064457.00,1,1.2,-30.1,4.1,1.8,-4.0,2.4,-1.9,-9.8,-127,-6.3,,*7D
$GNGRS,064457.00,1,-3.6,-10.6,-13.5,12.6,1.0,-18.6,,,,,,*5A
$GNGST,064457.00,56,,,,2.7,2.9,5.1*44
$GNZDA,064457.00,16,05,2025,00,00*7B
$GNGBS,064457.00,2.7,2.9,5.1,,,,*51
$GNTXT,01,01,01,More than 100 frame errors, UART RX was disabled*70
b0(`2 41lA&y$-$"$ X))+Xs%N{4Vc9Q A$"B>HN&KL@M?F NMQW
X%<Ab`2B1|$GNRMC,064458.00,A,0438.27040,S,05528.16892,E,0.023,,160525,,,A*7C
$GNVTG,,T,,M,0.023,N,0.043,K,A*3B
$GNGNS,064458.00,0438.27040,S,05528.16892,E,AA,16,0.74,18.3,-46.7,,*68
$GNGGA,064458.00,0438.27040,S,05528.16892,E,1,12,0.74,18.3,M,-46.7,M,,*46
$GNGSA,A,3,25,12,05,15,18,29,20,13,23,24,,,1.30,0.74,1.07*1B
$GNGSA,A,3,88,77,76,65,66,72,,,,,,,1.30,0.74,1.07*1C
$GPGSV,4,1,14,05,52,049,32,12,65,038,28,13,14,121,18,15,36,154,30*78
$GPGSV,4,2,14,18,34,274,36,20,18,036,31,23,32,206,16,24,41,189,22*7C
$GPGSV,4,3,14,25,43,344,41,29,11,334,37,36,52,277,,40,86,355,*7F
$GPGSV,4,4,14,41,57,081,,49,32,274,*7F
$GLGSV,3,1,10,65,34,137,36,66,16,187,09,72,16,078,25,75,06,155,*6D
$GLGSV,3,2,10,76,64,161,13,77,63,326,16,78,05,333,,81,09,265,*6F
$GLGSV,3,3,10,87,03,011,,88,18,316,37*61
$GNGLL,0438.27040,S,05528.16892,E,064458.00,A,A*61
$GNGRS,064458.00,1,1.1,-36.1,-4.0,5.6,-2.7,2.4,1.3,-9.0,-125,-5.3,,*7E
$GNGRS,064458.00,1,-3.4,-12.5,-12.7,12.4,3.2,-20.1,,,,,,*5B
$GNGST,064458.00,16025,,,,2.6,2.9,5.1*79
$GNZDA,064458.00,16,05,2025,00,00*74
$GNGBS,064458.00,2.6,2.9,5.1,,,,*5F
$GNTXT,01,01,01,More than 100 frame errors, UART RX was disabled*70
b0(H2405A&`y$!"o$c ))+Xm'N{4Vc9Q A "*B*HNKL@M?FNMQW
X%<bH2BT$GNRMC,064459.00,A,0438.27042,S,05528.16894,E,0.027,,160525,,,A*7D
$GNVTG,,T,,M,0.027,N,0.050,K,A*3D
$GNGNS,064459.00,0438.27042,S,05528.16894,E,AA,16,0.74,18.0,-46.7,,*6E
$GNGGA,064459.00,0438.27042,S,05528.16894,E,1,12,0.74,18.0,M,-46.7,M,,*40
$GNGSA,A,3,25,12,05,15,18,29,20,13,23,24,,,1.30,0.74,1.07*1B
$GNGSA,A,3,88,77,76,65,66,72,,,,,,,1.30,0.74,1.07*1C
$GPGSV,4,1,14,05,52,048,27,12,65,038,27,13,14,121,19,15,36,154,30*73
$GPGSV,4,2,14,18,34,274,33,20,18,036,31,23,32,206,13,24,41,189,21*7F
$GPGSV,4,3,14,25,43,344,41,29,11,334,39,36,52,277,,40,86,355,*71
$GPGSV,4,4,14,41,57,081,,49,32,274,*7F
$GLGSV,3,1,10,65,34,137,32,66,16,187,13,72,16,078,24,75,06,155,*63
$GLGSV,3,2,10,76,64,161,12,77,63,326,15,78,05,333,,81,09,265,*6D
$GLGSV,3,3,10,87,03,011,,88,18,316,37*61
$GNGLL,0438.27042,S,05528.16894,E,064459.00,A,A*64
$GNGRS,064459.00,1,1.1,-42.6,-2.0,-2.6,-1.4,2.6,-1.6,-7.8,-125,-5.2,,*7A
$GNGRS,064459.00,1,-3.5,-13.4,-16.5,10.7,3.0,-20.5,,,,,,*5A
$GNGST,064459.00,24037,,,,2.6,2.9,5.1*7A
$GNZDA,064459.00,16,05,2025,00,00*75
$GNGBS,064459.00,2.6,2.9,5.1,,,,*5E
$GNTXT,01,01,01,More than 100 frame errors, UART RX was disabled*70
b0(0240A&y$,!"!$ )h*+XA(N{4Vc9Q A"@B#HNKL@M?FNMQW
X&<b02B,i$GNRMC,064500.00,A,0438.27042,S,05528.16895,E,0.046,,160525,,,A*76
$GNVTG,,T,,M,0.046,N,0.085,K,A*32
$GNGNS,064500.00,0438.27042,S,05528.16895,E,AA,16,0.81,17.8,-46.7,,*6F
$GNGGA,064500.00,0438.27042,S,05528.16895,E,1,12,0.81,17.8,M,-46.7,M,,*41
$GNGSA,A,3,25,12,05,15,18,29,20,13,23,24,,,1.41,0.81,1.16*17
$GNGSA,A,3,88,77,76,65,66,72,,,,,,,1.41,0.81,1.16*10
$GPGSV,4,1,14,05,52,048,28,12,65,038,27,13,14,121,19,15,36,154,29*74
$GPGSV,4,2,14,18,34,274,33,20,18,036,33,23,32,206,12,24,41,189,19*77
$GPGSV,4,3,14,25,43,344,42,29,11,334,40,36,52,277,,40,86,355,*7C
$GPGSV,4,4,14,41,57,081,,49,32,274,*7F
$GLGSV,3,1,10,65,34,137,30,66,16,187,09,72,16,078,25,75,06,155,*6B
$GLGSV,3,2,10,76,64,161,12,77,63,326,14,78,05,333,,81,09,265,*6C
$GLGSV,3,3,10,87,03,011,,88,18,316,38*6E
$GNGLL,0438.27042,S,05528.16895,E,064500.00,A,A*68
$GNGRS,064500.00,1,0.6,-36.8,-5.3,-9.8,-1.2,2.2,-1.2,-10.7,-126,-4.1,,*43
$GNGRS,064500.00,1,-3.7,-13.7,-16.1,13.4,-123,-21.2,,,,,,*64
$GNGST,064500.00,51,,,,2.6,2.8,5.1*40
$GNZDA,064500.00,16,05,2025,00,00*78
$GNGBS,064500.00,2.6,2.8,5.1,,,,*52
$GNTXT,01,01,01,More than 100 frame errors, UART RX was disabled*70
b0(240A&
yG$i "p!$ i)*+X(N{4Vc9Q A"BHNKL@M?FKNMQW
X$<6b2B$GNRMC,064501.00,A,0438.27039,S,05528.16894,E,0.089,,160525,,,A*79
$GNVTG,,T,,M,0.089,N,0.164,K,A*3F
$GNGNS,064501.00,0438.27039,S,05528.16894,E,AA,16,0.74,17.6,-46.7,,*67
$GNGGA,064501.00,0438.27039,S,05528.16894,E,1,12,0.74,17.6,M,-46.7,M,,*49
$GNGSA,A,3,25,12,05,15,18,29,20,13,23,24,,,1.30,0.74,1.07*1B
$GNGSA,A,3,88,77,76,65,66,72,,,,,,,1.30,0.74,1.07*1C
$GPGSV,4,1,14,05,52,048,28,12,65,038,26,13,14,121,18,15,36,154,29*74
$GPGSV,4,2,14,18,34,274,32,20,18,036,33,23,32,206,12,24,41,189,19*76
$GPGSV,4,3,14,25,43,344,42,29,11,334,40,36,52,277,,40,86,355,*7C
$GPGSV,4,4,14,41,57,081,,49,32,274,*7F
$GLGSV,3,1,10,65,34,137,29,66,16,187,09,72,16,078,23,75,06,155,*65
$GLGSV,3,2,10,76,64,161,13,77,63,326,12,78,05,333,,81,09,265,*6B
$GLGSV,3,3,10,87,03,011,,88,18,316,36*60
$GNGLL,0438.27039,S,05528.16894,E,064501.00,A,A*64
$GNGRS,064501.00,1,0.3,-38.3,-5.2,-16.9,-1.4,1.6,-0.9,-12.1,-124,-2.5,,*73
$GNGRS,064501.00,1,-3.7,-14.6,-16.0,12.0,3.9,-21.7,,,,,,*5B
$GNGST,064501.00,3179277,,,,2.6,2.8,5.0*7A
$GNZDA,064501.00,16,05,2025,00,00*79
$GNGBS,064501.00,2.6,2.8,5.0,,,,*52
$GNTXT,01,01,01,More than 100 frame errors, UART RX was disabled*70
b0(240A&y$*!""$< ~)*+X(N{4Vc9Q A"`BHNKL@HM?FNMQW
X$<.b2B6$GNRMC,064502.00,A,0438.27037,S,05528.16891,E,0.022,,160525,,,A*70
$GNVTG,,T,,M,0.022,N,0.041,K,A*38
$GNGNS,064502.00,0438.27037,S,05528.16891,E,AA,16,0.68,17.5,-46.7,,*61
$GNGGA,064502.00,0438.27037,S,05528.16891,E,1,12,0.68,17.5,M,-46.7,M,,*4F
$GNGSA,A,3,25,12,05,15,18,29,20,13,23,24,,,1.24,0.68,1.03*17
$GNGSA,A,3,88,77,76,65,66,72,,,,,,,1.24,0.68,1.03*10
$GPGSV,4,1,14,05,52,048,27,12,65,038,25,13,14,121,17,15,36,154,28*76
$GPGSV,4,2,14,18,34,274,33,20,18,036,34,23,32,206,11,24,41,189,20*79
$GPGSV,4,3,14,25,43,344,42,29,11,334,40,36,52,277,,40,86,355,*7C
$GPGSV,4,4,14,41,57,081,,49,32,274,*7F
$GLGSV,3,1,10,65,34,137,28,66,16,187,09,72,16,078,22,75,06,155,*65
$GLGSV,3,2,10,76,64,161,11,77,63,326,09,78,05,333,,81,09,265,*63
$GLGSV,3,3,10,87,03,011,,88,18,316,36*60
$GNGLL,0438.27037,S,05528.16891,E,064502.00,A,A*6C
$GNGRS,064502.00,1,0.1,-42.2,-3.3,-9.8,-2.6,1.5,-2.0,-13.3,-124,-3.5,,*4D
$GNGRS,064502.00,1,-3.8,-12.5,-17.2,13.8,4.1,-18.7,,,,,,*5D
$GNGST,064502.00,3071473,,,,2.6,2.8,5.0*72
$GNZDA,064502.00,16,05,2025,00,00*7A
$GNGBS,064502.00,2.6,2.8,5.0,,,,*51
$GNTXT,01,01,01,More than 100 frame errors, UART RX was disabled*70
b0(240A& y$!"x"$ )'*+X)N{4Vc9Q A"BHNKL@yM?FNMQW
X&<!b2B$GNRMC,064503.00,A,0438.27038,S,05528.16892,E,0.060,,160525,,,A*7B
$GNVTG,,T,,M,0.060,N,0.111,K,A*3A
$GNGNS,064503.00,0438.27038,S,05528.16892,E,AA,16,0.78,17.5,-46.7,,*6D
$GNGGA,064503.00,0438.27038,S,05528.16892,E,1,12,0.78,17.5,M,-46.7,M,,*43
$GNGSA,A,3,25,12,05,15,18,29,20,13,23,24,,,1.48,0.78,1.26*1B
$GNGSA,A,3,88,77,76,65,66,72,,,,,,,1.48,0.78,1.26*1C
$GPGSV,4,1,14,05,52,048,27,12,65,038,21,13,14,121,18,15,36,154,27*72
$GPGSV,4,2,14,18,34,274,33,20,18,036,34,23,32,206,11,24,41,189,20*79
$GPGSV,4,3,14,25,43,344,42,29,11,334,41,36,52,277,,40,86,355,*7D
$GPGSV,4,4,14,41,57,081,27,49,32,274,*7A
$GLGSV,3,1,10,65,34,137,29,66,16,187,11,72,16,078,21,75,06,155,*6E
$GLGSV,3,2,10,76,64,161,11,77,63,326,08,78,05,333,,81,09,265,*62
$GLGSV,3,3,10,87,03,011,,88,18,316,38*6E
$GNGLL,0438.27038,S,05528.16892,E,064503.00,A,A*61
$GNGRS,064503.00,1,-0.1,-45.8,-5.4,-3.1,-3.9,1.5,-3.2,-15.1,-125,-7.3,,*64
$GNGRS,064503.00,1,-3.6,-11.3,-14.1,11.6,-105,-16.0,,,,,,*60
$GNGST,064503.00,54,,,,2.6,2.8,5.0*47
$GNZDA,064503.00,16,05,2025,00,00*7B
$GNGBS,064503.00,2.6,2.8,5.0,,,,*50
$GNTXT,01,01,01,More than 100 frame errors, UART RX was disabled*70
b0(240A&y$ ""$ ),*+X)N{!4Vc9Q A"BuHNKL@M
?FNMQW
X&<b2B$GNRMC,064504.00,A,0438.27040,S,05528.16893,E,0.054,,160525,,,A*75
$GNVTG,,T,,M,0.054,N,0.099,K,A*3C
$GNGNS,064504.00,0438.27040,S,05528.16893,E,AA,15,0.70,17.5,-46.7,,*6F
$GNGGA,064504.00,0438.27040,S,05528.16893,E,1,12,0.70,17.5,M,-46.7,M,,*42
$GNGSA,A,3,25,12,05,15,18,29,20,13,24,,,,1.33,0.70,1.14*1F
$GNGSA,A,3,88,77,76,65,66,72,,,,,,,1.33,0.70,1.14*19
$GPGSV,4,1,14,05,52,048,27,12,65,038,18,13,14,121,19,15,36,154,27*79
$GPGSV,4,2,14,18,34,274,32,20,18,036,34,23,32,206,12,24,41,189,21*7A
$GPGSV,4,3,14,25,43,344,42,29,11,334,41,36,52,277,33,40,86,355,*7D
$GPGSV,4,4,14,41,57,081,27,49,32,274,*7A
$GLGSV,3,1,10,65,34,137,29,66,16,187,11,72,16,078,22,75,06,155,*6D
$GLGSV,3,2,10,76,64,161,11,77,63,326,10,78,05,333,,81,09,265,*6B
$GLGSV,3,3,10,87,03,011,,88,18,316,38*6E
$GNGLL,0438.27040,S,05528.16893,E,064504.00,A,A*68
$GNGRS,064504.00,1,0.1,-44.2,-5.2,0.1,-2.9,1.8,-3.0,-18.6,-9.8,,,*77
$GNGRS,064504.00,1,-3.7,-11.5,-17.8,14.4,3.7,-16.0,,,,,,*5E
$GNGST,064504.00,3180286,,,,2.5,2.7,5.0*7B
$GNZDA,064504.00,16,05,2025,00,00*7C
$GNGBS,064504.00,2.5,2.7,5.0,,,,*5B
$GNTXT,01,01,01,More than 100 frame errors, UART RX was disabled*70
b0(240=A&Dy$ "J!$ )*+X)N{ 4Vc9Q A"BfHNWKL
@M?FqNMQW
X%<b2Bb_$GNRMC,064505.00,A,0438.27042,S,05528.16897,E,0.045,,160525,,,A*72
$GNVTG,,T,,M,0.045,N,0.083,K,A*37
$GNGNS,064505.00,0438.27042,S,05528.16897,E,AA,14,0.73,17.4,-46.7,,*6B
$GNGGA,064505.00,0438.27042,S,05528.16897,E,1,12,0.73,17.4,M,-46.7,M,,*47
$GNGSA,A,3,25,12,05,15,18,29,20,13,24,,,,1.51,0.73,1.32*1C
$GNGSA,A,3,88,77,65,66,72,,,,,,,,1.51,0.73,1.32*1B
$GPGSV,4,1,14,05,52,048,26,12,65,038,13,13,14,121,19,15,36,154,26*72
$GPGSV,4,2,14,18,34,274,32,20,18,036,33,23,32,206,09,24,41,189,21*77
$GPGSV,4,3,14,25,43,344,42,29,11,334,41,36,52,277,32,40,86,355,*7C
$GPGSV,4,4,14,41,57,081,,49,32,274,*7F
$GLGSV,3,1,10,65,34,137,29,66,16,187,08,72,16,078,22,75,06,155,*65
$GLGSV,3,2,10,76,64,161,10,77,63,326,13,78,05,333,,81,09,265,*69
$GLGSV,3,3,10,87,03,011,,88,18,316,37*61
$GNGLL,0438.27042,S,05528.16897,E,064505.00,A,A*6F
$GNGRS,064505.00,1,-0.2,-35.2,-7.1,-0.1,-4.4,1.6,-2.4,-21.1,-11.5,,,*4B
$GNGRS,064505.00,1,-3.6,-11.7,20.3,3.6,-14.5,,,,,,,*67
$GNGST,064505.00,3435102,,,,2.5,2.7,5.0*7E
$GNZDA,064505.00,16,05,2025,00,00*7D
$GNGBS,064505.00,2.5,2.7,5.0,,,,*5A
$GNTXT,01,01,01,More than 100 frame errors, UART RX was disabled*70
b0(240B'yh$""$[ )*+X'N~{ 4Vc9Q A"OBHN,KL@M
?FNMQW
X%<Ob2Bq:$GNRMC,064506.00,A,0438.27045,S,05528.16899,E,0.081,,160525,,,A*70
$GNVTG,,T,,M,0.081,N,0.150,K,A*30
$GNGNS,064506.00,0438.27045,S,05528.16899,E,AA,15,0.78,17.4,-46.7,,*6B
$GNGGA,064506.00,0438.27045,S,05528.16899,E,1,12,0.78,17.4,M,-46.7,M,,*46
$GNGSA,A,3,25,12,05,15,18,29,20,13,24,,,,1.58,0.78,1.37*1B
$GNGSA,A,3,88,77,76,65,66,72,,,,,,,1.58,0.78,1.37*1D
$GPGSV,4,1,14,05,52,048,27,12,66,039,18,13,14,121,19,15,36,154,26*7A
$GPGSV,4,2,14,18,34,274,26,20,18,036,34,23,32,206,,24,41,189,21*7C
$GPGSV,4,3,14,25,43,344,42,29,11,334,39,36,52,277,32,40,86,355,*73
$GPGSV,4,4,14,41,57,081,,49,32,274,*7F
$GLGSV,3,1,10,65,34,137,29,66,16,187,08,72,16,078,22,75,06,155,*65
$GLGSV,3,2,10,76,64,161,12,77,63,326,10,78,05,333,,81,09,265,*68
$GLGSV,3,3,10,87,03,011,,88,18,316,37*61
$GNGLL,0438.27045,S,05528.16899,E,064506.00,A,A*65
$GNGRS,064506.00,1,-0.5,-31.6,-5.6,-0.4,-3.2,1.3,-1.7,-19.4,-15.8,,,*4C
$GNGRS,064506.00,1,-3.4,-17.9,-21.3,16.2,-72.8,-12.4,,,,,,*4B
$GNGST,064506.00,47,,,,2.5,2.7,4.9*44
$GNZDA,064506.00,16,05,2025,00,00*7E
$GNGBS,064506.00,2.5,2.7,4.9,,,,*51
$GNTXT,01,01,01,More than 100 frame errors, UART RX was disabled*70
b0(240B'ty$"!$k ))+X'N{4Vc9Q A"UB_HNKL@KM?FNMQW
X%<#b2BY/$GNRMC,064507.00,A,0438.27050,S,05528.16902,E,0.078,,160525,,,A*70
$GNVTG,,T,,M,0.078,N,0.144,K,A*33
$GNGNS,064507.00,0438.27050,S,05528.16902,E,AA,15,0.73,17.2,-46.7,,*60
$GNGGA,064507.00,0438.27050,S,05528.16902,E,1,12,0.73,17.2,M,-46.7,M,,*4D
$GNGSA,A,3,25,12,05,15,18,29,20,13,24,,,,1.51,0.73,1.32*1C
$GNGSA,A,3,88,77,76,65,66,72,,,,,,,1.51,0.73,1.32*1A
$GPGSV,4,1,14,05,52,048,25,12,66,039,21,13,14,121,17,15,36,154,27*7D
$GPGSV,4,2,14,18,34,274,26,20,18,036,33,23,32,206,,24,41,189,20*7A
$GPGSV,4,3,14,25,43,344,41,29,11,334,39,36,52,277,31,40,86,355,*73
$GPGSV,4,4,14,41,57,081,,49,32,274,*7F
$GLGSV,3,1,10,65,34,137,30,66,16,187,08,72,16,078,22,75,06,155,*6D
$GLGSV,3,2,10,76,64,161,14,77,63,326,16,78,05,333,,81,09,265,*68
$GLGSV,3,3,10,87,03,011,,88,18,316,37*61
$GNGLL,0438.27050,S,05528.16902,E,064507.00,A,A*63
$GNGRS,064507.00,1,-0.4,-29.6,-6.4,-3.1,-2.8,1.4,-1.5,-20.7,-17.8,,,*47
$GNGRS,064507.00,1,-3.2,-5.7,-24.8,18.8,3.5,-15.6,,,,,,*68
$GNGST,064507.00,80517,,,,2.5,2.7,4.9*7D
$GNZDA,064507.00,16,05,2025,00,00*7F
$GNGBS,064507.00,2.5,2.7,4.9,,,,*50
$GNTXT,01,01,01,More than 100 frame errors, UART RX was disabled*70
b0(p240B'4y$"[!$ )T*+X)N{ 4Vc9Q A"VB:HNKL@6M?FNMQW
X$<bp2BA$GNRMC,064508.00,A,0438.27057,S,05528.16900,E,0.071,,160525,,,A*73
$GNVTG,,T,,M,0.071,N,0.132,K,A*3B
$GNGNS,064508.00,0438.27057,S,05528.16900,E,AA,15,0.72,16.9,-46.7,,*61
$GNGGA,064508.00,0438.27057,S,05528.16900,E,1,12,0.72,16.9,M,-46.7,M,,*4C
$GNGSA,A,3,25,12,05,15,18,29,20,13,24,,,,1.37,0.72,1.17*1A
$GNGSA,A,3,88,77,76,65,66,72,,,,,,,1.37,0.72,1.17*1C
$GPGSV,4,1,14,05,52,048,25,12,66,039,31,13,14,121,16,15,36,154,27*7D
$GPGSV,4,2,14,18,34,274,27,20,18,036,33,23,32,206,07,24,41,189,20*7C
$GPGSV,4,3,14,25,43,344,42,29,11,334,41,36,52,277,32,40,86,355,*7C
$GPGSV,4,4,14,41,57,081,,49,32,274,*7F
$GLGSV,3,1,10,65,34,137,31,66,16,187,08,72,16,078,22,75,06,155,*6C
$GLGSV,3,2,10,76,64,161,13,77,63,326,13,78,05,333,,81,09,265,*6A
$GLGSV,3,3,10,87,03,011,,88,18,316,36*60
$GNGLL,0438.27057,S,05528.16900,E,064508.00,A,A*69
$GNGRS,064508.00,1,0.1,-27.6,-5.7,-3.2,-1.6,1.9,-1.2,-20.5,-19.6,,,*68
$GNGRS,064508.00,1,-3.2,-5.8,-25.1,16.2,3.1,-16.1,,,,,,*64
$GNGST,064508.00,114538,,,,2.5,2.7,4.9*43
$GNZDA,064508.00,16,05,2025,00,00*70
$GNGBS,064508.00,2.5,2.7,4.9,,,,*5F
$GNTXT,01,01,01,More than 100 frame errors, UART RX was disabled*70
b0(X2402B'hy>$}" $ ))+X'N{4Vc9Q A"BHN KL@M?FNMQW
X$<SbX2B)$GNRMC,064509.00,A,0438.27064,S,05528.16900,E,0.071,,160525,,,A*72
$GNVTG,,T,,M,0.071,N,0.132,K,A*3B
$GNGNS,064509.00,0438.27064,S,05528.16900,E,AA,15,0.79,16.5,-46.7,,*67
$GNGGA,064509.00,0438.27064,S,05528.16900,E,1,12,0.79,16.5,M,-46.7,M,,*4A
$GNGSA,A,3,25,12,05,15,18,29,20,13,24,,,,1.51,0.79,1.28*1D
$GNGSA,A,3,88,77,76,65,66,72,,,,,,,1.51,0.79,1.28*1B
$GPGSV,4,1,14,05,52,048,24,12,66,039,30,13,14,121,15,15,36,153,27*79
$GPGSV,4,2,14,18,34,274,25,20,18,036,32,23,32,206,08,24,41,189,18*7B
$GPGSV,4,3,14,25,43,344,41,29,11,334,39,36,52,277,31,40,86,355,*73
$GPGSV,4,4,14,41,57,081,,49,32,274,*7F
$GLGSV,3,1,10,65,34,137,31,66,16,187,14,72,16,078,22,75,06,155,*61
$GLGSV,3,2,10,76,64,161,15,77,63,326,12,78,05,333,,81,09,265,*6D
$GLGSV,3,3,10,87,03,011,,88,18,316,36*60
$GNGLL,0438.27064,S,05528.16900,E,064509.00,A,A*68
$GNGRS,064509.00,1,0.1,-32.2,-2.1,-3.9,-3.5,2.0,-1.3,-22.4,-18.3,,,*6E
$GNGRS,064509.00,1,-3.1,-6.2,-20.5,20.0,-69.6,-17.6,,,,,,*79
$GNGST,064509.00,44,,,,2.5,2.7,4.9*48
$GNZDA,064509.00,16,05,2025,00,00*71
$GNGBS,064509.00,2.5,2.7,4.9,,,,*5E
$GNTXT,01,01,01,More than 100 frame errors, UART RX was disabled*70
b0(@340 B'dyK$"C$ {)r*+X"(N{4Vc9Q A"BsHNKL@=M?FNMQW
X$< ab@3Bu$GNRMC,064510.00,A,0438.27067,S,05528.16898,E,0.043,,160525,,,A*78
$GNVTG,,T,,M,0.043,N,0.079,K,A*34
$GNGNS,064510.00,0438.27067,S,05528.16898,E,AA,15,0.72,16.1,-46.7,,*63
$GNGGA,064510.00,0438.27067,S,05528.16898,E,1,12,0.72,16.1,M,-46.7,M,,*4E
$GNGSA,A,3,25,12,05,15,18,29,20,13,24,,,,1.37,0.72,1.17*1A
$GNGSA,A,3,88,77,76,65,66,72,,,,,,,1.37,0.72,1.17*1C
$GPGSV,4,1,14,05,52,048,23,12,66,039,32,13,14,121,16,15,36,153,27*7F
$GPGSV,4,2,14,18,34,274,24,20,18,036,31,23,32,206,09,24,41,189,17*77
$GPGSV,4,3,14,25,43,344,42,29,11,334,40,36,52,277,31,40,86,355,*7E
$GPGSV,4,4,14,41,57,081,,49,32,274,*7F
$GLGSV,3,1,10,65,34,137,31,66,16,187,14,72,16,078,23,75,06,155,*60
$GLGSV,3,2,10,76,64,161,17,77,63,326,14,78,05,333,,81,09,265,*69
$GLGSV,3,3,10,87,03,011,,88,18,316,36*60
$GNGLL,0438.27067,S,05528.16898,E,064510.00,A,A*63
$GNGRS,064510.00,1,0.3,-27.2,2.3,-5.9,-7.0,1.9,-0.2,-22.3,-19.3,,,*44
$GNGRS,064510.00,1,-3.2,-5.4,-19.9,12.4,3.7,-16.5,,,,,,*66
$GNGST,064510.00,3299292,,,,2.5,2.7,4.9*78
$GNZDA,064510.00,16,05,2025,00,00*79
$GNGBS,064510.00,2.5,2.7,4.9,,,,*56
$GNTXT,01,01,01,More than 100 frame errors, UART RX was disabled*70
b0((340!B'|y$$" $% x)*+X(N{4Vc9Q A"jB
uHNUKL@M?FNMQW
X$<b(3Br$GNRMC,064511.00,A,0438.27064,S,05528.16900,E,0.021,,160525,,,A*7E
$GNVTG,,T,,M,0.021,N,0.038,K,A*35
$GNGNS,064511.00,0438.27064,S,05528.16900,E,AA,16,0.68,16.0,-46.7,,*68
$GNGGA,064511.00,0438.27064,S,05528.16900,E,1,12,0.68,16.0,M,-46.7,M,,*46
$GNGSA,A,3,25,12,05,15,18,29,20,13,23,24,,,1.28,0.68,1.09*11
$GNGSA,A,3,88,77,76,65,66,72,,,,,,,1.28,0.68,1.09*16
$GPGSV,4,1,14,05,52,048,22,12,66,039,33,13,14,121,17,15,36,153,28*71
$GPGSV,4,2,14,18,34,274,23,20,18,036,32,23,32,206,07,24,41,189,15*7F
$GPGSV,4,3,14,25,43,344,42,29,11,334,40,36,52,277,31,40,86,355,*7E
$GPGSV,4,4,14,41,57,081,,49,32,274,*7F
$GLGSV,3,1,10,65,34,137,31,66,16,187,10,72,16,078,25,75,06,155,*62
$GLGSV,3,2,10,76,64,161,17,77,63,326,14,78,05,333,,81,09,265,*69
$GLGSV,3,3,10,87,03,011,,88,18,316,36*60
$GNGLL,0438.27064,S,05528.16900,E,064511.00,A,A*61
$GNGRS,064511.00,1,0.3,-29.5,4.4,-9.9,-7.8,1.6,2.9,-24.2,-1.4,-19.1,,*61
$GNGRS,064511.00,1,-3.1,-5.1,-18.6,8.7,3.7,-17.1,,,,,,*52
$GNGST,064511.00,3071473,,,,2.5,2.7,4.9*74
$GNZDA,064511.00,16,05,2025,00,00*78
$GNGBS,064511.00,2.5,2.7,4.9,,,,*57
$GNTXT,01,01,01,More than 100 frame errors, UART RX was disabled*70
b0(340!B'yD$".!$ j)A*+X(N{4Vc9Q A "BHNKL@M?F"NMQW
X$<b3BJB$GNRMC,064512.00,A,0438.27062,S,05528.16897,E,0.039,,160525,,,A*7D
$GNVTG,,T,,M,0.039,N,0.073,K,A*33
$GNGNS,064512.00,0438.27062,S,05528.16897,E,AA,16,0.72,15.9,-46.7,,*63
$GNGGA,064512.00,0438.27062,S,05528.16897,E,1,12,0.72,15.9,M,-46.7,M,,*4D
$GNGSA,A,3,25,12,05,15,18,29,20,13,23,24,,,1.40,0.72,1.20*1F
$GNGSA,A,3,88,77,76,65,66,72,,,,,,,1.40,0.72,1.20*18
$GPGSV,4,1,14,05,52,048,21,12,66,039,33,13,14,121,18,15,36,153,28*7D
$GPGSV,4,2,14,18,34,274,23,20,18,036,33,23,32,206,08,24,41,189,14*70
$GPGSV,4,3,14,25,43,344,42,29,11,334,40,36,52,277,31,40,86,355,*7E
$GPGSV,4,4,14,41,57,081,,49,32,274,*7F
$GLGSV,3,1,10,65,34,137,32,66,16,187,08,72,16,078,25,75,06,155,*68
$GLGSV,3,2,10,76,64,161,16,77,63,326,18,78,05,333,,81,09,265,*64
$GLGSV,3,3,10,87,03,011,,88,18,316,36*60
$GNGLL,0438.27062,S,05528.16897,E,064512.00,A,A*6B
$GNGRS,064512.00,1,0.2,-33.1,7.6,-11.0,-7.2,1.7,-2.7,-24.9,-1.5,-17.3,,*73
$GNGRS,064512.00,1,-3.3,-7.3,-18.9,4.6,-59.3,-16.5,,,,,,*42
$GNGST,064512.00,55,,,,2.5,2.7,4.9*42
$GNZDA,064512.00,16,05,2025,00,00*7B
$GNGBS,064512.00,2.5,2.7,4.9,,,,*54
$GNTXT,01,01,01,More than 100 frame errors, UART RX was disabled*70
b0(340?"B'y$]"!$ ),+X )N{4Vc9Q A "BpHNKL@M?FNMQW
X$<^b3B!$GNRMC,064513.00,A,0438.27060,S,05528.16893,E,0.043,,160525,,,A*77
$GNVTG,,T,,M,0.043,N,0.080,K,A*32
$GNGNS,064513.00,0438.27060,S,05528.16893,E,AA,15,0.71,15.7,-46.7,,*6A
$GNGGA,064513.00,0438.27060,S,05528.16893,E,1,12,0.71,15.7,M,-46.7,M,,*47
$GNGSA,A,3,25,12,05,15,18,29,20,13,24,,,,1.30,0.71,1.09*11
$GNGSA,A,3,88,77,76,65,66,72,,,,,,,1.30,0.71,1.09*17
$GPGSV,4,1,14,05,52,048,21,12,66,039,34,13,14,121,18,15,36,153,28*7A
$GPGSV,4,2,14,18,34,274,21,20,18,036,33,23,32,206,,24,41,189,14*7A
$GPGSV,4,3,14,25,43,344,44,29,11,334,41,36,52,277,31,40,86,355,*79
$GPGSV,4,4,14,41,57,081,,49,32,274,*7F
$GLGSV,3,1,10,65,34,137,32,66,16,187,12,72,16,078,24,75,06,155,*62
$GLGSV,3,2,10,76,64,161,17,77,63,326,20,78,05,333,,81,09,265,*6E
$GLGSV,3,3,10,87,03,011,,88,18,316,36*60
$GNGLL,0438.27060,S,05528.16893,E,064513.00,A,A*6C
$GNGRS,064513.00,1,0.3,-28.0,10.9,-11.9,-5.4,1.7,0.0,-23.7,-16.5,,,*6D
$GNGRS,064513.00,1,-3.2,-7.8,-17.6,2.4,3.7,-18.0,,,,,,*50
$GNGST,064513.00,3179277,,,,2.5,2.8,4.8*73
$GNZDA,064513.00,16,05,2025,00,00*7A
$GNGBS,064513.00,2.5,2.8,4.8,,,,*5B
$GNTXT,01,01,01,More than 100 frame errors, UART RX was disabled*70
b0(340#B'yx$"^!$ )*+X7'N{4Vc9Q A "nBoHNKL@eM?FNMQW
X$<b3B$GNRMC,064514.00,A,0438.27054,S,05528.16892,E,0.118,,160525,,,A*79
$GNVTG,,T,,M,0.118,N,0.219,K,A*3F
$GNGNS,064514.00,0438.27054,S,05528.16892,E,AA,15,0.72,15.8,-46.7,,*67
$GNGGA,064514.00,0438.27054,S,05528.16892,E,1,12,0.72,15.8,M,-46.7,M,,*4A
$GNGSA,A,3,25,12,05,15,18,29,20,13,24,,,,1.40,0.72,1.20*1E
$GNGSA,A,3,88,77,76,65,66,72,,,,,,,1.40,0.72,1.20*18
$GPGSV,4,1,14,05,52,048,23,12,66,039,35,13,14,121,17,15,36,153,28*76
$GPGSV,4,2,14,18,34,274,21,20,18,036,33,23,32,206,17,24,41,189,18*70
$GPGSV,4,3,14,25,43,344,42,29,11,334,39,36,52,277,31,40,86,355,*70
$GPGSV,4,4,14,41,57,081,,49,32,274,*7F
$GLGSV,3,1,10,65,34,137,32,66,16,187,12,72,16,078,25,75,06,155,*63
$GLGSV,3,2,10,76,64,161,18,77,63,326,20,78,05,333,,81,09,265,*61
$GLGSV,3,3,10,87,03,011,,88,18,316,36*60
$GNGLL,0438.27054,S,05528.16892,E,064514.00,A,A*6D
$GNGRS,064514.00,1,0.6,-30.8,11.5,-8.9,-6.7,1.8,-2.3,-21.8,-13.5,,,*70
$GNGRS,064514.00,1,-3.0,-8.6,-16.9,-1.5,3.7,-21.6,,,,,,*79
$GNGST,064514.00,3299292,,,,2.5,2.8,4.8*72
$GNZDA,064514.00,16,05,2025,00,00*7D
$GNGBS,064514.00,2.5,2.8,4.8,12,,30.8,16.6*55
$GNTXT,01,01,01,More than 100 frame errors, UART RX was disabled*70
b0(340"B'yZ$" $h )*+Xj(N{4Vc9Q A "zBEHN3KL@tM?F,NMQW
X$<?b3Bk$GNRMC,064515.00,A,0438.27046,S,05528.16898,E,0.144,,160525,,,A*78
$GNVTG,,T,,M,0.144,N,0.268,K,A*30
$GNGNS,064515.00,0438.27046,S,05528.16898,E,AA,15,0.81,15.7,-46.7,,*6C
$GNGGA,064515.00,0438.27046,S,05528.16898,E,1,12,0.81,15.7,M,-46.7,M,,*41
$GNGSA,A,3,25,12,05,15,18,29,20,13,24,,,,1.41,0.81,1.16*16
$GNGSA,A,3,88,77,76,65,66,72,,,,,,,1.41,0.81,1.16*10
$GPGSV,4,1,14,05,52,048,25,12,66,039,34,13,14,121,17,15,36,153,28*71
$GPGSV,4,2,14,18,34,274,21,20,18,036,32,23,32,206,15,24,41,189,18*73
$GPGSV,4,3,14,25,43,344,42,29,11,334,40,36,52,277,31,40,86,355,*7E
$GPGSV,4,4,14,41,57,081,,49,32,274,*7F
$GLGSV,3,1,10,65,34,137,32,66,16,187,08,72,16,078,24,75,06,155,*69
$GLGSV,3,2,10,76,64,161,18,77,63,326,21,78,05,333,,81,09,265,*60
$GLGSV,3,3,10,87,03,011,,88,18,316,36*60
$GNGLL,0438.27046,S,05528.16898,E,064515.00,A,A*65
$GNGRS,064515.00,1,1.1,-31.2,10.0,-8.4,-10.4,1.7,-1.5,-19.6,-13.1,,,*4A
$GNGRS,064515.00,1,-2.9,-9.8,-16.8,1.2,-96.6,-22.5,,,,,,*44
$GNGST,064515.00,48,,,,2.5,2.8,4.8*47
$GNZDA,064515.00,16,05,2025,00,00*7C
$GNGBS,064515.00,2.5,2.8,4.8,,,,*5D
$GNTXT,01,01,01,More than 100 frame errors, UART RX was disabled*70
b0(340 B'y:$" $!N)++Xp(N{4Vc9Q A "BqHNKL@M?F/NMQW
X#<vb3B$GNRMC,064516.00,A,0438.27040,S,05528.16902,E,0.005,,160525,,,A*7B
$GNVTG,,T,,M,0.005,N,0.010,K,A*39
$GNGNS,064516.00,0438.27040,S,05528.16902,E,AA,14,0.81,15.7,-46.7,,*6A
$GNGGA,064516.00,0438.27040,S,05528.16902,E,1,12,0.81,15.7,M,-46.7,M,,*46
$GNGSA,A,3,25,12,05,15,18,29,20,13,24,,,,1.41,0.81,1.16*16
$GNGSA,A,3,88,77,76,65,72,,,,,,,,1.41,0.81,1.16*10
$GPGSV,4,1,14,05,52,048,25,12,66,039,32,13,14,121,15,15,36,153,27*7A
$GPGSV,4,2,14,18,34,274,23,20,18,036,32,23,33,207,14,24,41,189,17*7F
$GPGSV,4,3,14,25,43,344,43,29,11,334,40,36,52,277,31,40,86,355,*7F
$GPGSV,4,4,14,41,57,081,,49,32,274,*7F
$GLGSV,3,1,10,65,34,137,32,66,16,187,06,72,16,078,24,75,06,155,*67
$GLGSV,3,2,10,76,64,161,19,77,63,326,21,78,05,333,,81,09,265,*61
$GLGSV,3,3,10,87,03,011,,88,18,316,35*63
$GNGLL,0438.27040,S,05528.16902,E,064516.00,A,A*62
$GNGRS,064516.00,1,1.1,-33.2,9.5,-3.5,-13.9,1.4,-0.5,-17.3,-12.9,,,*72
$GNGRS,064516.00,1,-2.8,-9.8,-17.8,0.0,-25.3,,,,,,,*7F
$GNGST,064516.00,49,,,,2.5,2.8,4.8*45
$GNZDA,064516.00,16,05,2025,00,00*7F
$GNGBS,064516.00,2.5,2.8,4.8,,,,*5E
$GNTXT,01,01,01,More than 100 frame errors, UART RX was disabled*70
b0(340 B'y$":!$!)W*+Xr(Nv{4Vc9Q A!"#BaHNKL@M?FNMQW
X#<b3Bi;$GNRMC,064517.00,A,0438.27035,S,05528.16904,E,0.028,,160525,,,A*71
$GNVTG,,T,,M,0.028,N,0.052,K,A*30
$GNGNS,064517.00,0438.27035,S,05528.16904,E,AA,15,0.74,15.6,-46.7,,*65
$GNGGA,064517.00,0438.27035,S,05528.16904,E,1,12,0.74,15.6,M,-46.7,M,,*48
$GNGSA,A,3,25,12,05,15,18,29,20,13,24,,,,1.30,0.74,1.07*1A
$GNGSA,A,3,88,77,76,65,66,72,,,,,,,1.30,0.74,1.07*1C
$GPGSV,4,1,14,05,52,048,25,12,66,039,32,13,14,121,15,15,36,153,27*7A
$GPGSV,4,2,14,18,34,274,23,20,18,036,33,23,33,207,15,24,41,188,17*7E
$GPGSV,4,3,14,25,43,344,42,29,11,334,40,36,52,277,31,40,86,355,*7E
$GPGSV,4,4,14,41,57,081,,49,32,274,*7F
$GLGSV,3,1,10,65,34,137,33,66,16,187,08,72,16,078,24,75,06,155,*68
$GLGSV,3,2,10,76,64,161,18,77,63,326,21,78,05,333,,81,09,265,*60
$GLGSV,3,3,10,87,03,011,,88,18,316,35*63
$GNGLL,0438.27035,S,05528.16904,E,064517.00,A,A*67
$GNGRS,064517.00,1,1.1,-29.0,9.3,-3.0,-17.3,1.2,-0.9,-15.9,-11.9,,,*76
$GNGRS,064517.00,1,-2.5,-9.0,-18.6,0.4,3.5,-25.6,,,,,,*53
$GNGST,064517.00,3179277,,,,2.5,2.8,4.8*77
$GNZDA,064517.00,16,05,2025,00,00*7E
$GNGBS,064517.00,2.5,2.8,4.8,,,,*5F
$GNTXT,01,01,01,More than 100 frame errors, UART RX was disabled*70
b0("340B'yQ$" $y!)*+Xj(NW{4Vc9Q A "BHNKL@M?FNMQW
X#<b"3BQY$GNRMC,064518.00,A,0438.27035,S,05528.16902,E,0.029,,160525,,,A*79
$GNVTG,,T,,M,0.029,N,0.054,K,A*37
$GNGNS,064518.00,0438.27035,S,05528.16902,E,AA,16,0.93,15.5,-46.7,,*65
$GNGGA,064518.00,0438.27035,S,05528.16902,E,1,12,0.93,15.5,M,-46.7,M,,*4B
$GNGSA,A,3,25,12,05,15,18,29,20,13,23,24,,,1.49,0.93,1.16*1C
$GNGSA,A,3,88,77,76,65,66,72,,,,,,,1.49,0.93,1.16*1B
$GPGSV,4,1,14,05,52,048,26,12,66,039,31,13,14,121,17,15,36,153,27*78
$GPGSV,4,2,14,18,34,274,23,20,18,036,32,23,33,207,14,24,41,188,16*7F
$GPGSV,4,3,14,25,43,344,42,29,11,334,40,36,52,277,31,40,86,355,*7E
$GPGSV,4,4,14,41,57,081,,49,32,274,*7F
$GLGSV,3,1,10,65,34,137,32,66,16,187,13,72,16,078,24,75,06,155,*63
$GLGSV,3,2,10,76,64,161,17,77,63,326,21,78,05,333,,81,09,265,*6F
$GLGSV,3,3,10,87,03,011,,88,18,316,35*63
$GNGLL,0438.27035,S,05528.16902,E,064518.00,A,A*6E
$GNGRS,064518.00,1,1.1,-24.3,6.5,-2.9,-20.3,0.9,-1.4,-14.6,-46.8,-10.8,,*43
$GNGRS,064518.00,1,-2.5,-8.8,-15.3,2.0,-143,-25.4,,,,,,*6A
$GNGST,064518.00,47,,,,2.6,2.8,4.8*46
$GNZDA,064518.00,16,05,2025,00,00*71
$GNGBS,064518.00,2.6,2.8,4.8,,,,*53
$GNTXT,01,01,01,More than 100 frame errors, UART RX was disabled*70
b0(h&340B'yq$"!$_!)*+X(NF{4Vc9Q A "BkHNKL@M?FNMQW
X#<,bh&3B91$GNRMC,064519.00,A,0438.27033,S,05528.16902,E,0.055,,160525,,,A*75
$GNVTG,,T,,M,0.055,N,0.102,K,A*3E
$GNGNS,064519.00,0438.27033,S,05528.16902,E,AA,16,0.83,15.7,-46.7,,*61
$GNGGA,064519.00,0438.27033,S,05528.16902,E,1,12,0.83,15.7,M,-46.7,M,,*4F
$GNGSA,A,3,25,12,05,15,18,29,20,13,23,24,,,1.36,0.83,1.07*15
$GNGSA,A,3,88,77,76,65,66,72,,,,,,,1.36,0.83,1.07*12
$GPGSV,4,1,14,05,52,048,26,12,66,039,29,13,14,121,18,15,36,153,27*7E
$GPGSV,4,2,14,18,34,274,25,20,18,036,33,23,33,207,16,24,41,188,15*79
$GPGSV,4,3,14,25,43,344,42,29,11,334,40,36,52,277,31,40,86,355,*7E
$GPGSV,4,4,14,41,57,081,,49,32,274,*7F
$GLGSV,3,1,10,65,34,137,32,66,16,187,07,72,16,078,23,75,06,155,*61
$GLGSV,3,2,10,76,64,161,15,77,63,326,21,78,05,333,,81,09,265,*6D
$GLGSV,3,3,10,87,03,011,,88,18,316,35*63
$GNGLL,0438.27033,S,05528.16902,E,064519.00,A,A*69
$GNGRS,064519.00,1,1.4,2.6,4.8,-1.2,-25.4,0.7,-1.6,-14.2,-51.8,-8.7,,*66
$GNGRS,064519.00,1,-2.4,-8.5,-14.0,2.2,3.6,-26.3,,,,,,*53
$GNGST,064519.00,3326,,,,2.6,2.9,4.8*41
$GNZDA,064519.00,16,05,2025,00,00*70
$GNGBS,064519.00,2.6,2.9,4.8,,,,*53
$GNTXT,01,01,01,More than 100 frame errors, UART RX was disabled*70
b0(P*340B'y$"8 $<!)*+X)Nv{4Vc9Q A "BoHNKL@M?FNMQW
X#<6VbP*3B!s$GNRMC,064520.00,A,0438.27027,S,05528.16908,E,0.086,,160525,,,A*7E
$GNVTG,,T,,M,0.086,N,0.159,K,A*3E
$GNGNS,064520.00,0438.27027,S,05528.16908,E,AA,16,0.74,15.8,-46.7,,*63
$GNGGA,064520.00,0438.27027,S,05528.16908,E,1,12,0.74,15.8,M,-46.7,M,,*4D
$GNGSA,A,3,25,12,05,15,18,29,20,13,23,24,,,1.30,0.74,1.07*1B
$GNGSA,A,3,88,77,76,65,66,72,,,,,,,1.30,0.74,1.07*1C
$GPGSV,4,1,14,05,52,048,25,12,66,039,27,13,14,121,19,15,36,153,28*7D
$GPGSV,4,2,14,18,34,274,26,20,18,036,32,23,33,207,15,24,41,188,15*78
$GPGSV,4,3,14,25,43,344,42,29,11,334,41,36,52,277,31,40,86,355,*7F
$GPGSV,4,4,14,41,57,081,,49,32,274,*7F
$GLGSV,3,1,10,65,34,137,32,66,16,187,09,72,16,078,23,75,06,155,*6F
$GLGSV,3,2,10,76,64,161,13,77,63,326,20,78,05,333,,81,09,265,*6A
$GLGSV,3,3,10,87,03,011,,88,18,316,35*63
$GNGLL,0438.27027,S,05528.16908,E,064520.00,A,A*6C
$GNGRS,064520.00,1,1.6,4.6,0.1,-0.6,-25.0,1.2,-2.0,-12.9,-56.1,-8.6,,*67
$GNGRS,064520.00,1,-2.0,-7.5,-13.6,2.4,3.7,-25.5,,,,,,*51
$GNGST,064520.00,4808,,,,2.6,2.9,4.8*4B
$GNZDA,064520.00,16,05,2025,00,00*7A
$GNGBS,064520.00,2.6,2.9,4.8,,,,*59
$GNTXT,01,01,01,More than 100 frame errors, UART RX was disabled*70
b0(8.340B'`y$" $!m)T*+X*Nh{4Vc9Q A"B
HN5KL@`M?F]NMQW
X#<)b8.3B$GNRMC,064521.00,A,0438.27028,S,05528.16910,E,0.168,,160525,,,A*78
$GNVTG,,T,,M,0.168,N,0.311,K,A*31
$GNGNS,064521.00,0438.27028,S,05528.16910,E,AA,16,0.81,15.9,-46.7,,*6F
$GNGGA,064521.00,0438.27028,S,05528.16910,E,1,12,0.81,15.9,M,-46.7,M,,*41
$GNGSA,A,3,25,12,05,15,18,29,20,13,23,24,,,1.41,0.81,1.16*17
$GNGSA,A,3,88,77,76,65,66,72,,,,,,,1.41,0.81,1.16*10
$GPGSV,4,1,14,05,52,048,25,12,66,039,16,13,14,121,19,15,36,153,27*70
$GPGSV,4,2,14,18,34,274,29,20,18,036,32,23,33,207,12,24,41,188,16*73
$GPGSV,4,3,14,25,43,344,42,29,11,334,42,36,52,277,30,40,86,355,*7D
$GPGSV,4,4,14,41,57,081,,49,32,274,*7F
$GLGSV,3,1,10,65,34,137,31,66,16,187,10,72,16,078,23,75,06,155,*64
$GLGSV,3,2,10,76,64,161,15,77,63,326,18,78,05,333,,81,09,265,*67
$GLGSV,3,3,10,87,03,011,,88,18,316,35*63
$GNGLL,0438.27028,S,05528.16910,E,064521.00,A,A*6B
$GNGRS,064521.00,1,1.6,8.6,-2.4,0.2,-2.9,1.0,-2.5,-13.9,-52.7,-9.4,,*52
$GNGRS,064521.00,1,-2.2,-9.3,-11.8,3.9,45.9,-25.1,,,,,,*62
$GNGST,064521.00,54,,,,2.6,2.9,4.8*4F
$GNZDA,064521.00,16,05,2025,00,00*7B
$GNGBS,064521.00,2.6,2.9,4.8,,,,*58
$GNTXT,01,01,01,More than 100 frame errors, UART RX was disabled*70
b0( 2340B'y
$}"!$!)*+X)OS{ 4Vc9Q A"6B
zHNKL@M?FNMQW
X$<<b 23B@$GNRMC,064522.00,A,0438.27029,S,05528.16911,E,0.048,,160525,,,A*78
$GNVTG,,T,,M,0.048,N,0.089,K,A*30
$GNGNS,064522.00,0438.27029,S,05528.16911,E,AA,16,0.74,15.9,-46.7,,*66
$GNGGA,064522.00,0438.27029,S,05528.16911,E,1,12,0.74,15.9,M,-46.7,M,,*48
$GNGSA,A,3,25,12,05,15,18,29,20,13,23,24,,,1.30,0.74,1.07*1B
$GNGSA,A,3,88,77,76,65,66,72,,,,,,,1.30,0.74,1.07*1C
$GPGSV,4,1,14,05,52,048,26,12,66,039,17,13,14,121,18,15,36,153,29*7D
$GPGSV,4,2,14,18,34,274,28,20,18,036,33,23,33,207,11,24,41,188,18*7E
$GPGSV,4,3,14,25,43,344,42,29,11,335,41,36,52,277,32,40,86,355,*7D
$GPGSV,4,4,14,41,57,081,,49,32,274,*7F
$GLGSV,3,1,10,65,34,137,31,66,16,187,10,72,16,078,24,75,06,155,*63
$GLGSV,3,2,10,76,64,161,15,77,63,326,16,78,05,333,,81,09,265,*69
$GLGSV,3,3,10,87,03,011,,88,18,316,36*60
$GNGLL,0438.27029,S,05528.16911,E,064522.00,A,A*68
$GNGRS,064522.00,1,1.7,-8.6,-5.6,-3.9,-1.0,0.8,-2.5,-15.3,-54.2,-8.1,,*55
$GNGRS,064522.00,1,-2.0,-12.7,-11.1,10.8,3.8,-26.0,,,,,,*56
$GNGST,064522.00,3179277,,,,2.6,2.9,4.8*73
$GNZDA,064522.00,16,05,2025,00,00*78
$GNGBS,064522.00,2.6,2.9,4.8,,,,*5B
$GNTXT,01,01,01,More than 100 frame errors, UART RX was disabled*70
b0(6340B'=yg$" $
!)r*+X)Ol{!4Vc9Q A"KB}HNKL@M?FNMQW
X$<E]b63B$GNRMC,064523.00,A,0438.27031,S,05528.16909,E,0.050,,160525,,,A*70
$GNVTG,,T,,M,0.050,N,0.092,K,A*33
$GNGNS,064523.00,0438.27031,S,05528.16909,E,AA,16,0.74,15.9,-46.7,,*67
$GNGGA,064523.00,0438.27031,S,05528.16909,E,1,12,0.74,15.9,M,-46.7,M,,*49
$GNGSA,A,3,25,12,05,15,18,29,20,13,23,24,,,1.30,0.74,1.07*1B
$GNGSA,A,3,88,77,76,65,66,72,,,,,,,1.30,0.74,1.07*1C
$GPGSV,4,1,14,05,52,048,27,12,66,039,21,13,14,121,16,15,36,153,28*76
$GPGSV,4,2,14,18,34,274,27,20,18,036,32,23,33,207,12,24,41,188,19*72
$GPGSV,4,3,14,25,43,344,42,29,11,335,41,36,52,277,33,40,86,355,*7C
$GPGSV,4,4,14,41,57,081,,49,32,274,*7F
$GLGSV,3,1,10,65,34,137,31,66,16,187,08,72,16,078,25,75,06,155,*6B
$GLGSV,3,2,10,76,64,161,14,77,63,326,16,78,05,333,,81,09,265,*68
$GLGSV,3,3,10,87,03,011,,88,18,316,36*60
$GNGLL,0438.27031,S,05528.16909,E,064523.00,A,A*69
$GNGRS,064523.00,1,1.4,-14.8,-11.2,-0.4,-0.7,1.1,-2.5,-14.3,-56.2,-6.5,,*5C
$GNGRS,064523.00,1,-1.9,-11.3,-12.6,5.9,3.8,-25.9,,,,,,*61
$GNGST,064523.00,3179277,,,,2.6,2.9,4.8*72
$GNZDA,064523.00,16,05,2025,00,00*79
$GNGBS,064523.00,2.6,2.9,4.8,,,,*5A
$GNTXT,01,01,01,More than 100 frame errors, UART RX was disabled*70
b0(9340^B'ay+$" $$
!)(+X[)O{!4Vc9Q A "B
:HN~KL@M?FNMQW
X&<E[/b93Bh$GNRMC,064524.00,A,0438.27034,S,05528.16904,E,0.034,,160525,,,A*7D
$GNVTG,,T,,M,0.034,N,0.063,K,A*3F
$GNGNS,064524.00,0438.27034,S,05528.16904,E,AA,15,0.81,15.9,-46.7,,*61
$GNGGA,064524.00,0438.27034,S,05528.16904,E,1,12,0.81,15.9,M,-46.7,M,,*4C
$GNGSA,A,3,25,12,05,15,18,29,20,13,24,,,,1.41,0.81,1.16*16
$GNGSA,A,3,88,77,76,65,66,72,,,,,,,1.41,0.81,1.16*10
$GPGSV,4,1,14,05,52,048,28,12,66,039,23,13,14,121,15,15,36,153,28*78
$GPGSV,4,2,14,18,34,274,26,20,18,036,32,23,33,207,10,24,41,188,20*7B
$GPGSV,4,3,14,25,43,344,40,29,11,335,41,36,52,277,33,40,86,355,*7E
$GPGSV,4,4,14,41,57,081,,49,32,274,*7F
$GLGSV,3,1,10,65,34,137,32,66,16,187,10,72,16,078,25,75,06,155,*61
$GLGSV,3,2,10,76,64,161,13,77,63,326,17,78,05,333,,81,09,265,*6E
$GLGSV,3,3,10,87,03,011,,88,18,316,38*6E
$GNGLL,0438.27034,S,05528.16904,E,064524.00,A,A*66
$GNGRS,064524.00,1,0.9,-17.0,-14.4,4.7,2.6,1.3,-4.8,-14.9,-8.0,,,*61
$GNGRS,064524.00,1,-1.9,-10.4,-10.0,2.2,150,-26.9,,,,,,*7A
$GNGST,064524.00,49,,,,2.5,2.9,4.8*45
$GNZDA,064524.00,16,05,2025,00,00*7E
$GNGBS,064524.00,2.5,2.9,4.8,,,,*5E
$GNTXT,01,01,01,More than 100 frame errors, UART RX was disabled*70
b0(=340 B'y$"  $!)*+XY*O{!4Vc9Q A!"B\HNfKL@oM?FNMQW
X%<9b=3B@k$GNRMC,064525.00,A,0438.27038,S,05528.16897,E,0.031,,160525,,,A*7E
$GNVTG,,T,,M,0.031,N,0.058,K,A*32
$GNGNS,064525.00,0438.27038,S,05528.16897,E,AA,15,0.74,15.6,-46.7,,*62
$GNGGA,064525.00,0438.27038,S,05528.16897,E,1,12,0.74,15.6,M,-46.7,M,,*4F
$GNGSA,A,3,25,12,05,15,18,29,20,13,24,,,,1.30,0.74,1.07*1A
$GNGSA,A,3,88,77,76,65,66,72,,,,,,,1.30,0.74,1.07*1C
$GPGSV,4,1,14,05,52,048,28,12,66,039,32,13,14,121,15,15,36,153,28*78
$GPGSV,4,2,14,18,34,274,27,20,18,036,32,23,33,207,09,24,41,188,19*78
$GPGSV,4,3,14,25,43,344,42,29,11,335,42,36,52,277,33,40,86,355,*7F
$GPGSV,4,4,14,41,57,081,28,49,32,274,*75
$GLGSV,3,1,10,65,34,137,33,66,16,187,13,72,16,078,25,75,06,155,*63
$GLGSV,3,2,10,76,64,161,11,77,63,326,17,78,05,333,,81,09,265,*6C
$GLGSV,3,3,10,87,03,011,,88,18,316,37*61
$GNGLL,0438.27038,S,05528.16897,E,064525.00,A,A*60
$GNGRS,064525.00,1,0.9,-23.9,-11.5,9.5,2.9,1.3,-2.6,-15.9,-8.1,,,*62
$GNGRS,064525.00,1,-2.0,-10.1,-9.1,-0.2,3.5,-24.6,,,,,,*73
$GNGST,064525.00,3205,,,,2.5,2.9,4.8*4D
$GNZDA,064525.00,16,05,2025,00,00*7F
$GNGBS,064525.00,2.5,2.9,4.8,,,,*5F
$GNTXT,01,01,01,More than 100 frame errors, UART RX was disabled*70
b0(A340 B'y$" $!)*+X;*O{"4Vc9Q A "BBHN}KL@SM?FNMQW
X#<*.DbA3B$GNRMC,064526.00,A,0438.27042,S,05528.16895,E,0.020,,160525,,,A*72
$GNVTG,,T,,M,0.020,N,0.037,K,A*3B
$GNGNS,064526.00,0438.27042,S,05528.16895,E,AA,14,0.76,15.5,-46.7,,*6E
$GNGGA,064526.00,0438.27042,S,05528.16895,E,1,12,0.76,15.5,M,-46.7,M,,*42
$GNGSA,A,3,25,12,05,15,18,29,20,13,24,,,,1.50,0.76,1.30*1A
$GNGSA,A,3,88,77,65,66,72,,,,,,,,1.50,0.76,1.30*1D
$GPGSV,4,1,14,05,52,048,28,12,66,039,32,13,14,121,15,15,36,153,28*78
$GPGSV,4,2,14,18,34,274,26,20,18,036,32,23,33,207,08,24,41,188,18*79
$GPGSV,4,3,14,25,43,344,42,29,11,335,42,36,52,277,34,40,86,355,*78
$GPGSV,4,4,14,41,57,081,28,49,32,274,*75
$GLGSV,3,1,10,65,34,137,32,66,16,187,08,72,16,078,23,75,06,155,*6E
$GLGSV,3,2,10,76,64,161,08,77,63,326,17,78,05,333,,81,09,265,*64
$GLGSV,3,3,10,87,03,011,,88,18,316,35*63
$GNGLL,0438.27042,S,05528.16895,E,064526.00,A,A*6C
$GNGRS,064526.00,1,0.6,-36.5,-10.8,14.9,7.0,1.4,0.0,-18.5,-8.4,,,*7C
$GNGRS,064526.00,1,-2.1,-8.7,0.0,3.2,-24.4,,,,,,,*6F
$GNGST,064526.00,5193,,,,2.5,2.9,4.7*4B
$GNZDA,064526.00,16,05,2025,00,00*7C
$GNGBS,064526.00,2.5,2.9,4.7,12,,36.5,19.6*5E
$GNTXT,01,01,01,More than 100 frame errors, UART RX was disabled*70
b0(E340) B'y$8"! $2!7)*+X$*Ok{!4Vc9Q A"B
GHNKL@M?F{NMQW
X#<3bE3By;$GNRMC,064527.00,A,0438.27048,S,05528.16891,E,0.056,,160525,,,A*7C
$GNVTG,,T,,M,0.056,N,0.104,K,A*3B
$GNGNS,064527.00,0438.27048,S,05528.16891,E,AA,15,0.81,15.4,-46.7,,*69
$GNGGA,064527.00,0438.27048,S,05528.16891,E,1,12,0.81,15.4,M,-46.7,M,,*44
$GNGSA,A,3,25,12,05,15,18,29,20,13,24,,,,1.41,0.81,1.16*16
$GNGSA,A,3,88,77,76,65,66,72,,,,,,,1.41,0.81,1.16*10
$GPGSV,4,1,14,05,52,048,28,12,66,039,32,13,14,121,16,15,36,153,28*7B
$GPGSV,4,2,14,18,34,274,24,20,18,036,32,23,33,207,09,24,41,188,17*75
$GPGSV,4,3,14,25,43,344,42,29,11,335,42,36,52,277,33,40,86,355,*7F
$GPGSV,4,4,14,41,57,081,28,49,32,274,*75
$GLGSV,3,1,10,65,34,137,31,66,16,187,10,72,16,078,22,75,06,155,*65
$GLGSV,3,2,10,76,64,161,07,77,63,326,17,78,05,333,,81,09,265,*6B
$GLGSV,3,3,10,87,03,011,,88,18,316,35*63
$GNGLL,0438.27048,S,05528.16891,E,064527.00,A,A*63
$GNGRS,064527.00,1,0.4,-36.9,-9.8,15.9,10.6,1.1,0.5,-18.3,-7.9,,,*7E
$GNGRS,064527.00,1,-2.1,-9.0,4.3,1.8,-73.5,-25.8,,,,,,*58
$GNGST,064527.00,56,,,,2.5,2.9,4.7*47
$GNZDA,064527.00,16,05,2025,00,00*7D
$GNGBS,064527.00,2.5,2.9,4.7,,,,*52
$GNTXT,01,01,01,More than 100 frame errors, UART RX was disabled*70
b0(I340K B'vy$" $!C)7(+X)Ot{!4Vc9Q A"B
EHNKL@M?F
NMQW
X#<)bI3Ba$GNRMC,064528.00,A,0438.27056,S,05528.16888,E,0.048,,160525,,,A*7B
$GNVTG,,T,,M,0.048,N,0.088,K,A*31
$GNGNS,064528.00,0438.27056,S,05528.16888,E,AA,16,0.81,15.3,-46.7,,*65
$GNGGA,064528.00,0438.27056,S,05528.16888,E,1,12,0.81,15.3,M,-46.7,M,,*4B
$GNGSA,A,3,25,12,05,15,18,29,20,13,23,24,,,1.44,0.81,1.19*1D
$GNGSA,A,3,88,77,76,65,66,72,,,,,,,1.44,0.81,1.19*1A
$GPGSV,4,1,14,05,52,048,27,12,66,039,32,13,14,121,16,15,36,153,28*74
$GPGSV,4,2,14,18,34,274,23,20,18,036,32,23,33,207,12,24,41,188,17*78
$GPGSV,4,3,14,25,43,344,40,29,11,335,41,36,52,277,33,40,86,355,*7E
$GPGSV,4,4,14,41,57,081,27,49,32,274,*7A
$GLGSV,3,1,10,65,34,137,31,66,16,187,10,72,16,078,22,75,06,155,*65
$GLGSV,3,2,10,76,64,161,11,77,63,326,16,78,05,333,,81,09,265,*6D
$GLGSV,3,3,10,87,03,011,,88,18,316,35*63
$GNGLL,0438.27056,S,05528.16888,E,064528.00,A,A*6B
$GNGRS,064528.00,1,0.1,-32.1,-12.1,17.9,11.8,1.2,1.4,-21.3,-55.6,-7.1,,*72
$GNGRS,064528.00,1,-2.2,-7.6,4.1,2.0,3.3,-26.8,,,,,,*4A
$GNGST,064528.00,90840,,,,2.5,2.9,4.7*7E
$GNZDA,064528.00,16,05,2025,00,00*72
$GNGBS,064528.00,2.5,2.9,4.7,,,,*5D
$GNTXT,01,01,01,More than 100 frame errors, UART RX was disabled*70
b0(xM340 B'-y$"$
!)!(+X)OL{ 4Vc9Q A"BHNKL@M?FNMQW
X#<6bxM3BI$GNRMC,064529.00,A,0438.27065,S,05528.16883,E,0.037,,160525,,,A*79
$GNVTG,,T,,M,0.037,N,0.069,K,A*36
$GNGNS,064529.00,0438.27065,S,05528.16883,E,AA,15,0.81,15.0,-46.7,,*6F
$GNGGA,064529.00,0438.27065,S,05528.16883,E,1,12,0.81,15.0,M,-46.7,M,,*42
$GNGSA,A,3,25,12,05,15,18,29,20,13,24,,,,1.44,0.81,1.19*1C
$GNGSA,A,3,88,77,76,65,66,72,,,,,,,1.44,0.81,1.19*1A
$GPGSV,4,1,14,05,52,048,27,12,66,039,32,13,14,121,16,15,36,153,28*74
$GPGSV,4,2,14,18,34,274,22,20,18,036,31,23,33,207,10,24,41,188,15*7A
$GPGSV,4,3,14,25,43,344,40,29,11,335,41,36,52,277,32,40,86,355,*7F
$GPGSV,4,4,14,41,57,081,,49,32,274,*7F
$GLGSV,3,1,10,65,34,137,31,66,16,187,09,72,16,078,23,75,06,155,*6C
$GLGSV,3,2,10,76,64,161,11,77,63,326,15,78,05,333,,81,09,265,*6E
$GLGSV,3,3,10,87,03,011,,88,18,316,35*63
$GNGLL,0438.27065,S,05528.16883,E,064529.00,A,A*61
$GNGRS,064529.00,1,0.0,-40.5,-13.8,17.4,14.5,0.8,-0.6,-23.5,-4.8,,,*60
$GNGRS,064529.00,1,-2.0,-6.0,3.9,2.1,2.7,-28.5,,,,,,*46
$GNGST,064529.00,98718,,,,2.5,2.9,4.7*75
$GNZDA,064529.00,16,05,2025,00,00*73
$GNGBS,064529.00,2.5,2.9,4.7,,,,*5C
$GNTXT,01,01,01,More than 100 frame errors, UART RX was disabled*70
b0(`Q340B'y$"K$E!2)(+X)O?{4Vc9Q A"BHNKL@,M?FxNMQW
X#<,1%b`Q3B1xs$GNRMC,064530.00,A,0438.27073,S,05528.16877,E,0.052,,160525,,,A*7E
$GNVTG,,T,,M,0.052,N,0.096,K,A*35
$GNGNS,064530.00,0438.27073,S,05528.16877,E,AA,15,0.87,14.7,-46.7,,*6B
$GNGGA,064530.00,0438.27073,S,05528.16877,E,1,12,0.87,14.7,M,-46.7,M,,*46
$GNGSA,A,3,25,12,05,15,18,29,20,13,24,,,,1.59,0.87,1.34*19
$GNGSA,A,3,88,77,76,65,66,72,,,,,,,1.59,0.87,1.34*1F
$GPGSV,4,1,14,05,52,048,26,12,66,039,31,13,14,121,15,15,36,153,27*7A
$GPGSV,4,2,14,18,34,274,22,20,18,036,30,23,33,207,08,24,41,188,13*74
$GPGSV,4,3,14,25,43,344,40,29,11,335,41,36,52,277,31,40,86,355,*7C
$GPGSV,4,4,14,41,57,081,,49,32,274,*7F
$GLGSV,3,1,10,65,34,137,30,66,16,187,13,72,16,078,23,75,06,155,*66
$GLGSV,3,2,10,76,64,161,11,77,63,326,14,78,05,333,,81,09,265,*6F
$GLGSV,3,3,10,87,03,011,,88,18,316,35*63
$GNGLL,0438.27073,S,05528.16877,E,064530.00,A,A*65
$GNGRS,064530.00,1,0.0,-40.8,-13.8,17.3,13.6,0.6,-1.9,-26.8,-3.3,,,*62
$GNGRS,064530.00,1,-2.1,-3.9,-7.2,2.5,-80.4,-28.4,,,,,,*70
$GNGST,064530.00,51,,,,2.6,2.9,4.8*4A
$GNZDA,064530.00,16,05,2025,00,00*7B
$GNGBS,064530.00,2.6,2.9,4.8,,,,*58
$GNTXT,01,01,01,More than 100 frame errors, UART RX was disabled*70
b0(HU340`B'ya$"5$!)(+X)O){ 4Vc9Q A"B`HNKL@#M?FTNMQW
X$<4ebHU3BP$GNRMC,064531.00,A,0438.27078,S,05528.16876,E,0.059,,160525,,,A*7E
$GNVTG,,T,,M,0.059,N,0.110,K,A*31
$GNGNS,064531.00,0438.27078,S,05528.16876,E,AA,15,0.82,14.6,-46.7,,*64
$GNGGA,064531.00,0438.27078,S,05528.16876,E,1,12,0.82,14.6,M,-46.7,M,,*49
$GNGSA,A,3,25,12,05,15,18,29,20,13,24,,,,1.52,0.82,1.28*1A
$GNGSA,A,3,88,77,76,65,66,72,,,,,,,1.52,0.82,1.28*1C
$GPGSV,4,1,14,05,52,048,26,12,66,039,31,13,14,121,13,15,36,153,27*7C
$GPGSV,4,2,14,18,34,274,23,20,18,036,30,23,33,207,08,24,41,188,13*75
$GPGSV,4,3,14,25,43,344,40,29,11,335,41,36,52,277,32,40,86,355,*7F
$GPGSV,4,4,14,41,57,081,,49,32,274,*7F
