$GNTXT,01,01,01,More than 100 frame errors, UART RX was disabled*70
b0(P$:<!;P"l"'G -$W
H{4%Vb"9Q ABHXKL JM6PTQW
X3UbP$B"
$GNRMC,062848.00,A,0438.24659,S,05528.24584,E,0.095,,160525,,,A*7C
$GNVTG,,T,,M,0.095,N,0.176,K,A*31
$GNGNS,062848.00,0438.24659,S,05528.24584,E,AA,12,0.78,26.0,-46.7,,*63
$GNGGA,062848.00,0438.24659,S,05528.24584,E,1,12,0.78,26.0,M,-46.7,M,,*49
$GNGSA,A,3,25,12,15,18,20,13,23,24,,,,,1.63,0.78,1.43*1F
$GNGSA,A,3,88,77,76,65,,,,,,,,,1.63,0.78,1.43*13
$GPGSV,4,1,15,05,58,060,,12,59,027,33,13,15,128,25,15,34,162,25*77
$GPGSV,4,2,15,18,34,264,28,20,24,039,20,22,01,138,,23,26,206,25*7E
$GPGSV,4,3,15,24,45,196,32,25,36,343,26,29,10,328,14,36,52,277,*76
$GPGSV,4,4,15,40,86,354,37,41,57,081,34,49,32,274,*45
$GLGSV,3,1,09,65,30,146,27,66,11,194,,72,16,088,,75,14,154,19*69
$GLGSV,3,2,09,76,74,148,32,77,54,336,28,81,09,256,,87,07,004,*63
$GLGSV,3,3,09,88,22,307,25*5F
$GNGLL,0438.24659,S,05528.24584,E,062848.00,A,A*6C
$GNGRS,062848.00,1,-10.7,-1.8,11.3,1.7,13.5,-3.3,-3.4,-3.5,,,,*41
$GNGRS,062848.00,1,2.0,-1.7,0.3,-0.6,,,,,,,,*51
$GNGST,062848.00,33,,,,2.6,4.1,8.1*41
$GNZDA,062848.00,16,05,2025,00,00*7F
$GNGBS,062848.00,2.6,4.1,8.1,,,,*57
$GNTXT,01,01,01,More than 100 frame errors, UART RX was disabled*70
b0(8$:<!;tw"!"w'~ -$W
H{4)Vb"9Q ABHXKLJ^M6P7QW
X3{rb8$B

~y$GNRMC,062849.00,A,0438.24661,S,05528.24579,E,0.181,,160525,,,A*70
$GNVTG,,T,,M,0.181,N,0.334,K,A*31
$GNGNS,062849.00,0438.24661,S,05528.24579,E,AA,12,0.78,25.9,-46.7,,*61
$GNGGA,062849.00,0438.24661,S,05528.24579,E,1,12,0.78,25.9,M,-46.7,M,,*4B
$GNGSA,A,3,25,12,15,18,20,13,23,24,,,,,1.63,0.78,1.43*1F
$GNGSA,A,3,88,77,76,65,,,,,,,,,1.63,0.78,1.43*13
$GPGSV,4,1,15,05,58,060,25,12,59,027,33,13,15,128,24,15,34,162,27*73
$GPGSV,4,2,15,18,34,264,33,20,24,039,20,22,01,138,,23,26,206,25*74
$GPGSV,4,3,15,24,45,196,32,25,36,343,29,29,10,328,17,36,52,277,*7A
$GPGSV,4,4,15,40,86,354,41,41,57,081,34,49,32,274,*44
$GLGSV,3,1,09,65,30,146,26,66,11,194,,72,16,088,,75,14,154,16*67
$GLGSV,3,2,09,76,74,148,27,77,54,336,24,81,09,256,,87,07,004,*6B
$GLGSV,3,3,09,88,22,307,22*58
$GNGLL,0438.24661,S,05528.24579,E,062849.00,A,A*64
$GNGRS,062849.00,1,-6.4,-1.4,14.5,6.3,12.3,-1.4,-3.9,-3.6,,,,*74
$GNGRS,062849.00,1,3.8,-7.1,0.9,-0.2,,,,,,,,*57
$GNGST,062849.00,36,,,,2.6,4.1,8.1*45
$GNZDA,062849.00,16,05,2025,00,00*7E
$GNGBS,062849.00,2.6,4.1,8.1,,,,*56
$GNTXT,01,01,01,More than 100 frame errors, UART RX was disabled*70
b0( $:<";"e!"'M!-$W
H{4)Vb$9Q ABBHXKL&JM6PQW
X3
yb $B
U$GNRMC,062850.00,A,0438.24653,S,05528.24580,E,0.234,,160525,,,A*72
$GNVTG,,T,,M,0.234,N,0.433,K,A*3C
$GNGNS,062850.00,0438.24653,S,05528.24580,E,AA,13,0.75,25.2,-46.7,,*69
$GNGGA,062850.00,0438.24653,S,05528.24580,E,1,12,0.75,25.2,M,-46.7,M,,*42
$GNGSA,A,3,25,12,05,15,18,20,13,23,24,,,,1.55,0.75,1.36*10
$GNGSA,A,3,88,77,76,65,,,,,,,,,1.55,0.75,1.36*19
$GPGSV,4,1,15,05,58,060,31,12,59,027,34,13,15,128,22,15,34,162,30*71
$GPGSV,4,2,15,18,34,264,33,20,24,039,22,22,01,138,,23,26,206,26*75
$GPGSV,4,3,15,24,45,196,33,25,36,343,28,29,10,328,18,36,52,277,*75
$GPGSV,4,4,15,40,86,354,41,41,57,081,36,49,32,274,*46
$GLGSV,3,1,09,65,30,146,29,66,11,194,,72,16,088,,75,14,154,15*6B
$GLGSV,3,2,09,76,74,148,38,77,54,336,23,81,09,256,,87,07,004,*62
$GLGSV,3,3,09,88,22,307,25*5F
$GNGLL,0438.24653,S,05528.24580,E,062850.00,A,A*6B
$GNGRS,062850.00,1,2.4,-0.8,4.2,11.3,4.2,5.9,-3.7,-5.2,-3.3,,,*45
$GNGRS,062850.00,1,1.5,-10.1,-2.8,0.7,,,,,,,,*60
$GNGST,062850.00,32,,,,2.6,4.0,8.0*49
$GNZDA,062850.00,16,05,2025,00,00*76
$GNGBS,062850.00,2.6,4.0,8.0,,,,*5E
$GNTXT,01,01,01,More than 100 frame errors, UART RX was disabled*70
b0($:<O(;" "0'Q#$-$W
H{"4'Vb"9Q ABHXKL&JgM6PQW
X3Kb$B
-F$GNRMC,062851.00,A,0438.24644,S,05528.24589,E,0.113,,160525,,,A*7A
$GNVTG,,T,,M,0.113,N,0.209,K,A*35
$GNGNS,062851.00,0438.24644,S,05528.24589,E,AA,13,0.75,24.9,-46.7,,*6D
$GNGGA,062851.00,0438.24644,S,05528.24589,E,1,12,0.75,24.9,M,-46.7,M,,*46
$GNGSA,A,3,25,12,05,15,18,20,13,23,24,,,,1.55,0.75,1.36*10
$GNGSA,A,3,88,77,76,65,,,,,,,,,1.55,0.75,1.36*19
$GPGSV,4,1,15,05,58,060,30,12,59,027,40,13,15,128,20,15,34,162,30*71
$GPGSV,4,2,15,18,34,264,32,20,24,039,22,22,01,138,,23,26,206,35*76
$GPGSV,4,3,15,24,45,196,36,25,36,343,26,29,10,328,,36,52,277,34*70
$GPGSV,4,4,15,40,86,354,39,41,57,081,34,49,32,274,*4B
$GLGSV,3,1,09,65,30,146,29,66,11,194,22,72,16,088,,75,14,154,18*66
$GLGSV,3,2,09,76,74,148,38,77,54,336,26,81,09,256,,87,07,004,*67
$GLGSV,3,3,09,88,22,307,30*5B
$GNGLL,0438.24644,S,05528.24589,E,062851.00,A,A*65
$GNGRS,062851.00,1,9.9,0.1,16.1,7.4,0.5,3.4,-5.1,-2.9,-2.6,,,*66
$GNGRS,062851.00,1,-0.3,-5.2,-1.5,1.6,,,,,,,,*72
$GNGST,062851.00,29,,,,2.5,4.0,7.8*46
$GNZDA,062851.00,16,05,2025,00,00*77
$GNGBS,062851.00,2.5,4.0,7.8,,,,*5B
$GNTXT,01,01,01,More than 100 frame errors, UART RX was disabled*70
b0($:<%;,P!"{"a' #-$W
H{#4#Vb!9Q ABHXKL%JmM6PJQW
X3|ab$B
$GNRMC,062852.00,A,0438.24646,S,05528.24597,E,0.108,,160525,,,A*7E
$GNVTG,,T,,M,0.108,N,0.199,K,A*35
$GNGNS,062852.00,0438.24646,S,05528.24597,E,AA,13,0.78,24.3,-46.7,,*64
$GNGGA,062852.00,0438.24646,S,05528.24597,E,1,12,0.78,24.3,M,-46.7,M,,*4F
$GNGSA,A,3,25,12,05,15,18,20,13,23,24,,,,1.63,0.78,1.43*1A
$GNGSA,A,3,88,77,76,65,,,,,,,,,1.63,0.78,1.43*13
$GPGSV,4,1,15,05,58,060,28,12,59,027,37,13,15,128,22,15,34,162,33*79
$GPGSV,4,2,15,18,34,264,28,20,24,039,24,22,01,138,,23,26,206,32*7C
$GPGSV,4,3,15,24,45,196,35,25,36,343,28,29,10,328,,36,52,277,35*7C
$GPGSV,4,4,15,40,86,354,35,41,57,081,33,49,32,274,*40
$GLGSV,3,1,09,65,30,146,27,66,11,194,21,72,16,088,,75,14,154,21*61
$GLGSV,3,2,09,76,74,148,37,77,54,336,25,81,09,256,,87,07,004,*6B
$GLGSV,3,3,09,88,22,307,27*5D
$GNGLL,0438.24646,S,05528.24597,E,062852.00,A,A*6B
$GNGRS,062852.00,1,2.7,0.4,22.2,8.9,6.1,2.5,-4.3,2.2,-2.5,,,*47
$GNGRS,062852.00,1,-3.8,-6.9,-1.5,-0.6,,,,,,,,*5D
$GNGST,062852.00,28,,,,2.4,3.9,7.6*45
$GNZDA,062852.00,16,05,2025,00,00*74
$GNGBS,062852.00,2.4,3.9,7.6,,,,*59
$GNTXT,01,01,01,More than 100 frame errors, UART RX was disabled*70
b0($:<#;"""'#-$W
H{ 4 Vb!9Q ABHXKL$JM6P%QW
X3fb$B
$GNRMC,062853.00,A,0438.24647,S,05528.24607,E,0.102,,160525,,,A*7E
$GNVTG,,T,,M,0.102,N,0.189,K,A*3E
$GNGNS,062853.00,0438.24647,S,05528.24607,E,AA,13,0.75,24.2,-46.7,,*62
$GNGGA,062853.00,0438.24647,S,05528.24607,E,1,12,0.75,24.2,M,-46.7,M,,*49
$GNGSA,A,3,25,12,05,15,18,20,13,23,24,,,,1.55,0.75,1.36*10
$GNGSA,A,3,88,77,76,65,,,,,,,,,1.55,0.75,1.36*19
$GPGSV,4,1,15,05,58,060,27,12,59,027,35,13,15,128,25,15,34,162,34*74
$GPGSV,4,2,15,18,34,264,28,20,24,039,24,22,01,138,,23,26,206,27*78
$GPGSV,4,3,15,24,45,196,35,25,36,343,28,29,10,328,,36,52,277,32*7B
$GPGSV,4,4,15,40,86,354,32,41,57,081,33,49,32,274,*47
$GLGSV,3,1,09,65,30,146,25,66,11,194,17,72,16,088,,75,14,154,21*66
$GLGSV,3,2,09,76,74,148,36,77,54,336,25,81,09,256,,87,07,004,*6A
$GLGSV,3,3,09,88,22,307,25*5F
$GNGLL,0438.24647,S,05528.24607,E,062853.00,A,A*61
$GNGRS,062853.00,1,-2.9,0.2,12.9,2.3,7.4,4.1,-3.1,4.2,-2.3,,,*68
$GNGRS,062853.00,1,-9.2,-7.3,1.5,2.8,,,,,,,,*5B
$GNGST,062853.00,30,,,,2.4,3.9,7.5*4E
$GNZDA,062853.00,16,05,2025,00,00*75
$GNGBS,062853.00,2.4,3.9,7.5,,,,*5B
$GNTXT,01,01,01,More than 100 frame errors, UART RX was disabled*70
b0($:<!;$"."'T"-,$W
H{!4$Vb#9Q ABHXKL!JlM6PQW
X3<&b$B
o$GNRMC,062854.00,A,0438.24648,S,05528.24614,E,0.144,,160525,,,A*76
$GNVTG,,T,,M,0.144,N,0.267,K,A*3F
$GNGNS,062854.00,0438.24648,S,05528.24614,E,AA,13,0.75,24.0,-46.7,,*6A
$GNGGA,062854.00,0438.24648,S,05528.24614,E,1,12,0.75,24.0,M,-46.7,M,,*41
$GNGSA,A,3,25,12,05,15,18,20,13,23,24,,,,1.55,0.75,1.36*10
$GNGSA,A,3,88,77,76,65,,,,,,,,,1.55,0.75,1.36*19
$GPGSV,4,1,15,05,58,060,26,12,59,027,33,13,15,128,25,15,34,162,36*71
$GPGSV,4,2,15,18,34,264,30,20,24,039,20,22,01,138,,23,26,206,27*75
$GPGSV,4,3,15,24,45,196,34,25,36,343,29,29,10,328,17,36,52,277,33*7C
$GPGSV,4,4,15,40,86,354,36,41,57,081,35,49,32,274,*45
$GLGSV,3,1,09,65,30,146,24,66,11,194,16,72,16,088,,75,14,154,19*6D
$GLGSV,3,2,09,76,74,148,33,77,54,336,26,81,09,256,,87,07,004,*6C
$GLGSV,3,3,09,88,22,307,24*5E
$GNGLL,0438.24648,S,05528.24614,E,062854.00,A,A*6B
$GNGRS,062854.00,1,-8.2,0.2,9.2,0.5,7.4,6.0,-2.3,12.5,-2.1,,,*69
$GNGRS,062854.00,1,-19.9,-8.5,1.1,-4.8,,,,,,,,*40
$GNGST,062854.00,31,,,,2.4,3.8,7.4*48
$GNZDA,062854.00,16,05,2025,00,00*72
$GNGBS,062854.00,2.4,3.8,7.4,,,,*5C
$GNTXT,01,01,01,More than 100 frame errors, UART RX was disabled*70
b0("$:<z#;S"""8'5 -*$W0
H{!4(Vb#9Q A(BHXKL$JM6P\QW
X37b"$Bz
$GNRMC,062855.00,A,0438.24653,S,05528.24615,E,0.041,,160525,,,A*78
$GNVTG,,T,,M,0.041,N,0.076,K,A*39
$GNGNS,062855.00,0438.24653,S,05528.24615,E,AA,12,0.87,24.6,-46.7,,*6A
$GNGGA,062855.00,0438.24653,S,05528.24615,E,1,12,0.87,24.6,M,-46.7,M,,*40
$GNGSA,A,3,25,12,05,15,18,13,23,24,,,,,1.73,0.87,1.50*1B
$GNGSA,A,3,88,77,76,65,,,,,,,,,1.73,0.87,1.50*10
$GPGSV,4,1,15,05,58,060,23,12,59,027,35,13,15,128,25,15,34,162,34*70
$GPGSV,4,2,15,18,34,264,31,20,24,039,,22,01,138,,23,26,206,28*79
$GPGSV,4,3,15,24,45,196,32,25,36,343,31,29,10,328,17,36,52,277,33*73
$GPGSV,4,4,15,40,86,354,40,41,57,081,35,49,32,274,*44
$GLGSV,3,1,09,65,30,146,21,66,11,194,15,72,16,088,,75,14,154,19*6B
$GLGSV,3,2,09,76,74,148,36,77,54,336,27,81,09,256,,87,07,004,*68
$GLGSV,3,3,09,88,22,307,27*5D
$GNGLL,0438.24653,S,05528.24615,E,062855.00,A,A*61
$GNGRS,062855.00,1,-7.2,0.8,6.3,-3.4,3.1,-2.5,5.7,-2.1,,,,*57
$GNGRS,062855.00,1,-26.3,-6.8,0.0,-7.3,,,,,,,,*4C
$GNGST,062855.00,29,,,,2.4,3.8,7.3*47
$GNZDA,062855.00,16,05,2025,00,00*73
$GNGBS,062855.00,2.4,3.8,7.3,,,,*5A
$GNTXT,01,01,01,More than 100 frame errors, UART RX was disabled*70
b0(&$:<;"""p'0 -R$W
H{!4!Vb"9Q ABHXKL JM6PQW
X3b&$Bb
d?$GNRMC,062856.00,A,0438.24657,S,05528.24610,E,0.103,,160525,,,A*7D
$GNVTG,,T,,M,0.103,N,0.190,K,A*37
$GNGNS,062856.00,0438.24657,S,05528.24610,E,AA,12,0.87,24.8,-46.7,,*66
$GNGGA,062856.00,0438.24657,S,05528.24610,E,1,12,0.87,24.8,M,-46.7,M,,*4C
$GNGSA,A,3,25,12,05,15,18,13,23,24,,,,,1.73,0.87,1.50*1B
$GNGSA,A,3,88,77,76,65,,,,,,,,,1.73,0.87,1.50*10
$GPGSV,4,1,15,05,58,060,30,12,59,027,31,13,15,128,23,15,34,162,34*70
$GPGSV,4,2,15,18,34,264,30,20,24,039,19,22,01,138,,23,26,206,28*70
$GPGSV,4,3,15,24,45,196,32,25,36,343,31,29,10,328,17,36,52,277,33*73
$GPGSV,4,4,15,40,86,354,33,41,57,081,34,49,32,274,*41
$GLGSV,3,1,09,65,30,146,22,66,12,194,12,72,16,088,,75,14,154,16*63
$GLGSV,3,2,09,76,74,148,32,77,54,336,27,81,09,256,,87,07,004,*6C
$GLGSV,3,3,09,88,22,307,27*5D
$GNGLL,0438.24657,S,05528.24610,E,062856.00,A,A*63
$GNGRS,062856.00,1,-0.6,2.3,-3.5,-2.3,8.8,-2.8,3.0,-1.7,,,,*7D
$GNGRS,062856.00,1,-21.1,-6.3,-0.5,-1.1,,,,,,,,*6D
$GNGST,062856.00,29,,,,2.4,3.8,7.3*44
$GNZDA,062856.00,16,05,2025,00,00*70
$GNGBS,062856.00,2.4,3.8,7.3,,,,*59
$GNTXT,01,01,01,More than 100 frame errors, UART RX was disabled*70
b0(x*$:<&;#"f"^'- $WX
H{"4#Vb 9Q ABHXKL$J{M6P,QW
X3gbx*$BJ
<$GNRMC,062857.00,A,0438.24658,S,05528.24608,E,0.086,,160525,,,A*76
$GNVTG,,T,,M,0.086,N,0.159,K,A*3E
$GNGNS,062857.00,0438.24658,S,05528.24608,E,AA,12,0.87,25.0,-46.7,,*68
$GNGGA,062857.00,0438.24658,S,05528.24608,E,1,12,0.87,25.0,M,-46.7,M,,*42
$GNGSA,A,3,25,12,05,15,18,13,23,24,,,,,1.73,0.87,1.50*1B
$GNGSA,A,3,88,77,76,65,,,,,,,,,1.73,0.87,1.50*10
$GPGSV,4,1,15,05,58,060,29,12,59,027,38,13,15,128,23,15,34,162,35*70
$GPGSV,4,2,15,18,34,264,31,20,24,039,20,22,01,138,,23,26,206,28*7B
$GPGSV,4,3,15,24,45,196,25,25,36,343,32,29,10,328,,36,52,277,34*77
$GPGSV,4,4,15,40,86,354,35,41,57,081,32,49,32,274,*41
$GLGSV,3,1,09,65,30,146,22,66,12,194,14,72,16,088,,75,14,154,16*65
$GLGSV,3,2,09,76,74,148,36,77,54,336,27,81,09,256,,87,07,004,*68
$GLGSV,3,3,09,88,22,307,24*5E
$GNGLL,0438.24658,S,05528.24608,E,062857.00,A,A*64
$GNGRS,062857.00,1,-1.7,2.2,-15.3,-1.5,3.5,-2.5,4.5,-0.9,,,,*4F
$GNGRS,062857.00,1,-19.5,-7.2,-1.3,-0.4,,,,,,,,*60
$GNGST,062857.00,31,,,,2.4,3.7,7.3*43
$GNZDA,062857.00,16,05,2025,00,00*71
$GNGBS,062857.00,2.4,3.7,7.3,,,,*57
$GNTXT,01,01,01,More than 100 frame errors, UART RX was disabled*70
b0(`.$:<[&;b$""F'Y-$W
H{ 4 Vb 9Q ABHXKL#J]M6PQW
X3b`.$B2
$GNRMC,062858.00,A,0438.24658,S,05528.24599,E,0.173,,160525,,,A*79
$GNVTG,,T,,M,0.173,N,0.321,K,A*38
$GNGNS,062858.00,0438.24658,S,05528.24599,E,AA,13,0.78,25.1,-46.7,,*6C
$GNGGA,062858.00,0438.24658,S,05528.24599,E,1,12,0.78,25.1,M,-46.7,M,,*47
$GNGSA,A,3,25,12,05,15,18,20,13,23,24,,,,1.63,0.78,1.43*1A
$GNGSA,A,3,88,77,76,65,,,,,,,,,1.63,0.78,1.43*13
$GPGSV,4,1,15,05,58,060,26,12,59,027,38,13,15,128,25,15,34,162,36*7A
$GPGSV,4,2,15,18,34,264,30,20,24,039,23,22,01,138,,23,26,206,26*77
$GPGSV,4,3,15,24,45,196,25,25,36,343,30,29,10,328,,36,52,277,32*73
$GPGSV,4,4,15,40,86,354,32,41,57,081,32,49,32,274,*46
$GLGSV,3,1,09,65,30,146,22,66,12,194,17,72,16,088,,75,14,154,17*67
$GLGSV,3,2,09,76,74,148,35,77,54,336,25,81,09,256,,87,07,004,*69
$GLGSV,3,3,09,88,22,307,21*5B
$GNGLL,0438.24658,S,05528.24599,E,062858.00,A,A*60
$GNGRS,062858.00,1,1.5,0.0,-24.7,-2.4,8.4,-6.8,1.0,-0.6,2.2,,,*49
$GNGRS,062858.00,1,-18.0,-7.9,-1.6,0.2,,,,,,,,*4E
$GNGST,062858.00,34,,,,2.3,3.7,7.2*4F
$GNZDA,062858.00,16,05,2025,00,00*7E
$GNGBS,062858.00,2.3,3.7,7.2,,,,*5E
$GNTXT,01,01,01,More than 100 frame errors, UART RX was disabled*70
b0(H2$:<L&;%""'- -U$W9
H{ 4#Vb$9Q A,BHXKL&JM6PIQW
X3ZbH2$B
w$GNRMC,062859.00,A,0438.24654,S,05528.24585,E,0.062,,160525,,,A*78
$GNVTG,,T,,M,0.062,N,0.116,K,A*3F
$GNGNS,062859.00,0438.24654,S,05528.24585,E,AA,13,0.75,25.1,-46.7,,*61
$GNGGA,062859.00,0438.24654,S,05528.24585,E,1,12,0.75,25.1,M,-46.7,M,,*4A
$GNGSA,A,3,25,12,05,15,18,20,13,23,24,,,,1.55,0.75,1.36*10
$GNGSA,A,3,88,77,76,65,,,,,,,,,1.55,0.75,1.36*19
$GPGSV,4,1,15,05,58,060,25,12,59,027,38,13,15,128,24,15,34,162,37*79
$GPGSV,4,2,15,18,34,264,29,20,24,039,22,22,01,138,,23,26,206,25*7D
$GPGSV,4,3,15,24,45,196,32,25,36,343,31,29,10,328,,36,52,277,32*74
$GPGSV,4,4,15,40,86,354,35,41,57,081,36,49,32,274,*45
$GLGSV,3,1,09,65,30,146,23,66,12,194,16,72,16,088,,75,14,154,18*68
$GLGSV,3,2,09,76,74,148,38,77,54,336,23,81,09,256,,87,07,004,*62
$GLGSV,3,3,09,88,22,307,17*5E
$GNGLL,0438.24654,S,05528.24585,E,062859.00,A,A*60
$GNGRS,062859.00,1,0.6,-0.2,-12.0,-3.1,13.0,-4.7,2.3,9.5,0.9,,,*7E
$GNGRS,062859.00,1,-18.6,-4.4,-1.3,3.0,,,,,,,,*43
$GNGST,062859.00,36,,,,2.3,3.7,7.1*4F
$GNZDA,062859.00,16,05,2025,00,00*7F
$GNGBS,062859.00,2.3,3.7,7.1,,,,*5C
$GNTXT,01,01,01,More than 100 frame errors, UART RX was disabled*70
b0(06$:<c(;j%""'x-i$W
H{ 4%Vb 9Q ANBHXKL'JM6PQW
X3_Nb06$B
$GNRMC,062900.00,A,0438.24651,S,05528.24581,E,0.032,,160525,,,A*71
$GNVTG,,T,,M,0.032,N,0.060,K,A*3A
$GNGNS,062900.00,0438.24651,S,05528.24581,E,AA,13,0.75,25.0,-46.7,,*6C
$GNGGA,062900.00,0438.24651,S,05528.24581,E,1,12,0.75,25.0,M,-46.7,M,,*47
$GNGSA,A,3,25,12,05,15,18,20,13,23,24,,,,1.55,0.75,1.36*10
$GNGSA,A,3,88,77,76,65,,,,,,,,,1.55,0.75,1.36*19
$GPGSV,4,1,15,05,58,060,24,12,59,027,40,13,15,128,22,15,34,162,37*71
$GPGSV,4,2,15,18,34,264,28,20,24,039,21,22,01,138,,23,26,206,26*7C
$GPGSV,4,3,15,24,45,196,31,25,36,343,30,29,10,328,,36,52,277,32*76
$GPGSV,4,4,15,40,86,354,37,41,57,081,32,49,32,274,*43
$GLGSV,3,1,09,65,30,146,25,66,12,194,17,72,16,088,,75,14,154,19*6E
$GLGSV,3,2,09,76,74,148,39,77,54,336,21,81,09,256,,87,07,004,*61
$GLGSV,3,3,09,88,22,307,19*50
$GNGLL,0438.24651,S,05528.24581,E,062900.00,A,A*6C
$GNGRS,062900.00,1,-1.2,-0.5,6.1,-2.8,8.0,-4.9,3.6,3.8,-1.5,,,*5A
$GNGRS,062900.00,1,-19.5,-2.5,-0.8,3.3,,,,,,,,*42
$GNGST,062900.00,36,,,,2.3,3.7,6.9*4B
$GNZDA,062900.00,16,05,2025,00,00*72
$GNGBS,062900.00,2.3,3.7,6.9,,,,*58
$GNTXT,01,01,01,More than 100 frame errors, UART RX was disabled*70
b0(:$:<&;$""<'"-H$WB
H{ 4"Vb 9Q ATBHXKL%JM6PQW
X3X
b:$BF$GNRMC,062901.00,A,0438.24649,S,05528.24579,E,0.055,,160525,,,A*7F
$GNVTG,,T,,M,0.055,N,0.102,K,A*3E
$GNGNS,062901.00,0438.24649,S,05528.24579,E,AA,13,0.75,24.9,-46.7,,*6B
$GNGGA,062901.00,0438.24649,S,05528.24579,E,1,12,0.75,24.9,M,-46.7,M,,*40
$GNGSA,A,3,25,12,05,15,18,20,13,23,24,,,,1.55,0.75,1.36*10
$GNGSA,A,3,88,77,76,65,,,,,,,,,1.55,0.75,1.36*19
$GPGSV,4,1,15,05,58,060,26,12,59,027,38,13,15,128,24,15,34,162,36*7B
$GPGSV,4,2,15,18,34,264,27,20,24,039,20,22,01,138,,23,26,206,25*71
$GPGSV,4,3,15,24,45,196,31,25,36,343,25,29,10,328,,36,52,277,32*72
$GPGSV,4,4,15,40,86,354,34,41,57,081,32,49,32,274,*40
$GLGSV,3,1,09,65,30,146,27,66,12,194,16,72,16,088,,75,14,154,22*65
$GLGSV,3,2,09,76,74,148,37,77,54,336,19,81,09,256,,87,07,004,*64
$GLGSV,3,3,09,88,22,307,20*5A
$GNGLL,0438.24649,S,05528.24579,E,062901.00,A,A*63
$GNGRS,062901.00,1,0.7,-0.2,-5.5,-2.8,10.8,2.9,1.8,4.8,-1.8,,,*43
$GNGRS,062901.00,1,-19.6,-5.5,-0.8,3.4,,,,,,,,*40
$GNGST,062901.00,36,,,,2.2,3.6,6.9*4A
$GNZDA,062901.00,16,05,2025,00,00*73
$GNGBS,062901.00,2.2,3.6,6.9,,,,*59
$GNTXT,01,01,01,More than 100 frame errors, UART RX was disabled*70
b0(>$:<G$;Gd#""d'[!-$W1
H{4!Vb9Q ABHWKL"JM6PyQW
X3b>$Bt$GNRMC,062902.00,A,0438.24649,S,05528.24579,E,0.072,,160525,,,A*79
$GNVTG,,T,,M,0.072,N,0.133,K,A*39
$GNGNS,062902.00,0438.24649,S,05528.24579,E,AA,13,0.75,24.8,-46.7,,*69
$GNGGA,062902.00,0438.24649,S,05528.24579,E,1,12,0.75,24.8,M,-46.7,M,,*42
$GNGSA,A,3,25,12,05,15,18,20,13,23,24,,,,1.55,0.75,1.36*10
$GNGSA,A,3,88,77,76,65,,,,,,,,,1.55,0.75,1.36*19
$GPGSV,4,1,15,05,58,060,29,12,59,027,36,13,15,128,24,15,34,162,35*79
$GPGSV,4,2,15,18,34,264,27,20,24,039,21,22,01,138,,23,26,206,23*76
$GPGSV,4,3,15,24,45,196,33,25,36,343,31,29,10,328,,36,52,277,31*76
$GPGSV,4,4,15,40,86,354,33,41,57,081,30,49,32,274,*45
$GLGSV,3,1,09,65,30,146,29,66,12,194,18,72,16,087,,75,14,154,23*6B
$GLGSV,3,2,09,76,74,148,34,77,54,336,17,81,09,256,,87,07,004,*69
$GLGSV,3,3,09,88,22,307,18*51
$GNGLL,0438.24649,S,05528.24579,E,062902.00,A,A*60
$GNGRS,062902.00,1,0.5,-1.8,-1.8,-2.3,6.1,3.5,3.6,-2.5,-5.0,,,*5E
$GNGRS,062902.00,1,-18.0,-9.0,-0.6,4.4,,,,,,,,*44
$GNGST,062902.00,35,,,,2.2,3.6,6.9*4A
$GNZDA,062902.00,16,05,2025,00,00*70
$GNGBS,062902.00,2.2,3.6,6.9,,,,*5A
$GNTXT,01,01,01,More than 100 frame errors, UART RX was disabled*70
b0(A$:<z%;""-"'!-6$W
H{!4"Vb9Q ABHWKL"JM6P8QW
X323bA$BK$GNRMC,062903.00,A,0438.24646,S,05528.24576,E,0.145,,160525,,,A*7D
$GNVTG,,T,,M,0.145,N,0.269,K,A*30
$GNGNS,062903.00,0438.24646,S,05528.24576,E,AA,13,0.75,24.4,-46.7,,*64
$GNGGA,062903.00,0438.24646,S,05528.24576,E,1,12,0.75,24.4,M,-46.7,M,,*4F
$GNGSA,A,3,25,12,05,15,18,20,13,23,24,,,,1.55,0.75,1.36*10
$GNGSA,A,3,88,77,76,65,,,,,,,,,1.55,0.75,1.36*19
$GPGSV,4,1,15,05,58,060,31,12,59,027,37,13,15,128,23,15,34,162,34*77
$GPGSV,4,2,15,18,34,264,26,20,24,039,22,22,01,138,,23,26,206,20*77
$GPGSV,4,3,15,24,45,196,33,25,36,343,28,29,10,328,23,36,52,277,33*7D
$GPGSV,4,4,15,40,86,354,34,41,57,081,29,49,32,274,*4A
$GLGSV,3,1,09,65,30,146,30,66,12,194,17,72,16,087,,75,14,154,22*6D
$GLGSV,3,2,09,76,74,148,34,77,54,336,17,81,09,256,,87,07,004,*69
$GLGSV,3,3,09,88,22,307,15*5C
$GNGLL,0438.24646,S,05528.24576,E,062903.00,A,A*61
$GNGRS,062903.00,1,7.1,-1.0,-3.9,-2.1,9.8,9.0,2.7,4.7,-2.0,,,*72
$GNGRS,062903.00,1,-20.0,-9.7,-0.2,4.0,,,,,,,,*49
$GNGST,062903.00,39,,,,2.2,3.6,6.9*47
$GNZDA,062903.00,16,05,2025,00,00*71
$GNGBS,062903.00,2.2,3.6,6.9,,,,*5B
$GNTXT,01,01,01,More than 100 frame errors, UART RX was disabled*70
b0(E$:<$;""/"{'-!-$W
H{!4%Vb9Q ABHWKL"JM6PQW
X3[gbE$B#o$GNRMC,062904.00,A,0438.24639,S,05528.24576,E,0.076,,160525,,,A*73
$GNVTG,,T,,M,0.076,N,0.141,K,A*38
$GNGNS,062904.00,0438.24639,S,05528.24576,E,AA,13,0.83,24.1,-46.7,,*67
$GNGGA,062904.00,0438.24639,S,05528.24576,E,1,12,0.83,24.1,M,-46.7,M,,*4C
$GNGSA,A,3,25,12,05,15,18,20,13,23,24,,,,1.73,0.83,1.51*1C
$GNGSA,A,3,88,77,76,65,,,,,,,,,1.73,0.83,1.51*15
$GPGSV,4,1,15,05,58,060,29,12,59,027,36,13,15,128,22,15,34,162,34*7E
$GPGSV,4,2,15,18,34,264,28,20,24,039,21,22,01,138,,23,26,206,22*78
$GPGSV,4,3,15,24,45,196,33,25,36,343,27,29,10,328,22,36,52,277,33*73
$GPGSV,4,4,15,40,86,354,37,41,57,081,31,49,32,274,*40
$GLGSV,3,1,09,65,30,146,30,66,12,194,16,72,16,087,,75,14,154,21*6F
$GLGSV,3,2,09,76,74,148,34,77,54,336,15,81,09,256,,87,07,004,*6B
$GLGSV,3,3,09,88,22,307,19*50
$GNGLL,0438.24639,S,05528.24576,E,062904.00,A,A*6E
$GNGRS,062904.00,1,10.1,-0.4,-8.1,-2.1,3.8,10.7,6.4,4.7,-5.8,,,*78
$GNGRS,062904.00,1,-23.5,-8.3,0.3,1.5,,,,,,,,*61
$GNGST,062904.00,37,,,,2.2,3.6,6.9*4E
$GNZDA,062904.00,16,05,2025,00,00*76
$GNGBS,062904.00,2.2,3.6,6.9,,,,*5C
$GNTXT,01,01,01,More than 100 frame errors, UART RX was disabled*70
b0(I$:<%;"""'6-e$W
H{ 4&Vb!9Q ABHWKL$J#M6PYQW
X3[bI$B$GNRMC,062905.00,A,0438.24636,S,05528.24583,E,0.018,,160525,,,A*7F
$GNVTG,,T,,M,0.018,N,0.033,K,A*34
$GNGNS,062905.00,0438.24636,S,05528.24583,E,AA,13,0.83,23.8,-46.7,,*6D
$GNGGA,062905.00,0438.24636,S,05528.24583,E,1,12,0.83,23.8,M,-46.7,M,,*46
$GNGSA,A,3,25,12,05,15,18,20,13,23,24,,,,1.73,0.83,1.51*1C
$GNGSA,A,3,88,77,76,65,,,,,,,,,1.73,0.83,1.51*15
$GPGSV,4,1,15,05,58,060,29,12,59,027,37,13,15,128,23,15,34,162,34*7E
$GPGSV,4,2,15,18,34,264,31,20,24,039,21,22,01,138,,23,26,206,24*76
$GPGSV,4,3,15,24,45,196,31,25,36,343,27,29,10,328,21,36,52,277,32*73
$GPGSV,4,4,15,40,86,354,38,41,57,081,33,49,32,274,*4D
$GLGSV,3,1,09,65,30,146,30,66,12,194,14,72,16,087,,75,13,154,20*6B
$GLGSV,3,2,09,76,74,148,36,77,54,336,18,81,09,256,,87,07,004,*64
$GLGSV,3,3,09,88,22,307,20*5A
$GNGLL,0438.24636,S,05528.24583,E,062905.00,A,A*6A
$GNGRS,062905.00,1,10.0,-0.4,-7.4,-2.3,-3.1,5.7,6.4,4.6,-6.7,,,*6D
$GNGRS,062905.00,1,-22.8,-6.8,0.4,9.1,,,,,,,,*62
$GNGST,062905.00,32,,,,2.2,3.6,6.9*4A
$GNZDA,062905.00,16,05,2025,00,00*77
$GNGBS,062905.00,2.2,3.6,6.9,,,,*5D
$GNTXT,01,01,01,More than 100 frame errors, UART RX was disabled*70
b0(M$:<&;#"= "'5,-9$W0
H{!4&Vb!9Q AKBHWKL%IM6PQW
X3JbM$Br?$GNRMC,062906.00,A,0438.24637,S,05528.24580,E,0.113,,160525,,,A*74
$GNVTG,,T,,M,0.113,N,0.210,K,A*3D
$GNGNS,062906.00,0438.24637,S,05528.24580,E,AA,12,0.87,23.9,-46.7,,*68
$GNGGA,062906.00,0438.24637,S,05528.24580,E,1,12,0.87,23.9,M,-46.7,M,,*42
$GNGSA,A,3,25,12,15,18,20,13,23,24,,,,,1.83,0.87,1.62*12
$GNGSA,A,3,88,77,76,65,,,,,,,,,1.83,0.87,1.62*1E
$GPGSV,4,1,15,05,58,060,,12,59,027,38,13,15,128,24,15,34,162,35*7C
$GPGSV,4,2,15,18,34,264,32,20,24,039,18,22,01,138,,23,26,206,23*78
$GPGSV,4,3,15,24,45,196,29,25,36,343,29,29,10,328,20,36,52,277,33*74
$GPGSV,4,4,15,40,86,354,38,41,57,081,33,49,32,274,*4D
$GLGSV,3,1,09,65,30,146,30,66,12,194,15,72,16,087,,75,13,154,19*60
$GLGSV,3,2,09,76,73,149,37,77,54,336,16,81,09,256,,87,07,004,*6D
$GLGSV,3,3,09,88,22,307,22*58
$GNGLL,0438.24637,S,05528.24580,E,062906.00,A,A*6B
$GNGRS,062906.00,1,0.5,-0.4,-2.0,1.3,5.7,4.0,3.0,-2.0,,,,*70
$GNGRS,062906.00,1,-20.8,-5.7,0.3,3.3,,,,,,,,*60
$GNGST,062906.00,36,,,,2.2,3.6,6.8*4C
$GNZDA,062906.00,16,05,2025,00,00*74
$GNGBS,062906.00,2.2,3.6,6.8,,,,*5F
$GNTXT,01,01,01,More than 100 frame errors, UART RX was disabled*70
b0(Q$:<&;""."a'-$W;
H{"4"Vb"9Q ABHWKL%IM6OUQW
X3v!bQ$BZ$GNRMC,062907.00,A,0438.24636,S,05528.24578,E,0.041,,160525,,,A*75
$GNVTG,,T,,M,0.041,N,0.076,K,A*39
$GNGNS,062907.00,0438.24636,S,05528.24578,E,AA,11,0.92,23.9,-46.7,,*68
$GNGGA,062907.00,0438.24636,S,05528.24578,E,1,11,0.92,23.9,M,-46.7,M,,*42
$GNGSA,A,3,25,12,15,18,13,23,24,,,,,,1.79,0.92,1.54*14
$GNGSA,A,3,88,77,76,65,,,,,,,,,1.79,0.92,1.54*1A
$GPGSV,4,1,15,05,58,060,24,12,59,027,38,13,15,128,26,15,34,162,34*79
$GPGSV,4,2,15,18,34,264,30,20,24,039,17,22,01,138,,23,26,206,21*77
$GPGSV,4,3,15,24,45,196,29,25,36,343,28,29,10,328,19,36,52,277,34*78
$GPGSV,4,4,15,40,86,354,34,41,57,081,34,49,32,274,*46
$GLGSV,3,1,09,65,30,146,29,66,12,194,14,72,16,087,22,75,13,154,19*69
$GLGSV,3,2,09,76,73,149,37,77,54,335,18,81,09,256,,87,07,004,*60
$GLGSV,3,3,09,88,22,307,21*5B
$GNGLL,0438.24636,S,05528.24578,E,062907.00,A,A*6C
$GNGRS,062907.00,1,5.7,-0.6,-2.1,3.5,4.1,2.5,-0.1,,,,,*5B
$GNGRS,062907.00,1,-16.7,-6.8,0.3,-2.5,,,,,,,,*4D
$GNGST,062907.00,34,,,,2.2,3.5,6.8*4C
$GNZDA,062907.00,16,05,2025,00,00*75
$GNGBS,062907.00,2.2,3.5,6.8,,,,*5D
$GNTXT,01,01,01,More than 100 frame errors, UART RX was disabled*70
b0(pU$:<%;"""' -$W
H{ 4"Vb!9Q AIBHWKL#IM6OjQW
X3.N%bpU$BB$GNRMC,062908.00,A,0438.24638,S,05528.24577,E,0.065,,160525,,,A*7D
$GNVTG,,T,,M,0.065,N,0.121,K,A*3C
$GNGNS,062908.00,0438.24638,S,05528.24577,E,AA,13,0.75,23.8,-46.7,,*6C
$GNGGA,062908.00,0438.24638,S,05528.24577,E,1,12,0.75,23.8,M,-46.7,M,,*47
$GNGSA,A,3,25,12,05,15,18,20,13,23,24,,,,1.55,0.75,1.36*10
$GNGSA,A,3,88,77,76,65,,,,,,,,,1.55,0.75,1.36*19
$GPGSV,4,1,15,05,58,060,26,12,59,027,37,13,15,128,28,15,34,162,34*7A
$GPGSV,4,2,15,18,34,264,28,20,24,039,16,22,01,138,,23,26,206,19*74
$GPGSV,4,3,15,24,45,196,32,25,36,343,27,29,10,328,18,36,52,277,32*7A
$GPGSV,4,4,15,40,86,354,34,41,57,081,33,49,32,274,*41
$GLGSV,3,1,09,65,30,146,29,66,12,194,15,72,16,087,19,75,13,154,18*61
$GLGSV,3,2,09,76,73,149,35,77,54,335,18,81,09,256,,87,07,004,*62
$GLGSV,3,3,09,88,22,307,19*50
$GNGLL,0438.24638,S,05528.24577,E,062908.00,A,A*62
$GNGRS,062908.00,1,-3.9,-0.5,-12.6,-2.3,7.7,7.3,6.8,-0.9,1.3,,,*6C
$GNGRS,062908.00,1,-17.5,-6.6,0.0,0.7,,,,,,,,*61
$GNGST,062908.00,40,,,,2.2,3.5,6.7*4F
$GNZDA,062908.00,16,05,2025,00,00*7A
$GNGBS,062908.00,2.2,3.5,6.7,,,,*5D
$GNTXT,01,01,01,More than 100 frame errors, UART RX was disabled*70
b0(XY$:<G%;#"3"'o -$WZ
H{4'Vb 9Q ABHWKL#IM6O+QW
X3h4|bXY$B*![w$GNRMC,062909.00,A,0438.24634,S,05528.24573,E,0.043,,160525,,,A*70
$GNVTG,,T,,M,0.043,N,0.080,K,A*32
$GNGNS,062909.00,0438.24634,S,05528.24573,E,AA,13,0.75,23.6,-46.7,,*6B
$GNGGA,062909.00,0438.24634,S,05528.24573,E,1,12,0.75,23.6,M,-46.7,M,,*40
$GNGSA,A,3,25,12,05,15,18,20,13,23,24,,,,1.55,0.75,1.36*10
$GNGSA,A,3,88,77,76,65,,,,,,,,,1.55,0.75,1.36*19
$GPGSV,4,1,15,05,58,060,25,12,59,027,37,13,15,128,28,15,34,162,35*78
$GPGSV,4,2,15,18,34,264,27,20,24,039,17,22,01,138,,23,26,206,17*74
$GPGSV,4,3,15,24,45,196,32,25,36,343,25,29,10,328,17,36,52,277,31*74
$GPGSV,4,4,15,40,86,354,39,41,57,081,32,49,32,274,*4D
$GLGSV,3,1,09,65,30,146,26,66,12,194,16,72,16,087,16,75,13,154,15*6F
$GLGSV,3,2,09,76,73,149,35,77,54,335,18,81,09,256,,87,07,004,*62
$GLGSV,3,3,09,88,22,307,17*5E
$GNGLL,0438.24634,S,05528.24573,E,062909.00,A,A*6B
$GNGRS,062909.00,1,13.7,-0.7,-17.2,-2.1,1.9,8.8,0.2,-0.2,-0.3,,,*59
$GNGRS,062909.00,1,-19.4,-4.7,0.1,-0.2,,,,,,,,*45
$GNGST,062909.00,41,,,,2.2,3.5,6.7*4F
$GNZDA,062909.00,16,05,2025,00,00*7B
$GNGBS,062909.00,2.2,3.5,6.7,,,,*5C
$GNTXT,01,01,01,More than 100 frame errors, UART RX was disabled*70
b0(@]$:<!;#" "@'$ -,$Wr
H{4%Vb 9Q ADBHWKL IM6OQW
X3b@]$B%3$GNRMC,062910.00,A,0438.24631,S,05528.24573,E,0.057,,160525,,,A*78
$GNVTG,,T,,M,0.057,N,0.105,K,A*3B
$GNGNS,062910.00,0438.24631,S,05528.24573,E,AA,13,0.75,23.5,-46.7,,*65
$GNGGA,062910.00,0438.24631,S,05528.24573,E,1,12,0.75,23.5,M,-46.7,M,,*4E
$GNGSA,A,3,25,12,05,15,18,20,13,23,24,,,,1.55,0.75,1.36*10
$GNGSA,A,3,88,77,76,65,,,,,,,,,1.55,0.75,1.36*19
$GPGSV,4,1,15,05,58,060,24,12,59,027,33,13,15,128,29,15,34,162,35*7C
$GPGSV,4,2,15,18,34,264,26,20,24,039,21,22,01,138,,23,26,206,16*71
$GPGSV,4,3,15,24,45,196,32,25,36,343,24,29,10,328,15,36,52,277,31*77
$GPGSV,4,4,15,40,86,354,37,41,57,081,32,49,32,274,*43
$GLGSV,3,1,09,65,30,146,26,66,12,194,14,72,16,087,13,75,13,154,14*69
$GLGSV,3,2,09,76,73,149,32,77,54,335,17,81,09,256,,87,07,004,*6A
$GLGSV,3,3,09,88,22,307,18*51
$GNGLL,0438.24631,S,05528.24573,E,062910.00,A,A*66
$GNGRS,062910.00,1,19.1,-0.7,-11.4,-2.2,0.6,5.5,1.9,-3.2,3.0,,,*74
$GNGRS,062910.00,1,-18.1,-0.8,-0.3,3.2,,,,,,,,*43
$GNGST,062910.00,40,,,,2.3,3.5,6.7*47
$GNZDA,062910.00,16,05,2025,00,00*73
$GNGBS,062910.00,2.3,3.5,6.7,,,,*55
$GNTXT,01,01,01,More than 100 frame errors, UART RX was disabled*70
b0((a$:<;#";"u'I -+$Ww
H{ 4(Vb 9Q AIBHWKL$IM6OQW
X3b(a$B(
D$GNRMC,062911.00,A,0438.24624,S,05528.24576,E,0.179,,160525,,,A*75
$GNVTG,,T,,M,0.179,N,0.331,K,A*33
$GNGNS,062911.00,0438.24624,S,05528.24576,E,AA,13,0.75,23.2,-46.7,,*62
$GNGGA,062911.00,0438.24624,S,05528.24576,E,1,12,0.75,23.2,M,-46.7,M,,*49
$GNGSA,A,3,25,12,05,15,18,20,13,23,24,,,,1.55,0.75,1.36*10
$GNGSA,A,3,88,77,76,65,,,,,,,,,1.55,0.75,1.36*19
$GPGSV,4,1,15,05,58,060,24,12,59,027,31,13,15,128,28,15,34,162,35*7F
$GPGSV,4,2,15,18,34,264,25,20,24,039,23,22,01,138,,23,26,206,16*70
$GPGSV,4,3,15,24,45,196,32,25,36,343,24,29,10,328,14,36,52,277,32*75
$GPGSV,4,4,15,40,86,354,40,41,57,081,32,49,32,274,*43
$GLGSV,3,1,09,65,30,146,26,66,12,194,13,72,16,087,12,75,13,154,15*6E
$GLGSV,3,2,09,76,73,149,36,77,54,335,17,81,09,256,,87,07,004,*6E
$GLGSV,3,3,09,88,22,307,19*50
$GNGLL,0438.24624,S,05528.24576,E,062911.00,A,A*66
$GNGRS,062911.00,1,19.1,-0.1,-8.3,-2.0,-6.5,0.7,4.0,0.0,3.0,,,*41
$GNGRS,062911.00,1,-18.7,0.3,-0.5,3.3,,,,,,,,*65
$GNGST,062911.00,39,,,,2.3,3.6,6.7*4B
$GNZDA,062911.00,16,05,2025,00,00*72
$GNGBS,062911.00,2.3,3.6,6.7,,,,*57
$GNTXT,01,01,01,More than 100 frame errors, UART RX was disabled*70
b0(e$:<!";c#"N"@'C -t$W&
H{!4%Vb 9Q ABHWKL#IM6OeQW
X3<Qbe$B,$GNRMC,062912.00,A,0438.24623,S,05528.24585,E,0.214,,160525,,,A*75
$GNVTG,,T,,M,0.214,N,0.397,K,A*37
$GNGNS,062912.00,0438.24623,S,05528.24585,E,AA,13,0.75,23.2,-46.7,,*6A
$GNGGA,062912.00,0438.24623,S,05528.24585,E,1,12,0.75,23.2,M,-46.7,M,,*41
$GNGSA,A,3,25,12,05,15,18,20,13,23,24,,,,1.55,0.75,1.36*10
$GNGSA,A,3,88,77,76,65,,,,,,,,,1.55,0.75,1.36*19
$GPGSV,4,1,15,05,58,060,23,12,59,027,34,13,15,128,28,15,34,162,35*7D
$GPGSV,4,2,15,18,34,264,24,20,24,039,24,22,01,138,,23,26,206,17*77
$GPGSV,4,3,15,24,45,196,32,25,36,343,25,29,10,328,15,36,52,277,33*74
$GPGSV,4,4,15,40,86,354,37,41,57,081,32,49,32,274,*43
$GLGSV,3,1,09,65,30,146,25,66,12,194,15,72,16,087,12,75,13,154,16*68
$GLGSV,3,2,09,76,73,149,35,77,54,335,17,81,09,256,,87,07,004,*6D
$GLGSV,3,3,09,88,22,307,18*51
$GNGLL,0438.24623,S,05528.24585,E,062912.00,A,A*6E
$GNGRS,062912.00,1,13.2,0.0,-7.3,-1.8,-9.6,-1.9,6.1,-0.4,1.2,,,*67
$GNGRS,062912.00,1,-15.8,-1.5,-0.2,1.6,,,,,,,,*4E
$GNGST,062912.00,39,,,,2.3,3.6,6.7*48
$GNZDA,062912.00,16,05,2025,00,00*71
$GNGBS,062912.00,2.3,3.6,6.7,,,,*54
$GNTXT,01,01,01,More than 100 frame errors, UART RX was disabled*70
b0(h$:<#;1^#"Q"'#-$W`
H{4'Vb#9Q ABHWKL$IM6OQW
X3*4bh$B0$GNRMC,062913.00,A,0438.24619,S,05528.24590,E,0.054,,160525,,,A*7F
$GNVTG,,T,,M,0.054,N,0.101,K,A*3C
$GNGNS,062913.00,0438.24619,S,05528.24590,E,AA,12,0.78,23.0,-46.7,,*68
$GNGGA,062913.00,0438.24619,S,05528.24590,E,1,12,0.78,23.0,M,-46.7,M,,*42
$GNGSA,A,3,25,12,15,18,20,13,23,24,,,,,1.63,0.78,1.43*1F
$GNGSA,A,3,88,77,76,65,,,,,,,,,1.63,0.78,1.43*13
$GPGSV,4,1,15,05,58,060,23,12,59,027,35,13,15,128,28,15,34,162,35*7C
$GPGSV,4,2,15,18,34,264,24,20,24,039,25,22,01,138,,23,26,206,18*79
$GPGSV,4,3,15,24,45,196,35,25,36,343,24,29,10,328,13,36,52,277,31*76
$GPGSV,4,4,15,40,86,354,39,41,57,081,35,49,32,274,*4A
$GLGSV,3,1,09,65,30,146,25,66,12,194,18,72,16,087,13,75,13,154,18*6A
$GLGSV,3,2,09,76,73,149,36,77,54,335,18,81,09,256,,87,07,004,*61
$GLGSV,3,3,09,88,22,307,17*5E
$GNGLL,0438.24619,S,05528.24590,E,062913.00,A,A*62
$GNGRS,062913.00,1,13.8,0.5,-1.8,-11.0,-1.1,3.5,-0.7,-1.1,,,,*75
$GNGRS,062913.00,1,-14.9,-3.5,-0.4,2.3,,,,,,,,*4D
$GNGST,062913.00,38,,,,2.4,3.7,6.7*4E
$GNZDA,062913.00,16,05,2025,00,00*70
$GNGBS,062913.00,2.4,3.7,6.7,,,,*53
$GNTXT,01,01,01,More than 100 frame errors, UART RX was disabled*70
b0(l$:<;n!"`"']"-$W~
H{4&Vb$9Q AFBHWKL#IM6OQW
X36bl$B4m$GNRMC,062914.00,A,0438.24615,S,05528.24586,E,0.174,,160525,,,A*70
$GNVTG,,T,,M,0.174,N,0.322,K,A*3C
$GNGNS,062914.00,0438.24615,S,05528.24586,E,AA,12,0.78,22.8,-46.7,,*6D
$GNGGA,062914.00,0438.24615,S,05528.24586,E,1,12,0.78,22.8,M,-46.7,M,,*47
$GNGSA,A,3,25,12,15,18,20,13,23,24,,,,,1.63,0.78,1.43*1F
$GNGSA,A,3,88,77,76,65,,,,,,,,,1.63,0.78,1.43*13
$GPGSV,4,1,15,05,58,060,24,12,59,027,31,13,15,128,29,15,34,162,33*78
$GPGSV,4,2,15,18,34,264,22,20,24,039,25,22,01,138,,23,26,206,19*7E
$GPGSV,4,3,15,24,45,196,34,25,36,343,24,29,10,328,13,36,52,277,31*77
$GPGSV,4,4,15,40,86,354,38,41,57,081,36,49,32,274,*48
$GLGSV,3,1,09,65,30,146,26,66,12,194,18,72,16,087,17,75,13,154,20*66
$GLGSV,3,2,09,76,73,149,35,77,54,335,18,81,09,256,,87,07,004,*62
$GLGSV,3,3,09,88,22,307,19*50
$GNGLL,0438.24615,S,05528.24586,E,062914.00,A,A*6E
$GNGRS,062914.00,1,16.6,1.1,-1.6,-10.3,-1.6,2.4,-0.7,0.3,,,,*59
$GNGRS,062914.00,1,-16.1,-3.3,-0.3,0.7,,,,,,,,*47
$GNGST,062914.00,37,,,,2.4,3.7,6.7*46
$GNZDA,062914.00,16,05,2025,00,00*77
$GNGBS,062914.00,2.4,3.7,6.7,,,,*54
$GNTXT,01,01,01,More than 100 frame errors, UART RX was disabled*70
b0(p$:< ;#"h"'5!-0$W
H{!4(Vb#9Q A0BHWKL#IM6OQW
X37bp$B8i$GNRMC,062915.00,A,0438.24612,S,05528.24590,E,0.061,,160525,,,A*74
$GNVTG,,T,,M,0.061,N,0.112,K,A*38
$GNGNS,062915.00,0438.24612,S,05528.24590,E,AA,12,0.78,22.9,-46.7,,*6D
$GNGGA,062915.00,0438.24612,S,05528.24590,E,1,12,0.78,22.9,M,-46.7,M,,*47
$GNGSA,A,3,25,12,15,18,20,13,23,24,,,,,1.63,0.78,1.43*1F
$GNGSA,A,3,88,77,76,65,,,,,,,,,1.63,0.78,1.43*13
$GPGSV,4,1,15,05,58,060,21,12,59,027,32,13,15,128,29,15,34,162,35*78
$GPGSV,4,2,15,18,34,264,25,20,24,039,26,22,01,138,,23,26,206,29*79
$GPGSV,4,3,15,24,45,196,33,25,36,343,26,29,10,328,15,36,52,277,33*76
$GPGSV,4,4,15,40,86,354,40,41,57,081,35,49,32,274,*44
$GLGSV,3,1,09,65,30,146,26,66,12,194,17,72,16,087,16,75,13,154,20*68
$GLGSV,3,2,09,76,73,149,35,77,54,335,16,81,09,256,,87,07,004,*6C
$GLGSV,3,3,09,88,22,307,19*50
$GNGLL,0438.24612,S,05528.24590,E,062915.00,A,A*6F
$GNGRS,062915.00,1,11.8,1.7,-1.5,-13.3,-2.0,-0.7,-5.6,0.5,,,,*7C
$GNGRS,062915.00,1,-14.8,-0.8,-0.7,-2.1,,,,,,,,*68
$GNGST,062915.00,36,,,,2.4,3.7,6.7*46
$GNZDA,062915.00,16,05,2025,00,00*76
$GNGBS,062915.00,2.4,3.7,6.7,,,,*55
$GNTXT,01,01,01,More than 100 frame errors, UART RX was disabled*70
b0(t$:<!;#"y"'$ -`$W?
H{!4#Vb$9Q A8BHWKL$IM6OQW
X3bt$B<A=$GNRMC,062916.00,A,0438.24609,S,05528.24596,E,0.089,,160525,,,A*7D
$GNVTG,,T,,M,0.089,N,0.164,K,A*3F
$GNGNS,062916.00,0438.24609,S,05528.24596,E,AA,13,0.75,22.8,-46.7,,*6F
$GNGGA,062916.00,0438.24609,S,05528.24596,E,1,12,0.75,22.8,M,-46.7,M,,*44
$GNGSA,A,3,25,12,05,15,18,20,13,23,24,,,,1.55,0.75,1.36*10
$GNGSA,A,3,88,77,76,65,,,,,,,,,1.55,0.75,1.36*19
$GPGSV,4,1,15,05,58,060,21,12,59,027,33,13,15,128,30,15,34,162,35*71
$GPGSV,4,2,15,18,34,264,25,20,24,039,26,22,01,138,,23,26,206,28*78
$GPGSV,4,3,15,24,45,196,32,25,36,343,26,29,10,328,19,36,52,277,33*7B
$GPGSV,4,4,15,40,86,354,35,41,57,081,36,49,32,274,*45
$GLGSV,3,1,09,65,30,146,25,66,12,194,18,72,16,087,14,75,13,154,21*67
$GLGSV,3,2,09,76,73,149,36,77,54,335,18,81,09,256,,87,07,004,*61
$GLGSV,3,3,09,88,22,307,20*5A
$GNGLL,0438.24609,S,05528.24596,E,062916.00,A,A*60
$GNGRS,062916.00,1,10.9,1.9,-8.7,-1.3,-15.3,-2.2,2.1,-8.9,1.0,,,*50
$GNGRS,062916.00,1,-13.7,-0.7,-0.7,0.6,,,,,,,,*44
$GNGST,062916.00,39,,,,2.4,3.8,6.7*45
$GNZDA,062916.00,16,05,2025,00,00*75
$GNGBS,062916.00,2.4,3.8,6.7,,,,*59
$GNTXT,01,01,01,More than 100 frame errors, UART RX was disabled*70
b0(x$:<J";!!""'&-$W
H{"4#Vb%9Q ABHWKL$IM6OQW
X3QEbx$Bj@$GNRMC,062917.00,A,0438.24608,S,05528.24600,E,0.026,,160525,,,A*74
$GNVTG,,T,,M,0.026,N,0.048,K,A*35
$GNGNS,062917.00,0438.24608,S,05528.24600,E,AA,13,0.75,23.0,-46.7,,*6A
$GNGGA,062917.00,0438.24608,S,05528.24600,E,1,12,0.75,23.0,M,-46.7,M,,*41
$GNGSA,A,3,25,12,05,15,18,20,13,23,24,,,,1.55,0.75,1.36*10
$GNGSA,A,3,88,77,76,65,,,,,,,,,1.55,0.75,1.36*19
$GPGSV,4,1,15,05,58,060,20,12,59,027,34,13,15,128,30,15,34,162,33*71
$GPGSV,4,2,15,18,34,264,25,20,24,039,25,22,01,138,,23,26,206,27*74
$GPGSV,4,3,15,24,45,196,31,25,36,343,24,29,10,328,21,36,52,277,34*76
$GPGSV,4,4,15,40,86,354,35,41,57,081,37,49,32,274,*44
$GLGSV,3,1,09,65,30,146,24,66,12,194,17,72,16,087,13,75,13,154,19*65
$GLGSV,3,2,09,76,73,149,36,77,54,335,19,81,09,256,,87,07,004,*60
$GLGSV,3,3,09,88,22,307,20*5A
$GNGLL,0438.24608,S,05528.24600,E,062917.00,A,A*6C
$GNGRS,062917.00,1,12.4,2.0,-6.9,-0.9,-12.8,-3.6,-2.2,-9.9,3.9,,,*72
$GNGRS,062917.00,1,-12.0,-0.5,-0.8,0.3,,,,,,,,*4B
$GNGST,062917.00,38,,,,2.4,3.8,6.7*45
$GNZDA,062917.00,16,05,2025,00,00*74
$GNGBS,062917.00,2.4,3.8,6.7,,,,*58
$GNTXT,01,01,01,More than 100 frame errors, UART RX was disabled*70
b0(|$:<!;b"""' -$W9
H{"4Vb$9Q ABHWKL$IM6OXQW
X4=b|$BRD$GNRMC,062918.00,A,0438.24607,S,05528.24604,E,0.036,,160525,,,A*71
$GNVTG,,T,,M,0.036,N,0.067,K,A*39
$GNGNS,062918.00,0438.24607,S,05528.24604,E,AA,13,0.75,23.0,-46.7,,*6E
$GNGGA,062918.00,0438.24607,S,05528.24604,E,1,12,0.75,23.0,M,-46.7,M,,*45
$GNGSA,A,3,25,12,05,15,18,20,13,23,24,,,,1.55,0.75,1.36*10
$GNGSA,A,3,88,77,76,65,,,,,,,,,1.55,0.75,1.36*19
$GPGSV,4,1,15,05,58,060,23,12,59,027,33,13,15,128,30,15,34,162,34*72
$GPGSV,4,2,15,18,34,264,26,20,24,039,24,22,01,138,,23,26,206,26*77
$GPGSV,4,3,15,24,45,196,32,25,36,343,23,29,10,328,24,36,52,277,34*77
$GPGSV,4,4,15,40,86,354,31,41,57,081,36,49,32,274,*41
$GLGSV,3,1,09,65,30,146,24,66,12,194,17,72,16,087,15,75,13,154,15*6F
$GLGSV,3,2,09,76,73,149,36,77,54,335,22,81,09,256,,87,07,004,*68
$GLGSV,3,3,09,88,22,308,17*51
$GNGLL,0438.24607,S,05528.24604,E,062918.00,A,A*68
$GNGRS,062918.00,1,13.4,2.2,-10.1,-0.9,-9.0,-2.8,1.0,-15.6,4.1,,,*6D
$GNGRS,062918.00,1,-12.5,0.9,-1.0,1.6,,,,,,,,*6D
$GNGST,062918.00,36,,,,2.5,3.8,6.7*45
$GNZDA,062918.00,16,05,2025,00,00*7B
$GNGBS,062918.00,2.5,3.8,6.7,,,,*56
$GNTXT,01,01,01,More than 100 frame errors, UART RX was disabled*70
b0(h$:<D';$""'T -|$W
H{4#Vb$9Q AsBHWKL$IM6OQW
X4v`bh$B:Hu$GNRMC,062919.00,A,0438.24597,S,05528.24607,E,0.111,,160525,,,A*7D
$GNVTG,,T,,M,0.111,N,0.206,K,A*38
$GNGNS,062919.00,0438.24597,S,05528.24607,E,AA,13,0.75,22.9,-46.7,,*6E
$GNGGA,062919.00,0438.24597,S,05528.24607,E,1,12,0.75,22.9,M,-46.7,M,,*45
$GNGSA,A,3,25,12,05,15,18,20,13,23,24,,,,1.55,0.75,1.36*10
$GNGSA,A,3,88,77,76,65,,,,,,,,,1.55,0.75,1.36*19
$GPGSV,4,1,15,05,58,060,26,12,59,027,39,13,15,128,28,15,34,162,36*76
$GPGSV,4,2,15,18,34,264,27,20,24,039,22,22,01,138,,23,26,206,24*72
$GPGSV,4,3,15,24,45,196,32,25,36,343,24,29,10,328,23,36,52,277,31*72
$GPGSV,4,4,15,40,86,354,35,41,57,081,36,49,32,274,*45
$GLGSV,3,1,09,65,30,146,26,66,12,194,16,72,16,087,16,75,13,154,*6B
$GLGSV,3,2,09,76,73,149,36,77,54,335,21,81,09,256,,87,07,004,*6B
$GLGSV,3,3,09,88,22,308,16*50
$GNGLL,0438.24597,S,05528.24607,E,062919.00,A,A*60
$GNGRS,062919.00,1,10.5,1.5,-12.1,-1.0,-5.1,-5.8,4.2,-12.0,3.8,,,*62
$GNGRS,062919.00,1,-14.2,0.2,-1.2,1.1,,,,,,,,*63
$GNGST,062919.00,39,,,,2.5,3.8,6.7*4B
$GNZDA,062919.00,16,05,2025,00,00*7A
$GNGBS,062919.00,2.5,3.8,6.7,,,,*57
$GNTXT,01,01,01,More than 100 frame errors, UART RX was disabled*70
b0(P$:<%;Uy!"g"'!-$W
H{ 4 Vb#9Q ABHWKL%IM6O
QW
X4sbP$B"L$GNRMC,062920.00,A,0438.24590,S,05528.24610,E,0.104,,160525,,,A*72
$GNVTG,,T,,M,0.104,N,0.192,K,A*32
$GNGNS,062920.00,0438.24590,S,05528.24610,E,AA,13,0.75,22.4,-46.7,,*68
$GNGGA,062920.00,0438.24590,S,05528.24610,E,1,12,0.75,22.4,M,-46.7,M,,*43
$GNGSA,A,3,25,12,05,15,18,20,13,23,24,,,,1.55,0.75,1.36*10
$GNGSA,A,3,88,77,76,65,,,,,,,,,1.55,0.75,1.36*19
$GPGSV,4,1,15,05,58,060,30,12,59,027,37,13,15,128,27,15,34,162,33*75
$GPGSV,4,2,15,18,34,264,29,20,24,039,21,22,01,138,,23,26,206,22*79
$GPGSV,4,3,15,24,45,196,33,25,36,343,24,29,10,328,23,36,52,277,32*70
$GPGSV,4,4,15,40,86,354,32,41,57,081,35,49,32,274,*41
$GLGSV,3,1,09,65,30,146,27,66,12,194,16,72,16,087,15,75,13,154,*69
$GLGSV,3,2,09,76,73,149,37,77,54,335,20,81,09,256,,87,07,004,*6B
$GLGSV,3,3,09,88,22,308,22*57
$GNGLL,0438.24590,S,05528.24610,E,062920.00,A,A*6B
$GNGRS,062920.00,1,7.4,0.9,-8.3,-1.5,-2.4,-7.7,14.0,-8.4,0.3,,,*65
$GNGRS,062920.00,1,-12.7,-2.5,-1.1,2.2,,,,,,,,*41
$GNGST,062920.00,34,,,,2.4,3.8,6.6*4C
$GNZDA,062920.00,16,05,2025,00,00*70
$GNGBS,062920.00,2.4,3.8,6.6,,,,*5D
$GNTXT,01,01,01,More than 100 frame errors, UART RX was disabled*70
b0(8$:<>%;J ""I'80 -A$W
H{!4#Vb$9Q ABHWKL&IM6OQW
X4oob8$B
PyE$GNRMC,062921.00,A,0438.24585,S,05528.24605,E,0.041,,160525,,,A*73
$GNVTG,,T,,M,0.041,N,0.077,K,A*38
$GNGNS,062921.00,0438.24585,S,05528.24605,E,AA,13,0.75,22.1,-46.7,,*6C
$GNGGA,062921.00,0438.24585,S,05528.24605,E,1,12,0.75,22.1,M,-46.7,M,,*47
$GNGSA,A,3,25,12,05,15,18,20,13,23,24,,,,1.55,0.75,1.36*10
$GNGSA,A,3,88,77,76,65,,,,,,,,,1.55,0.75,1.36*19
$GPGSV,4,1,15,05,58,060,29,12,59,027,37,13,15,128,30,15,34,162,32*7A
$GPGSV,4,2,15,18,34,264,29,20,24,039,17,22,01,138,,23,26,206,22*7C
$GPGSV,4,3,15,24,45,196,32,25,36,343,26,29,10,328,21,36,52,277,33*70
$GPGSV,4,4,15,40,86,354,35,41,57,081,36,49,32,274,*45
$GLGSV,3,1,09,65,30,146,29,66,12,194,16,72,16,087,13,75,13,154,*61
$GLGSV,3,2,09,76,73,149,38,77,54,335,19,81,09,256,,87,07,004,*6E
$GLGSV,3,3,09,88,22,308,21*54
$GNGLL,0438.24585,S,05528.24605,E,062921.00,A,A*6A
$GNGRS,062921.00,1,9.0,0.7,-7.1,-1.2,8.4,-9.7,4.4,-9.8,0.6,,,*7E
$GNGRS,062921.00,1,-11.3,-2.9,-1.2,-2.5,,,,,,,,*62
$GNGST,062921.00,37,,,,2.4,3.7,6.5*42
$GNZDA,062921.00,16,05,2025,00,00*71
$GNGBS,062921.00,2.4,3.7,6.5,,,,*50
$GNTXT,01,01,01,More than 100 frame errors, UART RX was disabled*70
b0( $:<%;[!""'o\ -T$W
H{ 4%Vb#9Q AVBHWKL&IvM6OQW
X4hb $BSP$GNRMC,062922.00,A,0438.24581,S,05528.24599,E,0.077,,160525,,,A*77
$GNVTG,,T,,M,0.077,N,0.142,K,A*3A
$GNGNS,062922.00,0438.24581,S,05528.24599,E,AA,13,0.75,21.9,-46.7,,*66
$GNGGA,062922.00,0438.24581,S,05528.24599,E,1,12,0.75,21.9,M,-46.7,M,,*4D
$GNGSA,A,3,25,12,05,15,18,20,13,23,24,,,,1.55,0.75,1.36*10
$GNGSA,A,3,88,77,76,65,,,,,,,,,1.55,0.75,1.36*19
$GPGSV,4,1,15,05,58,060,29,12,59,027,37,13,15,128,30,15,34,162,33*7B
$GPGSV,4,2,15,18,34,264,28,20,24,039,18,22,01,138,,23,26,206,23*73
$GPGSV,4,3,15,24,45,196,32,25,36,343,27,29,10,328,20,36,52,277,32*71
$GPGSV,4,4,15,40,86,354,37,41,57,081,35,49,32,274,*44
$GLGSV,3,1,09,65,30,146,30,66,12,194,19,72,16,087,12,75,13,154,*67
$GLGSV,3,2,09,76,73,149,38,77,54,335,22,81,09,256,,87,07,004,*66
$GLGSV,3,3,09,88,22,308,21*54
$GNGLL,0438.24581,S,05528.24599,E,062922.00,A,A*6B
$GNGRS,062922.00,1,4.0,0.9,-11.3,-1.1,7.0,-9.1,-0.6,-9.3,-1.7,,,*48
$GNGRS,062922.00,1,-10.6,-5.0,-1.4,-1.7,,,,,,,,*6C
$GNGST,062922.00,34,,,,2.4,3.7,6.4*43
$GNZDA,062922.00,16,05,2025,00,00*72
$GNGBS,062922.00,2.4,3.7,6.4,,,,*52
$GNTXT,01,01,01,More than 100 frame errors, UART RX was disabled*70
b0($9;E%;f4!""'+:-$W
H{ 4"Vb!9Q ABHWKL&IM6OVQW
X4b$BW($GNRMC,062923.00,A,0438.24579,S,05528.24592,E,0.056,,160525,,,A*79
$GNVTG,,T,,M,0.056,N,0.104,K,A*3B
$GNGNS,062923.00,0438.24579,S,05528.24592,E,AA,13,0.75,21.8,-46.7,,*6A
$GNGGA,062923.00,0438.24579,S,05528.24592,E,1,12,0.75,21.8,M,-46.7,M,,*41
$GNGSA,A,3,25,12,05,15,18,20,13,23,24,,,,1.55,0.75,1.36*10
$GNGSA,A,3,88,77,76,65,,,,,,,,,1.55,0.75,1.36*19
$GPGSV,4,1,15,05,57,059,29,12,59,027,37,13,15,128,30,15,34,162,33*7E
$GPGSV,4,2,15,18,34,264,26,20,24,039,20,22,01,138,,23,26,206,23*76
$GPGSV,4,3,15,24,45,196,31,25,36,343,28,29,10,328,20,36,52,277,32*7D
$GPGSV,4,4,15,40,86,354,34,41,57,081,33,49,32,274,*41
$GLGSV,3,1,09,65,30,146,30,66,12,194,20,72,16,087,13,75,13,154,*6C
$GLGSV,3,2,09,76,73,149,38,77,54,335,22,81,09,256,,87,07,004,*66
$GLGSV,3,3,09,88,22,308,19*5F
$GNGLL,0438.24579,S,05528.24592,E,062923.00,A,A*66
$GNGRS,062923.00,1,4.7,1.0,-9.5,-1.1,6.5,-14.9,0.5,-9.7,2.3,,,*49
$GNGRS,062923.00,1,-10.3,-6.8,-1.1,-0.6,,,,,,,,*66
$GNGST,062923.00,35,,,,2.4,3.7,6.3*44
$GNZDA,062923.00,16,05,2025,00,00*73
$GNGBS,062923.00,2.4,3.7,6.3,,,,*54
$GNTXT,01,01,01,More than 100 frame errors, UART RX was disabled*70
b0($9;M#;r; ""t'y-r$W
H{!4!Vb9Q AmBHWKL&I~M6OQW
X4~#b$B[k$GNRMC,062924.00,A,0438.24579,S,05528.24579,E,0.176,,160525,,,A*78
$GNVTG,,T,,M,0.176,N,0.325,K,A*39
$GNGNS,062924.00,0438.24579,S,05528.24579,E,AA,13,0.75,21.6,-46.7,,*66
$GNGGA,062924.00,0438.24579,S,05528.24579,E,1,12,0.75,21.6,M,-46.7,M,,*4D
$GNGSA,A,3,25,12,05,15,18,20,13,23,24,,,,1.55,0.75,1.36*10
$GNGSA,A,3,88,77,76,65,,,,,,,,,1.55,0.75,1.36*19
$GPGSV,4,1,15,05,57,059,28,12,59,027,35,13,15,128,30,15,34,162,32*7C
$GPGSV,4,2,15,18,34,264,24,20,24,039,19,22,01,138,,23,26,206,22*7F
$GPGSV,4,3,15,24,45,196,31,25,36,343,30,29,10,328,20,36,52,277,33*75
$GPGSV,4,4,15,40,86,354,33,41,57,081,30,49,32,274,*45
$GLGSV,3,1,09,65,30,146,30,66,12,194,20,72,16,087,15,75,13,154,*6A
$GLGSV,3,2,09,76,73,149,38,77,54,335,20,81,09,256,,87,07,004,*64
$GLGSV,3,3,09,88,22,308,20*55
$GNGLL,0438.24579,S,05528.24579,E,062924.00,A,A*64
$GNGRS,062924.00,1,-2.5,1.1,-6.9,-0.9,19.1,-16.7,-2.0,-10.2,6.3,,,*49
$GNGRS,062924.00,1,-8.2,-7.9,-1.3,1.1,,,,,,,,*70
$GNGST,062924.00,35,,,,2.4,3.7,6.2*42
$GNZDA,062924.00,16,05,2025,00,00*74
$GNGBS,062924.00,2.4,3.7,6.2,,,,*52
$GNTXT,01,01,01,More than 100 frame errors, UART RX was disabled*70
b0($9;$;b!""?'-$Wm
H{!4"Vb9Q ABHWKL%IM6OSQW
X4'ttb$B_$GNRMC,062925.00,A,0438.24577,S,05528.24574,E,0.114,,160525,,,A*7E
$GNVTG,,T,,M,0.114,N,0.211,K,A*3B
$GNGNS,062925.00,0438.24577,S,05528.24574,E,AA,13,0.75,21.6,-46.7,,*64
$GNGGA,062925.00,0438.24577,S,05528.24574,E,1,12,0.75,21.6,M,-46.7,M,,*4F
$GNGSA,A,3,25,12,05,15,18,20,13,23,24,,,,1.55,0.75,1.36*10
$GNGSA,A,3,88,77,76,65,,,,,,,,,1.55,0.75,1.36*19
$GPGSV,4,1,15,05,57,059,26,12,59,027,36,13,15,128,30,15,34,162,33*70
$GPGSV,4,2,15,18,34,264,23,20,24,039,17,22,01,138,,23,26,206,20*74
$GPGSV,4,3,15,24,45,196,30,25,36,343,28,29,10,328,21,36,52,277,33*7C
$GPGSV,4,4,15,40,86,354,34,41,57,081,31,49,32,274,*43
$GLGSV,3,1,09,65,30,146,30,66,12,194,22,72,16,087,15,75,13,154,*68
$GLGSV,3,2,09,76,73,149,37,77,54,335,18,81,09,256,,87,07,004,*60
$GLGSV,3,3,09,88,22,308,20*55
$GNGLL,0438.24577,S,05528.24574,E,062925.00,A,A*66
$GNGRS,062925.00,1,6.2,1.0,-8.9,-1.1,18.5,-15.1,0.2,-11.0,2.6,,,*4F
$GNGRS,062925.00,1,-9.8,-6.9,-1.1,-1.2,,,,,,,,*57
$GNGST,062925.00,38,,,,2.4,3.7,6.2*4E
$GNZDA,062925.00,16,05,2025,00,00*75
$GNGBS,062925.00,2.4,3.7,6.2,,,,*53
$GNTXT,01,01,01,More than 100 frame errors, UART RX was disabled*70
b0($9;$;D!"u"'-$W~
H{ 4#Vb9Q ABHWKL%IM6OQW
X4UMb$Bc;$GNRMC,062926.00,A,0438.24576,S,05528.24567,E,0.074,,160525,,,A*79
$GNVTG,,T,,M,0.074,N,0.137,K,A*3B
$GNGNS,062926.00,0438.24576,S,05528.24567,E,AA,13,0.75,21.3,-46.7,,*61
$GNGGA,062926.00,0438.24576,S,05528.24567,E,1,12,0.75,21.3,M,-46.7,M,,*4A
$GNGSA,A,3,25,12,05,15,18,20,13,23,24,,,,1.55,0.75,1.36*10
$GNGSA,A,3,88,77,76,65,,,,,,,,,1.55,0.75,1.36*19
$GPGSV,4,1,15,05,57,059,26,12,59,027,36,13,15,128,30,15,34,162,33*70
$GPGSV,4,2,15,18,34,264,25,20,24,039,18,22,01,138,,23,26,206,18*76
$GPGSV,4,3,15,24,45,196,31,25,36,343,28,29,10,328,21,36,52,277,32*7C
$GPGSV,4,4,15,40,86,354,35,41,57,081,31,49,32,274,*42
$GLGSV,3,1,09,65,30,146,31,66,12,194,20,72,16,087,16,75,13,154,*68
$GLGSV,3,2,09,76,73,149,37,77,54,335,19,81,09,256,,87,07,004,*61
$GLGSV,3,3,09,88,22,308,20*55
$GNGLL,0438.24576,S,05528.24567,E,062926.00,A,A*66
$GNGRS,062926.00,1,8.9,1.3,-12.5,-1.4,9.7,-11.3,0.7,-7.9,6.6,,,*73
$GNGRS,062926.00,1,-6.8,-10.7,-0.9,4.0,,,,,,,,*41
$GNGST,062926.00,36,,,,2.4,3.7,6.1*40
$GNZDA,062926.00,16,05,2025,00,00*76
$GNGBS,062926.00,2.4,3.7,6.1,,,,*53
$GNTXT,01,01,01,More than 100 frame errors, UART RX was disabled*70
b0($9;$;J!"U"'--$W
H{4"Vb9Q AFBHWKL%IM6OQW
X4mGb$Bzg$GNRMC,062927.00,A,0438.24575,S,05528.24561,E,0.071,,160525,,,A*78
$GNVTG,,T,,M,0.071,N,0.132,K,A*3B
$GNGNS,062927.00,0438.24575,S,05528.24561,E,AA,13,0.75,21.2,-46.7,,*64
$GNGGA,062927.00,0438.24575,S,05528.24561,E,1,12,0.75,21.2,M,-46.7,M,,*4F
$GNGSA,A,3,25,12,05,15,18,20,13,23,24,,,,1.55,0.75,1.36*10
$GNGSA,A,3,88,77,76,65,,,,,,,,,1.55,0.75,1.36*19
$GPGSV,4,1,15,05,57,059,27,12,59,027,36,13,15,128,29,15,34,162,33*79
$GPGSV,4,2,15,18,34,264,27,20,24,039,18,22,01,138,,23,26,206,17*7B
$GPGSV,4,3,15,24,45,196,30,25,36,343,28,29,10,328,19,36,52,277,30*74
$GPGSV,4,4,15,40,86,354,34,41,57,081,31,49,32,274,*43
$GLGSV,3,1,09,65,30,146,29,66,12,194,18,72,16,087,16,75,13,154,*6A
$GLGSV,3,2,09,76,73,149,37,77,54,335,20,81,09,256,,87,07,004,*6B
$GLGSV,3,3,09,88,22,308,19*5F
$GNGLL,0438.24575,S,05528.24561,E,062927.00,A,A*62
$GNGRS,062927.00,1,10.1,1.6,-10.1,-1.7,6.5,-12.3,5.9,-8.8,5.3,,,*4E
$GNGRS,062927.00,1,-9.1,-13.3,-0.9,-1.9,,,,,,,,*60
$GNGST,062927.00,37,,,,2.4,3.7,6.1*40
$GNZDA,062927.00,16,05,2025,00,00*77
$GNGBS,062927.00,2.4,3.7,6.1,,,,*52
$GNTXT,01,01,01,More than 100 frame errors, UART RX was disabled*70
b0($ 9;$;`!"H"'M3-$W
H{4"Vb9Q ABHWKL$IM6OQW
X4Zb$Bbk_$GNRMC,062928.00,A,0438.24573,S,05528.24553,E,0.184,,160525,,,A*7B
$GNVTG,,T,,M,0.184,N,0.340,K,A*37
$GNGNS,062928.00,0438.24573,S,05528.24553,E,AA,13,0.75,21.0,-46.7,,*6E
$GNGGA,062928.00,0438.24573,S,05528.24553,E,1,12,0.75,21.0,M,-46.7,M,,*45
$GNGSA,A,3,25,12,05,15,18,20,13,23,24,,,,1.55,0.75,1.36*10
$GNGSA,A,3,88,77,76,65,,,,,,,,,1.55,0.75,1.36*19
$GPGSV,4,1,15,05,57,059,32,12,59,027,36,13,15,128,29,15,34,162,33*7D
$GPGSV,4,2,15,18,34,264,25,20,24,039,16,22,01,138,,23,26,206,18*78
$GPGSV,4,3,15,24,45,196,28,25,36,343,27,29,10,328,19,36,52,277,29*7A
$GPGSV,4,4,15,40,86,354,34,41,57,081,31,49,32,274,*43
$GLGSV,3,1,09,65,30,146,29,66,12,194,15,72,16,087,17,75,13,154,*66
$GLGSV,3,2,09,76,73,149,36,77,54,335,19,81,09,256,,87,07,004,*60
$GLGSV,3,3,09,88,22,308,18*5E
$GNGLL,0438.24573,S,05528.24553,E,062928.00,A,A*6A
$GNGRS,062928.00,1,15.3,2.1,-8.4,-1.8,1.4,-14.6,3.5,-7.2,1.7,,,*7B
$GNGRS,062928.00,1,-8.4,-13.8,-0.9,0.1,,,,,,,,*44
$GNGST,062928.00,41,,,,2.4,3.7,6.1*4E
$GNZDA,062928.00,16,05,2025,00,00*78
$GNGBS,062928.00,2.4,3.7,6.1,,,,*5D
$GNTXT,01,01,01,More than 100 frame errors, UART RX was disabled*70
b0(x$9;#; "o"Q'-$Wh
H{ 4 Vb9Q ABHWKL&IM6OSQW
X44bx$BJo7s$GNRMC,062929.00,A,0438.24570,S,05528.24549,E,0.037,,160525,,,A*7B
$GNVTG,,T,,M,0.037,N,0.068,K,A*37
$GNGNS,062929.00,0438.24570,S,05528.24549,E,AA,13,0.75,20.9,-46.7,,*6F
$GNGGA,062929.00,0438.24570,S,05528.24549,E,1,12,0.75,20.9,M,-46.7,M,,*44
$GNGSA,A,3,25,12,05,15,18,20,13,23,24,,,,1.55,0.75,1.36*10
$GNGSA,A,3,88,77,76,65,,,,,,,,,1.55,0.75,1.36*19
$GPGSV,4,1,15,05,57,059,25,12,59,027,35,13,15,128,27,15,34,162,31*74
$GPGSV,4,2,15,18,34,264,26,20,24,039,15,22,01,138,,23,26,206,19*79
$GPGSV,4,3,15,24,45,196,26,25,36,343,26,29,10,328,17,36,52,277,32*71
$GPGSV,4,4,15,40,86,354,32,41,57,081,31,49,32,274,*45
$GLGSV,3,1,09,65,30,146,29,66,12,194,13,72,16,087,17,75,13,154,*60
$GLGSV,3,2,09,76,73,149,38,77,54,335,18,81,09,256,,87,07,004,*6F
$GLGSV,3,3,09,88,22,308,19*5F
$GNGLL,0438.24570,S,05528.24549,E,062929.00,A,A*63
$GNGRS,062929.00,1,13.8,2.1,-13.3,-1.4,3.4,-15.3,8.0,-7.5,7.3,,,*4B
$GNGRS,062929.00,1,-7.8,-14.5,-0.9,-3.4,,,,,,,,*67
$GNGST,062929.00,44,,,,2.4,3.7,6.1*4A
$GNZDA,062929.00,16,05,2025,00,00*79
$GNGBS,062929.00,2.4,3.7,6.1,,,,*5C
$GNTXT,01,01,01,More than 100 frame errors, UART RX was disabled*70
b0(`$9;i#<f "k"'-d$Wa
H{!4 Vb9Q A1BHWKL&IM6OQW
X4cb`$B2s$GNRMC,062930.00,A,0438.24566,S,05528.24552,E,0.039,,160525,,,A*70
$GNVTG,,T,,M,0.039,N,0.072,K,A*32
$GNGNS,062930.00,0438.24566,S,05528.24552,E,AA,13,0.75,20.7,-46.7,,*64
$GNGGA,062930.00,0438.24566,S,05528.24552,E,1,12,0.75,20.7,M,-46.7,M,,*4F
$GNGSA,A,3,25,12,05,15,18,20,13,23,24,,,,1.55,0.75,1.36*10
$GNGSA,A,3,88,77,76,65,,,,,,,,,1.55,0.75,1.36*19
$GPGSV,4,1,15,05,57,059,26,12,60,027,35,13,15,128,26,15,34,162,32*7F
$GPGSV,4,2,15,18,34,264,25,20,24,039,17,22,01,138,,23,26,206,19*78
$GPGSV,4,3,15,24,45,196,25,25,36,343,27,29,10,328,16,36,52,277,33*73
$GPGSV,4,4,15,40,86,354,32,41,57,081,30,49,32,274,*44
$GLGSV,3,1,09,65,30,146,27,66,12,194,09,72,16,087,15,75,13,154,*67
$GLGSV,3,2,09,76,73,149,38,77,54,335,19,81,09,256,,87,07,004,*6E
$GLGSV,3,3,09,88,22,308,22*57
$GNGLL,0438.24566,S,05528.24552,E,062930.00,A,A*66
$GNGRS,062930.00,1,11.2,2.1,-4.1,-1.5,-2.7,-14.0,11.3,-3.2,3.6,,,*6A
$GNGRS,062930.00,1,-5.3,-14.1,-1.2,-7.2,,,,,,,,*6A
$GNGST,062930.00,39,,,,2.4,3.7,6.0*49
$GNZDA,062930.00,16,05,2025,00,00*71
$GNGBS,062930.00,2.4,3.7,6.0,,,,*55
$GNTXT,01,01,01,More than 100 frame errors, UART RX was disabled*70
b0(H$9;J#<""z'rp-$W
H{ 4!Vb9Q A\BHWKL%IjM6OQW
X4HRbH$BwC$GNRMC,062931.00,A,0438.24563,S,05528.24556,E,0.060,,160525,,,A*7C
$GNVTG,,T,,M,0.060,N,0.111,K,A*3A
$GNGNS,062931.00,0438.24563,S,05528.24556,E,AA,13,0.75,20.5,-46.7,,*66
$GNGGA,062931.00,0438.24563,S,05528.24556,E,1,12,0.75,20.5,M,-46.7,M,,*4D
$GNGSA,A,3,25,12,05,15,18,20,13,23,24,,,,1.55,0.75,1.36*10
$GNGSA,A,3,88,77,76,65,,,,,,,,,1.55,0.75,1.36*19
$GPGSV,4,1,15,05,57,059,27,12,60,027,35,13,15,127,26,15,34,162,31*72
$GPGSV,4,2,15,18,34,264,25,20,24,039,18,22,01,138,,23,26,206,19*77
$GPGSV,4,3,15,24,45,196,26,25,36,343,28,29,10,328,14,36,52,277,32*7C
$GPGSV,4,4,15,40,86,354,33,41,57,081,29,49,32,274,*4D
$GLGSV,3,1,09,65,30,146,27,66,12,194,,72,16,087,14,75,13,154,*6F
$GLGSV,3,2,09,76,73,149,37,77,54,335,19,81,09,256,,87,07,004,*61
$GLGSV,3,3,09,88,22,308,24*51
$GNGLL,0438.24563,S,05528.24556,E,062931.00,A,A*66
$GNGRS,062931.00,1,10.3,2.6,-4.4,-1.3,-1.3,-14.2,15.2,-1.4,1.6,,,*69
$GNGRS,062931.00,1,-4.4,-14.1,-1.5,-9.3,,,,,,,,*65
$GNGST,062931.00,37,,,,2.4,3.7,6.0*46
$GNZDA,062931.00,16,05,2025,00,00*70
$GNGBS,062931.00,2.4,3.7,6.0,,,,*54
$GNTXT,01,01,01,More than 100 frame errors, UART RX was disabled*70
b0(0$9;"<0""*'%-$W
H{ 4 Vb9Q ABHWKL%IBM6OQW
X4K7{b0$B{$GNRMC,062932.00,A,0438.24560,S,05528.24556,E,0.104,,160525,,,A*7F
$GNVTG,,T,,M,0.104,N,0.193,K,A*33
$GNGNS,062932.00,0438.24560,S,05528.24556,E,AA,13,0.75,20.4,-46.7,,*67
$GNGGA,062932.00,0438.24560,S,05528.24556,E,1,12,0.75,20.4,M,-46.7,M,,*4C
$GNGSA,A,3,25,12,05,15,18,20,13,23,24,,,,1.55,0.75,1.36*10
$GNGSA,A,3,88,77,76,65,,,,,,,,,1.55,0.75,1.36*19
$GPGSV,4,1,15,05,57,059,28,12,60,027,34,13,15,127,27,15,34,162,29*74
$GPGSV,4,2,15,18,34,264,26,20,24,039,18,22,01,138,,23,26,206,19*74
$GPGSV,4,3,15,24,45,196,29,25,36,343,29,29,10,328,13,36,52,277,32*75
$GPGSV,4,4,15,40,86,354,32,41,57,081,29,49,32,274,*4C
$GLGSV,3,1,09,65,30,146,28,66,12,194,,72,16,087,14,75,13,154,*60
$GLGSV,3,2,09,76,73,149,37,77,54,335,18,81,09,256,,87,07,004,*60
$GLGSV,3,3,09,88,22,308,22*57
$GNGLL,0438.24560,S,05528.24556,E,062932.00,A,A*66
$GNGRS,062932.00,1,12.9,3.0,-0.4,0.3,0.4,-17.5,6.8,0.1,2.9,,,*7F
$GNGRS,062932.00,1,-4.4,-15.9,-1.9,-8.8,,,,,,,,*69
$GNGST,062932.00,39,,,,2.4,3.7,6.0*4B
$GNZDA,062932.00,16,05,2025,00,00*73
$GNGBS,062932.00,2.4,3.7,6.0,,,,*57
$GNTXT,01,01,01,More than 100 frame errors, UART RX was disabled*70
b0($9;"<O"""'-e$W
H{!4Vb"9Q AjBHWKL%I8M6OQW
X4Ub$B~$GNRMC,062933.00,A,0438.24557,S,05528.24560,E,0.019,,160525,,,A*72
$GNVTG,,T,,M,0.019,N,0.034,K,A*32
$GNGNS,062933.00,0438.24557,S,05528.24560,E,AA,13,0.87,20.3,-46.7,,*6D
$GNGGA,062933.00,0438.24557,S,05528.24560,E,1,12,0.87,20.3,M,-46.7,M,,*46
$GNGSA,A,3,25,12,05,15,18,20,13,23,24,,,,1.73,0.87,1.50*19
$GNGSA,A,3,88,77,76,65,,,,,,,,,1.73,0.87,1.50*10
$GPGSV,4,1,15,05,57,059,29,12,60,027,34,13,15,127,26,15,34,161,30*7F
$GPGSV,4,2,15,18,34,264,28,20,24,039,16,22,01,138,,23,26,206,20*7E
$GPGSV,4,3,15,24,45,196,18,25,36,343,30,29,10,328,12,36,52,277,33*7F
$GPGSV,4,4,15,40,86,354,31,41,57,081,34,49,32,274,*43
$GLGSV,3,1,09,65,30,146,27,66,12,194,,72,16,087,14,75,13,154,*6F
$GLGSV,3,2,09,76,73,149,37,77,54,335,17,81,09,256,,87,07,004,*6F
$GLGSV,3,3,09,88,22,308,23*56
$GNGLL,0438.24557,S,05528.24560,E,062933.00,A,A*66
$GNGRS,062933.00,1,1.8,3.4,-4.9,2.4,-4.8,-21.7,9.8,5.2,11.2,,,*57
$GNGRS,062933.00,1,-3.5,-15.7,-2.0,-9.2,,,,,,,,*61
$GNGST,062933.00,38,,,,2.4,3.7,6.0*4B
$GNZDA,062933.00,16,05,2025,00,00*72
$GNGBS,062933.00,2.4,3.7,6.0,,,,*56
$GNTXT,01,01,01,More than 100 frame errors, UART RX was disabled*70
b0($9;"<d""'\B-$W
H{!4$Vb!9Q ABHWKL$I8M6OQW
X4b$Bnx$GNRMC,062934.00,A,0438.24556,S,05528.24560,E,0.051,,160525,,,A*78
$GNVTG,,T,,M,0.051,N,0.095,K,A*35
$GNGNS,062934.00,0438.24556,S,05528.24560,E,AA,12,0.77,20.2,-46.7,,*64
$GNGGA,062934.00,0438.24556,S,05528.24560,E,1,12,0.77,20.2,M,-46.7,M,,*4E
$GNGSA,A,3,25,12,05,15,18,20,13,23,24,,,,1.60,0.77,1.40*15
$GNGSA,A,3,88,76,65,,,,,,,,,,1.60,0.77,1.40*1C
$GPGSV,4,1,15,05,57,059,29,12,60,027,34,13,15,127,27,15,34,161,29*76
$GPGSV,4,2,15,18,34,264,29,20,24,039,19,22,01,138,,23,26,206,23*73
$GPGSV,4,3,15,24,45,196,17,25,36,343,29,29,10,328,17,36,52,277,33*7D
$GPGSV,4,4,15,40,86,354,36,41,57,081,33,49,32,274,*43
$GLGSV,3,1,09,65,30,146,28,66,12,194,,72,16,087,16,75,13,154,*62
$GLGSV,3,2,09,76,73,149,36,77,54,335,,81,09,256,,87,07,004,*68
$GLGSV,3,3,09,88,22,308,23*56
$GNGLL,0438.24556,S,05528.24560,E,062934.00,A,A*60
$GNGRS,062934.00,1,-0.9,3.6,-6.4,7.0,-0.2,-19.6,7.3,3.2,14.8,,,*79
$GNGRS,062934.00,1,-5.5,-2.0,-8.7,,,,,,,,,*54
$GNGST,062934.00,36,,,,2.4,3.7,6.0*42
$GNZDA,062934.00,16,05,2025,00,00*75
$GNGBS,062934.00,2.4,3.7,6.0,,,,*51
$GNTXT,01,01,01,More than 100 frame errors, UART RX was disabled*70
b0($9;%<c""'-$W
H{!4$Vb 9Q ABHWKL'INM6OcQW
X4gb$BE$GNRMC,062935.00,A,0438.24552,S,05528.24563,E,0.073,,160525,,,A*7E
$GNVTG,,T,,M,0.073,N,0.134,K,A*3F
$GNGNS,062935.00,0438.24552,S,05528.24563,E,AA,12,0.77,20.0,-46.7,,*60
$GNGGA,062935.00,0438.24552,S,05528.24563,E,1,12,0.77,20.0,M,-46.7,M,,*4A
$GNGSA,A,3,25,12,05,15,18,20,13,23,24,,,,1.60,0.77,1.40*15
$GNGSA,A,3,88,76,65,,,,,,,,,,1.60,0.77,1.40*1C
$GPGSV,4,1,15,05,57,059,29,12,60,027,37,13,15,127,28,15,34,161,30*72
$GPGSV,4,2,15,18,34,264,31,20,24,039,19,22,01,138,,23,26,206,23*7A
$GPGSV,4,3,15,24,45,196,21,25,36,343,29,29,10,328,19,36,52,277,33*76
$GPGSV,4,4,15,40,86,354,36,41,57,081,32,49,32,274,*42
$GLGSV,3,1,09,65,30,146,28,66,12,194,,72,16,087,22,75,13,154,*65
$GLGSV,3,2,09,76,73,149,39,77,54,335,22,81,09,256,,87,07,004,*67
$GLGSV,3,3,09,88,22,308,25*50
$GNGLL,0438.24552,S,05528.24563,E,062935.00,A,A*66
$GNGRS,062935.00,1,-2.4,3.5,-6.2,7.2,1.5,-15.3,6.9,2.0,15.4,,,*57
$GNGRS,062935.00,1,-6.6,-1.8,-8.2,,,,,,,,,*5B
$GNGST,062935.00,33,,,,2.4,3.7,5.9*4C
$GNZDA,062935.00,16,05,2025,00,00*74
$GNGBS,062935.00,2.4,3.7,5.9,,,,*5A
$GNTXT,01,01,01,More than 100 frame errors, UART RX was disabled*70
b0($9;"<K!"s"'&o-$W
H{4"Vb#9Q ABHWKL&IXM6O?QW
X4b$B9$GNRMC,062936.00,A,0438.24554,S,05528.24565,E,0.057,,160525,,,A*7B
$GNVTG,,T,,M,0.057,N,0.106,K,A*38
$GNGNS,062936.00,0438.24554,S,05528.24565,E,AA,12,0.77,19.9,-46.7,,*60
$GNGGA,062936.00,0438.24554,S,05528.24565,E,1,12,0.77,19.9,M,-46.7,M,,*4A
$GNGSA,A,3,25,12,05,15,18,20,13,23,24,,,,1.60,0.77,1.40*15
$GNGSA,A,3,88,76,65,,,,,,,,,,1.60,0.77,1.40*1C
$GPGSV,4,1,15,05,57,059,29,12,60,027,34,13,15,127,27,15,34,161,33*7D
$GPGSV,4,2,15,18,34,265,29,20,24,039,20,22,01,138,,23,26,206,23*78
$GPGSV,4,3,15,24,45,196,31,25,36,343,27,29,10,328,20,36,52,277,28*79
$GPGSV,4,4,15,40,86,354,34,41,57,081,35,49,32,274,*47
$GLGSV,3,1,09,65,30,146,17,66,12,194,,72,16,087,25,75,13,154,*6E
$GLGSV,3,2,09,76,73,149,38,77,54,335,22,81,09,256,,87,07,004,*66
$GLGSV,3,3,09,88,22,308,26*53
$GNGLL,0438.24554,S,05528.24565,E,062936.00,A,A*65
$GNGRS,062936.00,1,-13.9,3.3,-5.3,6.3,9.0,-12.4,6.5,1.1,-1.0,,,*72
$GNGRS,062936.00,1,-8.3,-1.7,-7.4,,,,,,,,,*55
$GNGST,062936.00,35,,,,2.4,3.7,5.8*48
$GNZDA,062936.00,16,05,2025,00,00*77
$GNGBS,062936.00,2.4,3.7,5.8,,,,*58
$GNTXT,01,01,01,More than 100 frame errors, UART RX was disabled*70
b0($9;"<Ly"""z'z-$Wn
H{4#Vb#9Q ABHWKL%ImM6OQW
X4)Hb$B$GNRMC,062937.00,A,0438.24553,S,05528.24557,E,0.214,,160525,,,A*79
$GNVTG,,T,,M,0.214,N,0.396,K,A*36
$GNGNS,062937.00,0438.24553,S,05528.24557,E,AA,13,0.77,19.9,-46.7,,*66
$GNGGA,062937.00,0438.24553,S,05528.24557,E,1,12,0.77,19.9,M,-46.7,M,,*4D
$GNGSA,A,3,25,12,05,15,18,20,13,23,24,,,,1.60,0.77,1.40*15
$GNGSA,A,3,88,77,76,65,,,,,,,,,1.60,0.77,1.40*1C
$GPGSV,4,1,15,05,57,059,28,12,60,027,34,13,15,127,23,15,34,161,34*7F
$GPGSV,4,2,15,18,34,265,28,20,24,039,22,22,01,138,,23,26,206,25*7D
