b0X J!2

($ki9v%6M&;x1W  '[{$4%Ta!:R3 "rAF

6G JzH  I&yJKT,U'?_VX*j3b F$GNRMC,131202.00,A,0419.73965,S,05539.92058,E,0.026,,190525,,,D*75
$GNVTG,,T,,M,0.026,N,0.049,K,D*31
$GNGNS,131202.00,0419.73965,S,05539.92058,E,DA,18,0.59,10.2,-47.6,,0000*63
$GNGGA,131202.00,0419.73965,S,05539.92058,E,2,12,0.59,10.2,M,-47.6,M,,0000*45
$GNGSA,A,3,10,32,26,08,18,41,28,31,16,27,,,1.13,0.59,0.97*17
$GNGSA,A,3,86,70,73,74,84,71,85,72,,,,,1.13,0.59,0.97*11
$GPGSV,4,1,16,02,00,330,,04,04,223,,08,20,306,33,10,13,019,30*7D
$GPGSV,4,2,16,16,24,222,31,18,30,107,36,23,01,057,,26,28,192,29*7D
$GPGSV,4,3,16,27,54,283,37,28,59,120,38,31,49,172,21,32,39,005,32*79
$GPGSV,4,4,16,36,52,277,36,40,84,353,37,41,58,082,33,49,32,274,*7D
$GLGSV,3,1,11,65,00,225,,70,06,010,10,71,32,330,29,72,32,270,32*6C
$GLGSV,3,2,11,73,17,121,38,74,19,168,27,75,04,214,,84,44,128,27*6D
$GLGSV,3,3,11,85,63,027,39,86,13,344,22,,,,31*6F
$GNGLL,0419.73965,S,05539.92058,E,131202.00,A,D*62
$GNGRS,131202.00,1,-11.2,0.9,1.2,-0.1,-1.5,132,-1.3,-6.8,-2.2,0.8,,*74
$GNGRS,131202.00,1,-4.7,0.5,1.6,14.3,-0.5,3.8,1.0,-8.8,,,,*46
$GNGST,131202.00,941,,,,1.7,1.3,3.0*71
$GNZDA,131202.00,19,05,2025,00,00*73
$GNGBS,131202.00,1.7,1.3,3.0,,,,*5B
b0XJ2H

 kr9kg6";x1g '{4!Ta:R3 rjAF

G JbH BI yJqKT,U"?iVXb#$GNRMC,131203.00,A,0419.73968,S,05539.92058,E,0.128,,190525,,,D*76
$GNVTG,,T,,M,0.128,N,0.238,K,D*3A
$GNGNS,131203.00,0419.73968,S,05539.92058,E,DA,18,0.62,10.3,-47.6,,0000*66
$GNGGA,131203.00,0419.73968,S,05539.92058,E,2,12,0.62,10.3,M,-47.6,M,,0000*40
$GNGSA,A,3,10,32,26,08,18,41,28,31,16,27,,,1.26,0.62,1.10*17
$GNGSA,A,3,86,70,73,74,84,71,85,72,,,,,1.26,0.62,1.10*11
$GPGSV,4,1,16,02,00,330,,04,04,223,,08,20,306,28,10,13,019,27*71
$GPGSV,4,2,16,16,24,221,24,18,30,107,32,23,01,057,12,26,28,192,26*72
$GPGSV,4,3,16,27,54,283,29,28,59,120,34,31,49,172,18,32,39,005,30*72
$GPGSV,4,4,16,36,52,277,,40,84,353,33,41,58,082,30,49,32,274,*7F
$GLGSV,3,1,11,65,00,225,,70,06,010,10,71,32,330,26,72,32,270,26*66
$GLGSV,3,2,11,73,17,121,32,74,19,168,25,75,04,214,,84,44,128,25*67
$GLGSV,3,3,11,85,63,027,34,86,13,344,21,,,,24*65
$GNGLL,0419.73968,S,05539.92058,E,131203.00,A,D*6E
$GNGRS,131203.00,1,-7.5,1.7,-0.9,0.7,-1.4,132,-1.0,-4.1,-2.4,0.2,,*43
$GNGRS,131203.00,1,-3.2,23.0,1.3,13.9,0.1,3.5,1.1,-9.6,,,,*53
$GNGST,131203.00,34,,,,1.7,1.3,3.0*4B
$GNZDA,131203.00,19,05,2025,00,00*72
$GNGBS,131203.00,1.7,1.3,3.0,,,,*5A
b0XJ2

!k9'6p%;x~1 '{4"Ta:R3 rAF
G JcH I yJ?KT,MU#?NVXawb|$GNRMC,131204.00,A,0419.73971,S,05539.92059,E,0.066,,190525,,,D*73
$GNVTG,,T,,M,0.066,N,0.122,K,D*39
$GNGNS,131204.00,0419.73971,S,05539.92059,E,DA,18,0.62,10.3,-47.6,,0000*68
$GNGGA,131204.00,0419.73971,S,05539.92059,E,2,12,0.62,10.3,M,-47.6,M,,0000*4E
$GNGSA,A,3,10,32,26,08,18,41,28,31,16,27,,,1.26,0.62,1.10*17
$GNGSA,A,3,86,70,73,74,84,71,85,72,,,,,1.26,0.62,1.10*11
$GPGSV,4,1,16,02,00,330,,04,04,223,,08,20,306,28,10,13,019,25*73
$GPGSV,4,2,16,16,24,221,23,18,30,107,33,23,01,057,09,26,28,192,26*7E
$GPGSV,4,3,16,27,54,283,28,28,59,120,37,31,49,172,14,32,39,005,31*7D
$GPGSV,4,4,16,36,52,277,,40,84,353,34,41,58,082,30,49,32,274,*78
$GLGSV,3,1,11,65,00,225,,70,06,010,08,71,32,330,23,72,32,270,25*69
$GLGSV,3,2,11,73,17,121,32,74,19,168,23,75,04,214,,84,44,128,23*67
$GLGSV,3,3,11,85,63,027,35,86,13,344,20,,,,25*64
$GNGLL,0419.73971,S,05539.92059,E,131204.00,A,D*60
$GNGRS,131204.00,1,-5.9,1.8,0.4,-0.4,-1.0,132,-1.3,-2.8,-0.5,1.1,,*42
$GNGRS,131204.00,1,-4.2,22.9,1.4,13.4,-1.8,3.6,0.8,-9.0,,,,*79
$GNGST,131204.00,39,,,,1.7,1.4,3.1*47
$GNZDA,131204.00,19,05,2025,00,00*75
$GNGBS,131204.00,1.7,1.4,3.1,,,,*5B
b0XJ2O
;
l96p$;xb
13 '{4!Ta:R3 rAF
G JmH I yJKT,U"?QVXUb$GNRMC,131205.00,A,0419.73972,S,05539.92059,E,0.025,,190525,,,D*76
$GNVTG,,T,,M,0.025,N,0.047,K,D*3C
$GNGNS,131205.00,0419.73972,S,05539.92059,E,DA,18,0.60,10.3,-47.6,,0000*68
$GNGGA,131205.00,0419.73972,S,05539.92059,E,2,12,0.60,10.3,M,-47.6,M,,0000*4E
$GNGSA,A,3,10,32,26,08,18,41,28,31,16,27,,,1.20,0.60,1.04*16
$GNGSA,A,3,86,70,73,74,84,71,85,72,,,,,1.20,0.60,1.04*10
$GPGSV,4,1,16,02,00,330,,04,04,223,,08,20,306,26,10,13,019,25*7D
$GPGSV,4,2,16,16,24,221,22,18,30,108,29,23,01,057,,26,28,192,26*72
$GPGSV,4,3,16,27,54,283,28,28,59,120,36,31,49,172,10,32,39,005,30*79
$GPGSV,4,4,16,36,52,277,,40,84,353,33,41,58,082,29,49,32,274,*77
$GLGSV,3,1,11,65,00,225,,70,06,010,09,71,32,330,20,72,32,270,26*68
$GLGSV,3,2,11,73,17,121,32,74,19,168,23,75,04,214,,84,44,128,23*67
$GLGSV,3,3,11,85,63,027,34,86,13,344,20,,,,26*66
$GNGLL,0419.73972,S,05539.92059,E,131205.00,A,D*62
$GNGRS,131205.00,1,-12.2,-1.2,4.3,-1.8,-0.8,132,-1.6,0.5,4.3,1.1,,*56
$GNGRS,131205.00,1,-3.3,-13.4,1.6,13.0,-0.2,6.2,0.8,-8.9,,,,*58
$GNGST,131205.00,50,,,,1.8,1.4,3.2*45
$GNZDA,131205.00,19,05,2025,00,00*74
$GNGBS,131205.00,1.8,1.4,3.2,,,,*56
b0XJ#2
`
^'l99'6*;xk1 "'<{4*Ta%:R3 "rAF

G JH# 5I&yJKT,yU)?:VX%bL$GNRMC,131206.00,A,0419.73972,S,05539.92058,E,0.019,,190525,,,D*7B
$GNVTG,,T,,M,0.019,N,0.035,K,D*36
$GNGNS,131206.00,0419.73972,S,05539.92058,E,DA,18,0.62,10.3,-47.6,,0000*68
$GNGGA,131206.00,0419.73972,S,05539.92058,E,2,12,0.62,10.3,M,-47.6,M,,0000*4E
$GNGSA,A,3,10,32,26,08,18,41,28,31,16,27,,,1.26,0.62,1.10*17
$GNGSA,A,3,86,70,73,74,84,71,85,72,,,,,1.26,0.62,1.10*11
$GPGSV,4,1,16,02,00,330,,04,04,223,,08,20,306,35,10,13,019,26*7C
$GPGSV,4,2,16,16,24,221,30,18,30,108,39,23,01,057,,26,28,192,27*71
$GPGSV,4,3,16,27,54,283,39,28,59,120,42,31,49,172,17,32,39,005,34*79
$GPGSV,4,4,16,36,52,277,,40,84,353,42,41,58,082,37,49,32,274,*7E
$GLGSV,3,1,11,65,00,225,,70,06,010,10,71,32,330,29,72,32,270,35*6B
$GLGSV,3,2,11,73,17,121,38,74,19,168,25,75,04,214,,84,44,128,25*6D
$GLGSV,3,3,11,85,63,027,41,86,13,344,21,,,,37*65
$GNGLL,0419.73972,S,05539.92058,E,131206.00,A,D*60
$GNGRS,131206.00,1,-11.8,-2.0,-4.5,-0.6,-3.8,133,-1.5,0.2,3.5,0.2,,*7C
$GNGRS,131206.00,1,-2.9,23.2,1.6,12.6,1.2,6.5,0.6,-7.1,,,,*5D
$GNGST,131206.00,72710,,,,1.8,1.4,3.2*70
$GNZDA,131206.00,19,05,2025,00,00*77
$GNGBS,131206.00,1.8,1.4,3.2,,,,*55
b0XJ"2

/'l9(6+;x^1 $'{4)Ta$:R3( $rAF
G JH" I&yJKT,U)?ZVX#bq}$GNRMC,131207.00,A,0419.73975,S,05539.92054,E,0.029,,190525,,,D*72
$GNVTG,,T,,M,0.029,N,0.054,K,D*32
$GNGNS,131207.00,0419.73975,S,05539.92054,E,DA,18,0.61,10.4,-47.6,,0000*66
$GNGGA,131207.00,0419.73975,S,05539.92054,E,2,12,0.61,10.4,M,-47.6,M,,0000*40
$GNGSA,A,3,10,32,26,08,18,41,28,31,16,27,,,1.20,0.61,1.03*10
$GNGSA,A,3,86,70,73,74,84,71,85,72,,,,,1.20,0.61,1.03*16
$GPGSV,4,1,16,02,00,330,,04,04,223,,08,20,306,34,10,13,019,28*73
$GPGSV,4,2,16,16,24,221,29,18,30,108,39,23,01,057,,26,28,192,27*79
$GPGSV,4,3,16,27,54,283,40,28,59,120,43,31,49,172,19,32,39,005,36*7A
$GPGSV,4,4,16,36,52,277,,40,84,353,41,41,58,082,36,49,32,274,40*78
$GLGSV,3,1,11,65,00,225,,70,06,010,13,71,32,330,28,72,32,270,34*68
$GLGSV,3,2,11,73,17,121,38,74,19,168,29,75,04,214,,84,44,128,27*63
$GLGSV,3,3,11,85,63,027,41,86,13,344,23,,,,35*65
$GNGLL,0419.73975,S,05539.92054,E,131207.00,A,D*6A
$GNGRS,131207.00,1,-15.6,-1.2,-8.0,2.3,-0.6,133,-1.6,-0.1,0.5,2.8,,*7E
$GNGRS,131207.00,1,-2.8,23.2,1.8,13.0,1.3,6.5,0.9,-8.6,,,,*52
$GNGST,131207.00,70668,,,,1.8,1.4,3.1*7E
$GNZDA,131207.00,19,05,2025,00,00*76
$GNGBS,131207.00,1.8,1.4,3.1,,,,*57
b0XJ!2

[)lr9 (6+;x\1* #'{4)Ta%:R3( $rAF

G JH" I&yJKT,VU)?aVX#ZsbYU$GNRMC,131208.00,A,0419.73974,S,05539.92050,E,0.027,,190525,,,D*76
$GNVTG,,T,,M,0.027,N,0.050,K,D*38
$GNGNS,131208.00,0419.73974,S,05539.92050,E,DA,18,0.61,10.4,-47.6,,0000*6C
$GNGGA,131208.00,0419.73974,S,05539.92050,E,2,12,0.61,10.4,M,-47.6,M,,0000*4A
$GNGSA,A,3,10,32,26,08,18,41,28,31,16,27,,,1.20,0.61,1.03*10
$GNGSA,A,3,86,70,73,74,84,71,85,72,,,,,1.20,0.61,1.03*16
$GPGSV,4,1,16,02,00,330,,04,04,223,,08,20,306,33,10,13,019,28*74
$GPGSV,4,2,16,16,24,221,30,18,30,108,41,23,01,057,,26,28,192,27*7E
$GPGSV,4,3,16,27,54,283,40,28,59,120,43,31,49,172,23,32,39,005,35*70
$GPGSV,4,4,16,36,52,277,,40,84,353,41,41,58,082,37,49,32,274,40*79
$GLGSV,3,1,11,65,00,225,,70,06,010,10,71,32,330,27,72,32,270,34*64
$GLGSV,3,2,11,73,17,121,38,74,19,168,28,75,04,214,,84,44,128,27*62
$GLGSV,3,3,11,85,63,027,41,86,13,344,25,,,,35*63
$GNGLL,0419.73974,S,05539.92050,E,131208.00,A,D*60
$GNGRS,131208.00,1,-11.4,2.8,-4.8,-0.9,-1.4,133,-1.6,0.4,-1.7,2.4,,*7B
$GNGRS,131208.00,1,-3.1,56.1,1.7,12.5,3.4,4.9,1.0,-5.4,,,,*53
$GNGST,131208.00,966,,,,1.8,1.4,3.1*77
$GNZDA,131208.00,19,05,2025,00,00*79
$GNGBS,131208.00,1.8,1.4,3.1,,,,*58
b0XxJ!2

'l9Y&6N+;xo16 "'{4(Ta%:R3( $rAF
G JH! LI&yJKT,EU'?pVX#$bxA-$GNRMC,131209.00,A,0419.73974,S,05539.92048,E,0.040,,190525,,,D*7F
$GNVTG,,T,,M,0.040,N,0.075,K,D*3E
$GNGNS,131209.00,0419.73974,S,05539.92048,E,DA,17,0.61,10.4,-47.6,,0000*6B
$GNGGA,131209.00,0419.73974,S,05539.92048,E,2,12,0.61,10.4,M,-47.6,M,,0000*42
$GNGSA,A,3,10,32,26,08,18,41,28,31,16,27,,,1.20,0.61,1.03*10
$GNGSA,A,3,86,73,74,84,71,85,72,,,,,,1.20,0.61,1.03*11
$GPGSV,4,1,16,02,00,330,,04,04,223,,08,20,306,33,10,13,019,28*74
$GPGSV,4,2,16,16,24,221,30,18,30,108,39,23,01,057,,26,28,192,28*7E
$GPGSV,4,3,16,27,54,283,38,28,59,120,43,31,49,172,25,32,39,005,34*78
$GPGSV,4,4,16,36,52,277,,40,84,353,40,41,58,082,37,49,32,274,40*78
$GLGSV,3,1,11,65,00,225,,70,06,010,06,71,32,330,26,72,32,270,33*65
$GLGSV,3,2,11,73,17,121,38,74,19,168,28,75,04,214,,84,44,128,27*62
$GLGSV,3,3,11,85,63,027,39,86,13,344,26,,,,35*6F
$GNGLL,0419.73974,S,05539.92048,E,131209.00,A,D*68
$GNGRS,131209.00,1,-11.1,-0.7,-6.8,2.2,0.2,133,-1.5,0.5,-1.2,3.3,,*52
$GNGRS,131209.00,1,-3.5,1.4,10.1,3.2,1.4,1.1,-6.9,,,,,*4E
$GNGST,131209.00,966,,,,1.8,1.4,3.1*76
$GNZDA,131209.00,19,05,2025,00,00*78
$GNGBS,131209.00,1.8,1.4,3.1,,,,*59
b0X`J!2[

d(lk9(6+;xo1A "'{4)Ta%:R3( $rtAF
G JZH  $I&y|JKT,aU'?lVX"b`)$GNRMC,131210.00,A,0419.73975,S,05539.92051,E,0.006,,190525,,,D*7C
$GNVTG,,T,,M,0.006,N,0.012,K,D*3D
$GNGNS,131210.00,0419.73975,S,05539.92051,E,DA,18,0.61,10.4,-47.6,,0000*65
$GNGGA,131210.00,0419.73975,S,05539.92051,E,2,12,0.61,10.4,M,-47.6,M,,0000*43
$GNGSA,A,3,10,32,26,08,18,41,28,31,16,27,,,1.20,0.61,1.03*10
$GNGSA,A,3,86,70,73,74,84,71,85,72,,,,,1.20,0.61,1.03*16
$GPGSV,4,1,16,02,00,330,,04,04,223,,08,20,306,33,10,13,019,28*74
$GPGSV,4,2,16,16,24,221,30,18,30,108,40,23,01,057,,26,28,192,27*7F
$GPGSV,4,3,16,27,54,283,40,28,59,120,43,31,49,172,25,32,39,005,34*77
$GPGSV,4,4,16,36,52,277,,40,84,353,41,41,58,082,37,49,32,274,40*79
$GLGSV,3,1,11,65,00,225,,70,06,010,09,71,32,330,25,72,32,270,32*68
$GLGSV,3,2,11,73,17,121,38,74,19,168,27,75,04,214,,84,44,128,27*6D
$GLGSV,3,3,11,85,63,027,39,86,13,344,26,,,,34*6E
$GNGLL,0419.73975,S,05539.92051,E,131210.00,A,D*69
$GNGRS,131210.00,1,-10.0,-2.3,-8.7,-1.7,1.1,133,-1.4,3.2,1.0,-0.7,,*74
$GNGRS,131210.00,1,-0.7,23.0,1.2,12.7,3.5,-1.7,1.1,-9.9,,,,*7C
$GNGST,131210.00,966,,,,1.8,1.4,3.1*7E
$GNZDA,131210.00,19,05,2025,00,00*70
$GNGBS,131210.00,1.8,1.4,3.1,,,,*51
b0XHJ2L
j
(l9(6+;xS1 "'{4)Ta%:R4( $r\AF
$G JH! I&yJKT,U)?VX#vbHT$GNRMC,131211.00,A,0419.73974,S,05539.92053,E,0.014,,190525,,,D*7D
$GNVTG,,T,,M,0.014,N,0.025,K,D*3A
$GNGNS,131211.00,0419.73974,S,05539.92053,E,DA,17,0.61,10.3,-47.6,,0000*6F
$GNGGA,131211.00,0419.73974,S,05539.92053,E,2,12,0.61,10.3,M,-47.6,M,,0000*46
$GNGSA,A,3,10,32,26,08,18,41,28,31,16,27,,,1.20,0.61,1.03*10
$GNGSA,A,3,86,73,74,84,71,85,72,,,,,,1.20,0.61,1.03*11
$GPGSV,4,1,16,02,00,330,,04,04,223,,08,20,306,29,10,13,019,29*7E
$GPGSV,4,2,16,16,24,221,30,18,30,108,40,23,01,057,,26,28,192,28*70
$GPGSV,4,3,16,27,54,283,40,28,59,120,43,31,49,172,24,32,39,005,34*76
$GPGSV,4,4,16,36,52,277,,40,84,353,41,41,58,082,37,49,32,274,40*79
$GLGSV,3,1,11,65,00,225,,70,06,010,07,71,32,330,25,72,32,270,33*67
$GLGSV,3,2,11,73,17,121,38,74,19,168,27,75,04,214,,84,44,128,27*6D
$GLGSV,3,3,11,85,63,027,41,86,13,344,26,,,,35*60
$GNGLL,0419.73974,S,05539.92053,E,131211.00,A,D*6B
$GNGRS,131211.00,1,-6.6,-0.7,-5.5,-1.8,-0.6,133,-1.7,2.8,2.1,-0.8,,*6C
$GNGRS,131211.00,1,-0.6,1.5,17.6,5.0,-2.6,1.3,-7.7,,,,,*63
$GNGST,131211.00,966,,,,1.7,1.4,3.0*71
$GNZDA,131211.00,19,05,2025,00,00*71
$GNGBS,131211.00,1.7,1.4,3.0,,,,*5E
b0X0J!2

(l9W(6x+;xS1 "'J{4)Ta%:R4( $rAAF
G JH" I'yJKT,U)?VX7#?6b0$GNRMC,131212.00,A,0419.73974,S,05539.92053,E,0.019,,190525,,,D*73
$GNVTG,,T,,M,0.019,N,0.036,K,D*35
$GNGNS,131212.00,0419.73974,S,05539.92053,E,DA,18,0.61,10.3,-47.6,,0000*63
$GNGGA,131212.00,0419.73974,S,05539.92053,E,2,12,0.61,10.3,M,-47.6,M,,0000*45
$GNGSA,A,3,10,32,26,08,18,41,28,31,16,27,,,1.20,0.61,1.03*10
$GNGSA,A,3,86,70,73,74,84,71,85,72,,,,,1.20,0.61,1.03*16
$GPGSV,4,1,16,02,00,330,,04,04,223,,08,20,306,33,10,13,019,29*75
$GPGSV,4,2,16,16,24,221,30,18,30,108,40,23,01,057,,26,28,191,28*73
$GPGSV,4,3,16,27,54,283,40,28,59,120,43,31,49,172,24,32,39,005,34*76
$GPGSV,4,4,16,36,52,277,,40,84,353,41,41,58,082,37,49,32,274,40*79
$GLGSV,3,1,11,65,00,225,,70,06,010,08,71,32,330,25,72,32,270,34*6F
$GLGSV,3,2,11,73,17,121,39,74,19,168,28,75,04,214,,84,44,128,28*6C
$GLGSV,3,3,11,85,63,027,41,86,13,344,27,,,,35*61
$GNGLL,0419.73974,S,05539.92053,E,131212.00,A,D*68
$GNGRS,131212.00,1,-6.2,-1.8,-4.3,2.7,0.0,133,-1.7,2.3,-1.1,1.2,,*6B
$GNGRS,131212.00,1,-2.0,23.2,1.5,14.1,2.2,-2.3,1.5,-8.1,,,,*72
$GNGST,131212.00,966,,,,1.7,1.4,3.0*72
$GNZDA,131212.00,19,05,2025,00,00*72
$GNGBS,131212.00,1.7,1.4,3.0,,,,*5D
b0XJ!2

$(l9(6G+;xq17 "'{4)Ta%:R4( #r>AF
G JyH" :I'yJKT,"U)?VX*#Ib!$GNRMC,131213.00,A,0419.73973,S,05539.92054,E,0.038,,190525,,,D*71
$GNVTG,,T,,M,0.038,N,0.071,K,D*35
$GNGNS,131213.00,0419.73973,S,05539.92054,E,DA,18,0.61,10.3,-47.6,,0000*62
$GNGGA,131213.00,0419.73973,S,05539.92054,E,2,12,0.61,10.3,M,-47.6,M,,0000*44
$GNGSA,A,3,10,32,26,08,18,41,28,31,16,27,,,1.20,0.61,1.03*10
$GNGSA,A,3,86,70,73,74,84,71,85,72,,,,,1.20,0.61,1.03*16
$GPGSV,4,1,16,02,00,330,,04,04,223,,08,20,306,33,10,13,019,29*75
$GPGSV,4,2,16,16,24,221,30,18,30,108,40,23,01,057,,26,28,191,28*73
$GPGSV,4,3,16,27,54,282,40,28,59,120,43,31,49,172,25,32,39,005,34*76
$GPGSV,4,4,16,36,52,277,,40,84,353,41,41,58,082,37,49,32,274,40*79
$GLGSV,3,1,11,65,00,225,,70,06,010,13,71,32,330,25,72,32,270,34*65
$GLGSV,3,2,11,73,17,121,39,74,19,168,27,75,04,214,,84,44,128,28*63
$GLGSV,3,3,11,85,63,027,41,86,13,344,25,,,,35*63
$GNGLL,0419.73973,S,05539.92054,E,131213.00,A,D*69
$GNGRS,131213.00,1,-5.5,-0.2,-3.6,-1.3,0.0,133,-1.4,3.1,0.4,0.7,,*60
$GNGRS,131213.00,1,-2.1,23.2,1.5,15.4,2.9,-1.3,1.3,-7.1,,,,*77
$GNGST,131213.00,966,,,,1.7,1.4,3.0*73
$GNZDA,131213.00,19,05,2025,00,00*73
$GNGBS,131213.00,1.7,1.4,3.0,,,,*5C
b0XJ!2R
w
(l9(6Q+;vu1 "'{4)Ta%:R3( $r4AF
[G JH" ^I'yJBKT,%U)?VX#bd$GNRMC,131214.00,A,0419.73974,S,05539.92055,E,0.029,,190525,,,D*70
$GNVTG,,T,,M,0.029,N,0.054,K,D*32
$GNGNS,131214.00,0419.73974,S,05539.92055,E,DA,18,0.61,10.3,-47.6,,0000*63
$GNGGA,131214.00,0419.73974,S,05539.92055,E,2,12,0.61,10.3,M,-47.6,M,,0000*45
$GNGSA,A,3,10,32,26,08,18,41,28,31,16,27,,,1.20,0.61,1.03*10
$GNGSA,A,3,86,70,73,74,84,71,85,72,,,,,1.20,0.61,1.03*16
$GPGSV,4,1,16,02,00,330,,04,04,223,,08,20,306,33,10,13,019,28*74
$GPGSV,4,2,16,16,24,221,30,18,30,108,40,23,01,057,,26,28,191,29*72
$GPGSV,4,3,16,27,54,282,40,28,59,118,43,31,49,172,25,32,39,005,34*7D
$GPGSV,4,4,16,36,52,277,,40,84,353,41,41,58,082,37,49,32,274,40*79
$GLGSV,3,1,11,65,00,225,,70,06,010,09,71,32,330,24,72,32,270,34*6F
$GLGSV,3,2,11,73,17,121,39,74,19,168,28,75,04,214,,84,44,128,28*6C
$GLGSV,3,3,11,85,63,027,41,86,13,344,26,,,,35*60
$GNGLL,0419.73974,S,05539.92055,E,131214.00,A,D*68
$GNGRS,131214.00,1,-11.6,-0.1,-5.4,-1.7,-0.1,133,-1.4,1.4,2.7,0.8,,*77
$GNGRS,131214.00,1,1.5,-98.9,1.6,13.5,2.9,0.1,1.7,-6.7,,,,*55
$GNGST,131214.00,966,,,,1.7,1.3,3.0*73
$GNZDA,131214.00,19,05,2025,00,00*74
$GNGBS,131214.00,1.7,1.3,3.0,,,,*5C
b0XJ!2

(l9(6]+;vr1 "'{4)Ta%:R4( #r$AF
G JH! VI%yJaKT,U'?VXE"b;$GNRMC,131215.00,A,0419.73974,S,05539.92055,E,0.029,,190525,,,D*71
$GNVTG,,T,,M,0.029,N,0.053,K,D*35
$GNGNS,131215.00,0419.73974,S,05539.92055,E,DA,18,0.61,10.4,-47.6,,0000*65
$GNGGA,131215.00,0419.73974,S,05539.92055,E,2,12,0.61,10.4,M,-47.6,M,,0000*43
$GNGSA,A,3,10,32,26,08,18,41,28,31,16,27,,,1.20,0.61,1.03*10
$GNGSA,A,3,86,70,73,74,84,71,85,72,,,,,1.20,0.61,1.03*16
$GPGSV,4,1,16,02,00,330,,04,04,223,,08,20,306,33,10,13,019,29*75
$GPGSV,4,2,16,16,24,221,30,18,30,108,40,23,01,057,,26,28,191,28*73
$GPGSV,4,3,16,27,54,282,40,28,59,118,43,31,49,172,25,32,39,005,34*7D
$GPGSV,4,4,16,36,52,277,,40,84,353,41,41,58,082,37,49,32,274,40*79
$GLGSV,3,1,11,65,00,225,,70,06,010,09,71,32,330,24,72,32,270,33*68
$GLGSV,3,2,11,73,17,121,37,74,19,168,27,75,04,214,,84,44,128,27*62
$GLGSV,3,3,11,85,63,027,39,86,13,344,25,,,,34*6D
$GNGLL,0419.73974,S,05539.92055,E,131215.00,A,D*69
$GNGRS,131215.00,1,-7.7,-0.6,-3.8,-3.4,-0.6,133,-1.4,2.0,1.6,0.9,,*4F
$GNGRS,131215.00,1,0.7,23.1,1.6,13.8,2.2,-0.6,1.8,-6.8,,,,*5E
$GNGST,131215.00,966,,,,1.7,1.3,3.0*72
$GNZDA,131215.00,19,05,2025,00,00*75
$GNGBS,131215.00,1.7,1.3,3.0,,,,*5D
b0XJ!2
U
l(l9(6]+;v1: #'{4)Ta%:R+4) $rCAF

G J^H" PI&yJCKT,U)?VXZ#bJ$GNRMC,131216.00,A,0419.73977,S,05539.92055,E,0.023,,190525,,,D*7B
$GNVTG,,T,,M,0.023,N,0.043,K,D*3E
$GNGNS,131216.00,0419.73977,S,05539.92055,E,DA,18,0.61,10.4,-47.6,,0000*65
$GNGGA,131216.00,0419.73977,S,05539.92055,E,2,12,0.61,10.4,M,-47.6,M,,0000*43
$GNGSA,A,3,10,32,26,08,18,41,28,31,16,27,,,1.20,0.61,1.03*10
$GNGSA,A,3,86,70,73,74,84,71,85,72,,,,,1.20,0.61,1.03*16
$GPGSV,4,1,16,02,00,330,,04,04,223,,08,20,306,33,10,13,019,28*74
$GPGSV,4,2,16,16,24,221,30,18,30,108,40,23,01,057,,26,28,191,29*72
$GPGSV,4,3,16,27,54,282,40,28,59,118,43,31,49,172,25,32,39,005,35*7C
$GPGSV,4,4,16,36,52,277,,40,84,353,41,41,58,082,37,49,32,274,41*78
$GLGSV,3,1,11,65,00,225,,70,06,010,10,71,32,330,25,72,32,270,34*66
$GLGSV,3,2,11,73,17,121,38,74,19,168,28,75,04,214,,84,44,128,28*6D
$GLGSV,3,3,11,85,63,027,41,86,13,344,25,,,,35*63
$GNGLL,0419.73977,S,05539.92055,E,131216.00,A,D*69
$GNGRS,131216.00,1,-14.5,-1.0,-0.8,-5.9,-0.8,134,-1.1,3.1,3.6,0.9,,*7D
$GNGRS,131216.00,1,3.5,22.9,1.5,13.5,2.1,0.9,1.9,-6.9,,,,*7A
$GNGST,131216.00,966,,,,1.7,1.3,2.9*79
$GNZDA,131216.00,19,05,2025,00,00*76
$GNGBS,131216.00,1.7,1.3,2.9,,,,*56
b0XJ"2

_'l9"m'6c+;v|2 #'{4(Ta$:R+4) $rDAF
G JH" VI%yJqKT,U)?VX#Zb$GNRMC,131217.00,A,0419.73977,S,05539.92055,E,0.055,,190525,,,D*7B
$GNVTG,,T,,M,0.055,N,0.101,K,D*38
$GNGNS,131217.00,0419.73977,S,05539.92055,E,DA,18,0.61,10.5,-47.6,,0000*65
$GNGGA,131217.00,0419.73977,S,05539.92055,E,2,12,0.61,10.5,M,-47.6,M,,0000*43
$GNGSA,A,3,10,32,26,08,18,41,28,31,16,27,,,1.20,0.61,1.03*10
$GNGSA,A,3,86,70,73,74,84,71,85,72,,,,,1.20,0.61,1.03*16
$GPGSV,4,1,16,02,00,330,,04,04,223,,08,20,306,34,10,13,019,29*72
$GPGSV,4,2,16,16,24,221,29,18,30,108,39,23,01,057,,26,28,191,34*78
$GPGSV,4,3,16,27,54,282,39,28,59,118,43,31,50,171,25,32,39,005,35*79
$GPGSV,4,4,16,36,52,277,,40,84,353,40,41,58,082,36,49,32,274,41*78
$GLGSV,3,1,11,65,00,225,,70,06,010,08,71,32,330,25,72,32,270,34*6F
$GLGSV,3,2,11,73,17,121,37,74,19,168,27,75,04,214,,84,44,128,27*62
$GLGSV,3,3,11,85,63,027,41,86,13,344,23,,,,35*65
$GNGLL,0419.73977,S,05539.92055,E,131217.00,A,D*68
$GNGRS,131217.00,1,-6.4,-0.7,-1.5,-1.1,-0.8,134,-1.3,4.5,3.5,1.0,,*42
$GNGRS,131217.00,1,4.4,-38.4,1.6,13.9,2.6,2.5,1.9,-6.8,,,,*51
$GNGST,131217.00,966,,,,1.7,1.3,2.9*78
$GNZDA,131217.00,19,05,2025,00,00*77
$GNGBS,131217.00,1.7,1.3,2.9,,,,*57
b0XJ$2

?&l9"w'6d+;v2 $'{4(Ta":RC4( $r[AF
G JH! tI%yJKT,U(?VX]#bi($GNRMC,131218.00,A,0419.73977,S,05539.92056,E,0.013,,190525,,,D*75
$GNVTG,,T,,M,0.013,N,0.024,K,D*3C
$GNGNS,131218.00,0419.73977,S,05539.92056,E,DA,18,0.61,10.5,-47.6,,0000*69
$GNGGA,131218.00,0419.73977,S,05539.92056,E,2,12,0.61,10.5,M,-47.6,M,,0000*4F
$GNGSA,A,3,10,32,26,08,18,41,28,31,16,27,,,1.20,0.61,1.03*10
$GNGSA,A,3,86,70,73,74,84,71,85,72,,,,,1.20,0.61,1.03*16
$GPGSV,4,1,16,02,00,330,,04,04,223,,08,20,306,36,10,13,019,29*70
$GPGSV,4,2,16,16,24,221,29,18,30,108,38,23,01,057,,26,28,191,34*79
$GPGSV,4,3,16,27,54,282,39,28,59,118,43,31,50,171,23,32,39,005,36*7C
$GPGSV,4,4,16,36,52,277,,40,84,353,40,41,58,082,34,49,32,274,40*7B
$GLGSV,3,1,11,65,00,225,,70,06,010,09,71,32,330,27,72,32,270,33*6B
$GLGSV,3,2,11,73,17,121,37,74,19,168,27,75,04,214,,84,44,128,26*63
$GLGSV,3,3,11,85,63,027,40,86,13,344,22,,,,35*65
$GNGLL,0419.73977,S,05539.92056,E,131218.00,A,D*64
$GNGRS,131218.00,1,-3.3,-0.5,-3.9,-3.3,-1.0,134,-1.0,4.1,3.2,1.0,,*4A
$GNGRS,131218.00,1,3.5,23.2,1.4,14.3,2.8,2.8,1.9,-6.5,,,,*78
$GNGST,131218.00,966,,,,1.7,1.3,2.9*77
$GNZDA,131218.00,19,05,2025,00,00*78
$GNGBS,131218.00,1.7,1.3,2.9,,,,*58
b0XJ&2
b
'l9"$)6-+;v^2 %'{4)Ta#:RP4) &r{AF

G J}H! bI%yJKT,U)?VX$bQ$GNRMC,131219.00,A,0419.73977,S,05539.92056,E,0.001,,190525,,,D*77
$GNVTG,,T,,M,0.001,N,0.003,K,D*3A
$GNGNS,131219.00,0419.73977,S,05539.92056,E,DA,18,0.61,10.5,-47.6,,0000*68
$GNGGA,131219.00,0419.73977,S,05539.92056,E,2,12,0.61,10.5,M,-47.6,M,,0000*4E
$GNGSA,A,3,10,32,26,08,18,41,28,31,16,27,,,1.20,0.61,1.03*10
$GNGSA,A,3,86,70,73,74,84,71,85,72,,,,,1.20,0.61,1.03*16
$GPGSV,4,1,16,02,00,330,,04,04,223,,08,20,306,38,10,13,019,29*7E
$GPGSV,4,2,16,16,24,221,28,18,30,108,39,23,01,057,,26,28,191,34*79
$GPGSV,4,3,16,27,54,282,41,28,59,118,43,31,50,171,24,32,39,005,37*75
$GPGSV,4,4,16,36,52,277,,40,84,353,41,41,58,082,35,49,32,274,41*7A
$GLGSV,3,1,11,65,00,225,,70,06,010,10,71,32,330,28,72,32,270,33*6C
$GLGSV,3,2,11,73,17,121,37,74,19,168,27,75,04,214,,84,44,128,26*63
$GLGSV,3,3,11,85,63,027,41,86,13,344,20,,,,36*65
$GNGLL,0419.73977,S,05539.92056,E,131219.00,A,D*65
$GNGRS,131219.00,1,-4.1,-0.8,0.4,-0.8,-0.9,134,-1.6,2.0,6.4,0.5,,*66
$GNGRS,131219.00,1,4.5,23.0,1.6,14.1,4.4,-1.3,2.0,-6.7,,,,*5B
$GNGST,131219.00,966,,,,1.7,1.3,2.9*76
$GNZDA,131219.00,19,05,2025,00,00*79
$GNGBS,131219.00,1.7,1.3,2.9,,,,*59
b0XpJ#2
4
&l9 %65);vg2 "'{4(Ta!:Ro4' #rmAF
G J0H! UI%yJDKT,U)?VX$Nbp9t$GNRMC,131220.00,A,0419.73976,S,05539.92055,E,0.021,,190525,,,D*7D
$GNVTG,,T,,M,0.021,N,0.039,K,D*31
$GNGNS,131220.00,0419.73976,S,05539.92055,E,DA,18,0.61,10.5,-47.6,,0000*60
$GNGGA,131220.00,0419.73976,S,05539.92055,E,2,12,0.61,10.5,M,-47.6,M,,0000*46
$GNGSA,A,3,10,32,26,08,18,41,28,31,16,27,,,1.20,0.61,1.03*10
$GNGSA,A,3,86,70,73,74,84,71,85,72,,,,,1.20,0.61,1.03*16
$GPGSV,4,1,16,02,00,330,,04,04,223,,08,20,306,35,10,13,019,30*7B
$GPGSV,4,2,16,16,24,221,28,18,30,108,38,23,01,057,,26,28,191,32*7E
$GPGSV,4,3,16,27,54,282,37,28,59,118,41,31,50,171,25,32,39,005,34*74
$GPGSV,4,4,16,36,52,277,,40,84,353,40,41,58,082,33,49,32,274,39*72
$GLGSV,3,1,11,65,00,225,,70,06,010,09,71,32,330,30,72,32,270,33*6D
$GLGSV,3,2,11,73,17,121,37,74,19,168,27,75,04,214,,84,44,128,26*63
$GLGSV,3,3,11,85,63,027,41,86,13,344,21,,,,36*64
$GNGLL,0419.73976,S,05539.92055,E,131220.00,A,D*6D
$GNGRS,131220.00,1,-4.6,-0.7,-0.6,-0.4,-0.9,134,-1.5,1.7,8.0,0.5,,*4A
$GNGRS,131220.00,1,5.2,48.3,1.6,13.5,2.5,3.0,2.2,-6.8,,,,*7C
$GNGST,131220.00,966,,,,1.7,1.3,2.9*7C
$GNZDA,131220.00,19,05,2025,00,00*73
$GNGBS,131220.00,1.7,1.3,2.9,,,,*53
b0XXJ#2
l
&l9 h&66);vV2 #'{4(Ta :Rs4( "ryAF
"G JH" kI%yJ1KT,vU*?VX0%bX!L`$GNRMC,131221.00,A,0419.73975,S,05539.92057,E,0.017,,190525,,,D*78
$GNVTG,,T,,M,0.017,N,0.031,K,D*3C
$GNGNS,131221.00,0419.73975,S,05539.92057,E,DA,18,0.61,10.4,-47.6,,0000*61
$GNGGA,131221.00,0419.73975,S,05539.92057,E,2,12,0.61,10.4,M,-47.6,M,,0000*47
$GNGSA,A,3,10,32,26,08,18,41,28,31,16,27,,,1.20,0.61,1.03*10
$GNGSA,A,3,86,70,73,74,84,71,85,72,,,,,1.20,0.61,1.03*16
$GPGSV,4,1,16,02,00,330,,04,04,223,,08,20,306,35,10,13,019,30*7B
$GPGSV,4,2,16,16,24,221,29,18,30,108,38,23,01,057,,26,28,191,32*7F
$GPGSV,4,3,16,27,54,282,38,28,59,118,41,31,50,171,27,32,39,005,35*78
$GPGSV,4,4,16,36,52,277,,40,84,353,40,41,58,082,32,49,32,274,40*7D
$GLGSV,3,1,11,65,00,225,,70,06,010,13,71,32,330,30,72,32,270,34*61
$GLGSV,3,2,11,73,17,121,37,74,19,168,27,75,04,214,,84,44,128,26*63
$GLGSV,3,3,11,85,63,027,42,86,13,344,21,,,,37*66
$GNGLL,0419.73975,S,05539.92057,E,131221.00,A,D*6D
$GNGRS,131221.00,1,-4.0,-0.6,-1.5,-0.8,-0.9,134,-1.7,-1.0,0.2,0.5,,*60
$GNGRS,131221.00,1,5.6,23.4,1.5,13.3,3.7,0.2,1.9,-6.6,,,,*72
$GNGST,131221.00,966,,,,1.7,1.3,2.9*7D
$GNZDA,131221.00,19,05,2025,00,00*72
$GNGBS,131221.00,1.7,1.3,2.9,,,,*52
b0X@J#2

&l9 =&66);v`2 #'{4(Ta :R4( "rAF

(G JIH" pI%yJjKT,U*?VXF%b@$$GNRMC,131222.00,A,0419.73974,S,05539.92058,E,0.028,,190525,,,D*79
$GNVTG,,T,,M,0.028,N,0.052,K,D*35
$GNGNS,131222.00,0419.73974,S,05539.92058,E,DA,18,0.61,10.5,-47.6,,0000*6D
$GNGGA,131222.00,0419.73974,S,05539.92058,E,2,12,0.61,10.5,M,-47.6,M,,0000*4B
$GNGSA,A,3,10,32,26,08,18,41,28,31,16,27,,,1.20,0.61,1.03*10
$GNGSA,A,3,86,70,73,74,84,71,85,72,,,,,1.20,0.61,1.03*16
$GPGSV,4,1,16,02,00,330,,04,04,223,,08,20,306,35,10,13,019,30*7B
$GPGSV,4,2,16,16,24,221,30,18,30,108,38,23,01,057,,26,28,191,32*77
$GPGSV,4,3,16,27,54,282,38,28,59,118,41,31,50,171,27,32,39,005,35*78
$GPGSV,4,4,16,36,52,277,,40,84,353,40,41,58,082,32,49,32,274,40*7D
$GLGSV,3,1,11,65,00,225,,70,06,010,10,71,32,330,30,72,32,270,34*62
$GLGSV,3,2,11,73,17,121,37,74,19,168,27,75,04,214,,84,44,128,26*63
$GLGSV,3,3,11,85,63,027,42,86,13,344,20,,,,37*67
$GNGLL,0419.73974,S,05539.92058,E,131222.00,A,D*60
$GNGRS,131222.00,1,-3.4,-0.8,-1.9,-1.0,-0.8,134,-1.6,-1.0,-0.1,0.5,,*45
$GNGRS,131222.00,1,5.8,23.4,1.3,13.9,1.5,3.3,2.1,-6.6,,,,*7A
$GNGST,131222.00,966,,,,1.7,1.3,2.9*7E
$GNZDA,131222.00,19,05,2025,00,00*71
$GNGBS,131222.00,1.7,1.3,2.9,,,,*51
b0X(J#2

&l9!'68*;v[2 $'{4)Ta :R|4) #rAF

TG JH! I%y\JhKT,U)?VX$dLb(-$GNRMC,131223.00,A,0419.73971,S,05539.92058,E,0.037,,190525,,,D*73
$GNVTG,,T,,M,0.037,N,0.069,K,D*33
$GNGNS,131223.00,0419.73971,S,05539.92058,E,DA,18,0.59,10.4,-47.6,,0000*63
$GNGGA,131223.00,0419.73971,S,05539.92058,E,2,12,0.59,10.4,M,-47.6,M,,0000*45
$GNGSA,A,3,10,32,26,08,18,41,28,31,16,27,,,1.13,0.59,0.97*17
$GNGSA,A,3,86,70,73,74,84,71,85,72,,,,,1.13,0.59,0.97*11
$GPGSV,4,1,16,02,00,330,,04,04,223,,08,20,306,35,10,13,019,31*7A
$GPGSV,4,2,16,16,24,221,30,18,30,108,38,23,01,057,,26,28,191,33*76
$GPGSV,4,3,16,27,54,282,39,28,59,118,42,31,50,171,26,32,39,005,36*78
$GPGSV,4,4,16,36,52,277,,40,84,353,41,41,58,082,32,49,32,274,41*7D
$GLGSV,3,1,11,65,00,225,,70,06,010,10,71,32,330,29,72,32,270,33*6D
$GLGSV,3,2,11,73,17,121,37,74,19,168,26,75,04,214,,84,44,128,26*62
$GLGSV,3,3,11,85,63,027,41,86,13,344,19,,,,36*6F
$GNGLL,0419.73971,S,05539.92058,E,131223.00,A,D*64
$GNGRS,131223.00,1,-2.9,-1.1,-1.1,0.0,-0.7,134,-1.7,-2.5,-0.9,0.6,,*67
$GNGRS,131223.00,1,4.7,18.8,0.9,13.8,-1.1,4.3,1.9,-6.3,,,,*5B
$GNGST,131223.00,941,,,,1.6,1.3,2.9*7B
$GNZDA,131223.00,19,05,2025,00,00*70
$GNGBS,131223.00,1.6,1.3,2.9,,,,*51
b0XJ#2
 =
!'l9"'66*;vo2 $'{4)Ta :R4) $rAF

G JXH! I%yDJKT,U)?VX/$b$GNRMC,131224.00,A,0419.73969,S,05539.92058,E,0.018,,190525,,,D*70
$GNVTG,,T,,M,0.018,N,0.034,K,D*36
$GNGNS,131224.00,0419.73969,S,05539.92058,E,DA,18,0.61,10.4,-47.6,,0000*66
$GNGGA,131224.00,0419.73969,S,05539.92058,E,2,12,0.61,10.4,M,-47.6,M,,0000*40
$GNGSA,A,3,10,32,26,08,18,41,28,31,16,27,,,1.20,0.61,1.03*10
$GNGSA,A,3,86,70,73,74,84,71,85,72,,,,,1.20,0.61,1.03*16
$GPGSV,4,1,16,02,00,330,,04,04,223,,08,20,306,35,10,13,019,32*79
$GPGSV,4,2,16,16,24,221,33,18,30,108,39,23,01,057,,26,28,191,34*73
$GPGSV,4,3,16,27,54,282,39,28,59,118,42,31,50,171,26,32,39,005,36*78
$GPGSV,4,4,16,36,52,277,,40,84,353,41,41,58,082,32,49,32,274,41*7D
$GLGSV,3,1,11,65,00,225,,70,06,010,10,71,32,330,29,72,32,270,33*6D
$GLGSV,3,2,11,73,17,121,37,74,19,168,25,75,04,214,,84,44,128,25*62
$GLGSV,3,3,11,85,63,027,41,86,13,344,19,,,,36*6F
$GNGLL,0419.73969,S,05539.92058,E,131224.00,A,D*6A
$GNGRS,131224.00,1,-1.9,-1.1,-2.6,-1.2,-0.9,135,-1.4,-3.6,1.9,0.5,,*68
$GNGRS,131224.00,1,3.0,23.3,0.7,14.7,-0.6,3.4,1.6,-6.3,,,,*50
$GNGST,131224.00,966,,,,1.6,1.3,2.8*78
$GNZDA,131224.00,19,05,2025,00,00*77
$GNGBS,131224.00,1.6,1.3,2.8,,,,*57
b0XJ"2
/
'l9(6;);vz2 $'{4'Ta#:R4( $rfAF
G JuH! wI$yQJKT,U)?VX#{b$GNRMC,131225.00,A,0419.73968,S,05539.92058,E,0.017,,190525,,,D*7F
$GNVTG,,T,,M,0.017,N,0.031,K,D*3C
$GNGNS,131225.00,0419.73968,S,05539.92058,E,DA,18,0.61,10.4,-47.6,,0000*66
$GNGGA,131225.00,0419.73968,S,05539.92058,E,2,12,0.61,10.4,M,-47.6,M,,0000*40
$GNGSA,A,3,10,32,26,08,18,41,28,31,16,27,,,1.20,0.61,1.03*10
$GNGSA,A,3,86,70,73,74,84,71,85,72,,,,,1.20,0.61,1.03*16
$GPGSV,4,1,16,02,00,330,,04,04,223,,08,20,306,34,10,13,019,31*7B
$GPGSV,4,2,16,16,24,221,31,18,30,108,39,23,01,057,,26,28,191,30*75
$GPGSV,4,3,16,27,54,282,40,28,59,118,41,31,50,171,31,32,39,005,36*73
$GPGSV,4,4,16,36,52,277,,40,84,353,39,41,58,082,35,49,32,274,40*74
$GLGSV,3,1,11,65,00,225,,70,06,010,09,71,32,330,28,72,32,270,33*64
$GLGSV,3,2,11,73,17,121,36,74,19,168,25,75,04,214,,84,44,128,25*63
$GLGSV,3,3,11,85,63,027,41,86,13,344,18,,,,35*6D
$GNGLL,0419.73968,S,05539.92058,E,131225.00,A,D*6A
$GNGRS,131225.00,1,-2.1,-1.0,1.5,-1.1,-1.0,135,-1.3,-2.5,-0.1,0.6,,*67
$GNGRS,131225.00,1,2.4,23.0,0.8,14.7,-0.6,8.9,1.8,-6.5,,,,*56
$GNGST,131225.00,966,,,,1.6,1.3,2.8*79
$GNZDA,131225.00,19,05,2025,00,00*76
$GNGBS,131225.00,1.6,1.3,2.8,,,,*56
b0X J!2
]
&l9(6X);v&2  '{4*Ta(:R4( "r{AF
qG JH" vI&yCJKT,U)?VXo#/}b X$GNRMC,131226.00,A,0419.73967,S,05539.92059,E,0.046,,190525,,,D*76
$GNVTG,,T,,M,0.046,N,0.084,K,D*36
$GNGNS,131226.00,0419.73967,S,05539.92059,E,DA,18,0.59,10.4,-47.6,,0000*60
$GNGGA,131226.00,0419.73967,S,05539.92059,E,2,12,0.59,10.4,M,-47.6,M,,0000*46
$GNGSA,A,3,10,32,26,08,18,41,28,31,16,27,,,1.13,0.59,0.97*17
$GNGSA,A,3,86,70,73,74,84,71,85,72,,,,,1.13,0.59,0.97*11
$GPGSV,4,1,16,02,00,330,,04,04,223,,08,20,306,33,10,13,019,30*7D
$GPGSV,4,2,16,16,24,221,31,18,30,108,38,23,01,057,,26,28,191,30*74
$GPGSV,4,3,16,27,54,282,40,28,59,118,41,31,50,171,38,32,39,005,32*7E
$GPGSV,4,4,16,36,52,277,,40,84,353,42,41,58,082,40,49,32,274,40*7A
$GLGSV,3,1,11,65,00,225,,70,06,010,08,71,32,330,27,72,32,270,34*6D
$GLGSV,3,2,11,73,17,121,38,74,19,168,25,75,04,214,,84,44,128,25*6D
$GLGSV,3,3,11,85,63,027,41,86,13,344,19,,,,35*6C
$GNGLL,0419.73967,S,05539.92059,E,131226.00,A,D*67
$GNGRS,131226.00,1,-4.2,-1.3,1.5,-1.0,-0.8,135,-1.2,-0.7,-2.7,0.9,,*60
$GNGRS,131226.00,1,1.1,-14.2,0.7,14.2,-0.9,6.5,1.8,-6.5,,,,*7F
$GNGST,131226.00,941,,,,1.6,1.3,2.8*7F
$GNZDA,131226.00,19,05,2025,00,00*75
$GNGBS,131226.00,1.6,1.3,2.8,,,,*55
b0X$J!2

&l9(6r);v&22  '{4)Ta(:R4( #rzAF
G JH# rI&y6JKKT,U(?VX##b$[$GNRMC,131227.00,A,0419.73964,S,05539.92059,E,0.004,,190525,,,D*72
$GNVTG,,T,,M,0.004,N,0.007,K,D*3B
$GNGNS,131227.00,0419.73964,S,05539.92059,E,DA,18,0.61,10.4,-47.6,,0000*69
$GNGGA,131227.00,0419.73964,S,05539.92059,E,2,12,0.61,10.4,M,-47.6,M,,0000*4F
$GNGSA,A,3,10,32,26,08,18,41,28,31,16,27,,,1.20,0.61,1.03*10
$GNGSA,A,3,86,70,73,74,84,71,85,72,,,,,1.20,0.61,1.03*16
$GPGSV,4,1,16,02,00,330,,04,04,223,,08,20,306,33,10,13,019,29*75
$GPGSV,4,2,16,16,24,221,31,18,30,108,38,23,01,057,,26,28,191,30*74
$GPGSV,4,3,16,27,54,282,40,28,59,118,41,31,50,171,38,32,39,005,32*7E
$GPGSV,4,4,16,36,52,277,,40,84,353,41,41,58,082,40,49,32,274,40*79
$GLGSV,3,1,11,65,00,225,,70,06,010,08,71,32,330,26,72,32,270,35*6D
$GLGSV,3,2,11,73,17,121,38,74,19,168,26,75,04,214,,84,44,128,25*6E
$GLGSV,3,3,11,85,63,027,40,86,13,344,21,,,,35*66
$GNGLL,0419.73964,S,05539.92059,E,131227.00,A,D*65
$GNGRS,131227.00,1,-5.8,-1.2,-0.6,-1.3,-0.5,135,-1.2,-2.1,0.3,1.1,,*6C
$GNGRS,131227.00,1,2.0,23.3,0.5,13.6,-0.5,12.3,1.8,-6.5,,,,*6A
$GNGST,131227.00,966,,,,1.6,1.3,2.8*7B
$GNZDA,131227.00,19,05,2025,00,00*74
$GNGBS,131227.00,1.6,1.3,2.8,,,,*54
b0X(J!2O

Z&l9z'6);v&23  '{4)Ta(:R4( #rcAF
G J_H" I%y9J\KT,vU'?VX#Ab(y
3($GNRMC,131228.00,A,0419.73964,S,05539.92059,E,0.008,,190525,,,D*71
$GNVTG,,T,,M,0.008,N,0.014,K,D*35
$GNGNS,131228.00,0419.73964,S,05539.92059,E,DA,18,0.61,10.4,-47.6,,0000*66
$GNGGA,131228.00,0419.73964,S,05539.92059,E,2,12,0.61,10.4,M,-47.6,M,,0000*40
$GNGSA,A,3,10,32,26,08,18,41,28,31,16,27,,,1.20,0.61,1.03*10
$GNGSA,A,3,86,70,73,74,84,71,85,72,,,,,1.20,0.61,1.03*16
$GPGSV,4,1,16,02,00,330,,04,04,223,,08,20,306,33,10,13,019,28*74
$GPGSV,4,2,16,16,24,221,31,18,30,108,38,23,01,057,,26,28,191,30*74
$GPGSV,4,3,16,27,54,282,39,28,59,118,41,31,50,171,38,32,39,005,32*70
$GPGSV,4,4,16,36,52,277,,40,84,353,41,41,58,082,40,49,32,274,40*79
$GLGSV,3,1,11,65,00,225,,70,06,010,11,71,32,330,25,72,32,270,34*67
$GLGSV,3,2,11,73,17,121,37,74,19,168,27,75,04,214,,84,44,128,25*60
$GLGSV,3,3,11,85,63,027,39,86,13,344,21,,,,35*68
$GNGLL,0419.73964,S,05539.92059,E,131228.00,A,D*6A
$GNGRS,131228.00,1,-2.9,-1.2,-1.3,-1.8,-0.5,136,-1.2,0.5,0.9,1.3,,*4A
$GNGRS,131228.00,1,0.2,23.2,0.6,13.7,1.2,11.2,1.7,-6.2,,,,*47
$GNGST,131228.00,966,,,,1.6,1.3,2.8*74
$GNZDA,131228.00,19,05,2025,00,00*7B
$GNGBS,131228.00,1.6,1.3,2.8,,,,*5B
b0X,J!2T
#
%l9)6);v&2 !'/{4)Ta(:R5( #rjAF
G JH" I%y@J*KT,/U'?VX"M3b,a$GNRMC,131229.00,A,0419.73963,S,05539.92059,E,0.022,,190525,,,D*7F
$GNVTG,,T,,M,0.022,N,0.041,K,D*3D
$GNGNS,131229.00,0419.73963,S,05539.92059,E,DA,18,0.59,10.4,-47.6,,0000*6B
$GNGGA,131229.00,0419.73963,S,05539.92059,E,2,12,0.59,10.4,M,-47.6,M,,0000*4D
$GNGSA,A,3,10,32,26,08,18,41,28,31,16,27,,,1.13,0.59,0.97*17
$GNGSA,A,3,86,70,73,74,84,71,85,72,,,,,1.13,0.59,0.97*11
$GPGSV,4,1,16,02,00,330,,04,04,223,,08,20,306,33,10,13,019,28*74
$GPGSV,4,2,16,16,24,221,31,18,30,108,37,23,01,057,,26,28,191,30*7B
$GPGSV,4,3,16,27,54,282,41,28,59,118,41,31,50,171,38,32,39,005,33*7E
$GPGSV,4,4,16,36,52,277,,40,84,353,41,41,58,082,40,49,32,274,40*79
$GLGSV,3,1,11,65,00,225,,70,06,010,11,71,32,330,25,72,32,270,34*67
$GLGSV,3,2,11,73,17,121,37,74,19,168,27,75,04,214,,84,44,128,25*60
$GLGSV,3,3,11,85,63,027,39,86,13,344,21,,,,34*69
$GNGLL,0419.73963,S,05539.92059,E,131229.00,A,D*6C
$GNGRS,131229.00,1,2.9,0.5,-2.4,-1.7,-0.4,136,-0.9,-0.5,-0.2,1.4,,*41
$GNGRS,131229.00,1,1.8,-8.0,0.6,13.2,3.0,6.7,1.3,-6.2,,,,*69
$GNGST,131229.00,941,,,,1.6,1.2,2.8*71
$GNZDA,131229.00,19,05,2025,00,00*7A
$GNGBS,131229.00,1.6,1.2,2.8,,,,*5B
b0X0J!2X

#&l9{(6);v'2  '{4)Ta(:R 5) #rAF
G JH" I%y5JKT,U)?VX#\b0I$GNRMC,131230.00,A,0419.73956,S,05539.92061,E,0.014,,190525,,,D*7F
$GNVTG,,T,,M,0.014,N,0.025,K,D*3A
$GNGNS,131230.00,0419.73956,S,05539.92061,E,DA,18,0.61,10.4,-47.6,,0000*65
$GNGGA,131230.00,0419.73956,S,05539.92061,E,2,12,0.61,10.4,M,-47.6,M,,0000*43
$GNGSA,A,3,10,32,26,08,18,41,28,31,16,27,,,1.20,0.61,1.03*10
$GNGSA,A,3,86,70,73,74,84,71,85,72,,,,,1.20,0.61,1.03*16
$GPGSV,4,1,16,02,00,330,,04,04,223,,08,20,306,33,10,13,019,27*7B
$GPGSV,4,2,16,16,24,221,31,18,30,108,38,23,01,057,,26,28,191,30*74
$GPGSV,4,3,16,27,54,282,40,28,59,118,41,31,50,171,39,32,39,005,32*7F
$GPGSV,4,4,16,36,52,277,,40,84,353,41,41,58,082,40,49,32,274,41*78
$GLGSV,3,1,11,65,00,225,,70,06,010,08,71,32,330,25,72,32,270,34*6F
$GLGSV,3,2,11,73,17,121,37,74,19,168,27,75,04,214,,84,44,128,25*60
$GLGSV,3,3,11,85,63,027,41,86,13,344,23,,,,35*65
$GNGLL,0419.73956,S,05539.92061,E,131230.00,A,D*69
$GNGRS,131230.00,1,7.2,-0.1,-3.9,-1.7,-0.5,136,-1.0,-2.8,-2.2,1.4,,*66
$GNGRS,131230.00,1,-1.0,23.3,0.5,14.3,2.6,5.2,1.6,-6.3,,,,*53
$GNGST,131230.00,966,,,,1.6,1.2,2.8*7C
$GNZDA,131230.00,19,05,2025,00,00*72
$GNGBS,131230.00,1.6,1.2,2.8,,,,*53
b0Xh4J!2C

&l9)6);v'2  '{4)Ta):R;5) #rAF
G JH" I%y<JtKT,U'?VX-#ebh41`$GNRMC,131231.00,A,0419.73951,S,05539.92062,E,0.027,,190525,,,D*7A
$GNVTG,,T,,M,0.027,N,0.049,K,D*30
$GNGNS,131231.00,0419.73951,S,05539.92062,E,DA,18,0.61,10.3,-47.6,,0000*67
$GNGGA,131231.00,0419.73951,S,05539.92062,E,2,12,0.61,10.3,M,-47.6,M,,0000*41
$GNGSA,A,3,10,32,26,08,18,41,28,31,16,27,,,1.20,0.61,1.03*10
$GNGSA,A,3,86,70,73,74,84,71,85,72,,,,,1.20,0.61,1.03*16
$GPGSV,4,1,16,02,00,330,,04,04,223,,08,20,306,33,10,13,019,27*7B
$GPGSV,4,2,16,16,24,221,30,18,30,108,38,23,01,057,,26,28,191,29*7D
$GPGSV,4,3,16,27,54,282,41,28,59,118,41,31,50,171,39,32,39,005,32*7E
$GPGSV,4,4,16,36,52,277,,40,84,353,41,41,58,082,41,49,32,274,41*79
$GLGSV,3,1,11,65,00,225,,70,06,010,11,71,32,330,25,72,32,270,34*67
$GLGSV,3,2,11,73,17,121,37,74,19,168,26,75,04,214,,84,44,128,25*61
$GLGSV,3,3,11,85,63,027,39,86,13,344,23,,,,35*6A
$GNGLL,0419.73951,S,05539.92062,E,131231.00,A,D*6C
$GNGRS,131231.00,1,9.2,-0.2,-2.5,-1.9,-0.7,136,-0.8,-2.3,-0.3,1.6,,*68
$GNGRS,131231.00,1,0.5,23.1,0.6,14.0,4.2,5.0,1.4,-6.3,,,,*7B
$GNGST,131231.00,966,,,,1.6,1.2,2.8*7D
$GNZDA,131231.00,19,05,2025,00,00*73
$GNGBS,131231.00,1.6,1.2,2.8,,,,*52
b0XP8J!2H

&l9[(6);v'2b  'j{4)Ta):RI5) #rAF

G JH" I%yMJzKT,U'?VX""bP8$GNRMC,131232.00,A,0419.73948,S,05539.92063,E,0.025,,190525,,,D*72
$GNVTG,,T,,M,0.025,N,0.047,K,D*3C
$GNGNS,131232.00,0419.73948,S,05539.92063,E,DA,18,0.61,10.3,-47.6,,0000*6D
$GNGGA,131232.00,0419.73948,S,05539.92063,E,2,12,0.61,10.3,M,-47.6,M,,0000*4B
$GNGSA,A,3,10,32,26,08,18,41,28,31,16,27,,,1.20,0.61,1.03*10
$GNGSA,A,3,86,70,73,74,84,71,85,72,,,,,1.20,0.61,1.03*16
$GPGSV,4,1,16,02,00,330,,04,04,223,,08,20,306,33,10,13,019,27*7B
$GPGSV,4,2,16,16,24,221,30,18,30,108,38,23,01,057,,26,28,191,29*7D
$GPGSV,4,3,16,27,54,282,40,28,59,118,41,31,50,171,39,32,39,005,32*7F
$GPGSV,4,4,16,36,52,277,,40,84,353,41,41,58,082,41,49,32,274,41*79
$GLGSV,3,1,11,65,00,225,,70,06,010,13,71,32,330,25,72,32,270,34*65
$GLGSV,3,2,11,73,17,121,37,74,19,168,27,75,04,214,,84,44,128,25*60
$GLGSV,3,3,11,85,63,027,39,86,13,344,23,,,,34*6B
$GNGLL,0419.73948,S,05539.92063,E,131232.00,A,D*66
$GNGRS,131232.00,1,7.2,1.1,-1.6,-1.8,-0.7,136,-0.5,-1.6,-1.3,1.5,,*42
$GNGRS,131232.00,1,-0.2,27.3,0.8,14.0,2.4,3.9,1.3,-6.3,,,,*52
$GNGST,131232.00,966,,,,1.6,1.2,2.8*7E
$GNZDA,131232.00,19,05,2025,00,00*70
$GNGBS,131232.00,1.6,1.2,2.8,,,,*51
b0X8<J 2%

%l9I(6(;v'2  '{4)Ta':RZ5( "rAF

+G JaH" I%yXJnKT,2U'?tVXG"wJb8<k0$GNRMC,131233.00,A,0419.73945,S,05539.92064,E,0.001,,190525,,,D*7F
$GNVTG,,T,,M,0.001,N,0.001,K,D*38
$GNGNS,131233.00,0419.73945,S,05539.92064,E,DA,18,0.61,10.3,-47.6,,0000*66
$GNGGA,131233.00,0419.73945,S,05539.92064,E,2,12,0.61,10.3,M,-47.6,M,,0000*40
$GNGSA,A,3,10,32,26,08,18,41,28,31,16,27,,,1.20,0.61,1.03*10
$GNGSA,A,3,86,70,73,74,84,71,85,72,,,,,1.20,0.61,1.03*16
$GPGSV,4,1,16,02,00,330,,04,04,223,,08,20,306,32,10,13,019,27*7A
$GPGSV,4,2,16,16,24,221,30,18,30,108,37,23,01,057,,26,28,191,27*7C
$GPGSV,4,3,16,27,54,282,40,28,59,118,40,31,50,171,39,32,39,005,31*7D
$GPGSV,4,4,16,36,52,277,,40,84,353,41,41,58,082,39,49,32,274,40*77
$GLGSV,3,1,11,65,00,225,,70,06,010,10,71,32,330,26,72,32,270,34*65
$GLGSV,3,2,11,73,17,121,37,74,19,168,27,75,04,214,,84,44,128,24*61
$GLGSV,3,3,11,85,63,027,39,86,13,344,23,,,,34*6B
$GNGLL,0419.73945,S,05539.92064,E,131233.00,A,D*6D
$GNGRS,131233.00,1,4.2,0.2,3.3,-2.2,-0.5,137,-0.6,-2.2,2.6,1.4,,*4C
$GNGRS,131233.00,1,-1.8,23.5,0.9,13.9,3.1,1.0,1.2,-6.0,,,,*58
$GNGST,131233.00,966,,,,1.5,1.2,2.8*7C
$GNZDA,131233.00,19,05,2025,00,00*71
$GNGBS,131233.00,1.5,1.2,2.8,,,,*53
b0X @J!2G

%l9(6x);v'2' '{4)Ta(:Rk5( #rAF
G JH" I&yZJOKT,mU(?WVX#%b @!B$GNRMC,131234.00,A,0419.73943,S,05539.92065,E,0.024,,190525,,,D*78
$GNVTG,,T,,M,0.024,N,0.045,K,D*3F
$GNGNS,131234.00,0419.73943,S,05539.92065,E,DA,18,0.61,10.2,-47.6,,0000*67
$GNGGA,131234.00,0419.73943,S,05539.92065,E,2,12,0.61,10.2,M,-47.6,M,,0000*41
$GNGSA,A,3,10,32,26,08,18,41,28,31,16,27,,,1.20,0.61,1.03*10
$GNGSA,A,3,86,70,73,74,84,71,85,72,,,,,1.20,0.61,1.03*16
$GPGSV,4,1,16,02,00,330,,04,04,223,,08,20,306,33,10,13,019,28*74
$GPGSV,4,2,16,16,24,221,30,18,30,108,37,23,01,057,,26,28,191,26*7D
$GPGSV,4,3,16,27,54,282,40,28,59,118,41,31,50,171,39,32,39,005,31*7C
$GPGSV,4,4,16,36,52,277,,40,84,353,41,41,58,082,40,49,32,274,40*79
$GLGSV,3,1,11,65,00,225,,70,06,010,09,71,32,330,26,72,32,270,34*6D
$GLGSV,3,2,11,73,17,121,38,74,19,168,27,75,04,214,,84,44,128,24*6E
$GLGSV,3,3,11,85,63,027,40,86,13,344,22,,,,35*65
$GNGLL,0419.73943,S,05539.92065,E,131234.00,A,D*6D
$GNGRS,131234.00,1,4.3,-0.6,2.4,-1.8,-0.5,137,-0.6,-2.2,2.4,1.2,,*68
$GNGRS,131234.00,1,-2.8,23.3,0.9,13.6,3.6,-1.3,0.9,-5.8,,,,*7D
$GNGST,131234.00,966,,,,1.5,1.2,2.8*7B
$GNZDA,131234.00,19,05,2025,00,00*76
$GNGBS,131234.00,1.5,1.2,2.8,,,,*54
b0XDJ!25

%l9M(6u);v'2   'k{4)Ta(:Rr5( #rrAF
xG JVH# I&yZJKT,U)?iVX$IbD%$GNRMC,131235.00,A,0419.73940,S,05539.92066,E,0.014,,190525,,,D*7A
$GNVTG,,T,,M,0.014,N,0.026,K,D*39
$GNGNS,131235.00,0419.73940,S,05539.92066,E,DA,18,0.61,10.2,-47.6,,0000*66
$GNGGA,131235.00,0419.73940,S,05539.92066,E,2,12,0.61,10.2,M,-47.6,M,,0000*40
$GNGSA,A,3,10,32,26,08,18,41,28,31,16,27,,,1.20,0.61,1.03*10
$GNGSA,A,3,86,70,73,74,84,71,85,72,,,,,1.20,0.61,1.03*16
$GPGSV,4,1,16,02,00,330,,04,04,223,,08,20,306,33,10,13,019,28*74
$GPGSV,4,2,16,16,24,221,31,18,30,108,37,23,01,057,,26,28,191,25*7F
$GPGSV,4,3,16,27,54,282,40,28,59,118,41,31,50,171,39,32,39,005,32*7F
$GPGSV,4,4,16,36,52,277,,40,84,353,41,41,58,082,40,49,32,274,40*79
$GLGSV,3,1,11,65,00,225,,70,06,010,09,71,32,330,26,72,32,270,35*6C
$GLGSV,3,2,11,73,17,121,38,74,19,168,27,75,04,214,,84,44,128,25*6F
$GLGSV,3,3,11,85,63,027,41,86,13,344,23,,,,36*66
$GNGLL,0419.73940,S,05539.92066,E,131235.00,A,D*6C
$GNGRS,131235.00,1,4.5,1.1,5.9,-2.0,0.0,137,-0.6,-2.2,-0.3,1.2,,*45
$GNGRS,131235.00,1,-0.3,72.9,0.9,13.0,5.2,-1.7,1.1,-5.7,,,,*7D
$GNGST,131235.00,966,,,,1.5,1.2,2.8*7A
$GNZDA,131235.00,19,05,2025,00,00*77
$GNGBS,131235.00,1.5,1.2,2.8,,,,*55
b0XGJ!2V

'l9m(6w);v'2  '{4*Ta):Rt5) #rxAF
2G JH# I'yeJKT,U)?]VX$=%bG)V$GNRMC,131236.00,A,0419.73937,S,05539.92068,E,0.028,,190525,,,D*78
$GNVTG,,T,,M,0.028,N,0.052,K,D*35
$GNGNS,131236.00,0419.73937,S,05539.92068,E,DA,18,0.61,10.2,-47.6,,0000*6B
$GNGGA,131236.00,0419.73937,S,05539.92068,E,2,12,0.61,10.2,M,-47.6,M,,0000*4D
$GNGSA,A,3,10,32,26,08,18,41,28,31,16,27,,,1.20,0.61,1.03*10
$GNGSA,A,3,86,70,73,74,84,71,85,72,,,,,1.20,0.61,1.03*16
$GPGSV,4,1,16,02,00,330,,04,04,223,,08,20,306,33,10,13,019,28*74
$GPGSV,4,2,16,16,24,221,31,18,30,108,39,23,01,057,,26,28,191,27*73
$GPGSV,4,3,16,27,54,282,40,28,59,118,41,31,50,171,39,32,39,005,32*7F
$GPGSV,4,4,16,36,52,277,,40,84,353,42,41,58,082,41,49,32,274,41*7A
$GLGSV,3,1,11,65,00,225,,70,06,010,14,71,32,330,27,72,32,270,35*61
$GLGSV,3,2,11,73,17,121,39,74,19,168,27,75,04,214,,84,44,128,25*6E
$GLGSV,3,3,11,85,63,027,41,86,13,344,24,,,,36*61
$GNGLL,0419.73937,S,05539.92068,E,131236.00,A,D*61
$GNGRS,131236.00,1,2.6,1.3,6.2,-1.7,0.0,137,-0.7,-2.4,-0.8,1.2,,*41
$GNGRS,131236.00,1,-0.6,23.5,1.0,12.7,5.1,-1.1,0.9,-5.6,,,,*70
$GNGST,131236.00,966,,,,1.5,1.2,2.8*79
$GNZDA,131236.00,19,05,2025,00,00*74
$GNGBS,131236.00,1.5,1.2,2.8,,,,*56
b0XKJ!2

 8(l9?+6p);v&2  '{4)Ta*:Rr5( (rcAF
%G JH! I$yaJKT,U$?OVXibK-$GNRMC,131237.00,A,0419.73935,S,05539.92069,E,0.088,,190525,,,D*70
$GNVTG,,T,,M,0.088,N,0.163,K,D*3C
$GNGNS,131237.00,0419.73935,S,05539.92069,E,DA,18,0.61,10.1,-47.6,,0000*6A
$GNGGA,131237.00,0419.73935,S,05539.92069,E,2,12,0.61,10.1,M,-47.6,M,,0000*4C
$GNGSA,A,3,10,32,26,08,18,41,28,31,16,27,,,1.20,0.61,1.03*10
$GNGSA,A,3,86,70,73,74,84,71,85,72,,,,,1.20,0.61,1.03*16
$GPGSV,4,1,16,02,00,330,,04,04,223,,08,20,306,33,10,13,019,31*7C
$GPGSV,4,2,16,16,24,221,32,18,30,108,40,23,01,057,,26,28,191,29*70
$GPGSV,4,3,16,27,54,282,43,28,59,118,41,31,50,171,38,32,39,005,32*7D
$GPGSV,4,4,16,36,52,277,,40,84,353,41,41,58,082,42,49,32,274,40*7B
$GLGSV,3,1,11,65,00,225,,70,06,010,15,71,32,330,28,72,32,270,33*69
$GLGSV,3,2,11,73,17,121,36,74,19,168,28,75,04,214,,84,44,128,26*6D
$GLGSV,3,3,11,85,63,027,36,86,13,344,25,,,,29*6E
$GNGLL,0419.73935,S,05539.92069,E,131237.00,A,D*63
$GNGRS,131237.00,1,2.8,2.0,3.2,-1.2,-0.2,137,-0.8,-2.9,0.6,1.1,,*43
$GNGRS,131237.00,1,0.1,23.4,1.0,12.6,7.3,-2.4,0.8,-5.6,,,,*5C
$GNGST,131237.00,966,,,,1.5,1.2,2.8*78
$GNZDA,131237.00,19,05,2025,00,00*75
$GNGBS,131237.00,1.5,1.2,2.8,,,,*57
b0XOJ2Q
+
#'l9*6);v&2 'K{4'Ta(:R5& !rhAF
kBG JH I%y~JKT,U&?MVXxYbO1&$GNRMC,131238.00,A,0419.73932,S,05539.92069,E,0.070,,190525,,,D*7F
$GNVTG,,T,,M,0.070,N,0.130,K,D*3D
$GNGNS,131238.00,0419.73932,S,05539.92069,E,DA,18,0.61,10.0,-47.6,,0000*63
$GNGGA,131238.00,0419.73932,S,05539.92069,E,2,12,0.61,10.0,M,-47.6,M,,0000*45
$GNGSA,A,3,10,32,26,08,18,41,28,31,16,27,,,1.20,0.61,1.03*10
$GNGSA,A,3,86,70,73,74,84,71,85,72,,,,,1.20,0.61,1.03*16
$GPGSV,4,1,16,02,00,330,,04,04,223,,08,20,306,31,10,13,019,25*7B
$GPGSV,4,2,16,16,24,221,35,18,30,108,39,23,01,057,,26,28,191,23*73
$GPGSV,4,3,16,27,54,282,42,28,59,118,41,31,50,171,38,32,39,005,31*7F
$GPGSV,4,4,16,36,52,277,,40,84,353,39,41,58,082,40,49,32,274,38*79
$GLGSV,3,1,11,65,00,225,,70,06,010,07,71,32,330,25,72,32,270,30*64
$GLGSV,3,2,11,73,17,121,37,74,19,168,29,75,04,214,,84,44,128,25*6E
$GLGSV,3,3,11,85,63,027,38,86,13,344,23,,,,31*6F
$GNGLL,0419.73932,S,05539.92069,E,131238.00,A,D*6B
$GNGRS,131238.00,1,-2.1,3.3,6.6,-1.7,-0.3,137,-0.7,-3.0,1.3,1.3,,*6E
$GNGRS,131238.00,1,-1.0,170,1.3,17.8,6.5,-1.0,0.8,-5.3,,,,*5E
$GNGST,131238.00,966,,,,1.6,1.2,2.8*74
$GNZDA,131238.00,19,05,2025,00,00*7A
$GNGBS,131238.00,1.6,1.2,2.8,,,,*5B
b0XSJ2>

"%l9)6);v&2 'p{4%Ta(:R5& "rAF
*G JIH &I$ytJ!KT,'U'?eVX mbSq5y$GNRMC,131239.00,A,0419.73928,S,05539.92069,E,0.021,,190525,,,D*71
$GNVTG,,T,,M,0.021,N,0.040,K,D*3F
$GNGNS,131239.00,0419.73928,S,05539.92069,E,DA,18,0.61,9.9,-47.6,,0000*58
$GNGGA,131239.00,0419.73928,S,05539.92069,E,2,12,0.61,9.9,M,-47.6,M,,0000*7E
$GNGSA,A,3,10,32,26,08,18,41,28,31,16,27,,,1.20,0.61,1.03*10
$GNGSA,A,3,86,70,73,74,84,71,85,72,,,,,1.20,0.61,1.03*16
$GPGSV,4,1,16,02,00,330,,04,04,223,,08,20,306,31,10,13,019,26*78
$GPGSV,4,2,16,16,24,221,34,18,30,108,37,23,01,057,,26,28,191,25*7A
$GPGSV,4,3,16,27,54,282,41,28,59,118,41,31,50,171,38,32,39,005,30*7D
$GPGSV,4,4,16,36,52,277,,40,84,353,37,41,58,082,40,49,32,274,38*77
$GLGSV,3,1,11,65,00,226,,70,06,010,08,71,32,330,26,72,32,270,31*6A
$GLGSV,3,2,11,73,17,121,36,74,19,168,30,75,04,214,,84,44,128,26*64
$GLGSV,3,3,11,85,63,027,39,86,13,344,25,,,,32*6B
$GNGLL,0419.73928,S,05539.92069,E,131239.00,A,D*61
$GNGRS,131239.00,1,-3.4,8.8,7.3,-1.9,-0.7,137,-1.0,-2.6,-2.6,1.4,,*48
$GNGRS,131239.00,1,-0.8,23.5,1.2,13.1,5.5,-1.8,1.0,-2.2,,,,*72
$GNGST,131239.00,966,,,,1.5,1.2,2.8*76
$GNZDA,131239.00,19,05,2025,00,00*7B
$GNGBS,131239.00,1.5,1.2,2.8,,,,*59
b0XWJ2

 %l9)6);vn&2 '{4%Ta':R5& "roAF
G JH I$ymJ#KT,:U'?KVX RbWY9Q$GNRMC,131240.00,A,0419.73926,S,05539.92068,E,0.024,,190525,,,D*75
$GNVTG,,T,,M,0.024,N,0.044,K,D*3E
$GNGNS,131240.00,0419.73926,S,05539.92068,E,DA,18,0.61,9.9,-47.6,,0000*59
$GNGGA,131240.00,0419.73926,S,05539.92068,E,2,12,0.61,9.9,M,-47.6,M,,0000*7F
$GNGSA,A,3,10,32,26,08,18,41,28,31,16,27,,,1.20,0.61,1.03*10
$GNGSA,A,3,86,70,73,74,84,71,85,72,,,,,1.20,0.61,1.03*16
$GPGSV,4,1,16,02,00,330,,04,04,223,,08,20,306,31,10,13,019,26*78
$GPGSV,4,2,16,16,24,221,32,18,30,108,37,23,01,057,,26,28,191,27*7E
$GPGSV,4,3,16,27,54,282,41,28,59,118,41,31,50,171,38,32,39,005,30*7D
$GPGSV,4,4,16,36,52,277,,40,84,353,37,41,58,082,39,49,32,274,38*79
$GLGSV,3,1,11,65,00,226,,70,06,010,08,71,32,330,27,72,32,270,31*6B
$GLGSV,3,2,11,73,17,121,36,74,19,168,30,75,04,214,,84,44,128,26*64
$GLGSV,3,3,11,85,63,027,39,86,13,344,26,,,,32*68
$GNGLL,0419.73926,S,05539.92068,E,131240.00,A,D*60
$GNGRS,131240.00,1,-5.3,6.6,6.5,-2.4,-0.8,137,-1.5,-2.4,-1.0,1.3,,*44
$GNGRS,131240.00,1,-0.6,23.0,1.1,13.2,3.1,-0.6,0.7,-2.4,,,,*7A
$GNGST,131240.00,966,,,,1.5,1.2,2.8*78
$GNZDA,131240.00,19,05,2025,00,00*75
$GNGBS,131240.00,1.5,1.2,2.8,,,,*57
b0Xx[J 2f

 S&l9Y)6i*;vh&2 '`{4%Ta':R5& "ruAF
5G JH I#yJKT,U'?-VX/bx[A=)^$GNRMC,131241.00,A,0419.73925,S,05539.92066,E,0.036,,190525,,,D*7A
$GNVTG,,T,,M,0.036,N,0.066,K,D*3D
$GNGNS,131241.00,0419.73925,S,05539.92066,E,DA,18,0.61,9.8,-47.6,,0000*54
$GNGGA,131241.00,0419.73925,S,05539.92066,E,2,12,0.61,9.8,M,-47.6,M,,0000*72
$GNGSA,A,3,10,32,26,08,18,41,28,31,16,27,,,1.20,0.61,1.03*10
$GNGSA,A,3,86,70,73,74,84,71,85,72,,,,,1.20,0.61,1.03*16
$GPGSV,4,1,16,02,00,330,,04,04,223,,08,20,306,32,10,13,019,26*7B
$GPGSV,4,2,16,16,24,221,32,18,30,108,38,23,01,057,,26,28,191,27*71
$GPGSV,4,3,16,27,54,282,41,28,59,118,42,31,50,171,38,32,39,005,30*7E
$GPGSV,4,4,16,36,52,277,,40,84,353,37,41,58,082,39,49,32,274,38*79
$GLGSV,3,1,11,65,00,226,,70,06,010,07,71,32,330,26,72,32,270,31*65
$GLGSV,3,2,11,73,17,121,35,74,19,168,30,75,04,214,,84,44,128,26*67
$GLGSV,3,3,11,85,63,027,39,86,13,344,26,,,,31*6B
$GNGLL,0419.73925,S,05539.92066,E,131241.00,A,D*6C
$GNGRS,131241.00,1,-6.1,8.6,6.0,-1.5,-0.9,138,-1.5,-2.5,0.8,1.0,,*65
$GNGRS,131241.00,1,-0.2,137,1.3,12.8,-0.6,0.3,0.4,-2.5,,,,*5F
$GNGST,131241.00,966,,,,1.5,1.2,2.8*79
$GNZDA,131241.00,19,05,2025,00,00*74
$GNGBS,131241.00,1.5,1.2,2.8,,,,*56
b0X`_J2

 p%l9*6`);vs&2 '{4&Ta':R5& #rAF
JG JH  4I$yJKT,U'?-VXob`_)A$GNRMC,131242.00,A,0419.73924,S,05539.92065,E,0.010,,190525,,,D*7F
$GNVTG,,T,,M,0.010,N,0.018,K,D*30
$GNGNS,131242.00,0419.73924,S,05539.92065,E,DA,18,0.61,9.7,-47.6,,0000*5A
$GNGGA,131242.00,0419.73924,S,05539.92065,E,2,12,0.61,9.7,M,-47.6,M,,0000*7C
$GNGSA,A,3,10,32,26,08,18,41,28,31,16,27,,,1.20,0.61,1.03*10
$GNGSA,A,3,86,70,73,74,84,71,85,72,,,,,1.20,0.61,1.03*16
$GPGSV,4,1,16,02,00,330,,04,04,223,,08,20,306,31,10,13,019,27*79
$GPGSV,4,2,16,16,24,221,32,18,30,108,37,23,01,057,,26,28,191,28*71
$GPGSV,4,3,16,27,54,282,42,28,59,118,41,31,50,171,38,32,39,005,31*7F
$GPGSV,4,4,16,36,52,277,,40,84,353,38,41,58,082,39,49,32,274,38*76
$GLGSV,3,1,11,65,00,226,,70,06,010,09,71,32,330,26,72,32,270,32*68
$GLGSV,3,2,11,73,17,121,36,74,19,168,30,75,04,214,,84,44,128,26*64
$GLGSV,3,3,11,85,63,027,39,86,13,344,25,,,,30*69
$GNGLL,0419.73924,S,05539.92065,E,131242.00,A,D*6D
$GNGRS,131242.00,1,-5.0,4.5,4.8,-3.3,-0.9,138,-1.4,-2.3,-1.4,1.0,,*42
$GNGRS,131242.00,1,-1.5,23.8,1.3,13.0,1.5,1.7,0.4,-4.6,,,,*5E
$GNGST,131242.00,966,,,,1.5,1.2,2.8*7A
$GNZDA,131242.00,19,05,2025,00,00*77
$GNGBS,131242.00,1.5,1.2,2.8,,,,*55
b0XHcJ 2M

!%l9U*6g);v&2Z  '{4'Ta(:R6' #rDAF
HG JH ?I$yuJLKT,U'?,VX\bHcE.$GNRMC,131243.00,A,0419.73922,S,05539.92065,E,0.010,,190525,,,D*78
$GNVTG,,T,,M,0.010,N,0.018,K,D*30
$GNGNS,131243.00,0419.73922,S,05539.92065,E,DA,18,0.61,9.6,-47.6,,0000*5C
$GNGGA,131243.00,0419.73922,S,05539.92065,E,2,12,0.61,9.6,M,-47.6,M,,0000*7A
$GNGSA,A,3,10,32,26,08,18,41,28,31,16,27,,,1.20,0.61,1.03*10
$GNGSA,A,3,86,70,73,74,84,71,85,72,,,,,1.20,0.61,1.03*16
$GPGSV,4,1,16,02,00,330,,04,04,223,,08,20,306,32,10,13,019,27*7A
$GPGSV,4,2,16,16,24,221,33,18,30,108,37,23,01,057,,26,28,191,29*71
$GPGSV,4,3,16,27,54,282,42,28,59,118,41,31,50,171,38,32,39,005,32*7C
$GPGSV,4,4,16,36,52,277,,40,84,353,39,41,58,082,40,49,32,274,39*78
$GLGSV,3,1,11,65,00,226,,70,06,010,09,71,32,330,27,72,32,270,31*6A
$GLGSV,3,2,11,73,17,121,36,74,19,168,30,75,04,214,,84,44,128,25*67
$GLGSV,3,3,11,85,63,027,39,86,13,344,26,,,,30*6A
$GNGLL,0419.73922,S,05539.92065,E,131243.00,A,D*6A
$GNGRS,131243.00,1,-5.3,5.1,3.4,-1.8,-1.1,138,-1.1,-1.7,-2.6,1.0,,*4D
$GNGRS,131243.00,1,0.2,23.8,1.2,13.6,2.7,-3.4,0.4,-7.1,,,,*5A
$GNGST,131243.00,966,,,,1.5,1.2,2.8*7B
$GNZDA,131243.00,19,05,2025,00,00*76
$GNGBS,131243.00,1.5,1.2,2.8,,,,*54
b0X0gJ 2

!&l9{*6p);v&2v '{4'Ta(:R6' #rAFBG JH I$yJKT,%U'?%VXOb0gH$GNRMC,131244.00,A,0419.73921,S,05539.92064,E,0.015,,190525,,,D*78
$GNVTG,,T,,M,0.015,N,0.028,K,D*36
$GNGNS,131244.00,0419.73921,S,05539.92064,E,DA,18,0.61,9.6,-47.6,,0000*59
$GNGGA,131244.00,0419.73921,S,05539.92064,E,2,12,0.61,9.6,M,-47.6,M,,0000*7F
$GNGSA,A,3,10,32,26,08,18,41,28,31,16,27,,,1.20,0.61,1.03*10
$GNGSA,A,3,86,70,73,74,84,71,85,72,,,,,1.20,0.61,1.03*16
$GPGSV,4,1,16,02,00,330,,04,04,223,,08,20,306,32,10,13,019,28*75
$GPGSV,4,2,16,16,24,221,33,18,30,108,38,23,01,057,,26,28,191,29*7E
$GPGSV,4,3,16,27,54,282,42,28,59,118,41,31,50,171,38,32,39,005,31*7F
$GPGSV,4,4,16,36,52,277,,40,84,353,39,41,58,082,40,49,32,274,39*78
$GLGSV,3,1,11,65,00,226,,70,06,011,11,71,32,330,27,72,32,270,31*62
$GLGSV,3,2,11,73,17,121,36,74,19,168,30,75,04,214,,84,44,128,25*67
$GLGSV,3,3,11,85,63,027,39,86,13,344,26,,,,30*6A
$GNGLL,0419.73921,S,05539.92064,E,131244.00,A,D*6F
$GNGRS,131244.00,1,-5.6,6.9,1.2,-0.5,-0.9,138,-1.0,-1.4,0.1,1.1,,*6E
$GNGRS,131244.00,1,-1.8,170,1.3,10.2,2.9,-5.9,0.4,-7.8,,,,*50
$GNGST,131244.00,966,,,,1.5,1.2,2.8*7C
$GNZDA,131244.00,19,05,2025,00,00*71
$GNGBS,131244.00,1.5,1.2,2.8,,,,*53
b0XkJ 2

!%l9m*6T);v'2 '{4'Ta(:R6' $ryAFRGKjH ;I$yJKT,]U'?VXbkL$GNRMC,131245.00,A,0419.73921,S,05539.92064,E,0.020,,190525,,,D*7F
$GNVTG,,T,,M,0.020,N,0.037,K,D*3E
$GNGNS,131245.00,0419.73921,S,05539.92064,E,DA,18,0.61,9.5,-47.6,,0000*5B
$GNGGA,131245.00,0419.73921,S,05539.92064,E,2,12,0.61,9.5,M,-47.6,M,,0000*7D
$GNGSA,A,3,10,32,26,08,18,41,28,31,16,27,,,1.20,0.61,1.03*10
$GNGSA,A,3,86,70,73,74,84,71,85,72,,,,,1.20,0.61,1.03*16
$GPGSV,4,1,16,02,00,330,,04,04,223,,08,20,306,32,10,13,019,28*75
$GPGSV,4,2,16,16,24,221,33,18,30,108,37,23,01,057,,26,28,191,29*71
$GPGSV,4,3,16,27,54,282,42,28,59,118,41,31,50,171,39,32,39,005,31*7E
$GPGSV,4,4,16,36,52,277,,40,84,353,39,41,58,082,40,49,32,274,39*78
$GLGSV,3,1,11,65,00,226,,70,06,011,07,71,31,331,27,72,32,270,31*67
$GLGSV,3,2,11,73,17,121,36,74,19,168,30,75,04,214,,84,44,128,25*67
$GLGSV,3,3,11,85,63,027,39,86,13,344,25,,,,30*69
$GNGLL,0419.73921,S,05539.92064,E,131245.00,A,D*6E
$GNGRS,131245.00,1,-4.9,5.2,1.1,-0.9,-0.7,138,-1.0,-1.2,-0.4,0.8,,*4E
$GNGRS,131245.00,1,-0.1,23.9,1.4,10.5,0.9,-6.6,0.3,-9.7,,,,*71
$GNGST,131245.00,966,,,,1.5,1.2,2.8*7D
$GNZDA,131245.00,19,05,2025,00,00*70
$GNGBS,131245.00,1.5,1.2,2.8,,,,*52
b0XoJ 2}
(
!%l9L*6]);v'2 'W{4&Ta(:R6' #rAFLGKQHI$yJ0KT,_U'?"VX3CboP`c$GNRMC,131246.00,A,0419.73921,S,05539.92063,E,0.009,,190525,,,D*70
$GNVTG,,T,,M,0.009,N,0.017,K,D*37
$GNGNS,131246.00,0419.73921,S,05539.92063,E,DA,18,0.61,9.5,-47.6,,0000*5F
$GNGGA,131246.00,0419.73921,S,05539.92063,E,2,12,0.61,9.5,M,-47.6,M,,0000*79
$GNGSA,A,3,10,32,26,08,18,41,28,31,16,27,,,1.20,0.61,1.03*10
$GNGSA,A,3,86,70,73,74,84,71,85,72,,,,,1.20,0.61,1.03*16
$GPGSV,4,1,16,02,00,330,,04,04,223,,08,20,306,32,10,13,019,28*75
$GPGSV,4,2,16,16,24,221,33,18,30,108,37,23,01,057,,26,28,191,29*71
$GPGSV,4,3,16,27,54,282,42,28,59,118,41,31,50,171,39,32,39,005,31*7E
$GPGSV,4,4,16,36,52,277,,40,84,353,38,41,58,082,40,49,32,274,39*79
$GLGSV,3,1,11,65,00,226,,70,06,011,08,71,31,331,27,72,31,270,31*6B
$GLGSV,3,2,11,73,17,121,36,74,19,168,30,75,04,214,,84,44,128,25*67
$GLGSV,3,3,11,85,63,027,39,86,13,344,26,,,,31*6B
$GNGLL,0419.73921,S,05539.92063,E,131246.00,A,D*6A
$GNGRS,131246.00,1,-7.3,3.4,0.8,-1.3,-0.5,138,-1.3,-1.0,1.9,0.9,,*64
$GNGRS,131246.00,1,0.5,23.8,1.7,8.2,1.0,-6.9,0.3,-4.8,,,,*62
$GNGST,131246.00,966,,,,1.5,1.2,2.8*7E
$GNZDA,131246.00,19,05,2025,00,00*73
$GNGBS,131246.00,1.5,1.2,2.8,,,,*51
b0XrJ 2
x
!A%l9*6r);v'2 ' {4'Ta(:R6' #rAF
GKHI$xJKT,eU'?VX}brT7$GNRMC,131247.00,A,0419.73921,S,05539.92062,E,0.020,,190525,,,D*7B
$GNVTG,,T,,M,0.020,N,0.038,K,D*31
$GNGNS,131247.00,0419.73921,S,05539.92062,E,DA,18,0.61,9.4,-47.6,,0000*5E
$GNGGA,131247.00,0419.73921,S,05539.92062,E,2,12,0.61,9.4,M,-47.6,M,,0000*78
$GNGSA,A,3,10,32,26,08,18,41,28,31,16,27,,,1.20,0.61,1.03*10
$GNGSA,A,3,86,70,73,74,84,71,85,72,,,,,1.20,0.61,1.03*16
$GPGSV,4,1,16,02,00,330,,04,04,223,,08,20,306,32,10,13,019,28*75
$GPGSV,4,2,16,16,24,221,33,18,30,108,37,23,01,057,,26,28,191,29*71
$GPGSV,4,3,16,27,54,282,42,28,59,118,41,31,50,171,39,32,39,005,31*7E
$GPGSV,4,4,16,36,52,277,,40,84,353,39,41,58,082,40,49,32,274,39*78
$GLGSV,3,1,11,65,00,226,,70,06,011,10,71,31,331,27,72,31,270,31*62
$GLGSV,3,2,11,73,17,120,36,74,19,168,29,75,04,214,,84,44,128,25*6E
$GLGSV,3,3,11,85,63,027,39,86,13,344,26,,,,31*6B
$GNGLL,0419.73921,S,05539.92062,E,131247.00,A,D*6A
$GNGRS,131247.00,1,-6.5,2.9,0.3,-1.3,-0.5,138,-0.9,-1.2,0.6,1.1,,*6B
$GNGRS,131247.00,1,1.4,77.0,1.5,7.8,-1.6,-6.0,0.2,-0.3,,,,*41
$GNGST,131247.00,966,,,,1.5,1.2,2.8*7F
$GNZDA,131247.00,19,05,2025,00,00*72
$GNGBS,131247.00,1.5,1.2,2.8,,,,*50
b0XvJ 2
A
!%l9*6m);v'2 '{4'Ta(:R(6' #rAFWGK\HI$xJ7KT,U'?
VXPbvX$$GNRMC,131248.00,A,0419.73921,S,05539.92061,E,0.009,,190525,,,D*7C
$GNVTG,,T,,M,0.009,N,0.016,K,D*36
$GNGNS,131248.00,0419.73921,S,05539.92061,E,DA,18,0.61,9.4,-47.6,,0000*52
$GNGGA,131248.00,0419.73921,S,05539.92061,E,2,12,0.61,9.4,M,-47.6,M,,0000*74
$GNGSA,A,3,10,32,26,08,18,41,28,31,16,27,,,1.20,0.61,1.03*10
$GNGSA,A,3,86,70,73,74,84,71,85,72,,,,,1.20,0.61,1.03*16
$GPGSV,4,1,16,02,00,330,,04,04,223,,08,20,306,32,10,13,019,28*75
$GPGSV,4,2,16,16,24,221,33,18,30,108,37,23,01,057,,26,28,191,29*71
$GPGSV,4,3,16,27,54,282,42,28,59,118,41,31,50,171,39,32,39,005,31*7E
$GPGSV,4,4,16,36,52,277,,40,84,353,39,41,58,082,40,49,32,274,39*78
$GLGSV,3,1,11,65,00,226,,70,06,011,09,71,31,331,26,72,31,270,31*6B
$GLGSV,3,2,11,73,17,120,36,74,19,167,29,75,04,214,,84,44,128,25*61
$GLGSV,3,3,11,85,63,027,39,86,13,344,26,,,,31*6B
$GNGLL,0419.73921,S,05539.92061,E,131248.00,A,D*66
$GNGRS,131248.00,1,-9.6,1.4,-1.0,-2.4,-0.3,139,-1.2,-1.0,-1.1,1.1,,*69
$GNGRS,131248.00,1,0.2,23.9,1.7,10.8,-1.1,-4.2,0.1,-2.9,,,,*79
$GNGST,131248.00,966,,,,1.5,1.2,2.8*70
$GNZDA,131248.00,19,05,2025,00,00*7D
$GNGBS,131248.00,1.5,1.2,2.8,,,,*5F
b0XzJ 2
u
!}&l9*6B);v~'2| '{4'Ta(:RG6' #rAF
VGKwHI$xJKT,U'?VX$bz\$GNRMC,131249.00,A,0419.73922,S,05539.92060,E,0.008,,190525,,,D*7E
$GNVTG,,T,,M,0.008,N,0.014,K,D*35
$GNGNS,131249.00,0419.73922,S,05539.92060,E,DA,18,0.61,9.3,-47.6,,0000*56
$GNGGA,131249.00,0419.73922,S,05539.92060,E,2,12,0.61,9.3,M,-47.6,M,,0000*70
$GNGSA,A,3,10,32,26,08,18,41,28,31,16,27,,,1.20,0.61,1.03*10
$GNGSA,A,3,86,70,73,74,84,71,85,72,,,,,1.20,0.61,1.03*16
$GPGSV,4,1,16,02,00,330,,04,04,223,,08,20,306,32,10,13,019,28*75
$GPGSV,4,2,16,16,24,221,33,18,30,108,38,23,01,057,,26,28,191,29*7E
$GPGSV,4,3,16,27,54,282,42,28,59,118,41,31,50,171,39,32,39,005,31*7E
$GPGSV,4,4,16,36,52,277,,40,84,353,39,41,58,082,40,49,32,274,39*78
$GLGSV,3,1,11,65,00,226,,70,06,011,10,71,31,331,27,72,31,270,31*62
$GLGSV,3,2,11,73,17,120,36,74,19,167,29,75,04,214,,84,44,128,24*60
$GLGSV,3,3,11,85,63,027,39,86,13,344,26,,,,30*6A
$GNGLL,0419.73922,S,05539.92060,E,131249.00,A,D*65
$GNGRS,131249.00,1,-9.1,0.2,-2.5,-5.1,-0.3,139,-1.3,-1.3,1.3,0.7,,*46
$GNGRS,131249.00,1,-0.2,23.9,1.6,14.1,-0.7,-3.9,0.3,-6.0,,,,*5D
$GNGST,131249.00,966,,,,1.5,1.2,2.8*71
$GNZDA,131249.00,19,05,2025,00,00*7C
$GNGBS,131249.00,1.5,1.2,2.8,,,,*5E
b0X~J 2

!x%l9(+6;*;v'2s  '{4'Ta(:RF6' #rzAF5GK~HI$xJKT,sU'?(VXT$b~i`$GNRMC,131250.00,A,0419.73921,S,05539.92060,E,0.012,,190525,,,D*7E
$GNVTG,,T,,M,0.012,N,0.023,K,D*3A
$GNGNS,131250.00,0419.73921,S,05539.92060,E,DA,18,0.61,9.3,-47.6,,0000*5D
$GNGGA,131250.00,0419.73921,S,05539.92060,E,2,12,0.61,9.3,M,-47.6,M,,0000*7B
$GNGSA,A,3,10,32,26,08,18,41,28,31,16,27,,,1.20,0.61,1.03*10
$GNGSA,A,3,86,70,73,74,84,71,85,72,,,,,1.20,0.61,1.03*16
$GPGSV,4,1,16,02,00,330,,04,04,223,,08,20,306,32,10,13,019,28*75
$GPGSV,4,2,16,16,24,221,33,18,30,108,37,23,01,057,,26,28,191,29*71
$GPGSV,4,3,16,27,54,282,43,28,59,118,42,31,50,171,39,32,39,005,32*7F
$GPGSV,4,4,16,36,52,277,,40,84,353,39,41,58,082,40,49,32,274,39*78
$GLGSV,3,1,11,65,00,226,,70,06,011,07,71,31,331,26,72,31,270,31*65
$GLGSV,3,2,11,73,17,120,36,74,19,167,29,75,04,214,,84,44,128,25*61
$GLGSV,3,3,11,85,63,027,39,86,13,344,26,,,,30*6A
$GNGLL,0419.73921,S,05539.92060,E,131250.00,A,D*6E
$GNGRS,131250.00,1,-10.2,0.3,-2.2,-3.2,-0.2,139,-1.3,-1.4,-1.4,0.6,,*5B
$GNGRS,131250.00,1,0.8,138,1.6,12.7,-1.4,-3.9,0.4,-2.9,,,,*56
$GNGST,131250.00,966,,,,1.5,1.2,2.8*79
$GNZDA,131250.00,19,05,2025,00,00*74
$GNGBS,131250.00,1.5,1.2,2.8,,,,*56
b0XJ 2

!{&l9B+67*;v'2  '({4'Ta(:RY6' #rAF\GKHI$xJ-KT,U'?@VXCbQd\$GNRMC,131251.00,A,0419.73921,S,05539.92061,E,0.005,,190525,,,D*78
$GNVTG,,T,,M,0.005,N,0.008,K,D*35
$GNGNS,131251.00,0419.73921,S,05539.92061,E,DA,18,0.61,9.2,-47.6,,0000*5C
