b0L8`"4@
*,
#!i7%)5n":|r*/ ,)b{'4*Ta#:R "qF]G)"HH I|]JKT.|DU'<V'X%b8`Bj$GNRMC,130609.00,A,0419.73008,S,05539.93690,E,0.022,,190525,,,A*7B
$GNVTG,,T,,M,0.022,N,0.040,K,A*39
$GNGNS,130609.00,0419.73008,S,05539.93690,E,AA,16,0.62,13.1,-47.6,,*6F
$GNGGA,130609.00,0419.73008,S,05539.93690,E,1,12,0.62,13.1,M,-47.6,M,,*41
$GNGSA,A,3,10,32,26,08,18,28,31,16,27,,,,1.24,0.62,1.07*16
$GNGSA,A,3,86,70,73,84,71,85,72,,,,,,1.24,0.62,1.07*16
$GPGSV,4,1,16,04,02,222,,08,18,308,34,10,13,017,42,16,24,224,35*72
$GPGSV,4,2,16,18,31,105,33,23,01,055,,26,28,194,37,27,53,287,41*7A
$GPGSV,4,3,16,28,58,124,34,29,00,146,21,31,47,174,42,32,41,004,44*70
$GPGSV,4,4,16,36,52,277,39,40,84,353,42,41,58,082,35,49,32,274,*76
$GLGSV,3,1,10,70,08,008,28,71,34,328,41,72,32,265,25,73,16,124,28*6A
$GLGSV,3,2,10,74,18,171,18,75,03,217,,84,46,124,12,85,60,024,39*69
$GLGSV,3,3,10,86,11,344,39,,,,37*57
$GNGLL,0419.73008,S,05539.93690,E,130609.00,A,A*68
$GNGRS,130609.00,1,-4.7,1.0,0.2,-1.9,-0.6,-4.0,-0.6,2.3,1.1,,,*53
$GNGRS,130609.00,1,1.3,3.5,3.5,3.2,-0.4,-0.5,-11.2,,,,,*6E
$GNGST,130609.00,93069,,,,1.0,1.5,3.0*77
$GNZDA,130609.00,19,05,2025,00,00*7D
$GNGBS,130609.00,1.0,1.5,3.0,,,,*54
b0L d4v
'
ci7!E#5k":|f(/ ))j{ 4%Ta :R qRFG$"HH I|JKT.|.U#<V#X} nb dE$GNRMC,130610.00,A,0419.73009,S,05539.93692,E,0.137,,190525,,,A*75
$GNVTG,,T,,M,0.137,N,0.254,K,A*3B
$GNGNS,130610.00,0419.73009,S,05539.93692,E,AA,16,0.62,13.1,-47.6,,*64
$GNGGA,130610.00,0419.73009,S,05539.93692,E,1,12,0.62,13.1,M,-47.6,M,,*4A
$GNGSA,A,3,10,32,26,08,18,28,31,16,27,,,,1.24,0.62,1.07*16
$GNGSA,A,3,86,70,73,84,71,85,72,,,,,,1.24,0.62,1.07*16
$GPGSV,4,1,16,04,02,222,,08,18,308,29,10,13,017,39,16,24,224,30*77
$GPGSV,4,2,16,18,31,105,27,23,01,055,,26,28,194,33,27,53,287,35*78
$GPGSV,4,3,16,28,58,124,34,29,00,146,13,31,47,174,40,32,41,004,41*76
$GPGSV,4,4,16,36,52,277,32,40,84,353,37,41,58,082,32,49,32,274,*78
$GLGSV,3,1,10,70,08,008,27,71,34,328,36,72,32,265,24,73,16,124,25*69
$GLGSV,3,2,10,74,18,171,16,75,03,217,,84,46,124,15,85,60,024,35*6C
$GLGSV,3,3,10,86,11,344,35,,,,32*5E
$GNGLL,0419.73009,S,05539.93692,E,130610.00,A,A*63
$GNGRS,130610.00,1,-4.8,1.1,-1.9,-3.9,-3.7,-1.5,-0.6,6.1,1.1,,,*74
$GNGRS,130610.00,1,1.3,4.5,4.0,3.0,-0.4,-0.6,-10.2,,,,,*63
$GNGST,130610.00,139604,,,,1.0,1.6,3.0*40
$GNZDA,130610.00,19,05,2025,00,00*75
$GNGBS,130610.00,1.0,1.6,3.0,,,,*5F
b0Lh#4
(
L"i7%'5}%:|E+/ -)Q{%4)Ta :R q:FG'"HH ]I|NJKT.|U'<V#Xl LbhIY7$GNRMC,130611.00,A,0419.73009,S,05539.93692,E,0.054,,190525,,,A*70
$GNVTG,,T,,M,0.054,N,0.099,K,A*3C
$GNGNS,130611.00,0419.73009,S,05539.93692,E,AA,16,0.62,13.1,-47.6,,*65
$GNGGA,130611.00,0419.73009,S,05539.93692,E,1,12,0.62,13.1,M,-47.6,M,,*4B
$GNGSA,A,3,10,32,26,08,18,28,31,16,27,,,,1.24,0.62,1.07*16
$GNGSA,A,3,86,70,73,84,71,85,72,,,,,,1.24,0.62,1.07*16
$GPGSV,4,1,16,04,02,222,,08,18,308,35,10,13,017,40,16,24,224,31*75
$GPGSV,4,2,16,18,31,105,34,23,01,055,,26,28,194,37,27,53,287,39*72
$GPGSV,4,3,16,28,58,124,37,29,00,146,13,31,47,174,43,32,41,004,45*72
$GPGSV,4,4,16,36,52,277,37,40,84,353,41,41,58,082,32,49,32,274,*7C
$GLGSV,3,1,10,70,08,008,27,71,34,328,39,72,32,265,25,73,16,124,24*66
$GLGSV,3,2,10,74,18,171,16,75,03,217,,84,46,124,13,85,60,024,39*66
$GLGSV,3,3,10,86,11,344,35,,,,32*5E
$GNGLL,0419.73009,S,05539.93692,E,130611.00,A,A*62
$GNGRS,130611.00,1,-4.8,0.8,-3.2,-2.5,1.7,-0.8,-0.8,3.3,1.3,,,*51
$GNGRS,130611.00,1,1.1,4.7,3.3,-5.6,-0.6,-0.7,-6.8,,,,,*75
$GNGST,130611.00,39,,,,1.0,1.6,3.0*42
$GNZDA,130611.00,19,05,2025,00,00*74
$GNGBS,130611.00,1.0,1.6,3.0,,,,*5E
b0Lk$4s
(.
!]"i7('5$:|o+/ -)^{$4*Ta :R qF-G)"HH I|JKT.|DU(<V%Xs"4bkM0$GNRMC,130612.00,A,0419.73008,S,05539.93691,E,0.024,,190525,,,A*76
$GNVTG,,T,,M,0.024,N,0.045,K,A*3A
$GNGNS,130612.00,0419.73008,S,05539.93691,E,AA,16,0.62,13.1,-47.6,,*64
$GNGGA,130612.00,0419.73008,S,05539.93691,E,1,12,0.62,13.1,M,-47.6,M,,*4A
$GNGSA,A,3,10,32,26,08,18,28,31,16,27,,,,1.24,0.62,1.07*16
$GNGSA,A,3,86,70,73,84,71,85,72,,,,,,1.24,0.62,1.07*16
$GPGSV,4,1,16,04,02,222,,08,18,308,36,10,13,017,40,16,24,224,33*74
$GPGSV,4,2,16,18,31,105,34,23,01,055,,26,28,194,40,27,53,287,39*72
$GPGSV,4,3,16,28,58,124,36,29,00,146,18,31,47,174,43,32,41,004,45*78
$GPGSV,4,4,16,36,52,277,36,40,84,353,42,41,58,082,32,49,32,274,*7E
$GLGSV,3,1,10,70,08,008,28,71,34,328,41,72,32,265,25,73,16,124,24*66
$GLGSV,3,2,10,74,18,171,,75,03,217,,84,46,124,16,85,60,024,40*6A
$GLGSV,3,3,10,86,11,344,37,,,,34*5A
$GNGLL,0419.73008,S,05539.93691,E,130612.00,A,A*63
$GNGRS,130612.00,1,-4.7,0.9,0.0,-1.4,-1.0,-1.5,-0.8,-1.6,1.4,,,*79
$GNGRS,130612.00,1,1.2,5.6,4.4,3.2,-0.8,-0.4,-6.2,,,,,*5D
$GNGST,130612.00,84344,,,,1.0,1.6,3.0*74
$GNZDA,130612.00,19,05,2025,00,00*77
$GNGBS,130612.00,1.0,1.6,3.0,,,,*5D
b0Lo 4/
*3
##iw7'(5x :|7+/ ,)U{%4)Ta:R &qFWG)"HH I|JKT.|4U(<V&XS"boQ$GNRMC,130613.00,A,0419.73009,S,05539.93691,E,0.007,,190525,,,A*77
$GNVTG,,T,,M,0.007,N,0.013,K,A*38
$GNGNS,130613.00,0419.73009,S,05539.93691,E,AA,16,0.62,13.1,-47.6,,*64
$GNGGA,130613.00,0419.73009,S,05539.93691,E,1,12,0.62,13.1,M,-47.6,M,,*4A
$GNGSA,A,3,10,32,26,08,18,28,31,16,27,,,,1.24,0.62,1.07*16
$GNGSA,A,3,86,70,73,84,71,85,72,,,,,,1.24,0.62,1.07*16
$GPGSV,4,1,16,04,02,222,,08,18,308,32,10,13,017,42,16,24,224,35*74
$GPGSV,4,2,16,18,31,105,35,23,01,055,,26,28,194,39,27,53,287,40*73
$GPGSV,4,3,16,28,58,124,32,29,00,146,11,31,47,174,43,32,41,004,44*74
$GPGSV,4,4,16,36,52,277,37,40,84,353,41,41,58,082,30,49,32,274,*7E
$GLGSV,3,1,10,70,08,008,29,71,34,328,41,72,32,265,26,73,16,124,26*66
$GLGSV,3,2,10,74,18,171,,75,03,217,,84,46,124,17,85,60,024,40*6B
$GLGSV,3,3,10,86,11,344,38,,,,34*55
$GNGLL,0419.73009,S,05539.93691,E,130613.00,A,A*63
$GNGRS,130613.00,1,-4.6,0.8,-0.3,-2.1,-1.4,0.6,-0.9,0.1,1.2,,,*57
$GNGRS,130613.00,1,0.8,6.0,4.9,3.1,-0.6,-0.4,-5.9,,,,,*5A
$GNGST,130613.00,122153,,,,1.0,1.6,3.0*4C
$GNZDA,130613.00,19,05,2025,00,00*76
$GNGBS,130613.00,1.0,1.6,3.0,,,,*5C
b0Ls!4
*;
"#i7'(5n":|+
*/ ,)N{%4)Ta:R %qnF$G*"HH I|JJKT.|U(<V%XT"*bsU`$GNRMC,130614.00,A,0419.73009,S,05539.93691,E,0.019,,190525,,,A*7F
$GNVTG,,T,,M,0.019,N,0.036,K,A*30
$GNGNS,130614.00,0419.73009,S,05539.93691,E,AA,16,0.62,13.1,-47.6,,*63
$GNGGA,130614.00,0419.73009,S,05539.93691,E,1,12,0.62,13.1,M,-47.6,M,,*4D
$GNGSA,A,3,10,32,26,08,18,28,31,16,27,,,,1.24,0.62,1.07*16
$GNGSA,A,3,86,70,73,84,71,85,72,,,,,,1.24,0.62,1.07*16
$GPGSV,4,1,16,04,02,222,,08,18,308,33,10,13,017,42,16,24,224,34*74
$GPGSV,4,2,16,18,31,105,35,23,01,055,,26,28,194,39,27,53,287,40*73
$GPGSV,4,3,16,28,58,124,34,29,00,146,10,31,47,174,42,32,41,004,44*72
$GPGSV,4,4,16,36,52,277,37,40,84,353,41,41,58,082,30,49,32,274,*7E
$GLGSV,3,1,10,70,08,008,30,71,34,328,42,72,32,265,25,73,16,124,26*6E
$GLGSV,3,2,10,74,18,171,,75,03,217,,84,46,124,13,85,60,024,40*6F
$GLGSV,3,3,10,86,11,344,37,,,,34*5A
$GNGLL,0419.73009,S,05539.93691,E,130614.00,A,A*64
$GNGRS,130614.00,1,-4.5,0.8,-0.1,-1.2,1.7,3.0,-0.9,2.9,1.1,,,*73
$GNGRS,130614.00,1,0.8,5.5,5.9,-2.6,-0.7,-0.6,-6.3,,,,,*7B
$GNGST,130614.00,37,,,,1.0,1.6,3.1*48
$GNZDA,130614.00,19,05,2025,00,00*71
$GNGBS,130614.00,1.0,1.6,3.1,,,,*5A
b0Lw!4
*-
"$i27(_(5u":|*/ ,)F{%4)Ta:R %qPFAG*"HH I|,JKT.|IU(<V%X]"obwrY$GNRMC,130615.00,A,0419.73009,S,05539.93690,E,0.007,,190525,,,A*70
$GNVTG,,T,,M,0.007,N,0.013,K,A*38
$GNGNS,130615.00,0419.73009,S,05539.93690,E,AA,16,0.62,13.1,-47.6,,*63
$GNGGA,130615.00,0419.73009,S,05539.93690,E,1,12,0.62,13.1,M,-47.6,M,,*4D
$GNGSA,A,3,10,32,26,08,18,28,31,16,27,,,,1.24,0.62,1.07*16
$GNGSA,A,3,86,70,73,84,71,85,72,,,,,,1.24,0.62,1.07*16
$GPGSV,4,1,16,04,02,222,,08,18,308,33,10,13,017,42,16,24,224,34*74
$GPGSV,4,2,16,18,31,105,36,23,01,055,,26,28,194,40,27,53,287,40*7E
$GPGSV,4,3,16,28,58,124,34,29,00,146,15,31,47,174,42,32,41,004,44*77
$GPGSV,4,4,16,36,52,277,37,40,84,353,41,41,58,082,30,49,32,274,*7E
$GLGSV,3,1,10,70,08,008,31,71,34,328,42,72,32,265,25,73,16,124,26*6F
$GLGSV,3,2,10,74,18,171,,75,03,217,,84,46,124,14,85,60,024,40*68
$GLGSV,3,3,10,86,11,344,37,,,,34*5A
$GNGLL,0419.73009,S,05539.93690,E,130615.00,A,A*64
$GNGRS,130615.00,1,-4.7,0.7,0.9,1.4,-2.1,-2.3,-1.0,2.6,1.2,,,*72
$GNGRS,130615.00,1,0.9,5.8,5.6,3.3,-1.0,-0.8,-8.4,,,,,*51
$GNGST,130615.00,55260,,,,1.0,1.6,3.1*79
$GNZDA,130615.00,19,05,2025,00,00*70
$GNGBS,130615.00,1.0,1.6,3.1,,,,*5B
b0L{!4
*$
!6$iI7'm(5r":|A*/ ,)V{%4)Ta:R $qFG*"HH I|nJKT.|MU(<V%X~"b{Z]0$GNRMC,130616.00,A,0419.73010,S,05539.93688,E,0.023,,190525,,,A*74
$GNVTG,,T,,M,0.023,N,0.042,K,A*3A
$GNGNS,130616.00,0419.73010,S,05539.93688,E,AA,16,0.62,13.0,-47.6,,*60
$GNGGA,130616.00,0419.73010,S,05539.93688,E,1,12,0.62,13.0,M,-47.6,M,,*4E
$GNGSA,A,3,10,32,26,08,18,28,31,16,27,,,,1.24,0.62,1.07*16
$GNGSA,A,3,86,70,73,84,71,85,72,,,,,,1.24,0.62,1.07*16
$GPGSV,4,1,16,04,02,222,,08,18,308,33,10,13,017,42,16,24,224,33*73
$GPGSV,4,2,16,18,31,105,36,23,01,055,,26,28,194,39,27,53,287,40*70
$GPGSV,4,3,16,28,58,124,34,29,00,146,20,31,47,174,42,32,41,004,44*71
$GPGSV,4,4,16,36,52,277,37,40,84,353,41,41,58,082,30,49,32,274,*7E
$GLGSV,3,1,10,70,08,008,31,71,34,328,42,72,32,265,25,73,16,124,27*6E
$GLGSV,3,2,10,74,18,171,,75,03,217,,84,46,124,15,85,60,024,40*69
$GLGSV,3,3,10,86,11,344,37,,,,34*5A
$GNGLL,0419.73010,S,05539.93688,E,130616.00,A,A*66
$GNGRS,130616.00,1,-4.8,0.9,1.1,0.0,-1.8,-1.9,-1.0,3.1,1.1,,,*7A
$GNGRS,130616.00,1,1.3,6.8,6.2,3.3,-0.7,-0.9,-8.1,,,,,*5F
$GNGST,130616.00,81436,,,,1.0,1.6,3.1*76
$GNZDA,130616.00,19,05,2025,00,00*73
$GNGBS,130616.00,1.0,1.6,3.1,,,,*58
b0Lx!4
**
"#ij7';'5u":|*/ ,)N{%4)Ta:R $q~FG)"HH I|JKT.|U(<V%X"LbxBah$GNRMC,130617.00,A,0419.73010,S,05539.93688,E,0.002,,190525,,,A*76
$GNVTG,,T,,M,0.002,N,0.004,K,A*3B
$GNGNS,130617.00,0419.73010,S,05539.93688,E,AA,16,0.62,13.1,-47.6,,*60
$GNGGA,130617.00,0419.73010,S,05539.93688,E,1,12,0.62,13.1,M,-47.6,M,,*4E
$GNGSA,A,3,10,32,26,08,18,28,31,16,27,,,,1.24,0.62,1.07*16
$GNGSA,A,3,86,70,73,84,71,85,72,,,,,,1.24,0.62,1.07*16
$GPGSV,4,1,16,04,02,222,,08,18,308,33,10,13,017,42,16,24,224,34*74
$GPGSV,4,2,16,18,31,105,35,23,01,055,,26,28,194,39,27,53,287,39*7D
$GPGSV,4,3,16,28,58,124,34,29,00,146,13,31,47,174,42,32,41,004,44*71
$GPGSV,4,4,16,36,52,277,37,40,84,353,41,41,58,082,31,49,32,274,*7F
$GLGSV,3,1,10,70,08,008,31,71,34,328,41,72,32,265,25,73,16,124,27*6D
$GLGSV,3,2,10,74,18,171,,75,03,217,,84,46,124,18,85,60,024,40*64
$GLGSV,3,3,10,86,11,344,37,,,,34*5A
$GNGLL,0419.73010,S,05539.93688,E,130617.00,A,A*67
$GNGRS,130617.00,1,-4.7,0.8,0.6,-3.8,1.1,-1.2,-1.1,-0.6,1.2,,,*51
$GNGRS,130617.00,1,1.3,7.3,7.6,14.1,-0.6,-0.8,-8.6,,,,,*62
$GNGST,130617.00,36,,,,1.0,1.6,3.1*4A
$GNZDA,130617.00,19,05,2025,00,00*72
$GNGBS,130617.00,1.0,1.6,3.1,,,,*59
b0L`!4
*;
!8"iA7'Q(5u":|*/ ,)M{%4*Ta:R #qFBG)"HH ^I|JKT.|UU(<V&X"b`*e@$GNRMC,130618.00,A,0419.73010,S,05539.93687,E,0.059,,190525,,,A*78
$GNVTG,,T,,M,0.059,N,0.108,K,A*38
$GNGNS,130618.00,0419.73010,S,05539.93687,E,AA,16,0.62,13.0,-47.6,,*61
$GNGGA,130618.00,0419.73010,S,05539.93687,E,1,12,0.62,13.0,M,-47.6,M,,*4F
$GNGSA,A,3,10,32,26,08,18,28,31,16,27,,,,1.24,0.62,1.07*16
$GNGSA,A,3,86,70,73,84,71,85,72,,,,,,1.24,0.62,1.07*16
$GPGSV,4,1,16,04,02,222,,08,18,308,33,10,13,017,42,16,24,224,33*73
$GPGSV,4,2,16,18,31,105,34,23,01,055,,26,28,194,39,27,53,287,40*72
$GPGSV,4,3,16,28,58,124,34,29,00,146,16,31,47,174,42,32,41,004,44*74
$GPGSV,4,4,16,36,52,277,37,40,84,353,42,41,58,082,31,49,32,274,*7C
$GLGSV,3,1,10,70,08,008,31,71,34,328,41,72,32,265,26,73,16,124,27*6E
$GLGSV,3,2,10,74,18,171,,75,03,217,,84,46,124,13,85,60,024,40*6F
$GLGSV,3,3,10,86,11,344,38,,,,34*55
$GNGLL,0419.73010,S,05539.93687,E,130618.00,A,A*67
$GNGRS,130618.00,1,-4.5,0.8,0.8,-3.2,0.6,-1.2,-0.7,0.6,1.2,,,*74
$GNGRS,130618.00,1,1.3,8.3,7.2,3.4,-0.6,-0.5,-9.3,,,,,*5C
$GNGST,130618.00,104703,,,,1.0,1.6,3.1*41
$GNZDA,130618.00,19,05,2025,00,00*7D
$GNGBS,130618.00,1.0,1.6,3.1,,,,*56
b0LH!4`
*>
!c#iW7'A(5n#:|+*/ -)C{%4*Ta:R #qFG)"HH ]I|JKT.|`U(<V&X"SbHih$GNRMC,130619.00,A,0419.73010,S,05539.93686,E,0.015,,190525,,,A*70
$GNVTG,,T,,M,0.015,N,0.029,K,A*32
$GNGNS,130619.00,0419.73010,S,05539.93686,E,AA,16,0.62,13.0,-47.6,,*61
$GNGGA,130619.00,0419.73010,S,05539.93686,E,1,12,0.62,13.0,M,-47.6,M,,*4F
$GNGSA,A,3,10,32,26,08,18,28,31,16,27,,,,1.24,0.62,1.07*16
$GNGSA,A,3,86,70,73,84,71,85,72,,,,,,1.24,0.62,1.07*16
$GPGSV,4,1,16,04,02,222,,08,18,308,33,10,13,017,42,16,24,224,33*73
$GPGSV,4,2,16,18,31,105,35,23,01,055,,26,28,194,39,27,53,287,40*73
$GPGSV,4,3,16,28,58,124,35,29,00,146,15,31,47,174,42,32,41,004,45*77
$GPGSV,4,4,16,36,52,277,37,40,84,353,42,41,58,082,31,49,32,274,*7C
$GLGSV,3,1,10,70,08,008,31,71,34,328,41,72,32,265,26,73,16,124,26*6F
$GLGSV,3,2,10,74,18,171,,75,03,217,,84,46,124,11,85,60,024,40*6D
$GLGSV,3,3,10,86,11,344,38,,,,34*55
$GNGLL,0419.73010,S,05539.93686,E,130619.00,A,A*67
$GNGRS,130619.00,1,-4.5,0.7,0.6,-1.6,0.9,-2.1,-0.7,-1.6,1.1,,,*52
$GNGRS,130619.00,1,1.5,9.2,7.3,3.5,-0.8,-0.5,-9.3,,,,,*55
$GNGST,130619.00,157054,,,,1.0,1.6,3.1*43
$GNZDA,130619.00,19,05,2025,00,00*7C
$GNGBS,130619.00,1.0,1.6,3.1,,,,*57
b0L0!4
,H
!#i=7(>(5|$:|B+/ .)F{&4+Ta:R #qFG)"HH I|JKT.|U(<V%X"nb0l$GNRMC,130620.00,A,0419.73010,S,05539.93686,E,0.014,,190525,,,A*7B
$GNVTG,,T,,M,0.014,N,0.026,K,A*3C
$GNGNS,130620.00,0419.73010,S,05539.93686,E,AA,16,0.63,13.0,-47.6,,*6A
$GNGGA,130620.00,0419.73010,S,05539.93686,E,1,12,0.63,13.0,M,-47.6,M,,*44
$GNGSA,A,3,10,32,26,08,18,28,31,16,27,,,,1.27,0.63,1.10*12
$GNGSA,A,3,86,70,73,84,71,85,72,,,,,,1.27,0.63,1.10*12
$GPGSV,4,1,16,04,02,222,,08,18,308,33,10,13,017,44,16,24,224,33*75
$GPGSV,4,2,16,18,31,105,35,23,01,055,,26,28,194,40,27,53,287,40*7D
$GPGSV,4,3,16,28,58,124,36,29,00,146,13,31,47,174,43,32,41,004,46*70
$GPGSV,4,4,16,36,52,277,38,40,84,353,43,41,58,082,31,49,32,274,*72
$GLGSV,3,1,10,70,08,008,31,71,34,328,41,72,32,265,26,73,16,124,26*6F
$GLGSV,3,2,10,74,18,171,,75,03,217,,84,46,124,12,85,60,024,40*6E
$GLGSV,3,3,10,86,11,344,37,,,,34*5A
$GNGLL,0419.73010,S,05539.93686,E,130620.00,A,A*6D
$GNGRS,130620.00,1,-4.4,0.7,0.6,2.0,0.6,-0.8,-0.8,-2.7,1.2,,,*7B
$GNGRS,130620.00,1,1.5,10.1,7.2,-64.1,-0.8,-0.6,-10.3,,,,,*46
$GNGST,130620.00,24,,,,1.0,1.6,3.1*4D
$GNZDA,130620.00,19,05,2025,00,00*76
$GNGBS,130620.00,1.0,1.6,3.1,,,,*5D
b0L"4z
+E
"#i97(7(5f$:|*/ -)S{&4+Ta :R $qFG*"HH I|JKT.|CU(<V&X"6bp5$GNRMC,130621.00,A,0419.73010,S,05539.93686,E,0.031,,190525,,,A*7D
$GNVTG,,T,,M,0.031,N,0.057,K,A*3D
$GNGNS,130621.00,0419.73010,S,05539.93686,E,AA,16,0.62,13.1,-47.6,,*6B
$GNGGA,130621.00,0419.73010,S,05539.93686,E,1,12,0.62,13.1,M,-47.6,M,,*45
$GNGSA,A,3,10,32,26,08,18,28,31,16,27,,,,1.24,0.62,1.07*16
$GNGSA,A,3,86,70,73,84,71,85,72,,,,,,1.24,0.62,1.07*16
$GPGSV,4,1,16,04,02,222,,08,18,308,34,10,13,017,43,16,24,224,34*72
$GPGSV,4,2,16,18,31,105,35,23,01,055,,26,28,194,40,27,53,287,40*7D
$GPGSV,4,3,16,28,58,124,36,29,00,146,16,31,47,174,42,32,41,004,45*77
$GPGSV,4,4,16,36,52,277,38,40,84,353,43,41,58,082,32,49,32,274,*71
$GLGSV,3,1,10,70,08,008,31,71,34,328,42,72,32,265,26,73,16,124,26*6C
$GLGSV,3,2,10,74,18,171,,75,03,217,,84,46,124,12,85,60,024,40*6E
$GLGSV,3,3,10,86,11,344,38,,,,34*55
$GNGLL,0419.73010,S,05539.93686,E,130621.00,A,A*6C
$GNGRS,130621.00,1,-4.4,0.8,0.5,-1.3,0.6,1.4,-1.0,-0.3,1.0,,,*76
$GNGRS,130621.00,1,1.4,9.5,7.6,3.2,-0.8,-0.6,-11.4,,,,,*67
$GNGST,130621.00,2885147,,,,1.0,1.6,3.1*7F
$GNZDA,130621.00,19,05,2025,00,00*77
$GNGBS,130621.00,1.0,1.6,3.1,,,,*5C
b0L"4
+N
"#i-7(:(5m$:|u*/ -)X{&4*Ta :R $qFG)"HH pI|JKT.|-U(<V&X"Y"bt$GNRMC,130622.00,A,0419.73010,S,05539.93687,E,0.025,,190525,,,A*7A
$GNVTG,,T,,M,0.025,N,0.046,K,A*38
$GNGNS,130622.00,0419.73010,S,05539.93687,E,AA,16,0.62,13.0,-47.6,,*68
$GNGGA,130622.00,0419.73010,S,05539.93687,E,1,12,0.62,13.0,M,-47.6,M,,*46
$GNGSA,A,3,10,32,26,08,18,28,31,16,27,,,,1.24,0.62,1.07*16
$GNGSA,A,3,86,70,73,84,71,85,72,,,,,,1.24,0.62,1.07*16
$GPGSV,4,1,16,04,02,222,,08,18,308,34,10,13,017,43,16,24,224,34*72
$GPGSV,4,2,16,18,31,105,35,23,01,055,,26,28,194,40,27,53,287,40*7D
$GPGSV,4,3,16,28,58,124,36,29,00,146,13,31,47,174,42,32,41,004,45*72
$GPGSV,4,4,16,36,52,277,38,40,84,353,42,41,58,082,32,49,32,274,*70
$GLGSV,3,1,10,70,08,008,31,71,34,328,41,72,32,265,27,73,16,124,27*6F
$GLGSV,3,2,10,74,18,171,,75,03,217,,84,46,124,12,85,60,024,40*6E
$GLGSV,3,3,10,86,11,344,38,,,,34*55
$GNGLL,0419.73010,S,05539.93687,E,130622.00,A,A*6E
$GNGRS,130622.00,1,-4.3,0.9,0.6,-3.4,0.5,1.2,-0.8,1.7,1.1,,,*50
$GNGRS,130622.00,1,1.6,9.8,6.9,3.0,-0.7,-0.2,-9.1,,,,,*50
$GNGST,130622.00,2885147,,,,1.0,1.6,3.1*7C
$GNZDA,130622.00,19,05,2025,00,00*74
$GNGBS,130622.00,1.0,1.6,3.1,,,,*5F
b0L!4<
'e
!"i*7%k&5x:|&/ *)^{"4&Ta :R #qFG'"HH I|JKT.|kU%<V"X!fQbxv$GNRMC,130623.00,A,0419.73011,S,05539.93686,E,0.061,,190525,,,A*7B
$GNVTG,,T,,M,0.061,N,0.114,K,A*3E
$GNGNS,130623.00,0419.73011,S,05539.93686,E,AA,16,0.63,13.1,-47.6,,*69
$GNGGA,130623.00,0419.73011,S,05539.93686,E,1,12,0.63,13.1,M,-47.6,M,,*47
$GNGSA,A,3,10,32,26,08,18,28,31,16,27,,,,1.27,0.63,1.10*12
$GNGSA,A,3,86,70,73,84,71,85,72,,,,,,1.27,0.63,1.10*12
$GPGSV,4,1,16,04,02,222,,08,18,308,33,10,13,017,39,16,24,224,33*7F
$GPGSV,4,2,16,18,31,105,34,23,01,055,18,26,28,194,37,27,53,287,38*7A
$GPGSV,4,3,16,28,58,124,31,29,00,146,14,31,47,174,38,32,41,004,42*78
$GPGSV,4,4,16,36,52,277,34,40,84,353,38,41,58,082,32,49,32,274,*71
$GLGSV,3,1,10,70,08,008,31,71,34,328,39,72,32,265,27,73,16,124,26*61
$GLGSV,3,2,10,74,18,171,,75,03,217,,84,46,124,15,85,60,024,37*69
$GLGSV,3,3,10,86,11,344,34,,,,33*5E
$GNGLL,0419.73011,S,05539.93686,E,130623.00,A,A*6F
$GNGRS,130623.00,1,-4.1,0.9,1.1,-2.0,0.4,-0.1,-1.0,0.0,1.2,,,*72
$GNGRS,130623.00,1,1.6,9.1,6.8,29.2,-0.6,-0.1,-8.4,,,,,*65
$GNGST,130623.00,25,,,,1.0,1.6,3.1*4F
$GNZDA,130623.00,19,05,2025,00,00*75
$GNGBS,130623.00,1.0,1.6,3.1,,,,*5E
b0L4
&R
+i7!p$5f:|$/ ()W{ 4%Ta:R q^FG$"HH I|JKT
.|JU#<V!XIb|N^$GNRMC,130624.00,A,0419.73010,S,05539.93687,E,0.012,,190525,,,A*78
$GNVTG,,T,,M,0.012,N,0.023,K,A*3F
$GNGNS,130624.00,0419.73010,S,05539.93687,E,AA,16,0.62,13.1,-47.6,,*6F
$GNGGA,130624.00,0419.73010,S,05539.93687,E,1,12,0.62,13.1,M,-47.6,M,,*41
$GNGSA,A,3,10,32,26,08,18,28,31,16,27,,,,1.24,0.62,1.07*16
$GNGSA,A,3,86,70,73,84,71,85,72,,,,,,1.24,0.62,1.07*16
$GPGSV,4,1,16,04,02,222,,08,18,308,30,10,13,017,38,16,24,224,29*76
$GPGSV,4,2,16,18,31,105,28,23,01,055,11,26,28,194,33,27,53,287,36*74
$GPGSV,4,3,16,28,58,124,30,29,00,146,12,31,47,174,36,32,41,004,40*73
$GPGSV,4,4,16,36,52,277,32,40,84,353,37,41,58,082,,49,32,274,*79
$GLGSV,3,1,10,70,08,008,28,71,34,328,36,72,32,265,24,73,16,124,26*65
$GLGSV,3,2,10,74,18,171,,75,03,217,,84,46,124,10,85,60,024,35*6E
$GLGSV,3,3,10,86,11,344,33,,,,29*52
$GNGLL,0419.73010,S,05539.93687,E,130624.00,A,A*68
$GNGRS,130624.00,1,-4.3,0.9,1.1,2.2,-0.4,-0.2,-1.2,0.4,-1.5,,,*5A
$GNGRS,130624.00,1,2.3,7.8,5.2,3.3,-0.6,-0.3,-8.8,,,,,*5D
$GNGST,130624.00,2885147,,,,1.1,1.7,3.1*7A
$GNZDA,130624.00,19,05,2025,00,00*72
$GNGBS,130624.00,1.1,1.7,3.1,,,,*59
b0L4s
(N
]i7$[%5 :|0|'/ *)g{"4'Ta:R  qFG*"HH ]I|JKT.|IU(<V'X #b"$GNRMC,130625.00,A,0419.73010,S,05539.93685,E,0.016,,190525,,,A*7F
$GNVTG,,T,,M,0.016,N,0.030,K,A*39
$GNGNS,130625.00,0419.73010,S,05539.93685,E,AA,16,0.62,13.0,-47.6,,*6D
$GNGGA,130625.00,0419.73010,S,05539.93685,E,1,12,0.62,13.0,M,-47.6,M,,*43
$GNGSA,A,3,10,32,26,08,18,28,31,16,27,,,,1.24,0.62,1.07*16
$GNGSA,A,3,86,70,73,84,71,85,72,,,,,,1.24,0.62,1.07*16
$GPGSV,4,1,16,04,02,222,,08,18,308,29,10,13,017,40,16,24,224,29*71
$GPGSV,4,2,16,18,31,105,31,23,01,055,06,26,28,194,36,27,53,287,37*7E
$GPGSV,4,3,16,28,58,124,32,29,00,146,09,31,47,174,39,32,41,004,42*76
$GPGSV,4,4,16,36,52,277,34,40,84,353,39,41,58,082,,49,32,274,*71
$GLGSV,3,1,10,70,08,008,31,71,34,328,42,72,32,265,24,73,16,124,24*6C
$GLGSV,3,2,10,74,18,171,,75,03,217,,84,46,124,09,85,60,024,40*64
$GLGSV,3,3,10,86,11,344,39,,,,32*52
$GNGLL,0419.73010,S,05539.93685,E,130625.00,A,A*6B
$GNGRS,130625.00,1,-4.3,1.0,0.9,-1.4,2.1,-2.1,-1.0,3.5,2.0,,,*72
$GNGRS,130625.00,1,4.4,7.4,5.0,3.3,-0.8,0.0,-9.3,,,,,*79
$GNGST,130625.00,2885147,,,,1.1,1.7,3.1*7B
$GNZDA,130625.00,19,05,2025,00,00*73
$GNGBS,130625.00,1.1,1.7,3.1,,,,*58
b0L4
(U
-!ip76%b&5 :|
x'/ *)`{#4(Ta:R qF xG*"HH I|JKT.|:U)<V'X^Dbj
$GNRMC,130626.00,A,0419.73011,S,05539.93686,E,0.041,,190525,,,A*7C
$GNVTG,,T,,M,0.041,N,0.076,K,A*39
$GNGNS,130626.00,0419.73011,S,05539.93686,E,AA,16,0.63,13.0,-47.6,,*6D
$GNGGA,130626.00,0419.73011,S,05539.93686,E,1,12,0.63,13.0,M,-47.6,M,,*43
$GNGSA,A,3,10,32,26,08,18,28,31,16,27,,,,1.27,0.63,1.10*12
$GNGSA,A,3,86,70,73,84,71,85,72,,,,,,1.27,0.63,1.10*12
$GPGSV,4,1,16,04,02,222,,08,18,308,31,10,13,017,40,16,24,224,30*70
$GPGSV,4,2,16,18,31,105,33,23,01,055,06,26,28,194,37,27,53,287,38*72
$GPGSV,4,3,16,28,58,124,32,29,00,146,10,31,47,174,39,32,41,004,42*7E
$GPGSV,4,4,16,36,52,277,35,40,84,353,40,41,58,082,,49,32,274,*7E
$GLGSV,3,1,10,70,08,008,32,71,34,328,42,72,32,265,26,73,16,124,26*6F
$GLGSV,3,2,10,74,18,171,,75,03,217,,84,46,124,08,85,60,024,41*64
$GLGSV,3,3,10,86,11,344,39,,,,30*50
$GNGLL,0419.73011,S,05539.93686,E,130626.00,A,A*6A
$GNGRS,130626.00,1,-4.3,1.0,1.0,-4.9,1.1,1.3,-1.0,3.0,-0.8,,,*7C
$GNGRS,130626.00,1,0.9,11.4,5.2,150,-0.7,-0.2,-8.5,,,,,*7B
$GNGST,130626.00,21,,,,1.1,1.7,3.1*4E
$GNZDA,130626.00,19,05,2025,00,00*70
$GNGBS,130626.00,1.1,1.7,3.1,,,,*5B
b0L4
(_
  i7$`'5 :|j(/ +)T{%4(Ta:R q?FuG)"HH I|JKT.|BU)<V'X#VbRr$GNRMC,130627.00,A,0419.73010,S,05539.93687,E,0.055,,190525,,,A*78
$GNVTG,,T,,M,0.055,N,0.102,K,A*3E
$GNGNS,130627.00,0419.73010,S,05539.93687,E,AA,16,0.62,13.0,-47.6,,*6D
$GNGGA,130627.00,0419.73010,S,05539.93687,E,1,12,0.62,13.0,M,-47.6,M,,*43
$GNGSA,A,3,10,32,26,08,18,28,31,16,27,,,,1.24,0.62,1.07*16
$GNGSA,A,3,86,70,73,84,71,85,72,,,,,,1.24,0.62,1.07*16
$GPGSV,4,1,16,04,02,222,,08,18,308,31,10,13,017,40,16,24,224,32*72
$GPGSV,4,2,16,18,31,105,32,23,01,055,06,26,28,194,36,27,53,287,39*73
$GPGSV,4,3,16,28,58,124,32,29,00,146,09,31,47,174,40,32,41,004,43*79
$GPGSV,4,4,16,36,52,277,37,40,84,353,40,41,58,082,,49,32,274,*7C
$GLGSV,3,1,10,70,08,008,30,71,34,328,41,72,32,265,26,73,16,124,26*6E
$GLGSV,3,2,10,74,18,171,,75,03,217,,84,46,124,17,85,60,024,41*6A
$GLGSV,3,3,10,86,11,344,39,,,,35*55
$GNGLL,0419.73010,S,05539.93687,E,130627.00,A,A*6B
$GNGRS,130627.00,1,-4.2,0.8,1.0,-0.6,2.7,1.1,-1.1,-2.8,-0.4,,,*50
$GNGRS,130627.00,1,-1.1,6.3,4.8,3.2,-0.5,-0.4,-6.4,,,,,*74
$GNGST,130627.00,2909,,,,1.1,1.6,3.1*4F
$GNZDA,130627.00,19,05,2025,00,00*71
$GNGBS,130627.00,1.1,1.6,3.1,,,,*5B
b0Lp4#
(N
!i0
7$W'5#:|w(/ ,)]{%4'Ta":R qF@G("HH LI|JKT.|GU'<V'X"bp:$GNRMC,130628.00,A,0419.73011,S,05539.93684,E,0.025,,190525,,,A*72
$GNVTG,,T,,M,0.025,N,0.046,K,A*38
$GNGNS,130628.00,0419.73011,S,05539.93684,E,AA,16,0.62,13.0,-47.6,,*60
$GNGGA,130628.00,0419.73011,S,05539.93684,E,1,12,0.62,13.0,M,-47.6,M,,*4E
$GNGSA,A,3,10,32,26,08,18,28,31,16,27,,,,1.24,0.62,1.07*16
$GNGSA,A,3,86,70,73,84,71,85,72,,,,,,1.24,0.62,1.07*16
$GPGSV,4,1,16,04,02,222,,08,18,308,30,10,13,017,40,16,24,224,33*72
$GPGSV,4,2,16,18,31,105,31,23,01,055,10,26,28,194,36,27,53,287,39*77
$GPGSV,4,3,16,28,58,124,35,29,00,146,09,31,47,174,40,32,41,004,44*79
$GPGSV,4,4,16,36,52,277,37,40,84,353,39,41,58,082,34,49,32,274,*75
$GLGSV,3,1,10,70,08,008,30,71,34,328,40,72,32,265,24,73,16,124,24*6F
$GLGSV,3,2,10,74,18,171,20,75,03,217,,84,46,124,12,85,60,024,39*62
$GLGSV,3,3,10,86,11,344,39,,,,34*54
$GNGLL,0419.73011,S,05539.93684,E,130628.00,A,A*66
$GNGRS,130628.00,1,-4.3,0.9,0.9,0.3,0.5,-0.2,-0.9,2.3,1.5,,,*52
$GNGRS,130628.00,1,-1.2,10.9,7.2,3.3,-0.6,-0.8,-6.9,,,,,*4F
$GNGST,130628.00,52,,,,1.1,1.6,3.1*45
$GNZDA,130628.00,19,05,2025,00,00*7E
$GNGBS,130628.00,1.1,1.6,3.1,,,,*54
b0LX4
(N
!!#i(7#<%5a!:|&/ ,)^{#4*Ta!:R #qFG("HH I|+JKT.|,U)<V(X#NbX"B$GNRMC,130629.00,A,0419.73012,S,05539.93682,E,0.043,,190525,,,A*76
$GNVTG,,T,,M,0.043,N,0.080,K,A*32
$GNGNS,130629.00,0419.73012,S,05539.93682,E,AA,16,0.62,12.9,-47.6,,*6C
$GNGGA,130629.00,0419.73012,S,05539.93682,E,1,12,0.62,12.9,M,-47.6,M,,*42
$GNGSA,A,3,10,32,26,08,18,28,31,16,27,,,,1.24,0.62,1.07*16
$GNGSA,A,3,86,70,73,84,71,85,72,,,,,,1.24,0.62,1.07*16
$GPGSV,4,1,16,04,02,222,,08,18,308,31,10,13,017,40,16,24,224,33*73
$GPGSV,4,2,16,18,31,105,35,23,01,055,09,26,28,194,35,27,53,287,37*76
$GPGSV,4,3,16,28,58,124,33,29,00,146,08,31,47,174,38,32,41,004,44*71
$GPGSV,4,4,16,36,52,277,35,40,84,353,42,41,58,082,33,49,32,274,*7C
$GLGSV,3,1,10,70,08,009,30,71,34,328,40,72,32,265,21,73,16,124,25*6A
$GLGSV,3,2,10,74,18,171,20,75,03,217,,84,46,124,14,85,60,024,41*6B
$GLGSV,3,3,10,86,11,344,40,,,,35*5B
$GNGLL,0419.73012,S,05539.93682,E,130629.00,A,A*62
$GNGRS,130629.00,1,-4.3,0.9,0.6,-2.3,-2.2,-1.2,-1.2,2.9,1.0,,,*5F
$GNGRS,130629.00,1,2.7,9.3,8.1,5.6,-0.8,-0.6,-6.4,,,,,*55
$GNGST,130629.00,40,,,,1.1,1.6,3.0*46
$GNZDA,130629.00,19,05,2025,00,00*7F
$GNGBS,130629.00,1.1,1.6,3.0,,,,*54
b0L@ 4
(C
!"iY70$M'5#:|y)/ +)Y{#4(Ta$:R "qFG(!HH I|JKT.|aU'<V)X#(b@
Z$GNRMC,130630.00,A,0419.73012,S,05539.93683,E,0.012,,190525,,,A*7B
$GNVTG,,T,,M,0.012,N,0.022,K,A*3E
$GNGNS,130630.00,0419.73012,S,05539.93683,E,AA,16,0.62,12.8,-47.6,,*64
$GNGGA,130630.00,0419.73012,S,05539.93683,E,1,12,0.62,12.8,M,-47.6,M,,*4A
$GNGSA,A,3,10,32,26,08,18,28,31,16,27,,,,1.24,0.62,1.07*16
$GNGSA,A,3,86,70,73,84,71,85,72,,,,,,1.24,0.62,1.07*16
$GPGSV,4,1,16,04,02,222,,08,18,308,32,10,13,017,40,16,24,224,33*70
$GPGSV,4,2,16,18,31,105,34,23,01,055,09,26,28,194,36,27,53,287,39*7A
$GPGSV,4,3,16,28,58,124,35,29,00,146,12,31,47,174,41,32,41,004,43*75
$GPGSV,4,4,16,36,52,277,35,40,84,353,40,41,58,082,36,49,32,274,*7B
$GLGSV,3,1,10,70,08,009,30,71,33,328,40,72,32,265,18,73,16,124,28*6A
$GLGSV,3,2,10,74,18,171,20,75,03,217,,84,46,124,14,85,60,024,39*64
$GLGSV,3,3,10,86,11,344,41,,,,35*5A
$GNGLL,0419.73012,S,05539.93683,E,130630.00,A,A*6B
$GNGRS,130630.00,1,-4.4,0.9,0.8,-5.7,-1.7,-1.4,-1.0,1.6,0.3,,,*51
$GNGRS,130630.00,1,1.6,7.7,9.6,6.1,-0.6,-0.9,-6.2,,,,,*50
$GNGST,130630.00,35,,,,1.0,1.6,3.0*4D
$GNZDA,130630.00,19,05,2025,00,00*77
$GNGBS,130630.00,1.0,1.6,3.0,,,,*5D
b0L(4(
)H
!#i7.%A'5 :|7)/ ,)Q{#4*Ta$:R "qFG(!HH 
I|JKT.|SU'<V)X/$0b(1$GNRMC,130631.00,A,0419.73012,S,05539.93681,E,0.007,,190525,,,A*7C
$GNVTG,,T,,M,0.007,N,0.014,K,A*3F
$GNGNS,130631.00,0419.73012,S,05539.93681,E,AA,16,0.62,12.8,-47.6,,*67
$GNGGA,130631.00,0419.73012,S,05539.93681,E,1,12,0.62,12.8,M,-47.6,M,,*49
$GNGSA,A,3,10,32,26,08,18,28,31,16,27,,,,1.24,0.62,1.07*16
$GNGSA,A,3,86,70,73,84,71,85,72,,,,,,1.24,0.62,1.07*16
$GPGSV,4,1,16,04,02,222,,08,18,308,27,10,13,017,41,16,24,224,33*75
$GPGSV,4,2,16,18,31,105,35,23,01,055,07,26,28,194,37,27,53,287,39*74
$GPGSV,4,3,16,28,58,124,32,29,00,146,13,31,47,174,41,32,41,004,44*74
$GPGSV,4,4,16,36,52,277,35,40,84,353,42,41,58,082,36,49,32,274,*79
$GLGSV,3,1,10,70,08,009,30,71,33,328,40,72,32,266,17,73,16,124,28*66
$GLGSV,3,2,10,74,18,171,19,75,03,217,,84,46,124,16,85,60,024,39*6C
$GLGSV,3,3,10,86,11,344,41,,,,36*59
$GNGLL,0419.73012,S,05539.93681,E,130631.00,A,A*68
$GNGRS,130631.00,1,-4.4,0.8,0.7,-7.3,-1.2,-2.0,-1.1,1.4,1.3,,,*58
$GNGRS,130631.00,1,3.0,4.8,3.9,6.0,-0.6,-0.7,-5.8,,,,,*5A
$GNGST,130631.00,34,,,,1.0,1.6,3.0*4D
$GNZDA,130631.00,19,05,2025,00,00*76
$GNGBS,130631.00,1.0,1.6,3.0,,,,*5C
b0L4
)?
!a#i7%R'5B!:|3)/ ,)L{#4*Ta$:R "qbFG(!HH 
0I|QJKT.|
U'<V(X%bw$GNRMC,130632.00,A,0419.73012,S,05539.93680,E,0.012,,190525,,,A*7A
$GNVTG,,T,,M,0.012,N,0.023,K,A*3F
$GNGNS,130632.00,0419.73012,S,05539.93680,E,AA,16,0.62,12.8,-47.6,,*65
$GNGGA,130632.00,0419.73012,S,05539.93680,E,1,12,0.62,12.8,M,-47.6,M,,*4B
$GNGSA,A,3,10,32,26,08,18,28,31,16,27,,,,1.24,0.62,1.07*16
$GNGSA,A,3,86,70,73,84,71,85,72,,,,,,1.24,0.62,1.07*16
$GPGSV,4,1,16,04,02,222,,08,18,308,28,10,13,017,41,16,24,224,33*7A
$GPGSV,4,2,16,18,31,105,35,23,01,055,11,26,28,194,37,27,53,287,39*73
$GPGSV,4,3,16,28,58,124,33,29,00,146,08,31,47,174,41,32,41,004,44*7F
$GPGSV,4,4,16,36,52,277,35,40,84,353,42,41,58,082,36,49,32,274,*79
$GLGSV,3,1,10,70,08,009,30,71,33,328,40,72,32,266,17,73,17,124,28*67
$GLGSV,3,2,10,74,18,171,18,75,03,217,,84,46,124,19,85,60,024,39*62
$GLGSV,3,3,10,86,11,344,40,,,,37*59
$GNGLL,0419.73012,S,05539.93680,E,130632.00,A,A*6A
$GNGRS,130632.00,1,-4.5,0.8,0.8,-3.4,-1.0,-2.1,-1.0,1.0,0.7,,,*55
$GNGRS,130632.00,1,2.5,1.9,3.4,5.2,-0.4,-0.5,-4.6,,,,,*5A
$GNGST,130632.00,32,,,,1.0,1.6,3.0*48
$GNZDA,130632.00,19,05,2025,00,00*75
$GNGBS,130632.00,1.0,1.6,3.0,,,,*5F
b0L4
)?
!#i 76%3'5R!:|J)/ ,)\{$4)Ta$:R "qFG(!HH 
bI|7JKT.|U'<V(X$@b$GNRMC,130633.00,A,0419.73012,S,05539.93679,E,0.011,,190525,,,A*7E
$GNVTG,,T,,M,0.011,N,0.021,K,A*3E
$GNGNS,130633.00,0419.73012,S,05539.93679,E,AA,16,0.62,12.7,-47.6,,*6D
$GNGGA,130633.00,0419.73012,S,05539.93679,E,1,12,0.62,12.7,M,-47.6,M,,*43
$GNGSA,A,3,10,32,26,08,18,28,31,16,27,,,,1.24,0.62,1.07*16
$GNGSA,A,3,86,70,73,84,71,85,72,,,,,,1.24,0.62,1.07*16
$GPGSV,4,1,16,04,02,222,,08,18,308,28,10,13,017,41,16,24,224,33*7A
$GPGSV,4,2,16,18,31,105,35,23,01,055,11,26,28,194,37,27,53,287,39*73
$GPGSV,4,3,16,28,58,124,33,29,00,146,12,31,47,174,41,32,41,004,44*74
$GPGSV,4,4,16,36,52,277,36,40,84,353,41,41,58,082,36,49,32,274,*79
$GLGSV,3,1,10,70,08,009,30,71,33,328,40,72,32,266,18,73,17,124,29*69
$GLGSV,3,2,10,74,19,171,18,75,03,217,,84,46,124,19,85,60,024,39*63
$GLGSV,3,3,10,86,11,344,40,,,,36*58
$GNGLL,0419.73012,S,05539.93679,E,130633.00,A,A*6D
$GNGRS,130633.00,1,-4.5,0.9,0.5,-1.0,0.3,-1.8,-1.1,1.5,0.8,,,*70
$GNGRS,130633.00,1,2.3,7.1,5.7,4.1,-0.6,-0.6,-4.1,,,,,*52
$GNGST,130633.00,32,,,,1.0,1.6,3.0*49
$GNZDA,130633.00,19,05,2025,00,00*74
$GNGBS,130633.00,1.0,1.6,3.0,,,,*5E
b0L46
)M
!#ii7.& '5>!:|E)/ ,)T{#4)Ta$:R "qFvG(!HH 
I|JKT.|U'<V(X$8zb8$GNRMC,130634.00,A,0419.73012,S,05539.93676,E,0.027,,190525,,,A*73
$GNVTG,,T,,M,0.027,N,0.051,K,A*3C
$GNGNS,130634.00,0419.73012,S,05539.93676,E,AA,16,0.62,12.7,-47.6,,*65
$GNGGA,130634.00,0419.73012,S,05539.93676,E,1,12,0.62,12.7,M,-47.6,M,,*4B
$GNGSA,A,3,10,32,26,08,18,28,31,16,27,,,,1.24,0.62,1.07*16
$GNGSA,A,3,86,70,73,84,71,85,72,,,,,,1.24,0.62,1.07*16
$GPGSV,4,1,16,04,02,222,,08,18,308,29,10,13,017,41,16,24,224,33*7B
$GPGSV,4,2,16,18,31,105,35,23,01,055,09,26,28,194,38,27,53,287,39*75
$GPGSV,4,3,16,28,58,124,33,29,00,146,13,31,47,174,41,32,41,004,44*75
$GPGSV,4,4,16,36,52,277,35,40,84,353,41,41,58,082,36,49,32,274,*7A
$GLGSV,3,1,10,70,08,009,30,71,33,328,40,72,32,266,18,73,17,124,29*69
$GLGSV,3,2,10,74,19,171,17,75,03,216,,84,46,124,19,85,60,024,39*6D
$GLGSV,3,3,10,86,11,344,40,,,,36*58
$GNGLL,0419.73012,S,05539.93676,E,130634.00,A,A*65
$GNGRS,130634.00,1,-4.3,0.8,0.3,0.5,-1.5,-1.9,-1.0,1.3,0.6,,,*7D
$GNGRS,130634.00,1,2.2,8.9,2.8,4.2,-0.6,-0.6,-3.4,,,,,*5A
$GNGST,130634.00,31,,,,1.0,1.6,2.9*45
$GNZDA,130634.00,19,05,2025,00,00*73
$GNGBS,130634.00,1.0,1.6,2.9,,,,*51
b0L4
)F
!#i7&'5P!:|^)/ ,)c{$4*Ta$:R "qeFG(!HH 
DI|JKT.|>U'<V(X#4jb$GNRMC,130635.00,A,0419.73012,S,05539.93674,E,0.054,,190525,,,A*74
$GNVTG,,T,,M,0.054,N,0.101,K,A*3C
$GNGNS,130635.00,0419.73012,S,05539.93674,E,AA,16,0.62,12.6,-47.6,,*67
$GNGGA,130635.00,0419.73012,S,05539.93674,E,1,12,0.62,12.6,M,-47.6,M,,*49
$GNGSA,A,3,10,32,26,08,18,28,31,16,27,,,,1.24,0.62,1.07*16
$GNGSA,A,3,86,70,73,84,71,85,72,,,,,,1.24,0.62,1.07*16
$GPGSV,4,1,16,04,02,222,,08,18,308,29,10,13,017,41,16,24,224,33*7B
$GPGSV,4,2,16,18,31,105,35,23,01,055,09,26,28,194,38,27,53,287,39*75
$GPGSV,4,3,16,28,58,124,33,29,00,146,08,31,47,174,41,32,41,004,44*7F
$GPGSV,4,4,16,36,52,277,36,40,84,353,42,41,58,082,36,49,32,274,*7A
$GLGSV,3,1,10,70,08,009,30,71,33,328,40,72,32,266,19,73,17,124,29*68
$GLGSV,3,2,10,74,19,171,15,75,03,216,,84,46,124,19,85,60,024,39*6F
$GLGSV,3,3,10,86,11,344,40,,,,35*5B
$GNGLL,0419.73012,S,05539.93674,E,130635.00,A,A*66
$GNGRS,130635.00,1,-4.4,1.0,0.0,-2.9,-0.1,-1.6,-0.9,1.4,0.8,,,*59
$GNGRS,130635.00,1,2.2,3.9,4.1,5.7,-0.6,-0.9,-4.4,,,,,*53
$GNGST,130635.00,32,,,,1.0,1.6,2.9*47
$GNZDA,130635.00,19,05,2025,00,00*72
$GNGBS,130635.00,1.0,1.6,2.9,,,,*50
b0L4
*T
"$i*78&(5D":|*/ ,)T{%4+Ta$:R "qhFG&!HH 
iI|JKT.|U%<V(X"@bzl,$GNRMC,130636.00,A,0419.73012,S,05539.93674,E,0.014,,190525,,,A*73
$GNVTG,,T,,M,0.014,N,0.026,K,A*3C
$GNGNS,130636.00,0419.73012,S,05539.93674,E,AA,16,0.62,12.6,-47.6,,*64
$GNGGA,130636.00,0419.73012,S,05539.93674,E,1,12,0.62,12.6,M,-47.6,M,,*4A
$GNGSA,A,3,10,32,26,08,18,28,31,16,27,,,,1.24,0.62,1.07*16
$GNGSA,A,3,86,70,73,84,71,85,72,,,,,,1.24,0.62,1.07*16
$GPGSV,4,1,16,04,02,222,,08,18,308,29,10,13,017,42,16,24,224,34*7F
$GPGSV,4,2,16,18,31,105,36,23,01,055,12,26,28,194,38,27,53,287,40*72
$GPGSV,4,3,16,28,58,124,34,29,00,146,12,31,47,174,42,32,41,004,44*70
$GPGSV,4,4,16,36,52,277,37,40,84,353,43,41,58,082,36,49,32,274,*7A
$GLGSV,3,1,10,70,08,009,27,71,33,328,38,72,32,266,21,73,17,124,29*6A
$GLGSV,3,2,10,74,19,171,14,75,03,216,,84,46,124,20,85,60,024,37*6A
$GLGSV,3,3,10,86,11,344,40,,,,34*5A
$GNGLL,0419.73012,S,05539.93674,E,130636.00,A,A*65
$GNGRS,130636.00,1,-4.3,0.8,0.0,-2.6,0.4,1.8,-0.9,1.4,0.7,,,*5F
$GNGRS,130636.00,1,2.0,7.8,2.2,7.5,-0.7,-0.8,-4.1,,,,,*57
$GNGST,130636.00,35,,,,1.0,1.6,2.9*43
$GNZDA,130636.00,19,05,2025,00,00*71
$GNGBS,130636.00,1.0,1.6,2.9,,,,*53
b0L#4
+c
#%i&7=))5<#:|+/ /)a{&4,Ta':R $qjFgG&!HH 
JI|^JKT.|LU&<V'X#bbD$GNRMC,130637.00,A,0419.73012,S,05539.93674,E,0.071,,190525,,,A*71
$GNVTG,,T,,M,0.071,N,0.132,K,A*3B
$GNGNS,130637.00,0419.73012,S,05539.93674,E,AA,16,0.62,12.6,-47.6,,*65
$GNGGA,130637.00,0419.73012,S,05539.93674,E,1,12,0.62,12.6,M,-47.6,M,,*4B
$GNGSA,A,3,10,32,26,08,18,28,31,16,27,,,,1.24,0.62,1.07*16
$GNGSA,A,3,86,70,73,84,71,85,72,,,,,,1.24,0.62,1.07*16
$GPGSV,4,1,16,04,02,222,,08,18,308,35,10,13,017,43,16,24,224,35*72
$GPGSV,4,2,16,18,31,105,37,23,01,055,13,26,28,194,41,27,53,287,41*7D
$GPGSV,4,3,16,28,58,124,35,29,00,146,14,31,47,174,43,32,41,004,47*75
$GPGSV,4,4,16,36,52,277,38,40,84,353,44,41,58,082,39,49,32,274,*7D
$GLGSV,3,1,10,70,08,009,29,71,33,328,38,72,32,266,20,73,17,124,29*65
$GLGSV,3,2,10,74,19,171,15,75,03,216,,84,46,124,19,85,60,024,38*6E
$GLGSV,3,3,10,86,11,344,39,,,,35*55
$GNGLL,0419.73012,S,05539.93674,E,130637.00,A,A*64
$GNGRS,130637.00,1,-4.1,1.0,-0.1,-3.3,0.4,2.5,-1.1,1.3,0.6,,,*7C
$GNGRS,130637.00,1,2.0,8.7,3.5,8.4,-0.9,-0.9,-4.4,,,,,*54
$GNGST,130637.00,34,,,,1.0,1.6,2.9*43
$GNZDA,130637.00,19,05,2025,00,00*70
$GNGBS,130637.00,1.0,1.6,2.9,,,,*52
b0L"4
+^
$n%i,7<?(*5J$:|t,/ .)^{&4,Ta':R %qmFG&!HH 
%I|IJKT.|U&<V'X$bJ$GNRMC,130638.00,A,0419.73012,S,05539.93673,E,0.049,,190525,,,D*77
$GNVTG,,T,,M,0.049,N,0.091,K,D*3D
$GNGNS,130638.00,0419.73012,S,05539.93673,E,DA,16,0.62,12.6,-47.6,,0000*68
$GNGGA,130638.00,0419.73012,S,05539.93673,E,2,12,0.62,12.6,M,-47.6,M,,0000*40
$GNGSA,A,3,10,32,26,08,18,28,31,16,27,,,,1.24,0.62,1.07*16
$GNGSA,A,3,86,70,73,84,71,85,72,,,,,,1.24,0.62,1.07*16
$GPGSV,4,1,16,04,02,222,,08,18,308,34,10,13,017,43,16,24,224,36*70
$GPGSV,4,2,16,18,31,105,37,23,01,055,14,26,28,194,40,27,53,287,42*78
$GPGSV,4,3,16,28,58,124,36,29,00,146,14,31,47,174,44,32,41,004,46*70
$GPGSV,4,4,16,36,52,277,38,40,84,353,44,41,58,082,39,49,32,274,*7D
$GLGSV,3,1,10,70,08,009,29,71,33,328,38,72,32,266,19,73,17,124,29*6F
$GLGSV,3,2,10,74,19,171,15,75,03,216,,84,46,124,18,85,60,024,38*6F
$GLGSV,3,3,10,86,11,344,39,,,,36*56
$GNGLL,0419.73012,S,05539.93673,E,130638.00,A,D*69
$GNGRS,130638.00,1,-4.2,0.9,-0.2,-0.1,0.4,2.4,-1.0,1.1,0.7,,,*79
$GNGRS,130638.00,1,2.2,1.7,5.9,7.6,-0.8,-0.7,-4.7,,,,,*5B
$GNGST,130638.00,34,,,,1.0,1.6,2.9*4C
$GNZDA,130638.00,19,05,2025,00,00*7F
$GNGBS,130638.00,1.0,1.6,2.9,,,,*5D
b0Lh 4|
+\
#%i%70()5S#:|t+/ .)o{&4+Ta&:R $qNFRG&!HH 

I|JKT.|U&<V'X%bh2z$GNRMC,130639.00,A,0419.73012,S,05539.93672,E,0.030,,190525,,,D*79
$GNVTG,,T,,M,0.030,N,0.055,K,D*3B
$GNGNS,130639.00,0419.73012,S,05539.93672,E,DA,16,0.62,12.6,-47.6,,0000*68
$GNGGA,130639.00,0419.73012,S,05539.93672,E,2,12,0.62,12.6,M,-47.6,M,,0000*40
$GNGSA,A,3,10,32,26,08,18,28,31,16,27,,,,1.24,0.62,1.07*16
$GNGSA,A,3,86,70,73,84,71,85,72,,,,,,1.24,0.62,1.07*16
$GPGSV,4,1,16,04,02,222,,08,18,308,32,10,13,017,43,16,24,224,35*75
$GPGSV,4,2,16,18,31,105,37,23,01,055,11,26,28,194,40,27,53,287,41*7E
$GPGSV,4,3,16,28,58,124,35,29,00,146,12,31,47,174,43,32,41,004,46*72
$GPGSV,4,4,16,36,52,277,38,40,84,353,43,41,58,082,38,49,32,274,*7B
$GLGSV,3,1,10,70,08,009,30,71,33,328,38,72,32,266,19,73,17,124,29*67
$GLGSV,3,2,10,74,19,171,16,75,03,216,,84,46,124,17,85,60,024,38*63
$GLGSV,3,3,10,86,11,344,39,,,,37*57
$GNGLL,0419.73012,S,05539.93672,E,130639.00,A,D*69
$GNGRS,130639.00,1,-4.2,1.1,0.0,-3.9,0.4,0.0,-0.8,0.1,0.8,,,*54
$GNGRS,130639.00,1,2.1,3.4,4.3,6.6,-0.7,-0.8,-5.0,,,,,*54
$GNGST,130639.00,35,,,,1.0,1.6,2.9*4C
$GNZDA,130639.00,19,05,2025,00,00*7E
$GNGBS,130639.00,1.0,1.6,2.9,,,,*5C
b0LP 4
*e
#,%i7()5N#:|>H+/ .){&4+Ta&:R $qTFG&!HH 
I|JKT.|U'<V'X%JbP$GNRMC,130640.00,A,0419.73012,S,05539.93672,E,0.021,,190525,,,D*77
$GNVTG,,T,,M,0.021,N,0.038,K,D*30
$GNGNS,130640.00,0419.73012,S,05539.93672,E,DA,16,0.62,12.6,-47.6,,0000*66
$GNGGA,130640.00,0419.73012,S,05539.93672,E,2,12,0.62,12.6,M,-47.6,M,,0000*4E
$GNGSA,A,3,10,32,26,08,18,28,31,16,27,,,,1.24,0.62,1.07*16
$GNGSA,A,3,86,70,73,84,71,85,72,,,,,,1.24,0.62,1.07*16
$GPGSV,4,1,16,04,02,222,,08,18,308,32,10,13,017,42,16,24,224,35*74
$GPGSV,4,2,16,18,31,105,37,23,01,055,11,26,28,194,40,27,53,287,41*7E
$GPGSV,4,3,16,28,58,124,35,29,00,146,15,31,47,174,43,32,41,004,46*75
$GPGSV,4,4,16,36,52,277,38,40,84,353,43,41,58,082,38,49,32,274,*7B
$GLGSV,3,1,10,70,08,009,30,71,33,328,38,72,32,266,19,73,17,124,29*67
$GLGSV,3,2,10,74,19,171,17,75,03,216,,84,46,124,17,85,60,024,39*63
$GLGSV,3,3,10,86,11,344,39,,,,37*57
$GNGLL,0419.73012,S,05539.93672,E,130640.00,A,D*67
$GNGRS,130640.00,1,-4.1,1.3,-0.1,-6.0,0.2,-1.9,-0.7,0.4,0.8,,,*52
$GNGRS,130640.00,1,1.8,4.8,5.1,10.1,-0.6,-1.1,-5.7,,,,,*66
$GNGST,130640.00,35,,,,1.0,1.6,3.0*4A
$GNZDA,130640.00,19,05,2025,00,00*70
$GNGBS,130640.00,1.0,1.6,3.0,,,,*5A
b0L8 4
+S
#$i779()5[#:|L+/ .)z{%4,Ta&:R $qJFG&!HH 
I|,JKT.|U&<vV&X$b8J$GNRMC,130641.00,A,0419.73012,S,05539.93672,E,0.020,,190525,,,D*77
$GNVTG,,T,,M,0.020,N,0.038,K,D*31
$GNGNS,130641.00,0419.73012,S,05539.93672,E,DA,16,0.62,12.6,-47.6,,0000*67
$GNGGA,130641.00,0419.73012,S,05539.93672,E,2,12,0.62,12.6,M,-47.6,M,,0000*4F
$GNGSA,A,3,10,32,26,08,18,28,31,16,27,,,,1.24,0.62,1.07*16
$GNGSA,A,3,86,70,73,84,71,85,72,,,,,,1.24,0.62,1.07*16
$GPGSV,4,1,16,04,02,222,,08,18,308,32,10,13,017,43,16,24,224,35*75
$GPGSV,4,2,16,18,31,105,36,23,01,055,12,26,28,194,40,27,53,287,41*7C
$GPGSV,4,3,16,28,58,124,35,29,00,146,16,31,47,174,43,32,41,004,46*76
$GPGSV,4,4,16,36,52,277,37,40,84,353,44,41,58,082,38,49,32,274,*73
$GLGSV,3,1,10,70,08,009,29,71,33,328,38,72,32,266,19,73,17,124,28*6E
$GLGSV,3,2,10,74,19,171,17,75,03,216,,84,46,124,16,85,60,024,38*63
$GLGSV,3,3,10,86,11,344,38,,,,36*57
$GNGLL,0419.73012,S,05539.93672,E,130641.00,A,D*66
$GNGRS,130641.00,1,-4.3,1.2,0.0,-3.3,0.1,0.8,-0.8,2.6,0.9,,,*5A
$GNGRS,130641.00,1,1.7,5.2,5.6,11.8,-0.6,-1.4,-5.5,,,,,*6B
$GNGST,130641.00,36,,,,1.0,1.6,3.0*48
$GNZDA,130641.00,19,05,2025,00,00*71
$GNGBS,130641.00,1.0,1.6,3.0,,,,*5B
b0L !4
*\
#$i7,()5]#:|t+/ .)`{%4,Ta&:R $qBFG&!HH 
I|JKT.|U&<zV&X$,b }$GNRMC,130642.00,A,0419.73012,S,05539.93672,E,0.030,,190525,,,D*75
$GNVTG,,T,,M,0.030,N,0.055,K,D*3B
$GNGNS,130642.00,0419.73012,S,05539.93672,E,DA,16,0.62,12.6,-47.6,,0000*64
$GNGGA,130642.00,0419.73012,S,05539.93672,E,2,12,0.62,12.6,M,-47.6,M,,0000*4C
$GNGSA,A,3,10,32,26,08,18,28,31,16,27,,,,1.24,0.62,1.07*16
$GNGSA,A,3,86,70,73,84,71,85,72,,,,,,1.24,0.62,1.07*16
$GPGSV,4,1,16,04,02,222,,08,18,308,33,10,13,017,42,16,24,224,35*75
$GPGSV,4,2,16,18,31,105,36,23,01,055,13,26,28,194,40,27,53,287,41*7D
$GPGSV,4,3,16,28,58,124,35,29,00,146,18,31,47,174,43,32,41,004,46*78
$GPGSV,4,4,16,36,52,277,37,40,84,353,44,41,58,082,38,49,32,274,*73
$GLGSV,3,1,10,70,08,009,29,71,33,328,38,72,32,266,19,73,17,124,28*6E
$GLGSV,3,2,10,74,19,171,14,75,03,216,,84,46,124,15,85,60,024,38*63
$GLGSV,3,3,10,86,11,344,38,,,,36*57
$GNGLL,0419.73012,S,05539.93672,E,130642.00,A,D*65
$GNGRS,130642.00,1,-4.2,1.0,-0.2,-7.9,0.0,1.5,-1.0,4.4,0.9,,,*7B
$GNGRS,130642.00,1,1.5,5.4,4.9,12.9,-0.6,-1.3,-5.5,,,,,*67
$GNGST,130642.00,37,,,,1.0,1.6,3.0*4A
$GNZDA,130642.00,19,05,2025,00,00*72
$GNGBS,130642.00,1.0,1.6,3.0,,,,*58
b0L 4I
*x
#($i7()5c#:|_+/ .)L{&4+Ta&:R $q?FVG&!HH 
I|JKT.|U&<bV&X$XbU$GNRMC,130643.00,A,0419.73012,S,05539.93672,E,0.016,,190525,,,D*70
$GNVTG,,T,,M,0.016,N,0.029,K,D*34
$GNGNS,130643.00,0419.73012,S,05539.93672,E,DA,16,0.62,12.7,-47.6,,0000*64
$GNGGA,130643.00,0419.73012,S,05539.93672,E,2,12,0.62,12.7,M,-47.6,M,,0000*4C
$GNGSA,A,3,10,32,26,08,18,28,31,16,27,,,,1.24,0.62,1.07*16
$GNGSA,A,3,86,70,73,84,71,85,72,,,,,,1.24,0.62,1.07*16
$GPGSV,4,1,16,04,02,222,,08,18,308,32,10,13,017,42,16,24,224,35*74
$GPGSV,4,2,16,18,31,105,36,23,01,055,13,26,28,194,40,27,53,287,41*7D
$GPGSV,4,3,16,28,58,124,35,29,00,146,21,31,47,174,43,32,41,004,46*72
$GPGSV,4,4,16,36,52,277,38,40,84,353,43,41,58,082,38,49,32,274,*7B
$GLGSV,3,1,10,70,08,009,29,71,33,328,38,72,32,266,18,73,17,124,28*6F
$GLGSV,3,2,10,74,19,171,13,75,03,216,,84,46,124,14,85,60,024,38*65
$GLGSV,3,3,10,86,11,344,38,,,,36*57
$GNGLL,0419.73012,S,05539.93672,E,130643.00,A,D*64
$GNGRS,130643.00,1,-3.9,0.8,-0.3,-4.4,-0.1,-0.5,-0.8,-2.2,1.0,,,*5C
$GNGRS,130643.00,1,1.4,6.0,5.3,14.7,-0.5,-1.6,-2.8,,,,,*6F
$GNGST,130643.00,38,,,,1.0,1.6,3.0*44
$GNZDA,130643.00,19,05,2025,00,00*73
$GNGBS,130643.00,1.0,1.6,3.0,,,,*59
b0L 4
*|
#/$i7'(5m":|+/ -)O{%4+Ta%:R #q FG&!HH 
I|tJKT.|oU&<dV&X#3b,p$GNRMC,130644.00,A,0419.73011,S,05539.93671,E,0.021,,190525,,,D*73
$GNVTG,,T,,M,0.021,N,0.039,K,D*31
$GNGNS,130644.00,0419.73011,S,05539.93671,E,DA,16,0.62,12.7,-47.6,,0000*63
$GNGGA,130644.00,0419.73011,S,05539.93671,E,2,12,0.62,12.7,M,-47.6,M,,0000*4B
$GNGSA,A,3,10,32,26,08,18,28,31,16,27,,,,1.24,0.62,1.07*16
$GNGSA,A,3,86,70,73,84,71,85,72,,,,,,1.24,0.62,1.07*16
$GPGSV,4,1,16,04,02,222,,08,18,308,32,10,13,017,42,16,24,224,35*74
$GPGSV,4,2,16,18,31,105,36,23,01,055,13,26,28,194,39,27,53,287,40*72
$GPGSV,4,3,16,28,58,124,34,29,00,146,16,31,47,174,43,32,41,004,45*74
$GPGSV,4,4,16,36,52,277,37,40,84,353,43,41,58,082,37,49,32,274,*7B
$GLGSV,3,1,10,70,08,009,29,71,33,328,38,72,32,266,19,73,17,124,29*6F
$GLGSV,3,2,10,74,19,171,14,75,03,216,,84,46,124,15,85,60,025,38*62
$GLGSV,3,3,10,86,11,344,38,,,,35*54
$GNGLL,0419.73011,S,05539.93671,E,130644.00,A,D*63
$GNGRS,130644.00,1,-3.9,0.8,-0.2,-0.5,-0.3,1.6,-0.8,0.5,1.1,,,*5B
$GNGRS,130644.00,1,1.6,5.1,3.7,13.9,-0.6,-1.6,-2.9,,,,,*61
$GNGST,130644.00,36,,,,1.0,1.6,3.0*4D
$GNZDA,130644.00,19,05,2025,00,00*74
$GNGBS,130644.00,1.0,1.6,3.0,,,,*5E
b0L4l
*l
#]$i7'(5V":|x+/ -)S{%4+Ta%:R $qFG&!HH 
I|JKT.|U&<SV&X#npb$GNRMC,130645.00,A,0419.73011,S,05539.93670,E,0.008,,190525,,,D*78
$GNVTG,,T,,M,0.008,N,0.015,K,D*34
$GNGNS,130645.00,0419.73011,S,05539.93670,E,DA,16,0.62,12.7,-47.6,,0000*63
$GNGGA,130645.00,0419.73011,S,05539.93670,E,2,12,0.62,12.7,M,-47.6,M,,0000*4B
$GNGSA,A,3,10,32,26,08,18,28,31,16,27,,,,1.24,0.62,1.07*16
$GNGSA,A,3,86,70,73,84,71,85,72,,,,,,1.24,0.62,1.07*16
$GPGSV,4,1,16,04,02,222,,08,18,308,31,10,13,017,42,16,24,224,35*77
$GPGSV,4,2,16,18,31,105,36,23,01,055,,26,28,194,39,27,53,287,40*70
$GPGSV,4,3,16,28,58,124,34,29,00,146,15,31,47,174,43,32,41,004,45*77
$GPGSV,4,4,16,36,52,277,37,40,84,353,43,41,58,082,37,49,32,274,*7B
$GLGSV,3,1,10,70,08,009,29,71,33,328,38,72,32,266,19,73,17,124,29*6F
$GLGSV,3,2,10,74,19,171,,75,03,216,,84,46,124,15,85,60,025,38*67
$GLGSV,3,3,10,86,11,344,38,,,,35*54
$GNGLL,0419.73011,S,05539.93670,E,130645.00,A,D*63
$GNGRS,130645.00,1,-4.0,0.8,-0.3,3.6,-0.4,-0.4,-0.9,0.9,0.9,,,*55
$GNGRS,130645.00,1,1.5,3.9,4.0,12.7,-0.8,-1.7,-3.6,,,,,*63
$GNGST,130645.00,36,,,,1.0,1.6,3.0*4C
$GNZDA,130645.00,19,05,2025,00,00*75
$GNGBS,130645.00,1.0,1.6,3.0,,,,*5F
b0L 4
*M
" $i7')5G":|k+/ -)S{%4+Ta%:R $qF_G&!HH 
%I|JKT.|U'<GV&X"#b@$GNRMC,130646.00,A,0419.73011,S,05539.93669,E,0.012,,190525,,,D*78
$GNVTG,,T,,M,0.012,N,0.022,K,D*3B
$GNGNS,130646.00,0419.73011,S,05539.93669,E,DA,16,0.62,12.6,-47.6,,0000*69
$GNGGA,130646.00,0419.73011,S,05539.93669,E,2,12,0.62,12.6,M,-47.6,M,,0000*41
$GNGSA,A,3,10,32,26,08,18,28,31,16,27,,,,1.24,0.62,1.07*16
$GNGSA,A,3,86,70,73,84,71,85,72,,,,,,1.24,0.62,1.07*16
$GPGSV,4,1,16,04,02,222,,08,18,308,32,10,13,017,42,16,24,224,34*75
$GPGSV,4,2,16,18,31,105,36,23,01,055,,26,28,194,39,27,53,287,41*71
$GPGSV,4,3,16,28,58,124,34,29,00,146,14,31,47,174,43,32,41,004,45*76
$GPGSV,4,4,16,36,52,277,37,40,84,353,43,41,58,082,37,49,32,274,*7B
$GLGSV,3,1,10,70,08,009,29,71,33,328,38,72,32,266,19,73,17,124,29*6F
$GLGSV,3,2,10,74,19,171,,75,03,216,,84,46,124,14,85,60,025,39*67
$GLGSV,3,3,10,86,11,344,38,,,,34*55
$GNGLL,0419.73011,S,05539.93669,E,130646.00,A,D*68
$GNGRS,130646.00,1,-4.4,0.8,0.0,2.7,-0.4,-2.8,-1.0,0.3,0.7,,,*7E
$GNGRS,130646.00,1,1.4,3.5,4.3,12.8,-0.6,-1.8,-4.7,,,,,*66
$GNGST,130646.00,36,,,,1.0,1.6,3.0*4F
$GNZDA,130646.00,19,05,2025,00,00*76
$GNGBS,130646.00,1.0,1.6,3.0,,,,*5C
b0L4/
*T
#$i7'(5;":|6+/ -)Y{%4+Ta&:R $qFG&!HH 
I|JKT.|U'<UV&Xy"br$GNRMC,130647.00,A,0419.73011,S,05539.93667,E,0.039,,190525,,,D*7E
$GNVTG,,T,,M,0.039,N,0.073,K,D*36
$GNGNS,130647.00,0419.73011,S,05539.93667,E,DA,16,0.62,12.6,-47.6,,0000*66
$GNGGA,130647.00,0419.73011,S,05539.93667,E,2,12,0.62,12.6,M,-47.6,M,,0000*4E
$GNGSA,A,3,10,32,26,08,18,28,31,16,27,,,,1.24,0.62,1.07*16
$GNGSA,A,3,86,70,73,84,71,85,72,,,,,,1.24,0.62,1.07*16
$GPGSV,4,1,16,04,02,222,,08,18,308,31,10,13,017,42,16,24,224,35*77
$GPGSV,4,2,16,18,31,105,36,23,01,055,,26,28,194,39,27,53,287,40*70
$GPGSV,4,3,16,28,58,124,34,29,00,146,16,31,47,174,43,32,41,004,45*74
$GPGSV,4,4,16,36,52,277,37,40,84,353,43,41,58,082,38,49,32,274,*74
$GLGSV,3,1,10,70,08,009,29,71,33,328,38,72,32,266,18,73,17,124,29*6E
$GLGSV,3,2,10,74,19,171,,75,03,216,,84,46,124,15,85,60,025,39*66
$GLGSV,3,3,10,86,11,344,38,,,,34*55
$GNGLL,0419.73011,S,05539.93667,E,130647.00,A,D*67
$GNGRS,130647.00,1,-4.3,0.9,0.2,3.0,-0.3,-0.3,-1.3,-0.3,0.6,,,*5C
$GNGRS,130647.00,1,1.2,2.3,2.8,12.5,-0.6,-1.7,-5.2,,,,,*6D
$GNGST,130647.00,36,,,,1.0,1.6,3.0*4E
$GNZDA,130647.00,19,05,2025,00,00*77
$GNGBS,130647.00,1.0,1.6,3.0,,,,*5D
b0L4
*U
#$i7'(5F":|]+/s -)T{%4+Ta%:R #qFG&!HH 
yI|2JKT.|U'<tV&X"?bZ$GNRMC,130648.00,A,0419.73011,S,05539.93666,E,0.038,,190525,,,D*71
$GNVTG,,T,,M,0.038,N,0.071,K,D*35
$GNGNS,130648.00,0419.73011,S,05539.93666,E,DA,16,0.62,12.6,-47.6,,0000*68
$GNGGA,130648.00,0419.73011,S,05539.93666,E,2,12,0.62,12.6,M,-47.6,M,,0000*40
$GNGSA,A,3,10,32,26,08,18,28,31,16,27,,,,1.24,0.62,1.07*16
$GNGSA,A,3,86,70,73,84,71,85,72,,,,,,1.24,0.62,1.07*16
$GPGSV,4,1,16,04,02,222,,08,18,308,31,10,13,017,42,16,24,224,35*77
$GPGSV,4,2,16,18,31,105,36,23,01,055,,26,28,194,39,27,53,287,40*70
$GPGSV,4,3,16,28,58,124,34,29,00,146,13,31,47,174,43,32,41,004,45*71
$GPGSV,4,4,16,36,52,277,37,40,84,353,43,41,58,082,37,49,32,274,*7B
$GLGSV,3,1,10,70,08,009,29,71,33,328,38,72,32,266,18,73,17,124,29*6E
$GLGSV,3,2,10,74,19,171,,75,03,216,,84,46,124,14,85,60,025,39*67
$GLGSV,3,3,10,86,11,344,38,,,,34*55
$GNGLL,0419.73011,S,05539.93666,E,130648.00,A,D*69
$GNGRS,130648.00,1,-4.3,0.8,-0.1,2.1,-0.3,0.9,-1.4,-0.4,0.7,,,*5A
$GNGRS,130648.00,1,1.3,4.5,3.1,12.4,-0.6,-1.4,-6.5,,,,,*6D
$GNGST,130648.00,72710,,,,1.0,1.6,3.0*77
$GNZDA,130648.00,19,05,2025,00,00*78
$GNGBS,130648.00,1.0,1.6,3.0,,,,*52
b0Lx4S
*d
#8$i7'(5B":|+/ -)G{%4+Ta%:R #qFG&!HH 
9I|@JKT.|U'<{V&X#;IbxBdx$GNRMC,130649.00,A,0419.73010,S,05539.93665,E,0.023,,190525,,,D*78
$GNVTG,,T,,M,0.023,N,0.042,K,D*3F
$GNGNS,130649.00,0419.73010,S,05539.93665,E,DA,16,0.62,12.7,-47.6,,0000*6A
$GNGGA,130649.00,0419.73010,S,05539.93665,E,2,12,0.62,12.7,M,-47.6,M,,0000*42
$GNGSA,A,3,10,32,26,08,18,28,31,16,27,,,,1.24,0.62,1.07*16
$GNGSA,A,3,86,70,73,84,71,85,72,,,,,,1.24,0.62,1.07*16
$GPGSV,4,1,16,04,02,222,,08,18,308,31,10,13,017,42,16,24,224,35*77
$GPGSV,4,2,16,18,31,105,36,23,01,055,,26,28,194,39,27,53,287,40*70
$GPGSV,4,3,16,28,58,124,34,29,00,146,11,31,47,174,43,32,41,004,45*73
$GPGSV,4,4,16,36,52,277,37,40,84,353,43,41,58,082,37,49,32,274,*7B
$GLGSV,3,1,10,70,08,009,29,71,33,328,38,72,32,266,17,73,17,124,29*61
$GLGSV,3,2,10,74,19,171,,75,03,216,,84,46,124,16,85,60,025,39*65
$GLGSV,3,3,10,86,11,344,38,,,,35*54
$GNGLL,0419.73010,S,05539.93665,E,130649.00,A,D*6A
$GNGRS,130649.00,1,-4.1,0.7,0.1,0.8,-0.2,1.5,-1.2,-2.0,0.7,,,*7C
$GNGRS,130649.00,1,1.3,5.0,3.2,12.4,-0.5,-1.3,-7.1,,,,,*6A
$GNGST,130649.00,72710,,,,1.0,1.6,3.0*76
$GNZDA,130649.00,19,05,2025,00,00*79
$GNGBS,130649.00,1.0,1.6,3.0,,,,*53
b0L`46
*z
#Z$i7'(5/":|
+/ -)R{%4+Ta%:R #qFG&!HH 
I|JKT.|U'<zV&Xw#Ub`*=$GNRMC,130650.00,A,0419.73009,S,05539.93664,E,0.053,,190525,,,D*7E
$GNVTG,,T,,M,0.053,N,0.098,K,D*3F
$GNGNS,130650.00,0419.73009,S,05539.93664,E,DA,16,0.62,12.7,-47.6,,0000*6B
$GNGGA,130650.00,0419.73009,S,05539.93664,E,2,12,0.62,12.7,M,-47.6,M,,0000*43
$GNGSA,A,3,10,32,26,08,18,28,31,16,27,,,,1.24,0.62,1.07*16
$GNGSA,A,3,86,70,73,84,71,85,72,,,,,,1.24,0.62,1.07*16
$GPGSV,4,1,16,04,02,222,,08,18,308,31,10,13,017,42,16,24,224,35*77
$GPGSV,4,2,16,18,31,105,36,23,01,055,,26,28,194,39,27,53,287,40*70
$GPGSV,4,3,16,28,58,124,34,29,00,146,10,31,47,174,43,32,41,004,45*72
$GPGSV,4,4,16,36,52,277,37,40,84,353,43,41,58,082,37,49,32,274,*7B
$GLGSV,3,1,10,70,08,009,29,71,33,328,38,72,32,266,17,73,17,124,29*61
$GLGSV,3,2,10,74,19,171,,75,03,216,,84,46,124,14,85,60,025,39*67
$GLGSV,3,3,10,86,11,344,38,,,,35*54
$GNGLL,0419.73009,S,05539.93664,E,130650.00,A,D*6B
$GNGRS,130650.00,1,-3.9,0.8,0.0,0.5,-0.3,2.0,-1.1,0.9,0.5,,,*58
$GNGRS,130650.00,1,1.2,3.9,2.4,10.0,-0.2,-1.3,-8.7,,,,,*63
$GNGST,130650.00,38,,,,1.0,1.6,3.0*46
$GNZDA,130650.00,19,05,2025,00,00*71
$GNGBS,130650.00,1.0,1.6,3.0,,,,*5B
b0LH4
*c
#%i7')5<":|~+/ -)M{%4+Ta&:R $qFG&!HH 
qI|JKT.|CU'<uV&Xh#bH@$GNRMC,130651.00,A,0419.73007,S,05539.93663,E,0.075,,190525,,,A*77
$GNVTG,,T,,M,0.075,N,0.138,K,A*35
$GNGNS,130651.00,0419.73007,S,05539.93663,E,AA,16,0.62,12.7,-47.6,,*66
$GNGGA,130651.00,0419.73007,S,05539.93663,E,1,12,0.62,12.7,M,-47.6,M,,*48
$GNGSA,A,3,10,32,26,08,18,28,31,16,27,,,,1.24,0.62,1.07*16
$GNGSA,A,3,86,70,73,84,71,85,72,,,,,,1.24,0.62,1.07*16
$GPGSV,4,1,16,04,03,222,,08,18,308,31,10,13,017,42,16,24,224,35*76
$GPGSV,4,2,16,18,31,105,37,23,01,055,,26,28,194,39,27,53,287,41*70
$GPGSV,4,3,16,28,58,124,34,29,00,146,12,31,47,174,43,32,41,004,45*70
$GPGSV,4,4,16,36,52,277,37,40,84,353,43,41,58,082,38,49,32,274,*74
$GLGSV,3,1,10,70,08,009,29,71,33,328,38,72,32,266,19,73,17,124,29*6F
$GLGSV,3,2,10,74,19,171,,75,03,216,,84,46,124,15,85,60,025,39*66
$GLGSV,3,3,10,86,11,344,38,,,,35*54
$GNGLL,0419.73007,S,05539.93663,E,130651.00,A,A*66
$GNGRS,130651.00,1,-4.1,0.8,0.0,-0.7,-0.2,1.3,-1.3,1.4,0.6,,,*75
$GNGRS,130651.00,1,1.0,4.4,2.4,3.2,-0.5,-1.4,-9.1,,,,,*5D
$GNGST,130651.00,23267,,,,1.0,1.6,3.0*7E
$GNZDA,130651.00,19,05,2025,00,00*70
$GNGBS,130651.00,1.0,1.6,3.0,,,,*5A
b0L04
*Z
#$i7'(57#:|Z
i+/ -)T{%4*Ta&:R $qFG&!HH 
kI|vJKT.|-U'<V&Xp#b0$GNRMC,130652.00,A,0419.73007,S,05539.93661,E,0.016,,190525,,,A*73
$GNVTG,,T,,M,0.016,N,0.030,K,A*39
$GNGNS,130652.00,0419.73007,S,05539.93661,E,AA,16,0.62,12.7,-47.6,,*67
$GNGGA,130652.00,0419.73007,S,05539.93661,E,1,12,0.62,12.7,M,-47.6,M,,*49
$GNGSA,A,3,10,32,26,08,18,28,31,16,27,,,,1.24,0.62,1.07*16
$GNGSA,A,3,86,70,73,84,71,85,72,,,,,,1.24,0.62,1.07*16
$GPGSV,4,1,16,04,03,222,,08,18,308,30,10,13,017,42,16,24,224,35*77
$GPGSV,4,2,16,18,31,105,36,23,01,055,,26,28,194,39,27,53,287,40*70
$GPGSV,4,3,16,28,58,124,35,29,00,146,10,31,47,174,43,32,41,004,45*73
$GPGSV,4,4,16,36,52,277,37,40,84,353,42,41,58,082,38,49,32,274,*75
$GLGSV,3,1,10,70,08,009,29,71,33,328,38,72,32,266,19,73,17,124,29*6F
$GLGSV,3,2,10,74,19,171,,75,03,216,,84,46,124,13,85,60,025,39*60
$GLGSV,3,3,10,86,11,344,38,,,,35*54
$GNGLL,0419.73007,S,05539.93661,E,130652.00,A,A*67
$GNGRS,130652.00,1,-4.2,0.8,0.1,-0.4,-0.4,-1.7,-1.2,1.6,0.5,,,*58
$GNGRS,130652.00,1,1.1,4.2,1.2,3.0,-0.3,-1.2,-9.2,,,,,*5D
$GNGST,130652.00,34901,,,,1.0,1.6,3.0*70
$GNZDA,130652.00,19,05,2025,00,00*73
$GNGBS,130652.00,1.0,1.6,3.0,,,,*59
b0L4g
*G
#+%i7'(5;#:|=+/v -)P{%4*Ta&:R $qFG&!HH 
I|JKT.|U'<V&Xk$b$GNRMC,130653.00,A,0419.73006,S,05539.93661,E,0.004,,190525,,,A*70
$GNVTG,,T,,M,0.004,N,0.007,K,A*3E
$GNGNS,130653.00,0419.73006,S,05539.93661,E,AA,16,0.62,12.7,-47.6,,*67
$GNGGA,130653.00,0419.73006,S,05539.93661,E,1,12,0.62,12.7,M,-47.6,M,,*49
$GNGSA,A,3,10,32,26,08,18,28,31,16,27,,,,1.24,0.62,1.07*16
$GNGSA,A,3,86,70,73,84,71,85,72,,,,,,1.24,0.62,1.07*16
$GPGSV,4,1,16,04,03,222,,08,18,308,30,10,13,017,42,16,24,224,35*77
$GPGSV,4,2,16,18,31,105,37,23,01,055,,26,28,194,39,27,53,287,40*71
$GPGSV,4,3,16,28,58,124,35,29,00,146,12,31,47,174,43,32,41,004,45*71
$GPGSV,4,4,16,36,52,277,37,40,84,353,42,41,58,082,38,49,32,274,*75
$GLGSV,3,1,10,70,08,009,29,71,33,328,38,72,32,266,19,73,17,124,29*6F
$GLGSV,3,2,10,74,19,171,,75,03,216,,84,46,124,13,85,60,025,39*60
$GLGSV,3,3,10,86,11,344,38,,,,36*57
$GNGLL,0419.73006,S,05539.93661,E,130653.00,A,A*67
$GNGRS,130653.00,1,-4.4,0.8,0.3,-1.5,-0.3,0.6,-1.4,0.4,0.6,,,*71
$GNGRS,130653.00,1,1.1,4.4,2.0,-1.3,-0.4,-1.1,-8.7,,,,,*77
$GNGST,130653.00,37,,,,1.0,1.6,3.0*4A
$GNZDA,130653.00,19,05,2025,00,00*72
$GNGBS,130653.00,1.0,1.6,3.0,,,,*58
b0L4<
%_
" i7#2#58":|(~'/g ()F{ 4&Ta!:R qFJG"!HH 
I|>JKT.|MU"<{V#Xm?bu$GNRMC,130654.00,A,0419.73006,S,05539.93659,E,0.052,,190525,,,A*7F
$GNVTG,,T,,M,0.052,N,0.096,K,A*35
$GNGNS,130654.00,0419.73006,S,05539.93659,E,AA,16,0.62,12.7,-47.6,,*6B
$GNGGA,130654.00,0419.73006,S,05539.93659,E,1,12,0.62,12.7,M,-47.6,M,,*45
$GNGSA,A,3,10,32,26,08,18,28,31,16,27,,,,1.24,0.62,1.07*16
$GNGSA,A,3,86,70,73,84,71,85,72,,,,,,1.24,0.62,1.07*16
$GPGSV,4,1,16,04,03,222,,08,18,308,29,10,13,017,37,16,24,224,34*7C
$GPGSV,4,2,16,18,31,105,32,23,01,055,,26,28,194,35,27,53,287,35*7A
$GPGSV,4,3,16,28,58,124,34,29,00,146,14,31,47,174,39,32,41,004,40*7E
$GPGSV,4,4,16,36,52,277,32,40,84,353,38,41,58,082,33,49,32,274,*76
$GLGSV,3,1,10,70,08,009,28,71,33,328,34,72,32,266,19,73,17,124,28*63
$GLGSV,3,2,10,74,19,171,,75,03,216,,84,46,124,14,85,60,025,34*6A
$GLGSV,3,3,10,86,11,344,35,,,,30*5C
$GNGLL,0419.73006,S,05539.93659,E,130654.00,A,A*6B
$GNGRS,130654.00,1,-4.2,0.7,0.5,-2.0,-0.1,-2.2,-1.5,4.2,0.6,,,*55
$GNGRS,130654.00,1,1.1,5.9,0.6,3.3,-0.8,-1.3,-10.1,,,,,*66
$GNGST,130654.00,40718,,,,1.0,1.6,3.1*72
$GNZDA,130654.00,19,05,2025,00,00*75
$GNGBS,130654.00,1.0,1.6,3.1,,,,*5E
b0L4
(R
"ir7$-&5h!:|)/ +)g{"4(Ta#:R  q+FG"!HH 
"I|eJKT.|PU"<lV"X^ bq$GNRMC,130655.00,A,0419.73005,S,05539.93658,E,0.021,,190525,,,A*78
$GNVTG,,T,,M,0.021,N,0.039,K,A*34
$GNGNS,130655.00,0419.73005,S,05539.93658,E,AA,15,0.63,12.6,-47.6,,*6B
$GNGGA,130655.00,0419.73005,S,05539.93658,E,1,12,0.63,12.6,M,-47.6,M,,*46
$GNGSA,A,3,10,32,26,08,18,28,31,16,27,,,,1.27,0.63,1.10*12
$GNGSA,A,3,86,70,73,71,85,72,,,,,,,1.27,0.63,1.10*1E
$GPGSV,4,1,16,04,03,222,,08,19,308,28,10,13,017,40,16,24,224,30*78
$GPGSV,4,2,16,18,31,105,34,23,01,055,,26,28,194,36,27,53,287,38*72
$GPGSV,4,3,16,28,58,124,33,29,00,146,13,31,47,174,41,32,41,004,43*72
$GPGSV,4,4,16,36,52,277,34,40,84,353,40,41,58,082,35,49,32,274,*79
$GLGSV,3,1,10,70,08,009,26,71,33,328,34,72,32,266,18,73,17,124,27*63
$GLGSV,3,2,10,74,19,171,,75,03,216,,84,46,124,09,85,60,025,34*66
$GLGSV,3,3,10,86,11,344,34,,,,32*5F
$GNGLL,0419.73005,S,05539.93658,E,130655.00,A,A*68
$GNGRS,130655.00,1,-4.3,1.0,0.5,-3.0,-1.4,-3.0,-1.1,1.3,1.0,,,*52
$GNGRS,130655.00,1,0.9,5.0,3.6,-3.7,-1.5,-9.9,,,,,,*70
$GNGST,130655.00,33,,,,1.0,1.6,3.1*49
$GNZDA,130655.00,19,05,2025,00,00*74
$GNGBS,130655.00,1.0,1.6,3.1,,,,*5F
b0L4
*R
"$i77;&,'5`":|1*/ ,)M{$4)Ta%:R #qFG)!HbH 
I|IJKT.|rU)<vV)X^(bE$GNRMC,130656.00,A,0419.73007,S,05539.93657,E,0.023,,190525,,,A*74
$GNVTG,,T,,M,0.023,N,0.042,K,A*3A
$GNGNS,130656.00,0419.73007,S,05539.93657,E,AA,16,0.62,12.5,-47.6,,*64
$GNGGA,130656.00,0419.73007,S,05539.93657,E,1,12,0.62,12.5,M,-47.6,M,,*4A
$GNGSA,A,3,10,32,26,08,18,28,31,16,27,,,,1.24,0.62,1.07*16
$GNGSA,A,3,86,70,73,84,71,85,72,,,,,,1.24,0.62,1.07*16
$GPGSV,4,1,16,04,03,222,,08,19,308,27,10,13,017,42,16,24,224,34*71
$GPGSV,4,2,16,18,31,105,36,23,01,055,09,26,28,194,38,27,53,287,39*76
$GPGSV,4,3,16,28,58,124,34,29,00,146,06,31,47,174,42,32,41,004,44*75
$GPGSV,4,4,16,36,52,277,36,40,84,353,41,41,58,082,37,49,32,274,*78
$GLGSV,3,1,10,70,08,009,31,71,33,328,41,72,32,266,17,73,17,124,31*6F
$GLGSV,3,2,10,74,19,171,,75,03,216,,84,46,124,15,85,60,025,41*69
$GLGSV,3,3,10,86,11,344,41,,,,40*58
$GNGLL,0419.73007,S,05539.93657,E,130656.00,A,A*66
$GNGRS,130656.00,1,-4.3,0.8,0.4,-3.2,-0.5,0.3,-0.8,-1.2,1.0,,,*52
$GNGRS,130656.00,1,0.9,6.8,5.8,6.3,-1.6,-1.4,-10.0,,,,,*68
$GNGST,130656.00,34,,,,1.0,1.6,3.1*4D
$GNZDA,130656.00,19,05,2025,00,00*77
$GNGBS,130656.00,1.0,1.6,3.1,,,,*5C
b0L4
*L
"$i
7;&(5K#:|e*/ ,)b{$4*Ta%:R #qcF ~G)!HH 
hI|JKT.|LU)<V(Xg)bz$GNRMC,130657.00,A,0419.73007,S,05539.93656,E,0.049,,190525,,,A*78
$GNVTG,,T,,M,0.049,N,0.091,K,A*38
$GNGNS,130657.00,0419.73007,S,05539.93656,E,AA,16,0.62,12.4,-47.6,,*65
$GNGGA,130657.00,0419.73007,S,05539.93656,E,1,12,0.62,12.4,M,-47.6,M,,*4B
$GNGSA,A,3,10,32,26,08,18,28,31,16,27,,,,1.24,0.62,1.07*16
$GNGSA,A,3,86,70,73,84,71,85,72,,,,,,1.24,0.62,1.07*16
$GPGSV,4,1,16,04,03,222,,08,19,308,30,10,13,017,42,16,24,224,34*77
$GPGSV,4,2,16,18,31,105,36,23,01,055,10,26,28,194,38,27,53,287,40*70
$GPGSV,4,3,16,28,58,124,35,29,00,146,13,31,47,174,42,32,41,004,44*70
$GPGSV,4,4,16,36,52,277,36,40,84,353,42,41,58,082,37,49,32,274,*7B
$GLGSV,3,1,10,70,08,009,32,71,33,328,41,72,32,266,19,73,17,124,31*62
$GLGSV,3,2,10,74,19,171,,75,03,216,,84,46,124,19,85,60,025,41*65
$GLGSV,3,3,10,86,11,344,40,,,,41*58
$GNGLL,0419.73007,S,05539.93656,E,130657.00,A,A*66
$GNGRS,130657.00,1,-4.4,1.0,0.2,-5.3,-0.4,1.6,-1.1,2.3,0.7,,,*78
$GNGRS,130657.00,1,1.0,1.3,4.8,3.3,2.0,-1.1,-9.2,,,,,*7E
$GNGST,130657.00,29084,,,,1.0,1.6,3.0*7D
$GNZDA,130657.00,19,05,2025,00,00*76
$GNGBS,130657.00,1.0,1.6,3.0,,,,*5C
b0L4D
*I
"C$i\
7'*(5W":|I*/ ,)>{$4*Ta%:R #qKF!G)!HH 
I|@JKT.|;U)<V)Xj)wbj$GNRMC,130658.00,A,0419.73007,S,05539.93657,E,0.047,,190525,,,A*78
$GNVTG,,T,,M,0.047,N,0.086,K,A*30
$GNGNS,130658.00,0419.73007,S,05539.93657,E,AA,16,0.62,12.4,-47.6,,*6B
$GNGGA,130658.00,0419.73007,S,05539.93657,E,1,12,0.62,12.4,M,-47.6,M,,*45
$GNGSA,A,3,10,32,26,08,18,28,31,16,27,,,,1.24,0.62,1.07*16
$GNGSA,A,3,86,70,73,84,71,85,72,,,,,,1.24,0.62,1.07*16
$GPGSV,4,1,16,04,03,222,,08,19,308,30,10,13,017,42,16,24,224,34*77
$GPGSV,4,2,16,18,31,105,36,23,01,055,10,26,28,194,39,27,53,287,40*71
$GPGSV,4,3,16,28,58,124,34,29,00,146,08,31,47,174,42,32,41,004,44*7B
$GPGSV,4,4,16,36,52,277,36,40,84,353,42,41,58,082,37,49,32,274,*7B
$GLGSV,3,1,10,70,08,009,33,71,33,328,41,72,32,266,19,73,17,124,31*63
$GLGSV,3,2,10,74,19,171,,75,03,216,,84,46,124,17,85,60,025,41*6B
$GLGSV,3,3,10,86,11,344,41,,,,41*59
$GNGLL,0419.73007,S,05539.93657,E,130658.00,A,A*68
$GNGRS,130658.00,1,-4.4,0.6,0.4,-4.4,0.9,-2.5,-0.6,-1.9,0.9,,,*51
$GNGRS,130658.00,1,1.1,2.5,3.2,3.1,-1.1,-1.0,-8.3,,,,,*54
$GNGST,130658.00,31,,,,1.0,1.6,3.0*47
$GNZDA,130658.00,19,05,2025,00,00*79
$GNGBS,130658.00,1.0,1.6,3.0,,,,*53
b0L#4
*W
"?$i7&$'5X":|H'*/ ,)N{$4*Ta%:R #qF G)!HH 
