b0LK1
+n;
6k';s 3@ %{4Ta(:R< !sAFiGMcHUI)vFJKT+U#B5VXba$GNRMC,131645.00,A,0419.74825,S,05539.89942,E,0.015,,190525,,,A*7D
$GNVTG,,T,,M,0.015,N,0.027,K,A*3C
$GNGNS,131645.00,0419.74825,S,05539.89942,E,AA,15,0.70,10.1,-47.6,,*6E
$GNGGA,131645.00,0419.74825,S,05539.89942,E,1,12,0.70,10.1,M,-47.6,M,,*43
$GNGSA,A,3,10,32,26,18,41,28,31,27,,,,,1.29,0.70,1.08*1D
$GNGSA,A,3,86,73,74,84,71,85,72,,,,,,1.29,0.70,1.08*13
$GPGSV,4,1,16,02,01,331,,04,05,224,,08,21,305,,10,13,021,28*7B
$GPGSV,4,2,16,16,24,220,,18,30,110,43,23,01,059,,26,28,189,21*75
$GPGSV,4,3,16,27,54,279,11,28,59,115,39,31,51,170,32,32,37,006,27*7F
$GPGSV,4,4,16,36,52,277,,40,84,353,,41,58,082,40,49,32,274,*78
$GLGSV,3,1,10,65,01,227,,70,05,012,07,71,30,333,11,72,31,273,17*64
$GLGSV,3,2,10,73,17,118,41,74,20,166,20,75,04,212,,84,43,131,28*6D
$GLGSV,3,3,10,85,66,031,35,86,16,344,24*61
$GNGLL,0419.74825,S,05539.89942,E,131645.00,A,A*6A
$GNGRS,131645.00,1,-7.7,2.8,1.4,-0.7,156,0.3,-1.9,8.7,,,,*69
$GNGRS,131645.00,1,-2.4,0.7,4.5,1.4,8.7,-2.0,6.0,,,,,*74
$GNGST,131645.00,2975452,,,,3.1,5.1,4.6*73
$GNZDA,131645.00,19,05,2025,00,00*74
$GNGBS,131645.00,3.1,5.1,4.6,,,,*5F
b0LK1
(n;
6d#;s<3: %{4Ta':R< sJAFjGMPH
RI&vYJ1KT+U BVX2bI}$GNRMC,131646.00,A,0419.74830,S,05539.89942,E,0.069,,190525,,,A*71
$GNVTG,,T,,M,0.069,N,0.128,K,A*39
$GNGNS,131646.00,0419.74830,S,05539.89942,E,AA,15,0.70,10.2,-47.6,,*6A
$GNGGA,131646.00,0419.74830,S,05539.89942,E,1,12,0.70,10.2,M,-47.6,M,,*47
$GNGSA,A,3,10,32,26,18,41,28,31,27,,,,,1.29,0.70,1.08*1D
$GNGSA,A,3,86,73,74,84,71,85,72,,,,,,1.29,0.70,1.08*13
$GPGSV,4,1,16,02,01,331,,04,05,224,,08,21,305,,10,13,021,28*7B
$GPGSV,4,2,16,16,24,220,,18,30,110,40,23,01,059,,26,28,189,20*77
$GPGSV,4,3,16,27,54,279,13,28,59,115,35,31,51,170,24,32,37,006,26*77
$GPGSV,4,4,16,36,52,277,,40,84,353,,41,58,082,39,49,32,274,*76
$GLGSV,3,1,10,65,01,227,,70,05,012,11,71,30,333,12,72,31,273,10*67
$GLGSV,3,2,10,73,17,118,38,74,20,166,19,75,04,212,,84,43,131,26*67
$GLGSV,3,3,10,85,66,031,32,86,16,344,22*60
$GNGLL,0419.74830,S,05539.89942,E,131646.00,A,A*6D
$GNGRS,131646.00,1,-8.5,1.4,-0.4,-0.4,156,0.6,-2.0,8.7,,,,*48
$GNGRS,131646.00,1,-1.2,0.9,5.6,2.3,8.5,-2.3,5.9,,,,,*71
$GNGST,131646.00,2977223,,,,3.1,5.2,4.7*70
$GNZDA,131646.00,19,05,2025,00,00*77
$GNGBS,131646.00,3.1,5.2,4.7,,,,*5E
b0LhK1
 )n;;
6)(;s53! %{4Ta):R< !s AFGMBHI%vbJKT+U!BVX9;bh1$GNRMC,131647.00,A,0419.74838,S,05539.89934,E,0.229,,190525,,,A*7F
$GNVTG,,T,,M,0.229,N,0.423,K,A*31
$GNGNS,131647.00,0419.74838,S,05539.89934,E,AA,14,0.95,10.3,-47.6,,*69
$GNGGA,131647.00,0419.74838,S,05539.89934,E,1,12,0.95,10.3,M,-47.6,M,,*45
$GNGSA,A,3,10,32,26,18,41,28,31,27,,,,,1.47,0.95,1.12*15
$GNGSA,A,3,86,73,74,84,71,85,,,,,,,1.47,0.95,1.12*1E
$GPGSV,4,1,16,02,01,331,,04,05,224,,08,21,305,,10,13,021,32*70
$GPGSV,4,2,16,16,24,220,,18,30,110,41,23,01,059,,26,28,189,19*7C
$GPGSV,4,3,16,27,54,279,11,28,59,115,40,31,51,170,26,32,37,006,28*7B
$GPGSV,4,4,16,36,52,277,,40,84,353,,41,58,082,41,49,32,274,*79
$GLGSV,3,1,10,65,01,227,,70,05,012,09,71,30,333,12,72,31,273,06*69
$GLGSV,3,2,10,73,17,118,37,74,20,166,19,75,04,212,,84,43,131,26*68
$GLGSV,3,3,10,85,66,031,33,86,16,344,21*62
$GNGLL,0419.74838,S,05539.89934,E,131647.00,A,A*65
$GNGRS,131647.00,1,-8.4,-0.1,0.6,-0.2,155,0.5,-2.2,-27.8,,,,*55
$GNGRS,131647.00,1,-1.0,1.0,5.3,4.4,-22.4,-2.3,,,,,,*48
$GNGST,131647.00,1137,,,,3.1,5.2,4.7*4D
$GNZDA,131647.00,19,05,2025,00,00*76
$GNGBS,131647.00,3.1,5.2,4.7,,,,*5F
b0LP K1
#I*n;
6T';s@3 %{4Ta*:R< !sAFqGMeH<I)vXJKT+U'B6VXubP jO$GNRMC,131648.00,A,0419.74847,S,05539.89928,E,0.159,,190525,,,A*71
$GNVTG,,T,,M,0.159,N,0.294,K,A*3F
$GNGNS,131648.00,0419.74847,S,05539.89928,E,AA,15,0.70,10.2,-47.6,,*68
$GNGGA,131648.00,0419.74847,S,05539.89928,E,1,12,0.70,10.2,M,-47.6,M,,*45
$GNGSA,A,3,10,32,26,18,41,28,31,27,,,,,1.29,0.70,1.08*1D
$GNGSA,A,3,86,73,74,84,71,85,72,,,,,,1.29,0.70,1.08*13
$GPGSV,4,1,16,02,01,331,,04,05,224,,08,21,305,,10,13,021,35*77
$GPGSV,4,2,16,16,24,220,,18,30,110,42,23,01,059,,26,28,189,20*75
$GPGSV,4,3,16,27,54,279,13,28,59,115,39,31,51,170,28,32,37,006,28*79
$GPGSV,4,4,16,36,52,277,,40,84,353,,41,58,082,42,49,32,274,*7A
$GLGSV,3,1,10,65,01,227,,70,05,012,14,71,30,333,12,72,31,273,13*61
$GLGSV,3,2,10,73,17,118,41,74,20,166,20,75,04,212,,84,43,131,31*65
$GLGSV,3,3,10,85,66,031,39,86,16,344,23*6A
$GNGLL,0419.74847,S,05539.89928,E,131648.00,A,A*6F
$GNGRS,131648.00,1,-7.0,7.0,2.7,-0.1,156,0.6,-3.5,8.5,,,,*61
$GNGRS,131648.00,1,-1.0,0.9,5.0,-7.6,8.7,-2.0,5.7,,,,,*59
$GNGST,131648.00,5151017,,,,3.1,5.2,4.6*71
$GNZDA,131648.00,19,05,2025,00,00*79
$GNGBS,131648.00,3.1,5.2,4.6,,,,*51
b0L8$K1
#)n;

6R(;s>3i %%c{4Ta':R< sIAFGMuH@I)v?JKT+^U(BHVXib8$B$GNRMC,131649.00,A,0419.74853,S,05539.89929,E,0.109,,190525,,,A*71
$GNVTG,,T,,M,0.109,N,0.202,K,A*35
$GNGNS,131649.00,0419.74853,S,05539.89929,E,AA,15,0.70,10.2,-47.6,,*6D
$GNGGA,131649.00,0419.74853,S,05539.89929,E,1,12,0.70,10.2,M,-47.6,M,,*40
$GNGSA,A,3,10,32,26,18,41,28,31,27,,,,,1.29,0.70,1.08*1D
$GNGSA,A,3,86,73,74,84,71,85,72,,,,,,1.29,0.70,1.08*13
$GPGSV,4,1,16,02,02,331,,04,05,224,,08,21,305,,10,13,021,35*74
$GPGSV,4,2,16,16,24,220,,18,30,110,41,23,01,059,,26,28,189,19*7C
$GPGSV,4,3,16,27,54,279,10,28,59,115,40,31,51,170,29,32,37,006,37*7B
$GPGSV,4,4,16,36,52,277,,40,84,353,,41,58,082,39,49,32,274,*76
$GLGSV,3,1,10,65,01,227,,70,05,012,14,71,30,333,15,72,31,273,11*64
$GLGSV,3,2,10,73,17,118,41,74,20,166,20,75,04,212,,84,43,131,31*65
$GLGSV,3,3,10,85,66,031,40,86,16,344,23*64
$GNGLL,0419.74853,S,05539.89929,E,131649.00,A,A*6A
$GNGRS,131649.00,1,-5.3,1.0,1.8,-0.2,156,0.6,-1.5,8.5,,,,*6A
$GNGRS,131649.00,1,-1.2,0.6,4.8,-4.2,8.9,-1.8,5.8,,,,,*51
$GNGST,131649.00,5151017,,,,3.0,5.2,4.6*71
$GNZDA,131649.00,19,05,2025,00,00*78
$GNGBS,131649.00,3.0,5.2,4.6,,,,*51
b0L (K1
")n;

6T';sB3 %%%{4Ta':R< sAFGMH~I(vQJKT +U(BVVXGb ($GNRMC,131650.00,A,0419.74855,S,05539.89926,E,0.243,,190525,,,A*7D
$GNVTG,,T,,M,0.243,N,0.451,K,A*38
$GNGNS,131650.00,0419.74855,S,05539.89926,E,AA,15,0.73,10.1,-47.6,,*6C
$GNGGA,131650.00,0419.74855,S,05539.89926,E,1,12,0.73,10.1,M,-47.6,M,,*41
$GNGSA,A,3,10,32,26,18,41,28,31,27,,,,,1.34,0.73,1.12*19
$GNGSA,A,3,86,73,74,84,71,85,72,,,,,,1.34,0.73,1.12*17
$GPGSV,4,1,16,02,02,331,,04,05,224,,08,21,305,,10,13,021,34*75
$GPGSV,4,2,16,16,24,220,,18,30,110,41,23,01,059,,26,28,189,19*7C
$GPGSV,4,3,16,27,54,279,15,28,59,115,39,31,51,170,29,32,37,006,37*70
$GPGSV,4,4,16,36,52,277,,40,84,353,,41,58,082,39,49,32,274,*76
$GLGSV,3,1,10,65,01,227,,70,05,012,12,71,30,333,14,72,31,273,11*63
$GLGSV,3,2,10,73,17,118,40,74,20,166,21,75,04,212,,84,43,131,32*66
$GLGSV,3,3,10,85,66,031,40,86,16,344,21*66
$GNGLL,0419.74855,S,05539.89926,E,131650.00,A,A*6B
$GNGRS,131650.00,1,-5.2,2.9,0.1,-0.6,156,0.7,-6.0,-29.9,,,,*74
$GNGRS,131650.00,1,-0.1,0.8,5.1,-6.0,9.2,-1.7,16.6,,,,,*64
$GNGST,131650.00,1060,,,,3.0,5.2,4.6*48
$GNZDA,131650.00,19,05,2025,00,00*70
$GNGBS,131650.00,3.0,5.2,4.6,,,,*59
b0L,K1
 -'n;M

6S#;sH31 #%{4Ta&:R< sAFgGMSHEI'vYJkKT+aU&BjVXb,$GNRMC,131651.00,A,0419.74860,S,05539.89910,E,0.508,,190525,,,A*77
$GNVTG,,T,,M,0.508,N,0.941,K,A*3C
$GNGNS,131651.00,0419.74860,S,05539.89910,E,AA,15,0.70,9.9,-47.6,,*5D
$GNGGA,131651.00,0419.74860,S,05539.89910,E,1,12,0.70,9.9,M,-47.6,M,,*70
$GNGSA,A,3,10,32,26,18,41,28,31,27,,,,,1.29,0.70,1.08*1D
$GNGSA,A,3,86,73,74,84,71,85,72,,,,,,1.29,0.70,1.08*13
$GPGSV,4,1,16,02,02,331,,04,06,224,,08,21,305,,10,13,021,32*70
$GPGSV,4,2,16,16,24,220,,18,30,110,39,23,01,059,,26,28,189,19*73
$GPGSV,4,3,16,27,54,279,10,28,59,115,35,31,51,170,28,32,37,006,35*7A
$GPGSV,4,4,16,36,52,277,,40,84,353,,41,58,082,38,49,32,274,*77
$GLGSV,3,1,10,65,01,227,,70,05,012,13,71,30,333,18,72,31,273,12*6D
$GLGSV,3,2,10,73,17,118,39,74,20,166,20,75,04,212,,84,43,131,31*6A
$GLGSV,3,3,10,85,66,031,38,86,16,344,20*68
$GNGLL,0419.74860,S,05539.89910,E,131651.00,A,A*69
$GNGRS,131651.00,1,-4.7,1.4,0.8,-0.4,156,0.7,-7.2,8.5,,,,*65
$GNGRS,131651.00,1,2.0,0.9,3.6,-4.2,8.5,-1.5,5.8,,,,,*73
$GNGST,131651.00,2975899,,,,3.0,5.2,4.6*7F
$GNZDA,131651.00,19,05,2025,00,00*71
$GNGBS,131651.00,3.0,5.2,4.6,,,,*58
b0L/K1
 =)n;L
6&;s23 #%{4Ta':R< sAF
WGMH
\I'v7JZKT+U'BkVXDKb/$GNRMC,131652.00,A,0419.74861,S,05539.89907,E,0.181,,190525,,,A*76
$GNVTG,,T,,M,0.181,N,0.335,K,A*30
$GNGNS,131652.00,0419.74861,S,05539.89907,E,AA,15,0.70,9.8,-47.6,,*58
$GNGGA,131652.00,0419.74861,S,05539.89907,E,1,12,0.70,9.8,M,-47.6,M,,*75
$GNGSA,A,3,10,32,26,18,41,28,31,27,,,,,1.29,0.70,1.08*1D
$GNGSA,A,3,86,73,74,84,71,85,72,,,,,,1.29,0.70,1.08*13
$GPGSV,4,1,16,02,02,331,,04,06,224,,08,21,305,,10,13,021,32*70
$GPGSV,4,2,16,16,24,220,,18,30,110,41,23,01,059,,26,28,189,18*7D
$GPGSV,4,3,16,27,54,279,14,28,59,115,38,31,51,170,28,32,37,006,35*73
$GPGSV,4,4,16,36,52,277,,40,84,353,,41,58,082,39,49,32,274,*76
$GLGSV,3,1,10,65,01,227,,70,05,012,10,71,30,333,19,72,31,273,10*6D
$GLGSV,3,2,10,73,17,118,39,74,20,166,20,75,04,212,,84,43,131,30*6B
$GLGSV,3,3,10,85,66,031,39,86,16,344,19*63
$GNGLL,0419.74861,S,05539.89907,E,131652.00,A,A*6D
$GNGRS,131652.00,1,-4.5,2.9,3.3,-0.2,156,0.5,-5.7,10.4,,,,*59
$GNGRS,131652.00,1,1.7,0.6,3.5,-1.2,7.7,-1.5,6.0,,,,,*7B
$GNGST,131652.00,161891,,,,3.0,5.2,4.6*4B
$GNZDA,131652.00,19,05,2025,00,00*72
$GNGBS,131652.00,3.0,5.2,4.6,,,,*5B
b0L3K1
!')n;_
6&;sL3( %%{4Ta):R< sAFGMbH$I(v'JKT+U'BnVXb3E$GNRMC,131653.00,A,0419.74863,S,05539.89905,E,0.268,,190525,,,A*73
$GNVTG,,T,,M,0.268,N,0.496,K,A*3A
$GNGNS,131653.00,0419.74863,S,05539.89905,E,AA,15,0.80,9.7,-47.6,,*59
$GNGGA,131653.00,0419.74863,S,05539.89905,E,1,12,0.80,9.7,M,-47.6,M,,*74
$GNGSA,A,3,10,32,26,18,41,28,31,27,,,,,1.36,0.80,1.10*15
$GNGSA,A,3,86,73,74,84,71,85,72,,,,,,1.36,0.80,1.10*1B
$GPGSV,4,1,16,02,02,331,,04,06,224,,08,21,305,,10,13,021,33*71
$GPGSV,4,2,16,16,24,220,,18,30,110,41,23,01,059,,26,28,189,18*7D
$GPGSV,4,3,16,27,54,279,16,28,59,115,38,31,51,170,29,32,37,006,37*72
$GPGSV,4,4,16,36,52,277,,40,84,353,,41,58,082,41,49,32,274,*79
$GLGSV,3,1,10,65,01,227,,70,05,012,11,71,30,333,20,72,31,273,12*64
$GLGSV,3,2,10,73,17,118,40,74,20,166,19,75,04,212,,84,43,131,31*6E
$GLGSV,3,3,10,85,66,031,39,86,16,344,18*62
$GNGLL,0419.74863,S,05539.89905,E,131653.00,A,A*6C
$GNGRS,131653.00,1,-4.7,1.7,3.5,-0.4,156,0.8,-9.8,5.3,,,,*6A
$GNGRS,131653.00,1,1.7,0.4,4.7,1.9,8.7,-1.5,93.8,,,,,*60
$GNGST,131653.00,1059,,,,2.9,5.2,4.6*49
$GNZDA,131653.00,19,05,2025,00,00*73
$GNGBS,131653.00,2.9,5.2,4.6,,,,*52
b0L7K1
}&n;
6#;sO3 !%{4Ta&:R sAFnGMH+I'vJSKT+U&BuVX4Db7x$GNRMC,131654.00,A,0419.74867,S,05539.89893,E,0.082,,190525,,,A*78
$GNVTG,,T,,M,0.082,N,0.152,K,A*31
$GNGNS,131654.00,0419.74867,S,05539.89893,E,AA,14,0.72,9.6,-47.6,,*59
$GNGGA,131654.00,0419.74867,S,05539.89893,E,1,12,0.72,9.6,M,-47.6,M,,*75
$GNGSA,A,3,10,32,26,18,28,31,27,,,,,,1.37,0.72,1.17*1B
$GNGSA,A,3,86,73,74,84,71,85,72,,,,,,1.37,0.72,1.17*10
$GPGSV,4,1,16,02,02,331,,04,06,224,,08,21,305,,10,13,021,29*7A
$GPGSV,4,2,16,16,24,220,,18,30,110,38,23,01,059,,26,28,189,17*7C
$GPGSV,4,3,16,27,54,279,15,28,59,115,35,31,51,170,28,32,37,006,33*79
$GPGSV,4,4,16,36,52,277,,40,84,353,,41,58,082,38,49,32,274,*77
$GLGSV,3,1,10,65,01,227,,70,05,012,11,71,30,333,19,72,31,273,11*6D
$GLGSV,3,2,10,73,17,118,39,74,20,166,19,75,04,212,,84,43,131,30*61
$GLGSV,3,3,10,85,66,031,38,86,16,344,18*63
$GNGLL,0419.74867,S,05539.89893,E,131654.00,A,A*61
$GNGRS,131654.00,1,-6.4,1.4,1.9,-0.4,0.8,-5.0,6.4,,,,,*53
$GNGRS,131654.00,1,5.0,0.3,3.4,-0.3,9.8,-1.4,5.5,,,,,*7C
$GNGST,131654.00,148620,,,,2.9,5.2,4.6*4A
$GNZDA,131654.00,19,05,2025,00,00*74
$GNGBS,131654.00,2.9,5.2,4.6,,,,*55
b0L;K0
 (n;O
6&;sC3B #%N{4Ta(:R sAFDGMjHI'v)J~KT+U&BVX"b;qP$GNRMC,131655.00,A,0419.74875,S,05539.89875,E,0.088,,190525,,,A*78
$GNVTG,,T,,M,0.088,N,0.164,K,A*3E
$GNGNS,131655.00,0419.74875,S,05539.89875,E,AA,14,0.72,9.4,-47.6,,*51
$GNGGA,131655.00,0419.74875,S,05539.89875,E,1,12,0.72,9.4,M,-47.6,M,,*7D
$GNGSA,A,3,10,32,26,18,28,31,27,,,,,,1.37,0.72,1.17*1B
$GNGSA,A,3,86,73,74,84,71,85,72,,,,,,1.37,0.72,1.17*10
$GPGSV,4,1,16,02,02,331,,04,06,224,,08,22,304,,10,13,021,32*72
$GPGSV,4,2,16,16,24,220,,18,30,110,40,23,01,059,,26,28,189,17*73
$GPGSV,4,3,16,27,54,279,15,28,59,115,38,31,51,170,29,32,37,006,35*73
$GPGSV,4,4,16,36,52,277,,40,84,353,,41,58,082,40,49,32,274,*78
$GLGSV,3,1,10,65,01,227,,70,05,012,08,71,30,333,19,72,31,273,14*60
$GLGSV,3,2,10,73,17,118,39,74,20,166,19,75,04,212,,84,43,131,30*61
$GLGSV,3,3,10,85,66,031,38,86,16,344,18*63
$GNGLL,0419.74875,S,05539.89875,E,131655.00,A,A*6B
$GNGRS,131655.00,1,-3.4,0.8,0.8,-0.4,0.7,-4.5,4.2,,,,,*55
$GNGRS,131655.00,1,7.1,0.4,3.8,4.3,8.7,-1.0,4.6,,,,,*54
$GNGST,131655.00,3071473,,,,2.9,5.3,4.6*76
$GNZDA,131655.00,19,05,2025,00,00*75
$GNGBS,131655.00,2.9,5.3,4.6,,,,*55
b0L?K0
!\)n;
6&;s=3 %%{4Ta):R sAFqGMqHTI'v#JKT+6U'BVXb?Y!(}$GNRMC,131656.00,A,0419.74875,S,05539.89876,E,0.048,,190525,,,A*74
$GNVTG,,T,,M,0.048,N,0.089,K,A*30
$GNGNS,131656.00,0419.74875,S,05539.89876,E,AA,14,0.72,9.4,-47.6,,*51
$GNGGA,131656.00,0419.74875,S,05539.89876,E,1,12,0.72,9.4,M,-47.6,M,,*7D
$GNGSA,A,3,10,32,26,18,28,31,27,,,,,,1.37,0.72,1.17*1B
$GNGSA,A,3,86,73,74,84,71,85,72,,,,,,1.37,0.72,1.17*10
$GPGSV,4,1,16,02,02,331,,04,06,224,,08,22,304,,10,13,021,33*73
$GPGSV,4,2,16,16,24,220,,18,30,110,41,23,01,059,19,26,28,189,18*75
$GPGSV,4,3,16,27,54,279,15,28,59,115,38,31,51,170,29,32,37,006,37*71
$GPGSV,4,4,16,36,52,277,,40,84,353,,41,58,082,41,49,32,274,*79
$GLGSV,3,1,10,65,01,227,,70,05,012,08,71,30,333,19,72,31,273,11*65
$GLGSV,3,2,10,73,17,118,39,74,20,166,19,75,04,212,,84,43,131,30*61
$GLGSV,3,3,10,85,66,031,39,86,16,344,17*6D
$GNGLL,0419.74875,S,05539.89876,E,131656.00,A,A*6B
$GNGRS,131656.00,1,-6.8,2.1,2.0,-0.3,0.6,-5.7,4.0,,,,,*59
$GNGRS,131656.00,1,7.5,0.3,4.6,-2.0,8.8,-0.7,0.8,,,,,*76
$GNGST,131656.00,54,,,,2.9,5.3,4.6*41
$GNZDA,131656.00,19,05,2025,00,00*76
$GNGBS,131656.00,2.9,5.3,4.6,,,,*56
b0LxCK0
)n;s
6&;s93o #%6{4Ta&:R sAFGMqH\I(v!JKT+TU'BVX:JbxCA%$GNRMC,131657.00,A,0419.74876,S,05539.89869,E,0.427,,190525,,,A*75
$GNVTG,,T,,M,0.427,N,0.791,K,A*33
$GNGNS,131657.00,0419.74876,S,05539.89869,E,AA,14,0.72,9.2,-47.6,,*5B
$GNGGA,131657.00,0419.74876,S,05539.89869,E,1,12,0.72,9.2,M,-47.6,M,,*77
$GNGSA,A,3,10,32,26,18,28,31,27,,,,,,1.37,0.72,1.17*1B
$GNGSA,A,3,86,73,74,84,71,85,72,,,,,,1.37,0.72,1.17*10
$GPGSV,4,1,16,02,02,331,,04,06,224,,08,22,304,,10,13,021,31*71
$GPGSV,4,2,16,16,24,220,,18,30,110,41,23,01,059,,26,28,189,18*7D
$GPGSV,4,3,16,27,54,279,14,28,59,115,38,31,51,170,28,32,37,006,35*73
$GPGSV,4,4,16,36,52,277,,40,84,353,,41,58,082,38,49,32,274,*77
$GLGSV,3,1,10,65,01,227,,70,05,012,11,71,30,333,19,72,31,273,12*6E
$GLGSV,3,2,10,73,17,118,40,74,20,166,19,75,04,212,,84,43,131,29*67
$GLGSV,3,3,10,85,66,031,39,86,16,344,16*6C
$GNGLL,0419.74876,S,05539.89869,E,131657.00,A,A*67
$GNGRS,131657.00,1,-3.7,3.1,3.7,-0.2,0.6,-4.0,4.3,,,,,*51
$GNGRS,131657.00,1,5.7,0.3,4.7,0.8,8.8,-0.8,6.0,,,,,*50
$GNGST,131657.00,34059,,,,2.9,5.3,4.6*7A
$GNZDA,131657.00,19,05,2025,00,00*77
$GNGBS,131657.00,2.9,5.3,4.6,,,,*57
b0L`GK0
 +n
;
6';s.3 "%{4Ta':R s\AFGM!HI*vJKT+U'BwVXb`G))M$GNRMC,131658.00,A,0419.74877,S,05539.89871,E,0.365,,190525,,,A*73
$GNVTG,,T,,M,0.365,N,0.676,K,A*3A
$GNGNS,131658.00,0419.74877,S,05539.89871,E,AA,14,0.72,9.2,-47.6,,*5C
$GNGGA,131658.00,0419.74877,S,05539.89871,E,1,12,0.72,9.2,M,-47.6,M,,*70
$GNGSA,A,3,10,32,26,18,28,31,27,,,,,,1.37,0.72,1.17*1B
$GNGSA,A,3,86,73,74,84,71,85,72,,,,,,1.37,0.72,1.17*10
$GPGSV,4,1,16,02,02,331,,04,06,224,,08,22,304,,10,13,021,32*72
$GPGSV,4,2,16,16,24,220,,18,30,110,43,23,01,059,,26,28,189,18*7F
$GPGSV,4,3,16,27,54,279,13,28,59,115,39,31,51,170,29,32,37,006,34*75
$GPGSV,4,4,16,36,52,277,,40,84,353,,41,58,082,39,49,32,274,*76
$GLGSV,3,1,10,65,01,227,,70,05,012,12,71,30,333,19,72,31,273,09*67
$GLGSV,3,2,10,73,17,118,42,74,20,166,21,75,04,212,,84,43,131,30*66
$GLGSV,3,3,10,85,66,031,39,86,16,344,17*6D
$GNGLL,0419.74877,S,05539.89871,E,131658.00,A,A*60
$GNGRS,131658.00,1,-5.7,1.3,2.8,0.1,0.5,-3.4,4.3,,,,,*78
$GNGRS,131658.00,1,4.2,0.2,4.7,-3.2,8.0,-1.4,6.5,,,,,*7E
$GNGST,131658.00,49540,,,,2.9,5.3,4.6*72
$GNZDA,131658.00,19,05,2025,00,00*78
$GNGBS,131658.00,2.9,5.3,4.6,,,,*58
b0LHKK0
`'n;!
6w#;sB3 %{4Ta#:R s+AF^GMH
I&v#JnKT+U#BzVXCgbHK-$GNRMC,131659.00,A,0419.74892,S,05539.89835,E,0.740,262.98,190525,,,A*63
$GNVTG,262.98,T,,M,0.740,N,1.370,K,A*22
$GNGNS,131659.00,0419.74892,S,05539.89835,E,AA,14,0.83,8.8,-47.6,,*53
$GNGGA,131659.00,0419.74892,S,05539.89835,E,1,12,0.83,8.8,M,-47.6,M,,*7F
$GNGSA,A,3,10,32,26,18,28,31,27,,,,,,1.46,0.83,1.19*1D
$GNGSA,A,3,86,73,74,84,71,85,72,,,,,,1.46,0.83,1.19*16
$GPGSV,4,1,16,02,02,331,,04,06,224,,08,22,304,,10,13,021,31*71
$GPGSV,4,2,16,16,24,220,,18,30,110,39,23,01,059,,26,28,189,17*7D
$GPGSV,4,3,16,27,54,279,13,28,59,115,35,31,51,170,28,32,37,006,30*7C
$GPGSV,4,4,16,36,52,277,,40,84,353,,41,58,082,35,49,32,274,*7A
$GLGSV,3,1,10,65,01,227,,70,05,012,12,71,30,333,19,72,31,273,10*6F
$GLGSV,3,2,10,73,17,118,38,74,20,166,20,75,04,212,,84,43,131,28*63
$GLGSV,3,3,10,85,66,031,35,86,16,344,16*60
$GNGLL,0419.74892,S,05539.89835,E,131659.00,A,A*6A
$GNGRS,131659.00,1,-4.2,0.3,2.9,0.1,0.7,-3.6,6.3,,,,,*7F
$GNGRS,131659.00,1,5.2,0.3,3.7,-3.5,7.9,-1.3,53.3,,,,,*48
$GNGST,131659.00,45,,,,2.9,5.3,4.6*4E
$GNZDA,131659.00,19,05,2025,00,00*79
$GNGBS,131659.00,2.9,5.3,4.6,,,,*59
b0L0OK0
 3(n;
6&;s73% #%{4Ta':R sAF
GMSHsI(v(J0KT+aU'BVX~b0O0$GNRMC,131700.00,A,0419.74895,S,05539.89829,E,0.361,,190525,,,A*7A
$GNVTG,,T,,M,0.361,N,0.669,K,A*30
$GNGNS,131700.00,0419.74895,S,05539.89829,E,AA,14,0.72,8.7,-47.6,,*55
$GNGGA,131700.00,0419.74895,S,05539.89829,E,1,12,0.72,8.7,M,-47.6,M,,*79
$GNGSA,A,3,10,32,26,18,28,31,27,,,,,,1.37,0.72,1.17*1B
$GNGSA,A,3,86,73,74,84,71,85,72,,,,,,1.37,0.72,1.17*10
$GPGSV,4,1,16,02,02,331,,04,06,224,,08,22,304,,10,13,021,32*72
$GPGSV,4,2,16,16,24,220,,18,30,110,40,23,01,059,,26,28,189,18*7C
$GPGSV,4,3,16,27,54,279,15,28,59,115,38,31,51,170,28,32,37,006,35*72
$GPGSV,4,4,16,36,52,277,,40,84,353,,41,58,082,39,49,32,274,*76
$GLGSV,3,1,10,65,01,227,,70,05,012,10,71,30,333,18,72,31,273,15*69
$GLGSV,3,2,10,73,17,118,40,74,20,166,21,75,04,212,,84,43,131,30*64
$GLGSV,3,3,10,85,66,031,39,86,16,344,15*6F
$GNGLL,0419.74895,S,05539.89829,E,131700.00,A,A*6D
$GNGRS,131700.00,1,-4.6,1.4,5.4,-0.1,0.6,-4.7,6.7,,,,,*54
$GNGRS,131700.00,1,6.4,0.4,3.0,-1.6,6.0,-1.1,6.3,,,,,*7B
$GNGST,131700.00,3071473,,,,2.9,5.3,4.6*77
$GNZDA,131700.00,19,05,2025,00,00*74
$GNGBS,131700.00,2.9,5.3,4.6,,,,*54
b0LSK0
>$n;=X
6!;s3 %){4Ta":R sAFiGM/HXI$v6JjKT+U BVX$8bbS4_$GNRMC,131701.00,A,0419.74906,S,05539.89802,E,0.572,,190525,,,A*7D
$GNVTG,,T,,M,0.572,N,1.060,K,A*3A
$GNGNS,131701.00,0419.74906,S,05539.89802,E,AA,14,0.72,8.3,-47.6,,*52
$GNGGA,131701.00,0419.74906,S,05539.89802,E,1,12,0.72,8.3,M,-47.6,M,,*7E
$GNGSA,A,3,10,32,26,18,28,31,27,,,,,,1.37,0.72,1.17*1B
$GNGSA,A,3,86,73,74,84,71,85,72,,,,,,1.37,0.72,1.17*10
$GPGSV,4,1,16,02,02,331,,04,06,224,,08,22,304,,10,13,021,30*70
$GPGSV,4,2,16,16,24,220,,18,30,110,36,23,01,059,16,26,28,189,17*75
$GPGSV,4,3,16,27,54,279,15,28,59,115,33,31,51,170,26,32,37,006,30*72
$GPGSV,4,4,16,36,52,277,,40,84,353,,41,58,082,34,49,32,274,*7B
$GLGSV,3,1,10,65,01,227,,70,05,012,13,71,30,333,18,72,31,273,11*6E
$GLGSV,3,2,10,73,17,118,36,74,20,166,18,75,04,212,,84,43,131,28*66
$GLGSV,3,3,10,85,66,031,32,86,16,344,15*64
$GNGLL,0419.74906,S,05539.89802,E,131701.00,A,A*6E
$GNGRS,131701.00,1,-7.1,3.0,6.0,-0.3,0.2,-3.0,6.8,,,,,*59
$GNGRS,131701.00,1,5.5,0.5,3.6,-5.5,8.2,-0.9,6.0,,,,,*7E
$GNGST,131701.00,3071473,,,,3.0,5.4,4.7*78
$GNZDA,131701.00,19,05,2025,00,00*75
$GNGBS,131701.00,3.0,5.4,4.7,,,,*5B
b0LWK0
&n;
6,";s3 %{4Ta!:R sAFGM"HI&v7JKT+UBVXbW87$GNRMC,131702.00,A,0419.74910,S,05539.89795,E,0.320,,190525,,,A*79
$GNVTG,,T,,M,0.320,N,0.593,K,A*33
$GNGNS,131702.00,0419.74910,S,05539.89795,E,AA,14,0.72,8.2,-47.6,,*56
$GNGGA,131702.00,0419.74910,S,05539.89795,E,1,12,0.72,8.2,M,-47.6,M,,*7A
$GNGSA,A,3,10,32,26,18,28,31,27,,,,,,1.37,0.72,1.17*1B
$GNGSA,A,3,86,73,74,84,71,85,72,,,,,,1.37,0.72,1.17*10
$GPGSV,4,1,16,02,02,331,,04,06,224,,08,22,304,,10,13,021,30*70
$GPGSV,4,2,16,16,24,220,,18,30,110,38,23,01,059,15,26,28,189,16*79
$GPGSV,4,3,16,27,54,279,14,28,59,115,34,31,51,170,25,32,37,006,31*76
$GPGSV,4,4,16,36,52,277,,40,84,353,,41,58,082,33,49,32,274,*7C
$GLGSV,3,1,10,65,01,227,,70,05,012,09,71,30,333,17,72,31,273,09*63
$GLGSV,3,2,10,73,17,118,38,74,20,166,18,75,04,212,,84,43,131,27*67
$GLGSV,3,3,10,85,66,031,31,86,16,344,15*67
$GNGLL,0419.74910,S,05539.89795,E,131702.00,A,A*6B
$GNGRS,131702.00,1,-5.4,1.8,4.2,-0.4,0.2,-0.3,3.0,,,,,*5D
$GNGRS,131702.00,1,7.2,0.6,4.8,-3.1,5.5,-0.8,7.0,,,,,*7A
$GNGST,131702.00,56,,,,3.0,5.5,4.7*4C
$GNZDA,131702.00,19,05,2025,00,00*76
$GNGBS,131702.00,3.0,5.5,4.7,,,,*59
b0LZK0
!'n;5
6%;s(3 !%I{4Ta%:R stAFGMDH
gI&v0JKT+yU%BVXi=bZ<C$GNRMC,131703.00,A,0419.74913,S,05539.89796,E,0.216,,190525,,,A*7C
$GNVTG,,T,,M,0.216,N,0.400,K,A*3C
$GNGNS,131703.00,0419.74913,S,05539.89796,E,AA,14,0.72,8.3,-47.6,,*56
$GNGGA,131703.00,0419.74913,S,05539.89796,E,1,12,0.72,8.3,M,-47.6,M,,*7A
$GNGSA,A,3,10,32,26,18,28,31,27,,,,,,1.37,0.72,1.17*1B
$GNGSA,A,3,86,73,74,84,71,85,72,,,,,,1.37,0.72,1.17*10
$GPGSV,4,1,16,02,02,331,,04,06,224,,08,22,304,,10,13,021,33*73
$GPGSV,4,2,16,16,24,219,,18,30,110,39,23,01,059,,26,28,189,16*76
$GPGSV,4,3,16,27,54,279,16,28,59,115,37,31,51,170,26,32,37,006,33*76
$GPGSV,4,4,16,36,52,277,,40,84,353,,41,58,082,37,49,32,274,*78
$GLGSV,3,1,10,65,01,227,,70,05,012,11,71,30,333,17,72,31,273,10*62
$GLGSV,3,2,10,73,17,118,38,74,20,166,18,75,04,212,,84,43,131,27*67
$GLGSV,3,3,10,85,66,031,37,86,16,344,14*60
$GNGLL,0419.74913,S,05539.89796,E,131703.00,A,A*6A
$GNGRS,131703.00,1,-11.2,0.7,3.1,-0.4,0.4,-5.1,1.7,,,,,*61
$GNGRS,131703.00,1,8.7,0.5,5.1,-6.5,5.8,-0.4,6.2,,,,,*79
$GNGST,131703.00,6193,,,,3.0,5.5,4.8*4C
$GNZDA,131703.00,19,05,2025,00,00*77
$GNGBS,131703.00,3.0,5.5,4.8,,,,*57
b0L^K0
e)n;
61&;s.3 !%<{4Ta%:R sAF
GMH8I*v)JKT+U(BVX>b^@$GNRMC,131704.00,A,0419.74919,S,05539.89781,E,0.076,,190525,,,A*73
$GNVTG,,T,,M,0.076,N,0.141,K,A*38
$GNGNS,131704.00,0419.74919,S,05539.89781,E,AA,14,0.72,8.1,-47.6,,*5F
$GNGGA,131704.00,0419.74919,S,05539.89781,E,1,12,0.72,8.1,M,-47.6,M,,*73
$GNGSA,A,3,10,32,26,18,28,31,27,,,,,,1.38,0.72,1.17*14
$GNGSA,A,3,86,73,74,84,71,85,72,,,,,,1.38,0.72,1.17*1F
$GPGSV,4,1,16,02,02,331,,04,06,224,,08,22,304,,10,13,021,30*70
$GPGSV,4,2,16,16,24,219,,18,30,110,41,23,01,059,16,26,28,189,16*7E
$GPGSV,4,3,16,27,54,279,17,28,59,115,38,31,51,170,26,32,37,006,33*78
$GPGSV,4,4,16,36,52,277,,40,84,353,,41,58,082,37,49,32,274,*78
$GLGSV,3,1,10,65,01,227,,70,05,012,10,71,30,333,18,72,31,273,14*68
$GLGSV,3,2,10,73,17,118,42,74,20,166,19,75,04,212,,84,43,131,29*65
$GLGSV,3,3,10,85,66,031,40,86,16,344,14*60
$GNGLL,0419.74919,S,05539.89781,E,131704.00,A,A*61
$GNGRS,131704.00,1,-6.7,0.6,1.5,-0.6,0.5,-6.3,3.0,,,,,*55
$GNGRS,131704.00,1,9.6,0.4,4.0,0.2,6.5,-0.6,5.7,,,,,*59
$GNGST,131704.00,9289,,,,3.0,5.5,4.8*4C
$GNZDA,131704.00,19,05,2025,00,00*70
$GNGBS,131704.00,3.0,5.5,4.8,,,,*50
b0LbK0
(o;S
6';s73a &%}{4Ta&:R sAFGMHaI(v3JKT+U&BVX\YbbD$GNRMC,131705.00,A,0419.74917,S,05539.89776,E,0.012,,190525,,,A*76
$GNVTG,,T,,M,0.012,N,0.022,K,A*3E
$GNGNS,131705.00,0419.74917,S,05539.89776,E,AA,14,0.83,7.9,-47.6,,*51
$GNGGA,131705.00,0419.74917,S,05539.89776,E,1,12,0.83,7.9,M,-47.6,M,,*7D
$GNGSA,A,3,10,32,26,18,28,31,27,,,,,,1.46,0.83,1.19*1D
$GNGSA,A,3,86,73,74,84,71,85,72,,,,,,1.46,0.83,1.19*16
$GPGSV,4,1,16,02,02,331,,04,06,224,,08,22,304,,10,13,021,30*70
$GPGSV,4,2,16,16,24,219,,18,30,111,40,23,01,059,14,26,28,189,18*72
$GPGSV,4,3,16,27,54,279,18,28,59,115,39,31,51,170,27,32,37,006,38*7C
$GPGSV,4,4,16,36,52,277,,40,84,353,,41,58,082,38,49,32,274,*77
$GLGSV,3,1,10,65,01,227,,70,05,012,11,71,30,333,17,72,31,273,08*6B
$GLGSV,3,2,10,73,17,118,40,74,20,166,20,75,04,212,,84,43,131,30*65
$GLGSV,3,3,10,85,66,031,38,86,16,344,14*6F
$GNGLL,0419.74917,S,05539.89776,E,131705.00,A,A*66
$GNGRS,131705.00,1,-8.2,3.8,1.7,-0.7,0.6,-9.3,2.6,,,,,*5A
$GNGRS,131705.00,1,11.2,0.5,4.1,0.3,4.8,-0.5,-24.6,,,,,*77
$GNGST,131705.00,45,,,,3.0,5.5,4.7*49
$GNZDA,131705.00,19,05,2025,00,00*71
$GNGBS,131705.00,3.0,5.5,4.7,,,,*5E
b0LfK0
",o;
6';s+3T $%8{4Ta+:R  sAFGMdH=I)v/JyKT+U$BVX*TpbfiH{$GNRMC,131706.00,A,0419.74924,S,05539.89766,E,0.371,,190525,,,A*72
$GNVTG,,T,,M,0.371,N,0.687,K,A*31
$GNGNS,131706.00,0419.74924,S,05539.89766,E,AA,14,0.72,7.8,-47.6,,*5C
$GNGGA,131706.00,0419.74924,S,05539.89766,E,1,12,0.72,7.8,M,-47.6,M,,*70
$GNGSA,A,3,10,32,26,18,28,31,27,,,,,,1.38,0.72,1.17*14
$GNGSA,A,3,86,73,74,84,71,85,72,,,,,,1.38,0.72,1.17*1F
$GPGSV,4,1,16,02,02,331,,04,06,224,,08,22,304,,10,13,021,34*74
$GPGSV,4,2,16,16,24,219,,18,30,111,44,23,01,059,,26,28,189,21*79
$GPGSV,4,3,16,27,54,279,21,28,59,115,39,31,51,170,29,32,37,006,36*76
$GPGSV,4,4,16,36,52,277,,40,84,353,,41,58,082,43,49,32,274,*7B
$GLGSV,3,1,10,65,01,227,,70,05,012,16,71,30,333,16,72,31,273,15*61
$GLGSV,3,2,10,73,17,118,41,74,20,166,20,75,04,212,,84,43,131,30*64
$GLGSV,3,3,10,85,66,031,36,86,16,344,18*6D
$GNGLL,0419.74924,S,05539.89766,E,131706.00,A,A*64
$GNGRS,131706.00,1,-3.8,0.6,-0.2,-0.7,0.4,-1.7,1.4,,,,,*73
$GNGRS,131706.00,1,10.7,0.5,3.8,7.9,3.6,-0.3,5.7,,,,,*63
$GNGST,131706.00,3071473,,,,3.0,5.5,4.7*7E
$GNZDA,131706.00,19,05,2025,00,00*72
$GNGBS,131706.00,3.0,5.5,4.7,,,,*5D
b0LjK0
&o;
6:!;s(3 %`{4Ta&:R sAFGMHI%v.JKT+U!BVX{bjQLn$GNRMC,131707.00,A,0419.74931,S,05539.89747,E,0.226,,190525,,,A*77
$GNVTG,,T,,M,0.226,N,0.419,K,A*37
$GNGNS,131707.00,0419.74931,S,05539.89747,E,AA,14,0.72,7.5,-47.6,,*57
$GNGGA,131707.00,0419.74931,S,05539.89747,E,1,12,0.72,7.5,M,-47.6,M,,*7B
$GNGSA,A,3,10,32,26,18,28,31,27,,,,,,1.38,0.72,1.17*14
$GNGSA,A,3,86,73,74,84,71,85,72,,,,,,1.38,0.72,1.17*1F
$GPGSV,4,1,16,02,02,331,,04,06,224,,08,22,304,,10,13,021,28*79
$GPGSV,4,2,16,16,24,219,,18,30,111,38,23,01,059,,26,28,189,21*72
$GPGSV,4,3,16,27,54,279,20,28,59,115,33,31,51,170,27,32,37,006,27*73
$GPGSV,4,4,16,36,52,277,,40,84,353,,41,58,082,38,49,32,274,*77
$GLGSV,3,1,10,65,01,227,,70,05,012,14,71,30,333,15,72,31,273,11*64
$GLGSV,3,2,10,73,17,118,37,74,20,166,19,75,04,212,,84,43,131,28*66
$GLGSV,3,3,10,85,66,031,33,86,16,344,19*69
$GNGLL,0419.74931,S,05539.89747,E,131707.00,A,A*62
$GNGRS,131707.00,1,-3.2,6.1,-3.1,-0.6,0.4,-2.7,0.6,,,,,*78
$GNGRS,131707.00,1,11.6,0.5,4.0,12.8,1.7,0.0,5.2,,,,,*70
$GNGST,131707.00,3071473,,,,3.0,5.5,4.8*70
$GNZDA,131707.00,19,05,2025,00,00*73
$GNGBS,131707.00,3.0,5.5,4.8,,,,*53
b0LpnK0
 *o;R
6&;s3y !%{4Ta*:R suAFRGMSH|I)v6JKT+U$BVX}Fbpn9PFK$GNRMC,131708.00,A,0419.74932,S,05539.89744,E,0.368,,190525,,,A*73
$GNVTG,,T,,M,0.368,N,0.681,K,A*3F
$GNGNS,131708.00,0419.74932,S,05539.89744,E,AA,14,0.83,7.5,-47.6,,*56
$GNGGA,131708.00,0419.74932,S,05539.89744,E,1,12,0.83,7.5,M,-47.6,M,,*7A
$GNGSA,A,3,10,32,26,18,28,31,27,,,,,,1.46,0.83,1.20*17
$GNGSA,A,3,86,73,74,84,71,85,72,,,,,,1.46,0.83,1.20*1C
$GPGSV,4,1,16,02,02,331,,04,06,224,,08,22,304,,10,13,021,32*72
$GPGSV,4,2,16,16,24,219,,18,30,111,42,23,01,059,,26,28,189,20*7E
$GPGSV,4,3,16,27,54,279,20,28,59,115,38,31,51,170,27,32,37,006,33*7D
$GPGSV,4,4,16,36,52,277,,40,84,353,,41,58,082,42,49,32,274,*7A
$GLGSV,3,1,10,65,01,227,,70,05,012,15,71,30,333,15,72,31,273,14*60
$GLGSV,3,2,10,73,17,118,41,74,20,166,19,75,04,212,,84,43,131,28*67
$GLGSV,3,3,10,85,66,031,36,86,16,344,19*6C
$GNGLL,0419.74932,S,05539.89744,E,131708.00,A,A*6D
$GNGRS,131708.00,1,-6.1,1.3,-6.9,-0.5,0.1,-1.4,-0.8,,,,,*5C
$GNGRS,131708.00,1,10.5,0.5,2.6,4.3,3.4,0.3,-62.8,,,,,*55
$GNGST,131708.00,46,,,,3.0,5.5,4.8*48
$GNZDA,131708.00,19,05,2025,00,00*7C
$GNGBS,131708.00,3.0,5.5,4.8,,,,*5C
b0LXrK0
!,o;
63';s3 "%{4Ta+:R  sAFGM-H
ZI*v0JKT+U$B*VXsSbXr!T$GNRMC,131709.00,A,0419.74936,S,05539.89736,E,0.421,,190525,,,A*79
$GNVTG,,T,,M,0.421,N,0.780,K,A*35
$GNGNS,131709.00,0419.74936,S,05539.89736,E,AA,14,0.72,7.5,-47.6,,*58
$GNGGA,131709.00,0419.74936,S,05539.89736,E,1,12,0.72,7.5,M,-47.6,M,,*74
$GNGSA,A,3,10,32,26,18,28,31,27,,,,,,1.38,0.72,1.17*14
$GNGSA,A,3,86,73,74,84,71,85,72,,,,,,1.38,0.72,1.17*1F
$GPGSV,4,1,16,02,02,331,,04,06,224,,08,22,304,,10,13,021,33*73
$GPGSV,4,2,16,16,24,219,,18,30,111,44,23,01,059,,26,28,189,21*79
$GPGSV,4,3,16,27,54,279,21,28,59,115,39,31,51,170,28,32,37,006,34*75
$GPGSV,4,4,16,36,52,277,,40,84,353,,41,58,082,43,49,32,274,*7B
$GLGSV,3,1,10,65,01,227,,70,05,012,20,71,30,333,15,72,31,273,10*62
$GLGSV,3,2,10,73,17,118,42,74,20,166,19,75,04,212,,84,43,131,29*65
$GLGSV,3,3,10,85,66,031,36,86,16,344,20*66
$GNGLL,0419.74936,S,05539.89736,E,131709.00,A,A*6D
$GNGRS,131709.00,1,-10.3,5.0,-8.6,-0.6,0.1,-3.7,-2.0,,,,,*66
$GNGRS,131709.00,1,11.4,0.5,1.8,5.4,3.0,0.4,6.0,,,,,*4B
$GNGST,131709.00,3071473,,,,3.0,5.5,4.7*71
$GNZDA,131709.00,19,05,2025,00,00*7D
$GNGBS,131709.00,3.0,5.5,4.7,,,,*52
b0L@vK0
/(o;I
6\';s3 %%{4Ta*:R  sAF!GMGHtI'vCJKT+U&B6VX~*b@vX$GNRMC,131710.00,A,0419.74933,S,05539.89738,E,0.300,,190525,,,A*7E
$GNVTG,,T,,M,0.300,N,0.556,K,A*38
$GNGNS,131710.00,0419.74933,S,05539.89738,E,AA,14,0.72,7.5,-47.6,,*5B
$GNGGA,131710.00,0419.74933,S,05539.89738,E,1,12,0.72,7.5,M,-47.6,M,,*77
$GNGSA,A,3,10,32,26,18,28,31,27,,,,,,1.38,0.72,1.17*14
$GNGSA,A,3,86,73,74,84,71,85,72,,,,,,1.38,0.72,1.17*1F
$GPGSV,4,1,16,02,02,331,,04,06,224,,08,22,304,,10,13,021,29*78
$GPGSV,4,2,16,16,24,219,,18,30,111,40,23,01,059,,26,28,189,21*7D
$GPGSV,4,3,16,27,54,279,21,28,59,115,39,31,51,170,28,32,37,006,37*76
$GPGSV,4,4,16,36,52,277,,40,84,353,,41,58,082,42,49,32,274,*7A
$GLGSV,3,1,10,65,01,227,,70,05,012,17,71,30,333,15,72,31,273,13*65
$GLGSV,3,2,10,73,17,118,39,74,20,166,20,75,04,212,,84,43,131,30*6B
$GLGSV,3,3,10,85,66,031,38,86,16,344,21*69
$GNGLL,0419.74933,S,05539.89738,E,131710.00,A,A*6E
$GNGRS,131710.00,1,-4.6,1.8,-9.5,-0.1,0.2,-6.2,-1.6,,,,,*51
$GNGRS,131710.00,1,9.0,0.7,1.6,1.4,0.7,0.5,6.3,,,,,*70
$GNGST,131710.00,3071473,,,,3.0,5.4,4.7*78
$GNZDA,131710.00,19,05,2025,00,00*75
$GNGBS,131710.00,3.0,5.4,4.7,,,,*5B
b0L(zK0
}'o;
6(;s3f $%<{4Ta*:R sAFGMHI'v0JoKT+/U'BOVXXob(z[$GNRMC,131711.00,A,0419.74928,S,05539.89746,E,0.051,,190525,,,A*7B
$GNVTG,,T,,M,0.051,N,0.094,K,A*34
$GNGNS,131711.00,0419.74928,S,05539.89746,E,AA,14,0.72,7.6,-47.6,,*5A
$GNGGA,131711.00,0419.74928,S,05539.89746,E,1,12,0.72,7.6,M,-47.6,M,,*76
$GNGSA,A,3,10,32,26,18,28,31,27,,,,,,1.38,0.72,1.17*14
$GNGSA,A,3,86,73,74,84,71,85,72,,,,,,1.38,0.72,1.17*1F
$GPGSV,4,1,16,02,02,331,,04,06,224,,08,22,304,,10,13,021,27*76
$GPGSV,4,2,16,16,24,219,,18,30,111,39,23,01,059,,26,28,189,21*73
$GPGSV,4,3,16,27,54,279,21,28,59,115,40,31,51,170,28,32,37,006,36*79
$GPGSV,4,4,16,36,52,277,,40,84,353,,41,58,082,42,49,32,274,*7A
$GLGSV,3,1,10,65,01,227,,70,05,012,16,71,30,333,13,72,31,273,16*67
$GLGSV,3,2,10,73,17,118,39,74,20,166,20,75,04,212,,84,43,131,31*6A
$GLGSV,3,3,10,85,66,031,39,86,16,344,23*6A
$GNGLL,0419.74928,S,05539.89746,E,131711.00,A,A*6C
$GNGRS,131711.00,1,-3.9,0.6,-10.7,-0.1,0.2,-1.5,-0.4,,,,,*6E
$GNGRS,131711.00,1,8.6,0.5,1.1,3.0,-6.3,0.8,-5.0,,,,,*7A
$GNGST,131711.00,48,,,,2.9,5.4,4.7*48
$GNZDA,131711.00,19,05,2025,00,00*74
$GNGBS,131711.00,2.9,5.4,4.7,,,,*52
b0L~K0
'o;
6(;s3$ %%{4Ta*:R sAFHGMHUI'v)JKT +U'BdVXb~_$GNRMC,131712.00,A,0419.74924,S,05539.89751,E,0.203,,190525,,,A*77
$GNVTG,,T,,M,0.203,N,0.375,K,A*3D
$GNGNS,131712.00,0419.74924,S,05539.89751,E,AA,14,0.72,7.7,-47.6,,*52
$GNGGA,131712.00,0419.74924,S,05539.89751,E,1,12,0.72,7.7,M,-47.6,M,,*7E
$GNGSA,A,3,10,32,26,18,28,31,27,,,,,,1.38,0.72,1.17*14
$GNGSA,A,3,86,73,74,84,71,85,72,,,,,,1.38,0.72,1.17*1F
$GPGSV,4,1,16,02,02,331,,04,06,224,,08,22,304,,10,13,021,26*77
$GPGSV,4,2,16,16,24,219,,18,30,111,39,23,01,059,,26,28,189,21*73
$GPGSV,4,3,16,27,54,279,22,28,59,115,40,31,51,170,29,32,37,006,37*7A
$GPGSV,4,4,16,36,52,277,,40,84,353,,41,58,082,42,49,32,274,*7A
$GLGSV,3,1,10,65,01,227,,70,05,012,15,71,30,333,12,72,31,273,12*61
$GLGSV,3,2,10,73,17,118,39,74,20,166,20,75,04,212,,84,43,131,32*69
$GLGSV,3,3,10,85,66,031,39,86,16,344,23*6A
$GNGLL,0419.74924,S,05539.89751,E,131712.00,A,A*65
$GNGRS,131712.00,1,-5.3,1.6,-13.2,-0.2,0.1,-2.2,-0.2,,,,,*64
$GNGRS,131712.00,1,7.7,0.4,1.3,-2.8,-7.8,1.0,6.0,,,,,*7D
$GNGST,131712.00,123850,,,,2.9,5.3,4.6*4C
$GNZDA,131712.00,19,05,2025,00,00*77
$GNGBS,131712.00,2.9,5.3,4.6,,,,*57
b0LK0
)o;
7?(;s37 $%&{4Ta*:R sAFGMH@I'vJKKT +`U'BgVX{bc|A$GNRMC,131713.00,A,0419.74922,S,05539.89752,E,0.091,,190525,,,A*7A
$GNVTG,,T,,M,0.091,N,0.169,K,A*3B
$GNGNS,131713.00,0419.74922,S,05539.89752,E,AA,14,0.72,7.7,-47.6,,*56
$GNGGA,131713.00,0419.74922,S,05539.89752,E,1,12,0.72,7.7,M,-47.6,M,,*7A
$GNGSA,A,3,10,32,26,18,28,31,27,,,,,,1.38,0.72,1.17*14
$GNGSA,A,3,86,73,74,84,71,85,72,,,,,,1.38,0.72,1.17*1F
$GPGSV,4,1,16,02,02,331,,04,06,224,,08,22,304,,10,13,021,26*77
$GPGSV,4,2,16,16,24,219,,18,30,111,41,23,01,059,,26,28,189,21*7C
$GPGSV,4,3,16,27,55,278,21,28,59,115,40,31,51,170,29,32,37,006,36*78
$GPGSV,4,4,16,36,52,277,,40,84,353,,41,58,082,42,49,32,274,*7A
$GLGSV,3,1,10,65,01,227,,70,05,012,12,71,30,333,12,72,31,273,13*67
$GLGSV,3,2,10,73,17,118,39,74,20,166,20,75,04,212,,84,43,131,32*69
$GLGSV,3,3,10,85,66,031,39,86,16,344,22*6B
$GNGLL,0419.74922,S,05539.89752,E,131713.00,A,A*61
$GNGRS,131713.00,1,-10.3,2.9,-13.8,-0.2,0.0,-2.0,0.6,,,,,*7D
$GNGRS,131713.00,1,8.9,0.3,0.7,1.0,-7.9,1.0,5.8,,,,,*53
$GNGST,131713.00,185775,,,,2.9,5.3,4.6*49
$GNZDA,131713.00,19,05,2025,00,00*76
$GNGBS,131713.00,2.9,5.3,4.6,,,,*56
b0LK0
(o;
7(;q3{ $%{4Ta*:R sAFGMHI'v+JxKT +EU'BFVX@@bgT$GNRMC,131714.00,A,0419.74918,S,05539.89754,E,0.039,,190525,,,A*70
$GNVTG,,T,,M,0.039,N,0.071,K,A*31
$GNGNS,131714.00,0419.74918,S,05539.89754,E,AA,14,0.83,7.7,-47.6,,*50
$GNGGA,131714.00,0419.74918,S,05539.89754,E,1,12,0.83,7.7,M,-47.6,M,,*7C
$GNGSA,A,3,10,32,26,18,28,31,27,,,,,,1.46,0.83,1.20*17
$GNGSA,A,3,86,73,74,84,71,85,72,,,,,,1.46,0.83,1.20*1C
$GPGSV,4,1,16,02,02,331,,04,06,224,,08,22,304,,10,13,021,27*76
$GPGSV,4,2,16,16,24,219,,18,30,111,40,23,01,059,,26,28,189,20*7C
$GPGSV,4,3,16,27,55,278,21,28,59,113,40,31,51,170,29,32,37,006,36*7E
$GPGSV,4,4,16,36,52,277,,40,84,353,,41,58,082,42,49,32,274,*7A
$GLGSV,3,1,10,65,01,227,,70,05,012,,71,30,333,12,72,31,273,12*65
$GLGSV,3,2,10,73,17,118,39,74,20,166,20,75,04,212,,84,43,131,32*69
$GLGSV,3,3,10,85,66,031,39,86,16,344,22*6B
$GNGLL,0419.74918,S,05539.89754,E,131714.00,A,A*69
$GNGRS,131714.00,1,-2.6,1.8,-13.8,-0.2,0.1,-1.3,-0.9,,,,,*6D
$GNGRS,131714.00,1,8.3,0.4,1.2,-1.9,-8.5,0.7,-31.1,,,,,*6F
$GNGST,131714.00,40,,,,2.9,5.3,4.6*43
$GNZDA,131714.00,19,05,2025,00,00*71
$GNGBS,131714.00,2.9,5.3,4.6,,,,*51
b0LK0
(o;
7);q3r '%y{4Ta+:R sAFGMHII'v.JVKT +0U'BAVXH($bk,$GNRMC,131715.00,A,0419.74911,S,05539.89759,E,0.260,,190525,,,A*7B
$GNVTG,,T,,M,0.260,N,0.481,K,A*34
$GNGNS,131715.00,0419.74911,S,05539.89759,E,AA,14,0.72,7.7,-47.6,,*5B
$GNGGA,131715.00,0419.74911,S,05539.89759,E,1,12,0.72,7.7,M,-47.6,M,,*77
$GNGSA,A,3,10,32,26,18,28,31,27,,,,,,1.38,0.72,1.17*14
$GNGSA,A,3,86,73,74,84,71,85,72,,,,,,1.38,0.72,1.17*1F
$GPGSV,4,1,16,02,02,331,,04,06,224,,08,22,304,,10,13,021,26*77
$GPGSV,4,2,16,16,24,219,,18,30,111,40,23,01,059,,26,28,189,21*7D
$GPGSV,4,3,16,27,55,278,22,28,59,113,41,31,51,170,30,32,37,006,39*7B
$GPGSV,4,4,16,36,52,277,,40,84,353,,41,58,082,43,49,32,274,*7B
$GLGSV,3,1,10,65,01,227,,70,05,012,,71,30,333,11,72,31,273,15*61
$GLGSV,3,2,10,73,17,118,39,74,20,166,20,75,04,212,,84,43,131,32*69
$GLGSV,3,3,10,85,66,031,39,86,16,344,22*6B
$GNGLL,0419.74911,S,05539.89759,E,131715.00,A,A*6C
$GNGRS,131715.00,1,-6.2,1.2,-16.4,-0.3,-0.1,-1.4,-2.9,,,,,*46
$GNGRS,131715.00,1,8.4,0.5,0.9,-2.1,-7.5,0.6,5.9,,,,,*75
$GNGST,131715.00,3071473,,,,2.9,5.2,4.6*72
$GNZDA,131715.00,19,05,2025,00,00*70
$GNGBS,131715.00,2.9,5.2,4.6,,,,*51
b0LK0
)o;s
7*;q3 %%g{4Ta,:R sAFG
MH4I'vIJTKT+U(B/VXbyoy$GNRMC,131716.00,A,0419.74906,S,05539.89766,E,0.174,,190525,,,A*74
$GNVTG,,T,,M,0.174,N,0.322,K,A*3C
$GNGNS,131716.00,0419.74906,S,05539.89766,E,AA,14,0.72,7.8,-47.6,,*5D
$GNGGA,131716.00,0419.74906,S,05539.89766,E,1,12,0.72,7.8,M,-47.6,M,,*71
$GNGSA,A,3,10,32,26,18,28,31,27,,,,,,1.38,0.72,1.17*14
$GNGSA,A,3,86,73,74,84,71,85,72,,,,,,1.38,0.72,1.17*1F
$GPGSV,4,1,16,02,02,331,,04,06,224,,08,22,304,,10,13,021,26*77
$GPGSV,4,2,16,16,24,219,,18,30,111,41,23,01,059,,26,28,189,22*7F
$GPGSV,4,3,16,27,55,278,23,28,59,113,42,31,51,170,30,32,37,006,37*77
$GPGSV,4,4,16,36,52,277,,40,84,353,,41,58,082,44,49,32,274,*7C
$GLGSV,3,1,10,65,01,227,,70,05,012,,71,30,333,10,72,31,273,09*6D
$GLGSV,3,2,10,73,17,118,39,74,20,166,19,75,04,212,,84,43,131,31*60
$GLGSV,3,3,10,85,66,031,40,86,16,344,22*65
$GNGLL,0419.74906,S,05539.89766,E,131716.00,A,A*65
$GNGRS,131716.00,1,-6.3,1.0,-14.2,-0.3,0.0,-2.3,-1.1,,,,,*61
$GNGRS,131716.00,1,6.4,0.7,0.8,-3.8,-10.5,0.5,5.6,,,,,*49
$GNGST,131716.00,3071473,,,,2.8,5.2,4.5*73
$GNZDA,131716.00,19,05,2025,00,00*73
$GNGBS,131716.00,2.8,5.2,4.5,,,,*50
b0LK0
)o;
7);q3 &%e{4Ta+:R sAFGMHI(vUJKT +>U(B"VXbas$GNRMC,131717.00,A,0419.74902,S,05539.89768,E,0.237,,190525,,,A*7B
$GNVTG,,T,,M,0.237,N,0.439,K,A*35
$GNGNS,131717.00,0419.74902,S,05539.89768,E,AA,13,0.74,7.8,-47.6,,*57
$GNGGA,131717.00,0419.74902,S,05539.89768,E,1,12,0.74,7.8,M,-47.6,M,,*7C
$GNGSA,A,3,10,32,26,18,28,31,27,,,,,,1.39,0.74,1.17*13
$GNGSA,A,3,86,73,74,84,85,72,,,,,,,1.39,0.74,1.17*1E
$GPGSV,4,1,16,02,02,331,,04,06,224,,08,22,304,,10,13,021,26*77
$GPGSV,4,2,16,16,24,219,,18,30,111,41,23,01,059,,26,28,189,22*7F
$GPGSV,4,3,16,27,55,278,24,28,59,113,41,31,51,169,30,32,37,006,38*74
$GPGSV,4,4,16,36,52,277,,40,84,353,,41,58,082,43,49,32,274,*7B
$GLGSV,3,1,10,65,01,227,,70,05,012,,71,30,333,11,72,31,273,11*65
$GLGSV,3,2,10,73,17,118,40,74,20,166,19,75,04,212,,84,43,131,32*6D
$GLGSV,3,3,10,85,66,031,40,86,16,344,22*65
$GNGLL,0419.74902,S,05539.89768,E,131717.00,A,A*6E
$GNGRS,131717.00,1,-8.1,1.0,-16.0,-0.5,0.0,-0.9,-3.7,,,,,*66
$GNGRS,131717.00,1,5.3,0.9,-0.3,-1.9,0.3,-17.9,,,,,,*47
$GNGST,131717.00,45,,,,2.8,5.1,4.5*45
$GNZDA,131717.00,19,05,2025,00,00*72
$GNGBS,131717.00,2.8,5.1,4.5,71,,20.9,102.0*6C
b0LK0
)o;
7#);q3 %%K{4Ta+:R sDAFGMyH
I&vCJKT+U&B VX,bIwI$GNRMC,131718.00,A,0419.74894,S,05539.89781,E,0.176,,190525,,,A*7B
$GNVTG,,T,,M,0.176,N,0.325,K,A*39
$GNGNS,131718.00,0419.74894,S,05539.89781,E,AA,13,0.74,8.0,-47.6,,*56
$GNGGA,131718.00,0419.74894,S,05539.89781,E,1,12,0.74,8.0,M,-47.6,M,,*7D
$GNGSA,A,3,10,32,26,18,28,31,27,,,,,,1.39,0.74,1.17*13
$GNGSA,A,3,86,73,74,84,85,72,,,,,,,1.39,0.74,1.17*1E
$GPGSV,4,1,16,02,02,331,,04,06,224,,08,22,304,,10,13,021,25*74
$GPGSV,4,2,16,16,24,219,13,18,30,111,41,23,01,059,,26,28,189,22*7D
$GPGSV,4,3,16,27,55,278,25,28,59,113,41,31,51,169,30,32,37,006,37*7A
$GPGSV,4,4,16,36,52,277,,40,84,353,,41,58,082,43,49,32,274,*7B
$GLGSV,3,1,10,65,01,227,,70,05,012,,71,30,333,11,72,31,273,10*64
$GLGSV,3,2,10,73,17,118,38,74,20,166,19,75,04,212,,84,43,131,31*61
$GLGSV,3,3,10,85,66,031,38,86,16,344,22*6A
$GNGLL,0419.74894,S,05539.89781,E,131718.00,A,A*68
$GNGRS,131718.00,1,-10.0,0.8,-15.8,-0.6,0.0,-0.9,-4.8,,,,,*58
$GNGRS,131718.00,1,7.6,0.7,-0.4,1.9,0.3,6.6,,,,,,*79
$GNGST,131718.00,3179277,,,,2.8,5.1,4.5*75
$GNZDA,131718.00,19,05,2025,00,00*7D
$GNGBS,131718.00,2.8,5.1,4.5,71,,34.9,97.7*5C
b0LhK0
)o;
7);q3 %%&{4Ta+:R sAFGMHI&vGJKT+rU&BVXCbh1{$GNRMC,131719.00,A,0419.74890,S,05539.89785,E,0.245,,190525,,,A*79
$GNVTG,,T,,M,0.245,N,0.453,K,A*3C
$GNGNS,131719.00,0419.74890,S,05539.89785,E,AA,13,0.74,8.0,-47.6,,*57
$GNGGA,131719.00,0419.74890,S,05539.89785,E,1,12,0.74,8.0,M,-47.6,M,,*7C
$GNGSA,A,3,10,32,26,18,28,31,27,,,,,,1.39,0.74,1.17*13
$GNGSA,A,3,86,73,74,84,85,72,,,,,,,1.39,0.74,1.17*1E
$GPGSV,4,1,16,02,02,331,,04,06,224,,08,22,304,,10,13,021,25*74
$GPGSV,4,2,16,16,24,219,,18,30,111,41,23,01,059,,26,28,189,22*7F
$GPGSV,4,3,16,27,55,278,25,28,59,113,41,31,51,169,30,32,37,006,37*7A
$GPGSV,4,4,16,36,52,277,,40,84,353,,41,58,082,43,49,32,274,*7B
$GLGSV,3,1,10,65,01,227,,70,05,012,,71,30,333,08,72,31,273,15*69
$GLGSV,3,2,10,73,17,118,38,74,20,166,19,75,04,212,,84,43,131,31*61
$GLGSV,3,3,10,85,66,031,38,86,16,344,21*69
$GNGLL,0419.74890,S,05539.89785,E,131719.00,A,A*69
$GNGRS,131719.00,1,-9.0,0.4,-15.5,-0.6,-0.1,-2.9,-6.0,,,,,*44
$GNGRS,131719.00,1,6.7,0.7,-0.4,1.1,0.3,7.0,,,,,,*77
$GNGST,131719.00,3179277,,,,2.8,5.1,4.5*74
$GNZDA,131719.00,19,05,2025,00,00*7C
$GNGBS,131719.00,2.8,5.1,4.5,,,,*5C
b0LPK0
@)o;
7);q3
 %%{4Ta+:R sAFGMHI'v@JKT +~U'BVX^bPd$GNRMC,131720.00,A,0419.74886,S,05539.89794,E,0.156,,190525,,,A*75
$GNVTG,,T,,M,0.156,N,0.288,K,A*3D
$GNGNS,131720.00,0419.74886,S,05539.89794,E,AA,13,0.87,8.0,-47.6,,*56
$GNGGA,131720.00,0419.74886,S,05539.89794,E,1,12,0.87,8.0,M,-47.6,M,,*7D
$GNGSA,A,3,10,32,26,18,28,31,27,,,,,,1.49,0.87,1.21*1D
$GNGSA,A,3,86,73,74,84,85,72,,,,,,,1.49,0.87,1.21*10
$GPGSV,4,1,16,02,02,331,,04,06,224,,08,22,304,,10,13,021,25*74
$GPGSV,4,2,16,16,24,219,,18,30,111,41,23,01,059,,26,28,189,22*7F
$GPGSV,4,3,16,27,55,278,24,28,59,113,41,31,51,169,30,32,37,006,37*7B
$GPGSV,4,4,16,36,52,277,,40,84,353,,41,58,082,43,49,32,274,*7B
$GLGSV,3,1,10,65,01,227,,70,05,012,,71,30,333,08,72,31,273,11*6D
$GLGSV,3,2,10,73,17,118,39,74,20,166,20,75,04,212,,84,43,131,32*69
$GLGSV,3,3,10,85,66,031,39,86,16,344,22*6B
$GNGLL,0419.74886,S,05539.89794,E,131720.00,A,A*64
$GNGRS,131720.00,1,-9.6,0.1,-13.6,-0.7,-0.4,-7.6,-5.4,,,,,*41
$GNGRS,131720.00,1,6.1,0.6,-0.4,1.3,0.0,-22.9,,,,,,*68
$GNGST,131720.00,32,,,,2.8,5.0,4.5*40
$GNZDA,131720.00,19,05,2025,00,00*76
$GNGBS,131720.00,2.8,5.0,4.5,71,,69.8,108.8*67
b0L8K0
+~(o;_
7P);q3 %%{4Ta+:R s?AFGMHOI'vJKT +U'BVXvMb8<$GNRMC,131721.00,A,0419.74885,S,05539.89794,E,0.293,,190525,,,A*7D
$GNVTG,,T,,M,0.293,N,0.542,K,A*36
$GNGNS,131721.00,0419.74885,S,05539.89794,E,AA,14,0.74,8.0,-47.6,,*5F
$GNGGA,131721.00,0419.74885,S,05539.89794,E,1,12,0.74,8.0,M,-47.6,M,,*73
$GNGSA,A,3,10,32,26,18,28,31,27,,,,,,1.39,0.74,1.17*13
$GNGSA,A,3,86,73,74,84,71,85,72,,,,,,1.39,0.74,1.17*18
$GPGSV,4,1,16,02,02,331,,04,06,224,,08,22,304,,10,13,021,24*75
$GPGSV,4,2,16,16,24,219,13,18,30,111,40,23,01,059,,26,28,189,22*7C
$GPGSV,4,3,16,27,55,278,25,28,59,113,41,31,51,169,30,32,37,006,37*7A
$GPGSV,4,4,16,36,52,277,,40,84,353,,41,58,082,43,49,32,274,*7B
$GLGSV,3,1,10,65,01,227,,70,05,012,,71,30,333,13,72,31,273,15*63
$GLGSV,3,2,10,73,17,118,39,74,20,166,20,75,04,212,,84,43,131,32*69
$GLGSV,3,3,10,85,66,031,39,86,16,344,23*6A
$GNGLL,0419.74885,S,05539.89794,E,131721.00,A,A*66
$GNGRS,131721.00,1,-12.4,0.0,-14.4,-0.9,-0.2,-5.4,-9.4,,,,,*78
$GNGRS,131721.00,1,6.3,0.3,-0.1,2.5,-69.8,0.1,5.9,,,,,*43
$GNGST,131721.00,3179277,,,,2.8,5.0,4.4*7F
$GNZDA,131721.00,19,05,2025,00,00*77
$GNGBS,131721.00,2.8,5.0,4.4,,,,*57
b0L K0
(o;i
7);q3w %%{4Ta+:R sAFGMHBI'v-J(KT +U'BVXb $GNRMC,131722.00,A,0419.74883,S,05539.89796,E,0.234,,190525,,,A*77
$GNVTG,,T,,M,0.234,N,0.434,K,A*3B
$GNGNS,131722.00,0419.74883,S,05539.89796,E,AA,14,0.74,8.0,-47.6,,*58
$GNGGA,131722.00,0419.74883,S,05539.89796,E,1,12,0.74,8.0,M,-47.6,M,,*74
$GNGSA,A,3,10,32,26,18,28,31,27,,,,,,1.39,0.74,1.17*13
$GNGSA,A,3,86,73,74,84,71,85,72,,,,,,1.39,0.74,1.17*18
$GPGSV,4,1,16,02,02,331,,04,06,224,,08,22,304,,10,13,021,24*75
$GPGSV,4,2,16,16,24,219,,18,30,111,40,23,01,059,,26,28,189,22*7E
$GPGSV,4,3,16,27,55,278,25,28,59,113,41,31,51,169,30,32,37,006,37*7A
$GPGSV,4,4,16,36,52,277,,40,84,353,,41,58,082,43,49,32,274,*7B
$GLGSV,3,1,10,65,01,227,,70,05,012,,71,30,333,09,72,31,273,13*6E
$GLGSV,3,2,10,73,17,118,39,74,20,166,20,75,04,212,,84,43,131,32*69
$GLGSV,3,3,10,85,66,031,39,86,16,344,23*6A
$GNGLL,0419.74883,S,05539.89796,E,131722.00,A,A*61
$GNGRS,131722.00,1,-13.1,-0.1,-16.9,-1.2,-0.2,-3.9,-8.4,,,,,*5C
$GNGRS,131722.00,1,4.3,0.4,0.4,2.6,-69.9,0.2,5.8,,,,,*6D
$GNGST,131722.00,3179277,,,,2.7,5.0,4.4*73
$GNZDA,131722.00,19,05,2025,00,00*74
$GNGBS,131722.00,2.7,5.0,4.4,,,,*5B
b0LK0
Z)o;
73);q3 $%{4Ta+:R skAFGMH
iI&v7J(KT+U&BVX#|bN$GNRMC,131723.00,A,0419.74882,S,05539.89799,E,0.253,,190525,,,A*79
$GNVTG,,T,,M,0.253,N,0.468,K,A*33
$GNGNS,131723.00,0419.74882,S,05539.89799,E,AA,14,0.83,8.1,-47.6,,*5E
$GNGGA,131723.00,0419.74882,S,05539.89799,E,1,12,0.83,8.1,M,-47.6,M,,*72
$GNGSA,A,3,10,32,26,18,28,31,27,,,,,,1.46,0.83,1.20*17
$GNGSA,A,3,86,73,74,84,71,85,72,,,,,,1.46,0.83,1.20*1C
$GPGSV,4,1,16,02,02,331,,04,06,224,,08,22,304,,10,13,021,24*75
$GPGSV,4,2,16,16,24,219,,18,30,111,41,23,01,059,,26,28,189,21*7C
$GPGSV,4,3,16,27,55,278,25,28,59,113,41,31,51,169,30,32,37,006,36*7B
$GPGSV,4,4,16,36,52,277,,40,84,353,,41,58,082,43,49,32,274,*7B
$GLGSV,3,1,10,65,01,227,,70,05,012,,71,30,333,08,72,31,273,10*6C
$GLGSV,3,2,10,73,17,118,38,74,20,166,19,75,04,212,,84,43,131,31*61
$GLGSV,3,3,10,85,66,031,38,86,16,344,22*6A
$GNGLL,0419.74882,S,05539.89799,E,131723.00,A,A*6E
$GNGRS,131723.00,1,-14.5,0.0,-15.1,-1.3,0.0,0.3,-9.7,,,,,*71
$GNGRS,131723.00,1,5.5,0.5,0.4,-1.0,-19.0,0.3,-24.6,,,,,*5D
$GNGST,131723.00,45,,,,2.7,4.9,4.4*45
$GNZDA,131723.00,19,05,2025,00,00*75
$GNGBS,131723.00,2.7,4.9,4.4,,,,*52
b0LK0
)op;
73);q3 %%{4Ta+:R sAFGMqH
eI&vJKT+U&BVXZb$GNRMC,131724.00,A,0419.74881,S,05539.89801,E,0.091,,190525,,,A*7F
$GNVTG,,T,,M,0.091,N,0.168,K,A*3A
$GNGNS,131724.00,0419.74881,S,05539.89801,E,AA,14,0.72,8.1,-47.6,,*5A
$GNGGA,131724.00,0419.74881,S,05539.89801,E,1,12,0.72,8.1,M,-47.6,M,,*76
$GNGSA,A,3,10,32,26,18,28,31,27,,,,,,1.38,0.72,1.17*14
$GNGSA,A,3,86,73,74,84,71,85,72,,,,,,1.38,0.72,1.17*1F
$GPGSV,4,1,16,02,02,331,,04,06,224,,08,22,304,,10,13,021,25*74
$GPGSV,4,2,16,16,24,219,,18,30,111,41,23,01,059,,26,28,189,22*7F
$GPGSV,4,3,16,27,55,278,24,28,59,113,41,31,51,169,30,32,37,006,37*7B
$GPGSV,4,4,16,36,52,277,,40,84,353,,41,58,082,43,49,32,274,*7B
$GLGSV,3,1,10,65,01,227,,70,05,012,,71,30,333,09,72,31,273,10*6D
$GLGSV,3,2,10,73,17,118,38,74,20,166,19,75,04,212,,84,43,131,31*61
$GLGSV,3,3,10,85,66,031,38,86,16,344,22*6A
$GNGLL,0419.74881,S,05539.89801,E,131724.00,A,A*64
$GNGRS,131724.00,1,-15.3,-0.1,-18.2,-1.4,0.0,-2.4,-7.2,,,,,*77
$GNGRS,131724.00,1,4.3,0.2,-0.9,1.9,8.8,0.2,6.1,,,,,*50
$GNGST,131724.00,4343719,,,,2.7,4.9,4.4*7C
$GNZDA,131724.00,19,05,2025,00,00*72
$GNGBS,131724.00,2.7,4.9,4.4,,,,*55
b0LK0
(oh;\
7);q3 %%&{4Ta+:R sAFGM_HeI'v)JKT+U'BVXb$GNRMC,131725.00,A,0419.74879,S,05539.89803,E,0.052,,190525,,,A*74
$GNVTG,,T,,M,0.052,N,0.097,K,A*34
$GNGNS,131725.00,0419.74879,S,05539.89803,E,AA,14,0.72,8.1,-47.6,,*5E
$GNGGA,131725.00,0419.74879,S,05539.89803,E,1,12,0.72,8.1,M,-47.6,M,,*72
$GNGSA,A,3,10,32,26,18,28,31,27,,,,,,1.38,0.72,1.17*14
$GNGSA,A,3,86,73,74,84,71,85,72,,,,,,1.38,0.72,1.17*1F
$GPGSV,4,1,16,02,02,331,,04,06,224,,08,22,304,,10,13,021,25*74
$GPGSV,4,2,16,16,24,219,,18,30,111,40,23,01,059,,26,28,189,21*7D
$GPGSV,4,3,16,27,55,278,25,28,59,113,41,31,51,169,30,32,37,006,37*7A
$GPGSV,4,4,16,36,52,277,,40,84,353,,41,58,082,43,49,32,274,*7B
$GLGSV,3,1,10,65,01,227,,70,05,012,,71,30,333,12,72,31,273,14*63
$GLGSV,3,2,10,73,17,118,39,74,20,166,18,75,04,212,,84,43,131,31*61
$GLGSV,3,3,10,85,66,031,39,86,16,344,22*6B
$GNGLL,0419.74879,S,05539.89803,E,131725.00,A,A*60
$GNGRS,131725.00,1,-14.0,0.4,-17.0,-1.5,-0.2,-2.9,-8.0,,,,,*7F
$GNGRS,131725.00,1,2.7,0.4,1.4,0.3,8.6,-0.1,6.1,,,,,*5F
$GNGST,131725.00,4343719,,,,2.7,4.9,4.4*7D
$GNZDA,131725.00,19,05,2025,00,00*73
$GNGBS,131725.00,2.7,4.9,4.4,,,,*54
b0LK0
(ok;^
7);q3 %%%{4Ta+:R sAFG
MHI'v@JKT +YU'BVXIbrw$GNRMC,131726.00,A,0419.74873,S,05539.89814,E,0.401,,190525,,,A*79
$GNVTG,,T,,M,0.401,N,0.742,K,A*39
$GNGNS,131726.00,0419.74873,S,05539.89814,E,AA,14,0.87,8.2,-47.6,,*58
$GNGGA,131726.00,0419.74873,S,05539.89814,E,1,12,0.87,8.2,M,-47.6,M,,*74
$GNGSA,A,3,10,32,26,18,28,31,27,,,,,,1.49,0.87,1.21*1D
$GNGSA,A,3,86,73,74,84,71,85,72,,,,,,1.49,0.87,1.21*16
$GPGSV,4,1,16,02,02,331,,04,06,224,,08,22,304,,10,13,021,25*74
$GPGSV,4,2,16,16,24,219,,18,30,111,40,23,01,059,,26,28,189,22*7E
$GPGSV,4,3,16,27,55,278,25,28,59,113,41,31,51,169,30,32,37,006,37*7A
$GPGSV,4,4,16,36,52,277,,40,84,353,,41,58,082,43,49,32,274,*7B
$GLGSV,3,1,10,65,01,227,,70,05,012,,71,30,333,10,72,31,273,14*61
$GLGSV,3,2,10,73,17,118,39,74,20,166,19,75,04,212,,84,43,131,32*63
$GLGSV,3,3,10,85,66,031,39,86,16,344,23*6A
$GNGLL,0419.74873,S,05539.89814,E,131726.00,A,A*6F
$GNGRS,131726.00,1,-14.0,0.4,-17.0,-1.5,-0.5,-3.1,-8.5,,,,,*77
$GNGRS,131726.00,1,1.9,0.6,2.1,-4.2,-53.9,0.0,20.5,,,,,*7D
$GNGST,131726.00,31,,,,2.7,4.9,4.4*43
$GNZDA,131726.00,19,05,2025,00,00*70
$GNGBS,131726.00,2.7,4.9,4.4,,,,*57
b0LK0
)o;
7
);q3 $%1{4Ta+:R s~AFGMHI'vLJKT +nU'BVX<bqJ$GNRMC,131727.00,A,0419.74871,S,05539.89817,E,0.392,,190525,,,A*74
$GNVTG,,T,,M,0.392,N,0.727,K,A*37
$GNGNS,131727.00,0419.74871,S,05539.89817,E,AA,14,0.72,8.3,-47.6,,*53
$GNGGA,131727.00,0419.74871,S,05539.89817,E,1,12,0.72,8.3,M,-47.6,M,,*7F
$GNGSA,A,3,10,32,26,18,28,31,27,,,,,,1.38,0.72,1.17*14
$GNGSA,A,3,86,73,74,84,71,85,72,,,,,,1.38,0.72,1.17*1F
$GPGSV,4,1,16,02,02,331,,04,06,224,,08,22,304,,10,13,021,25*74
$GPGSV,4,2,16,16,24,219,,18,30,111,41,23,01,059,,26,28,189,21*7C
$GPGSV,4,3,16,27,55,278,25,28,59,113,41,31,51,169,30,32,37,006,36*7B
$GPGSV,4,4,16,36,52,277,,40,84,353,,41,58,082,43,49,32,274,*7B
$GLGSV,3,1,10,65,01,227,,70,05,012,,71,30,333,09,72,31,273,12*6F
$GLGSV,3,2,10,73,17,118,39,74,20,166,19,75,04,212,,84,43,131,32*63
$GLGSV,3,3,10,85,66,031,39,86,16,344,24*6D
$GNGLL,0419.74871,S,05539.89817,E,131727.00,A,A*6F
$GNGRS,131727.00,1,-13.2,0.5,-15.4,-1.3,-0.6,-3.3,-7.6,,,,,*7F
$GNGRS,131727.00,1,1.6,0.8,2.5,-1.5,9.0,0.1,6.4,,,,,*54
$GNGST,131727.00,3075067,,,,2.7,4.8,4.4*71
$GNZDA,131727.00,19,05,2025,00,00*71
$GNGBS,131727.00,2.7,4.8,4.4,,,,*57
b0LK0
3!o;
7!;q3 !%.{4Ta%:R s$AFG
MHI#v@JKT+U"B&VX1bY"G$GNRMC,131728.00,A,0419.74873,S,05539.89814,E,0.475,,190525,,,A*74
$GNVTG,,T,,M,0.475,N,0.879,K,A*3D
$GNGNS,131728.00,0419.74873,S,05539.89814,E,AA,14,0.72,8.2,-47.6,,*5C
$GNGGA,131728.00,0419.74873,S,05539.89814,E,1,12,0.72,8.2,M,-47.6,M,,*70
$GNGSA,A,3,10,32,26,18,28,31,27,,,,,,1.38,0.72,1.17*14
$GNGSA,A,3,86,73,74,84,71,85,72,,,,,,1.38,0.72,1.17*1F
$GPGSV,4,1,16,02,02,331,,04,06,224,,08,22,304,,10,13,021,24*75
$GPGSV,4,2,16,16,24,219,,18,30,111,33,23,01,059,,26,28,189,21*79
$GPGSV,4,3,16,27,55,278,24,28,59,113,33,31,51,169,21,32,37,006,33*7A
$GPGSV,4,4,16,36,52,277,,40,84,353,,41,58,082,37,49,32,274,*78
$GLGSV,3,1,10,65,01,227,,70,05,012,,71,30,333,10,72,31,273,14*61
$GLGSV,3,2,10,73,17,118,35,74,20,166,19,75,04,212,,84,43,131,26*6A
$GLGSV,3,3,10,85,66,031,34,86,16,344,22*66
$GNGLL,0419.74873,S,05539.89814,E,131728.00,A,A*61
$GNGRS,131728.00,1,-12.3,0.5,-12.7,-1.1,-0.4,-0.9,-7.6,,,,,*7D
$GNGRS,131728.00,1,1.5,0.6,2.8,-0.9,9.1,0.4,6.7,,,,,*51
$GNGST,131728.00,4343719,,,,2.7,4.9,4.4*70
$GNZDA,131728.00,19,05,2025,00,00*7E
$GNGBS,131728.00,2.7,4.9,4.4,,,,*59
b0LxK0
$o;
7O$;q3f  %C{4Ta&:R sAFGMH`I#v3JKT+U"BVXbxA$GNRMC,131729.00,A,0419.74879,S,05539.89805,E,0.555,,190525,,,A*7C
$GNVTG,,T,,M,0.555,N,1.029,K,A*32
$GNGNS,131729.00,0419.74879,S,05539.89805,E,AA,14,0.87,8.2,-47.6,,*5D
$GNGGA,131729.00,0419.74879,S,05539.89805,E,1,12,0.87,8.2,M,-47.6,M,,*71
$GNGSA,A,3,10,32,26,18,28,31,27,,,,,,1.49,0.87,1.21*1D
$GNGSA,A,3,86,73,74,84,71,85,72,,,,,,1.49,0.87,1.21*16
$GPGSV,4,1,16,02,02,331,,04,06,224,,08,22,304,,10,13,021,21*70
$GPGSV,4,2,16,16,24,219,,18,30,111,36,23,01,059,,26,28,189,18*76
$GPGSV,4,3,16,27,55,278,22,28,59,113,36,31,51,169,22,32,37,006,32*7B
$GPGSV,4,4,16,36,52,277,,40,84,353,,41,58,082,38,49,32,274,*77
$GLGSV,3,1,10,65,01,227,,70,05,012,,71,30,333,07,72,31,273,08*6A
$GLGSV,3,2,10,73,17,118,35,74,20,166,17,75,04,212,,84,43,131,27*65
$GLGSV,3,3,10,85,66,031,34,86,16,344,21*65
$GNGLL,0419.74879,S,05539.89805,E,131729.00,A,A*6A
$GNGRS,131729.00,1,-13.0,0.7,-12.5,-1.2,-0.5,-1.5,-9.5,,,,,*7C
$GNGRS,131729.00,1,2.8,0.5,2.2,-2.5,-54.5,0.2,-65.6,,,,,*57
$GNGST,131729.00,40,,,,2.8,5.0,4.5*4C
$GNZDA,131729.00,19,05,2025,00,00*7F
$GNGBS,131729.00,2.8,5.0,4.5,,,,*5E
b0L`K0
(op;
7(;q3 %%G{4Ta+:R sgAFGMlHI(v7JKT +
U(B2VXcBIb`)$GNRMC,131730.00,A,0419.74871,S,05539.89815,E,0.145,,190525,,,A*78
$GNVTG,,T,,M,0.145,N,0.269,K,A*30
$GNGNS,131730.00,0419.74871,S,05539.89815,E,AA,13,0.77,8.3,-47.6,,*55
$GNGGA,131730.00,0419.74871,S,05539.89815,E,1,12,0.77,8.3,M,-47.6,M,,*7E
$GNGSA,A,3,32,26,18,28,31,27,,,,,,,1.45,0.77,1.23*1D
$GNGSA,A,3,86,73,74,84,71,85,72,,,,,,1.45,0.77,1.23*17
$GPGSV,4,1,16,02,02,331,,04,06,224,,08,22,304,,10,13,021,*73
$GPGSV,4,2,16,16,24,219,,18,30,111,40,23,01,059,,26,28,189,20*7C
$GPGSV,4,3,16,27,55,278,23,28,59,113,40,31,51,169,30,32,37,006,37*7D
$GPGSV,4,4,16,36,52,277,,40,84,353,,41,58,082,43,49,32,274,*7B
$GLGSV,3,1,10,65,01,227,,70,05,012,,71,30,333,09,72,31,273,14*69
$GLGSV,3,2,10,73,17,118,40,74,20,166,17,75,04,212,,84,43,131,32*63
$GLGSV,3,3,10,85,66,031,40,86,16,344,22*65
$GNGLL,0419.74871,S,05539.89815,E,131730.00,A,A*6B
$GNGRS,131730.00,1,0.7,-12.9,-1.4,-0.6,-1.2,-10.4,,,,,,*72
$GNGRS,131730.00,1,3.5,0.5,1.8,-2.5,8.8,0.5,6.4,,,,,*5E
$GNGST,131730.00,4496177,,,,2.8,5.0,4.5*7E
$GNZDA,131730.00,19,05,2025,00,00*77
$GNGBS,131730.00,2.8,5.0,4.5,,,,*56
b0LHK0
)o;$
7M(;q3 !%0{4Ta):R !s7AFGMOHI*v@JKT +U(BJVXU+bH$GNRMC,131731.00,A,0419.74867,S,05539.89816,E,0.097,,190525,,,A*73
$GNVTG,,T,,M,0.097,N,0.179,K,A*3C
$GNGNS,131731.00,0419.74867,S,05539.89816,E,AA,14,0.72,8.2,-47.6,,*53
$GNGGA,131731.00,0419.74867,S,05539.89816,E,1,12,0.72,8.2,M,-47.6,M,,*7F
$GNGSA,A,3,10,32,26,18,28,31,27,,,,,,1.38,0.72,1.17*14
$GNGSA,A,3,86,73,74,84,71,85,72,,,,,,1.38,0.72,1.17*1F
$GPGSV,4,1,16,02,02,331,,04,06,224,,08,22,304,,10,13,021,30*70
$GPGSV,4,2,16,16,24,219,,18,30,111,41,23,01,059,,26,28,189,21*7C
$GPGSV,4,3,16,27,55,278,23,28,59,113,40,31,51,169,29,32,37,006,33*71
$GPGSV,4,4,16,36,52,277,,40,84,353,,41,58,082,41,49,32,274,*79
$GLGSV,3,1,10,65,01,227,,70,05,012,,71,30,333,13,72,31,273,13*65
$GLGSV,3,2,10,73,17,118,42,74,20,166,18,75,04,212,,84,43,131,32*6E
$GLGSV,3,3,10,85,66,031,40,86,16,344,22*65
$GNGLL,0419.74867,S,05539.89816,E,131731.00,A,A*6E
$GNGRS,131731.00,1,-18.9,0.5,-12.4,-1.2,-0.7,-2.5,-9.5,,,,,*75
$GNGRS,131731.00,1,2.7,0.6,2.4,-3.5,8.5,0.7,6.5,,,,,*5F
$GNGST,131731.00,4343719,,,,2.8,5.0,4.5*7E
$GNZDA,131731.00,19,05,2025,00,00*76
$GNGBS,131731.00,2.8,5.0,4.5,,,,*57
b0L0K0
$o;
7$;q3N %}{4Ta$:R sfAFGMZHJI&vnJKT+2U#B5VX\Xsb0$GNRMC,131732.00,A,0419.74861,S,05539.89830,E,0.046,,190525,,,A*7E
$GNVTG,,T,,M,0.046,N,0.086,K,A*31
$GNGNS,131732.00,0419.74861,S,05539.89830,E,AA,14,0.74,8.3,-47.6,,*55
$GNGGA,131732.00,0419.74861,S,05539.89830,E,1,12,0.74,8.3,M,-47.6,M,,*79
$GNGSA,A,3,10,32,26,18,28,31,27,,,,,,1.39,0.74,1.18*1C
$GNGSA,A,3,86,73,74,84,71,85,72,,,,,,1.39,0.74,1.18*17
$GPGSV,4,1,16,02,02,331,,04,06,224,,08,22,304,,10,13,021,31*71
$GPGSV,4,2,16,16,24,219,,18,30,111,36,23,01,059,,26,28,189,21*7C
$GPGSV,4,3,16,27,55,278,23,28,59,113,36,31,51,169,29,32,37,006,31*72
$GPGSV,4,4,16,36,52,277,,40,84,353,,41,58,082,36,49,32,274,*79
$GLGSV,3,1,10,65,01,227,,70,05,012,,71,30,333,12,72,31,273,14*63
$GLGSV,3,2,10,73,17,118,38,74,20,166,19,75,04,212,,84,43,131,28*69
$GLGSV,3,3,10,85,66,031,35,86,16,344,22*67
$GNGLL,0419.74861,S,05539.89830,E,131732.00,A,A*6F
$GNGRS,131732.00,1,-6.1,1.2,-13.0,-1.1,-0.7,-4.3,-10.5,,,,,*79
$GNGRS,131732.00,1,0.9,1.1,2.8,-4.6,64.9,0.5,-14.6,,,,,*77
$GNGST,131732.00,44,,,,2.8,5.0,4.5*42
$GNZDA,131732.00,19,05,2025,00,00*75
$GNGBS,131732.00,2.8,5.0,4.5,,,,*54
b0LK0
)o;
7(;q3 $%{4Ta(:R ssAFGMgHdI(vRJ^KT+-U#B/VX
bYL$GNRMC,131733.00,A,0419.74858,S,05539.89834,E,0.056,,190525,,,A*70
$GNVTG,,T,,M,0.056,N,0.104,K,A*3B
$GNGNS,131733.00,0419.74858,S,05539.89834,E,AA,14,0.72,8.2,-47.6,,*5D
$GNGGA,131733.00,0419.74858,S,05539.89834,E,1,12,0.72,8.2,M,-47.6,M,,*71
$GNGSA,A,3,10,32,26,18,28,31,27,,,,,,1.38,0.72,1.17*14
$GNGSA,A,3,86,73,74,84,71,85,72,,,,,,1.38,0.72,1.17*1F
$GPGSV,4,1,16,02,02,331,,04,06,224,,08,22,304,,10,13,021,30*70
$GPGSV,4,2,16,16,24,219,,18,30,111,41,23,01,059,,26,28,189,21*7C
$GPGSV,4,3,16,27,55,278,23,28,59,113,40,31,51,169,27,32,37,006,36*7A
$GPGSV,4,4,16,36,52,277,,40,84,353,,41,58,082,40,49,32,274,*78
$GLGSV,3,1,10,65,01,227,,70,05,012,,71,30,333,09,72,31,273,11*6C
$GLGSV,3,2,10,73,17,118,40,74,20,166,20,75,04,212,,84,43,131,29*6D
$GLGSV,3,3,10,85,66,031,35,86,16,344,22*67
$GNGLL,0419.74858,S,05539.89834,E,131733.00,A,A*60
$GNGRS,131733.00,1,-10.4,-0.3,-13.2,-1.2,-0.6,-3.8,-7.9,,,,,*51
$GNGRS,131733.00,1,0.1,0.8,3.5,-2.1,8.7,0.5,6.1,,,,,*56
$GNGST,131733.00,4343719,,,,2.8,5.0,4.5*7C
$GNZDA,131733.00,19,05,2025,00,00*74
$GNGBS,131733.00,2.8,5.0,4.5,,,,*55
b0LK0
(o;
7X*;q3  %{4Ta+:R s"AFGM_HwI'v.JKT+U#B%VXp
b1$GNRMC,131734.00,A,0419.74854,S,05539.89841,E,0.083,,190525,,,A*71
$GNVTG,,T,,M,0.083,N,0.153,K,A*31
$GNGNS,131734.00,0419.74854,S,05539.89841,E,AA,14,0.72,8.3,-47.6,,*55
$GNGGA,131734.00,0419.74854,S,05539.89841,E,1,12,0.72,8.3,M,-47.6,M,,*79
$GNGSA,A,3,10,32,26,18,28,31,27,,,,,,1.38,0.72,1.17*14
$GNGSA,A,3,86,73,74,84,71,85,72,,,,,,1.38,0.72,1.17*1F
$GPGSV,4,1,16,02,02,331,,04,06,224,,08,22,304,,10,13,021,23*72
$GPGSV,4,2,16,16,24,219,,18,30,111,40,23,01,059,,26,28,189,21*7D
$GPGSV,4,3,16,27,55,278,23,28,59,113,42,31,51,169,28,32,37,006,32*73
$GPGSV,4,4,16,36,52,277,,40,84,353,,41,58,082,43,49,32,274,*7B
$GLGSV,3,1,10,65,01,227,,70,05,012,,71,30,333,12,72,31,273,07*61
$GLGSV,3,2,10,73,17,118,39,74,20,166,20,75,04,212,,84,43,131,30*6B
$GLGSV,3,3,10,85,66,031,35,86,16,344,23*66
$GNGLL,0419.74854,S,05539.89841,E,131734.00,A,A*69
$GNGRS,131734.00,1,-3.8,2.2,-13.5,-1.0,-0.6,-3.1,-6.8,,,,,*4A
$GNGRS,131734.00,1,1.1,0.5,2.2,-0.9,8.6,0.4,6.3,,,,,*53
$GNGST,131734.00,4343719,,,,2.9,5.0,4.5*7A
$GNZDA,131734.00,19,05,2025,00,00*73
$GNGBS,131734.00,2.9,5.0,4.5,,,,*53
b0LK0
"o;]
7&;q3 %{4Ta':R sAFGMHI$vJPKT+SU"BVXPb$GNRMC,131735.00,A,0419.74848,S,05539.89850,E,0.340,,190525,,,A*71
$GNVTG,,T,,M,0.340,N,0.629,K,A*37
$GNGNS,131735.00,0419.74848,S,05539.89850,E,AA,14,0.83,8.4,-47.6,,*50
$GNGGA,131735.00,0419.74848,S,05539.89850,E,1,12,0.83,8.4,M,-47.6,M,,*7C
$GNGSA,A,3,10,32,26,18,28,31,27,,,,,,1.46,0.83,1.20*17
$GNGSA,A,3,86,73,74,84,71,85,72,,,,,,1.46,0.83,1.20*1C
$GPGSV,4,1,16,02,02,331,,04,06,224,,08,22,304,,10,13,021,21*70
$GPGSV,4,2,16,16,24,219,,18,30,111,34,23,01,059,,26,28,189,19*75
$GPGSV,4,3,16,27,55,278,21,28,59,113,38,31,51,169,26,32,37,006,27*76
$GPGSV,4,4,16,36,52,277,,40,84,353,,41,58,082,39,49,32,274,*76
$GLGSV,3,1,10,65,01,227,,70,05,012,,71,30,333,09,72,31,273,09*65
$GLGSV,3,2,10,73,17,118,36,74,20,166,19,75,04,212,,84,43,131,29*66
$GLGSV,3,3,10,85,66,031,34,86,16,344,21*65
$GNGLL,0419.74848,S,05539.89850,E,131735.00,A,A*65
$GNGRS,131735.00,1,-2.3,7.1,-14.4,-0.9,-0.6,-3.7,-7.9,,,,,*4F
$GNGRS,131735.00,1,2.1,0.3,0.8,3.4,-10.0,0.3,73.6,,,,,*5E
$GNGST,131735.00,51,,,,2.9,5.1,4.6*42
$GNZDA,131735.00,19,05,2025,00,00*72
$GNGBS,131735.00,2.9,5.1,4.6,,,,*50
b0LK0
'o;y
7);q3 %{4Ta+:R siAFGMcH
<I%vJCKT+U$B#VXT+bu$GNRMC,131736.00,A,0419.74846,S,05539.89851,E,0.302,,190525,,,A*7B
$GNVTG,,T,,M,0.302,N,0.559,K,A*35
$GNGNS,131736.00,0419.74846,S,05539.89851,E,AA,14,0.72,8.3,-47.6,,*55
$GNGGA,131736.00,0419.74846,S,05539.89851,E,1,12,0.72,8.3,M,-47.6,M,,*79
$GNGSA,A,3,10,32,26,18,28,31,27,,,,,,1.38,0.72,1.17*14
$GNGSA,A,3,86,73,74,84,71,85,72,,,,,,1.38,0.72,1.17*1F
