b0Lo>P3(
 n!-3hV`?{4V_:R 
Y
lDbEFI#RO?PQ_ScT*UVboU
s9K$GNRMC,051902.00,A,0419.92373,S,05539.63316,E,0.105,,280525,,,A*7B
$GNVTG,,T,,M,0.105,N,0.194,K,A*35
$GNGNS,051902.00,0419.92373,S,05539.63316,E,AA,14,0.79,22.0,-47.6,,*62
$GNGGA,051902.00,0419.92373,S,05539.63316,E,1,12,0.79,22.0,M,-47.6,M,,*4E
$GNGSA,A,3,24,05,20,15,12,18,29,25,,,,,1.62,0.79,1.42*13
$GNGSA,A,3,79,80,83,84,73,85,,,,,,,1.62,0.79,1.42*18
$GPGSV,5,1,17,05,62,080,28,11,06,026,,12,51,016,30,13,16,137,*79
$GPGSV,5,2,17,15,31,171,23,18,32,252,29,20,33,045,22,22,07,132,*7A
$GPGSV,5,3,17,23,17,207,17,24,51,207,25,25,27,342,16,29,09,319,12*77
$GPGSV,5,4,17,36,52,277,,40,86,351,,41,58,082,,49,32,274,*7C
$GPGSV,5,5,17,50,10,089,*4A
$GLGSV,3,1,09,68,16,098,,69,24,149,,70,03,208,,73,35,338,26*63
$GLGSV,3,2,09,79,28,149,18,80,81,095,31,83,15,355,16,84,29,298,28*66
$GLGSV,3,3,09,85,11,249,24*58
$GNGLL,0419.92373,S,05539.63316,E,051902.00,A,A*6E
$GNGRS,051902.00,1,-6.6,-3.4,-7.9,4.7,3.0,-4.0,25.5,29.1,,,,*5A
$GNGRS,051902.00,1,-1.9,0.0,12.1,0.0,-10.0,-8.9,,,,,,*78
$GNGST,051902.00,43,,,,4.1,5.3,11*6C
$GNZDA,051902.00,28,05,2025,00,00*7D
$GNGBS,051902.00,4.1,5.3,10.9,,,,*6B
$GNTXT,01,01,01,More than 100 frame errors, UART RX was disabled*70
b0Ls>P3
 !-3qV
?{4V_:R 
Y
lDbEFI#R8OPQ_ScT*aUbsU
[9#?$GNRMC,051903.00,A,0419.92371,S,05539.63311,E,0.036,,280525,,,A*7E
$GNVTG,,T,,M,0.036,N,0.067,K,A*39
$GNGNS,051903.00,0419.92371,S,05539.63311,E,AA,14,0.81,22.3,-47.6,,*62
$GNGGA,051903.00,0419.92371,S,05539.63311,E,1,12,0.81,22.3,M,-47.6,M,,*4E
$GNGSA,A,3,24,05,20,15,12,18,29,25,,,,,1.64,0.81,1.42*12
$GNGSA,A,3,79,80,83,84,73,85,,,,,,,1.64,0.81,1.42*19
$GPGSV,5,1,17,05,62,080,27,11,06,026,,12,51,016,25,13,16,137,*72
$GPGSV,5,2,17,15,31,171,22,18,32,252,28,20,33,045,20,22,07,132,*78
$GPGSV,5,3,17,23,17,207,17,24,51,207,24,25,27,342,16,29,09,319,09*7C
$GPGSV,5,4,17,36,52,277,,40,86,351,,41,58,082,,49,32,274,*7C
$GPGSV,5,5,17,50,10,089,*4A
$GLGSV,3,1,09,68,16,098,,69,24,149,,70,03,208,,73,35,338,25*60
$GLGSV,3,2,09,79,28,149,17,80,81,095,31,83,15,355,15,84,29,298,27*65
$GLGSV,3,3,09,85,11,249,23*5F
$GNGLL,0419.92371,S,05539.63311,E,051903.00,A,A*6A
$GNGRS,051903.00,1,-4.0,-5.2,-6.4,6.8,4.4,-2.4,25.5,28.1,,,,*5E
$GNGRS,051903.00,1,-3.3,0.0,14.3,1.0,-9.7,-11.1,,,,,,*7B
$GNGST,051903.00,42,,,,4.1,5.3,11*6C
$GNZDA,051903.00,28,05,2025,00,00*7C
$GNGBS,051903.00,4.1,5.3,10.9,,,,*6A
$GNTXT,01,01,01,More than 100 frame errors, UART RX was disabled*70
b0Lw>P}36C
 !-3uV
?{4V_:R 
Y
lDbEFI#R[OZP#Q_ScT*<U@bwU
C9$GNRMC,051904.00,A,0419.92375,S,05539.63316,E,0.163,,280525,,,A*7B
$GNVTG,,T,,M,0.163,N,0.303,K,A*39
$GNGNS,051904.00,0419.92375,S,05539.63316,E,AA,14,0.81,22.3,-47.6,,*66
$GNGGA,051904.00,0419.92375,S,05539.63316,E,1,12,0.81,22.3,M,-47.6,M,,*4A
$GNGSA,A,3,24,05,20,15,12,18,29,25,,,,,1.64,0.81,1.42*12
$GNGSA,A,3,79,80,83,84,73,85,,,,,,,1.64,0.81,1.42*19
$GPGSV,5,1,17,05,62,080,27,11,06,026,,12,51,016,26,13,16,137,*71
$GPGSV,5,2,17,15,31,171,21,18,32,252,26,20,33,045,20,22,07,132,*75
$GPGSV,5,3,17,23,17,207,19,24,51,207,25,25,27,342,15,29,09,319,11*79
$GPGSV,5,4,17,36,52,277,,40,86,351,,41,58,082,,49,32,274,*7C
$GPGSV,5,5,17,50,10,089,*4A
$GLGSV,3,1,09,68,16,098,,69,24,149,,70,03,208,,73,35,338,25*60
$GLGSV,3,2,09,79,28,149,20,80,81,095,35,83,15,355,17,84,29,298,28*68
$GLGSV,3,3,09,85,11,249,25*59
$GNGLL,0419.92375,S,05539.63316,E,051904.00,A,A*6E
$GNGRS,051904.00,1,-3.9,-3.9,-6.2,8.4,0.5,-3.0,-51.1,28.1,,,,*74
$GNGRS,051904.00,1,-4.2,0.0,14.6,-2.0,-9.3,-11.0,,,,,,*54
$GNGST,051904.00,40,,,,4.1,5.3,11*69
$GNZDA,051904.00,28,05,2025,00,00*7B
$GNGBS,051904.00,4.1,5.3,10.9,,,,*6D
$GNTXT,01,01,01,More than 100 frame errors, UART RX was disabled*70
b0Lx{>PK3,
 !-"3qV
?{4V_:R 
Y
lDbEFI#R#O"P"Q_sSc1T+U0bx{U
+9$GNRMC,051905.00,A,0419.92387,S,05539.63326,E,0.396,,280525,,,A*7C
$GNVTG,,T,,M,0.396,N,0.733,K,A*36
$GNGNS,051905.00,0419.92387,S,05539.63326,E,AA,14,0.81,21.5,-47.6,,*6C
$GNGGA,051905.00,0419.92387,S,05539.63326,E,1,12,0.81,21.5,M,-47.6,M,,*40
$GNGSA,A,3,24,05,20,15,12,18,29,25,,,,,1.63,0.81,1.42*15
$GNGSA,A,3,79,80,83,84,73,85,,,,,,,1.63,0.81,1.42*1E
$GPGSV,5,1,17,05,62,080,26,11,06,026,,12,51,016,26,13,16,137,*70
$GPGSV,5,2,17,15,31,171,21,18,32,252,23,20,33,045,19,22,07,132,*7A
$GPGSV,5,3,17,23,17,207,18,24,51,207,23,25,27,342,14,29,09,319,10*7E
$GPGSV,5,4,17,36,52,277,,40,86,351,,41,58,082,,49,32,274,*7C
$GPGSV,5,5,17,50,10,089,*4A
$GLGSV,3,1,09,68,16,098,,69,24,149,,70,03,208,,73,35,338,24*61
$GLGSV,3,2,09,79,28,149,20,80,81,095,34,83,15,355,17,84,28,299,26*67
$GLGSV,3,3,09,85,11,249,22*5E
$GNGLL,0419.92387,S,05539.63326,E,051905.00,A,A*61
$GNGRS,051905.00,1,-4.0,-4.4,-7.3,9.0,0.4,-0.6,25.1,25.5,,,,*57
$GNGRS,051905.00,1,-4.8,-1.4,13.3,1.8,-9.9,-8.7,,,,,,*66
$GNGST,051905.00,42,,,,4.1,5.3,11*6A
$GNZDA,051905.00,28,05,2025,00,00*7A
$GNGBS,051905.00,4.1,5.3,10.9,,,,*6C
$GNTXT,01,01,01,More than 100 frame errors, UART RX was disabled*70
b0L`>P3
 !-w3V?{4V_:R 
Y
lDbEFI#ROPQ_SciT+UJb`U
9w$GNRMC,051906.00,A,0419.92384,S,05539.63318,E,0.409,,280525,,,A*70
$GNVTG,,T,,M,0.409,N,0.757,K,A*35
$GNGNS,051906.00,0419.92384,S,05539.63318,E,AA,14,0.81,21.4,-47.6,,*60
$GNGGA,051906.00,0419.92384,S,05539.63318,E,1,12,0.81,21.4,M,-47.6,M,,*4C
$GNGSA,A,3,24,05,20,15,12,18,29,25,,,,,1.63,0.81,1.42*15
$GNGSA,A,3,79,80,83,84,73,85,,,,,,,1.63,0.81,1.42*1E
$GPGSV,5,1,17,05,62,080,26,11,06,026,,12,51,016,26,13,16,137,*70
$GPGSV,5,2,17,15,31,171,21,18,32,252,23,20,33,045,18,22,07,132,*7B
$GPGSV,5,3,17,23,17,207,17,24,51,207,22,25,27,342,14,29,09,319,14*74
$GPGSV,5,4,17,36,52,277,,40,86,351,,41,58,082,,49,32,274,*7C
$GPGSV,5,5,17,50,10,089,*4A
$GLGSV,3,1,09,68,16,098,,69,24,149,,70,03,208,,73,35,338,24*61
$GLGSV,3,2,09,79,28,149,20,80,81,095,30,83,15,355,18,84,28,299,26*6C
$GLGSV,3,3,09,85,11,249,22*5E
$GNGLL,0419.92384,S,05539.63318,E,051906.00,A,A*6C
$GNGRS,051906.00,1,-3.4,-5.4,-6.5,7.9,10.3,2.6,24.5,25.5,,,,*4A
$GNGRS,051906.00,1,-5.9,0.3,11.3,-0.8,-11.4,-8.1,,,,,,*52
$GNGST,051906.00,43,,,,4.2,5.3,11*6B
$GNZDA,051906.00,28,05,2025,00,00*79
$GNGBS,051906.00,4.2,5.3,10.9,,,,*6C
$GNTXT,01,01,01,More than 100 frame errors, UART RX was disabled*70
b0LH>P3
 !-3V
?{4V_:R 
Y
lDbEFI#ROP$Q_2ScT+/UbHU
9$GNRMC,051907.00,A,0419.92391,S,05539.63314,E,0.385,,280525,,,A*7A
$GNVTG,,T,,M,0.385,N,0.713,K,A*36
$GNGNS,051907.00,0419.92391,S,05539.63314,E,AA,14,0.81,21.6,-47.6,,*6B
$GNGGA,051907.00,0419.92391,S,05539.63314,E,1,12,0.81,21.6,M,-47.6,M,,*47
$GNGSA,A,3,24,05,20,15,12,18,29,25,,,,,1.63,0.81,1.42*15
$GNGSA,A,3,79,80,83,84,73,85,,,,,,,1.63,0.81,1.42*1E
$GPGSV,5,1,17,05,62,080,26,11,06,026,,12,51,016,27,13,16,137,*71
$GPGSV,5,2,17,15,31,171,21,18,32,252,23,20,33,045,19,22,07,132,*7A
$GPGSV,5,3,17,23,17,207,20,24,51,207,21,25,27,342,13,29,09,319,11*71
$GPGSV,5,4,17,36,52,277,,40,86,351,,41,58,082,,49,32,274,*7C
$GPGSV,5,5,17,50,10,089,*4A
$GLGSV,3,1,09,68,16,098,,69,24,149,,70,03,208,,73,35,338,26*63
$GLGSV,3,2,09,79,27,150,20,80,81,095,36,83,15,355,19,84,28,299,27*6D
$GLGSV,3,3,09,85,11,249,21*5D
$GNGLL,0419.92391,S,05539.63314,E,051907.00,A,A*65
$GNGRS,051907.00,1,-5.1,-5.5,-5.2,6.8,7.5,-1.1,29.8,28.1,,,,*5D
$GNGRS,051907.00,1,-7.7,3.1,10.3,-7.2,-7.4,-8.5,,,,,,*61
$GNGST,051907.00,42,,,,4.3,5.4,11*6D
$GNZDA,051907.00,28,05,2025,00,00*78
$GNGBS,051907.00,4.3,5.4,10.9,,,,*6B
$GNTXT,01,01,01,More than 100 frame errors, UART RX was disabled*70
b0L0>P3
 2!-3V?{4V_:R 
Y
lDbEFI#RqOPQdScT+SU(b0U
9ZD$GNRMC,051908.00,A,0419.92414,S,05539.63318,E,0.923,,280525,,,A*75
$GNVTG,,T,,M,0.923,N,1.709,K,A*3A
$GNGNS,051908.00,0419.92414,S,05539.63318,E,AA,14,0.81,21.3,-47.6,,*67
$GNGGA,051908.00,0419.92414,S,05539.63318,E,1,12,0.81,21.3,M,-47.6,M,,*4B
$GNGSA,A,3,24,05,20,15,12,18,29,25,,,,,1.63,0.81,1.42*15
$GNGSA,A,3,79,80,83,84,73,85,,,,,,,1.63,0.81,1.42*1E
$GPGSV,5,1,17,05,62,080,26,11,06,026,,12,51,016,26,13,16,137,*70
$GPGSV,5,2,17,15,31,171,21,18,32,252,23,20,33,045,19,22,07,132,*7A
$GPGSV,5,3,17,23,17,207,19,24,51,207,21,25,27,342,14,29,09,319,09*75
$GPGSV,5,4,17,36,52,277,,40,86,351,,41,58,082,,49,32,274,*7C
$GPGSV,5,5,17,50,10,089,*4A
$GLGSV,3,1,09,68,16,098,,69,24,149,,70,03,208,,73,35,338,25*60
$GLGSV,3,2,09,79,27,150,19,80,81,100,28,83,15,355,19,84,28,299,26*64
$GLGSV,3,3,09,85,11,249,22*5E
$GNGLL,0419.92414,S,05539.63318,E,051908.00,A,A*6C
$GNGRS,051908.00,1,-4.8,-6.4,-2.7,7.1,7.0,0.5,25.6,29.9,,,,*74
$GNGRS,051908.00,1,-8.7,4.7,11.6,-4.3,-6.6,-12.4,,,,,,*5F
$GNGST,051908.00,43,,,,4.4,5.4,11*64
$GNZDA,051908.00,28,05,2025,00,00*77
$GNGBS,051908.00,4.4,5.4,11.0,,,,*6B
$GNTXT,01,01,01,More than 100 frame errors, UART RX was disabled*70
b0L>P3
 C!-3VY?
{4V_:R 
Y
lDbEFI#RO.PQdScT+UfbU
92$GNRMC,051909.00,A,0419.92402,S,05539.63307,E,0.162,,280525,,,A*70
$GNVTG,,T,,M,0.162,N,0.299,K,A*3A
$GNGNS,051909.00,0419.92402,S,05539.63307,E,AA,14,0.81,22.0,-47.6,,*6F
$GNGGA,051909.00,0419.92402,S,05539.63307,E,1,12,0.81,22.0,M,-47.6,M,,*43
$GNGSA,A,3,24,05,20,15,12,18,29,25,,,,,1.63,0.81,1.42*15
$GNGSA,A,3,79,80,83,84,73,85,,,,,,,1.63,0.81,1.42*1E
$GPGSV,5,1,17,05,62,080,27,11,06,026,,12,51,016,31,13,16,137,*77
$GPGSV,5,2,17,15,31,171,22,18,32,252,24,20,33,045,19,22,07,132,*7E
$GPGSV,5,3,17,23,17,207,18,24,51,207,21,25,27,342,15,29,09,319,12*7F
$GPGSV,5,4,17,36,52,277,,40,86,351,,41,58,082,,49,32,274,*7C
$GPGSV,5,5,17,50,10,089,*4A
$GLGSV,3,1,09,68,16,098,,69,24,149,,70,03,208,,73,35,338,23*66
$GLGSV,3,2,09,79,27,150,19,80,81,100,31,83,15,355,17,84,28,299,26*62
$GLGSV,3,3,09,85,11,249,23*5F
$GNGLL,0419.92402,S,05539.63307,E,051909.00,A,A*64
$GNGRS,051909.00,1,-5.7,-0.9,-2.4,4.6,6.4,0.7,25.7,29.0,,,,*78
$GNGRS,051909.00,1,-9.8,7.0,9.2,-0.2,-5.7,-14.3,,,,,,*6F
$GNGST,051909.00,42,,,,4.4,5.5,11*65
$GNZDA,051909.00,28,05,2025,00,00*76
$GNGBS,051909.00,4.4,5.5,11.0,,,,*6B
$GNTXT,01,01,01,More than 100 frame errors, UART RX was disabled*70
b0L>P3j
 !-3V-?{4V_:R 
Y
lDbEFI#RO/PQdScT+1UobU
9
$GNRMC,051910.00,A,0419.92395,S,05539.63300,E,0.122,,280525,,,A*72
$GNVTG,,T,,M,0.122,N,0.225,K,A*39
$GNGNS,051910.00,0419.92395,S,05539.63300,E,AA,14,0.78,22.5,-47.6,,*6A
$GNGGA,051910.00,0419.92395,S,05539.63300,E,1,12,0.78,22.5,M,-47.6,M,,*46
$GNGSA,A,3,24,05,20,15,12,18,29,25,,,,,1.55,0.78,1.33*10
$GNGSA,A,3,79,80,83,84,73,85,,,,,,,1.55,0.78,1.33*1B
$GPGSV,5,1,17,05,62,080,27,11,06,026,,12,51,016,30,13,16,137,*76
$GPGSV,5,2,17,15,31,171,22,18,32,252,23,20,33,045,18,22,07,132,*78
$GPGSV,5,3,17,23,17,207,18,24,51,207,21,25,27,342,11,29,09,319,09*71
$GPGSV,5,4,17,36,52,277,,40,86,351,,41,58,082,,49,32,274,*7C
$GPGSV,5,5,17,50,10,089,*4A
$GLGSV,3,1,09,68,16,098,,69,24,149,,70,03,208,,73,35,338,22*67
$GLGSV,3,2,09,79,27,150,18,80,81,100,30,83,15,355,14,84,28,299,25*62
$GLGSV,3,3,09,85,11,249,22*5E
$GNGLL,0419.92395,S,05539.63300,E,051910.00,A,A*62
$GNGRS,051910.00,1,-6.0,-5.2,-2.7,3.6,2.2,-0.7,-11.1,-4.7,,,,*68
$GNGRS,051910.00,1,-9.8,4.6,7.9,-2.1,-6.2,-14.2,,,,,,*61
$GNGST,051910.00,55,,,,4.4,5.5,11*6B
$GNZDA,051910.00,28,05,2025,00,00*7E
$GNGBS,051910.00,4.4,5.5,11.1,,,,*62
$GNTXT,01,01,01,More than 100 frame errors, UART RX was disabled*70
b0L>P3^"
 !-m38V?{4V_:R 
Y
lDbEFI#ROPQd:Sc@T+8U)~bU
9m$GNRMC,051911.00,A,0419.92392,S,05539.63299,E,0.046,,280525,,,A*76
$GNVTG,,T,,M,0.046,N,0.086,K,A*31
$GNGNS,051911.00,0419.92392,S,05539.63299,E,AA,14,0.79,22.8,-47.6,,*61
$GNGGA,051911.00,0419.92392,S,05539.63299,E,1,12,0.79,22.8,M,-47.6,M,,*4D
$GNGSA,A,3,24,05,20,15,12,18,29,25,,,,,1.62,0.79,1.41*10
$GNGSA,A,3,79,80,83,84,73,85,,,,,,,1.62,0.79,1.41*1B
$GPGSV,5,1,17,05,62,080,27,11,06,026,,12,51,016,30,13,16,137,*76
$GPGSV,5,2,17,15,31,171,22,18,32,252,25,20,33,045,19,22,07,132,*7F
$GPGSV,5,3,17,23,17,207,18,24,51,207,22,25,27,342,13,29,09,319,11*79
$GPGSV,5,4,17,36,52,277,,40,86,351,,41,58,082,,49,32,274,*7C
$GPGSV,5,5,17,50,10,089,*4A
$GLGSV,3,1,09,68,16,098,,69,24,149,,70,03,208,,73,35,338,22*67
$GLGSV,3,2,09,79,27,150,18,80,81,100,30,83,15,355,17,84,28,299,25*61
$GLGSV,3,3,09,85,11,249,22*5E
$GNGLL,0419.92392,S,05539.63299,E,051911.00,A,A*65
$GNGRS,051911.00,1,-7.1,-7.4,-1.5,5.5,3.5,-2.3,25.5,12.2,,,,*58
$GNGRS,051911.00,1,-11.3,5.7,8.3,-2.0,-5.8,-14.0,,,,,,*5D
$GNGST,051911.00,3300339,,,,4.5,5.5,11*52
$GNZDA,051911.00,28,05,2025,00,00*7F
$GNGBS,051911.00,4.5,5.5,11.2,,,,*61
$GNTXT,01,01,01,More than 100 frame errors, UART RX was disabled*70
b0L>P33
 !-3SV
?{4V_:R 
Y
lDbEFI#ROxPQdScnT+U\bU
9$GNRMC,051912.00,A,0419.92392,S,05539.63296,E,0.212,,280525,,,A*79
$GNVTG,,T,,M,0.212,N,0.393,K,A*35
$GNGNS,051912.00,0419.92392,S,05539.63296,E,AA,14,0.79,23.1,-47.6,,*65
$GNGGA,051912.00,0419.92392,S,05539.63296,E,1,12,0.79,23.1,M,-47.6,M,,*49
$GNGSA,A,3,24,05,20,15,12,18,29,25,,,,,1.62,0.79,1.41*10
$GNGSA,A,3,79,80,83,84,73,85,,,,,,,1.62,0.79,1.41*1B
$GPGSV,5,1,17,05,62,080,27,11,06,026,,12,51,016,29,13,16,137,*7E
$GPGSV,5,2,17,15,31,171,21,18,32,252,24,20,33,045,18,22,07,132,*7C
$GPGSV,5,3,17,23,17,207,17,24,51,207,22,25,27,342,12,29,09,319,10*76
$GPGSV,5,4,17,36,52,277,,40,86,351,,41,58,082,,49,32,274,*7C
$GPGSV,5,5,17,50,10,089,*4A
$GLGSV,3,1,09,68,16,098,,69,24,149,,70,03,208,,73,35,338,21*64
$GLGSV,3,2,09,79,27,150,18,80,81,100,31,83,15,355,14,84,28,299,26*60
$GLGSV,3,3,09,85,11,249,23*5F
$GNGLL,0419.92392,S,05539.63296,E,051912.00,A,A*69
$GNGRS,051912.00,1,-4.3,-7.2,-2.4,2.2,2.8,-3.1,25.3,12.1,,,,*54
$GNGRS,051912.00,1,-11.6,1.6,8.8,-2.7,-3.4,-14.1,,,,,,*59
$GNGST,051912.00,3300339,,,,4.5,5.6,11*52
$GNZDA,051912.00,28,05,2025,00,00*7C
$GNGBS,051912.00,4.5,5.6,11.3,,,,*60
$GNTXT,01,01,01,More than 100 frame errors, UART RX was disabled*70
b0L>PU35
 !-3V?D{4V_:R 
Y
lDbEFI#ReOrP QdScT+U7")bU
k9=$GNRMC,051913.00,A,0419.92381,S,05539.63297,E,0.046,,280525,,,A*78
$GNVTG,,T,,M,0.046,N,0.086,K,A*31
$GNGNS,051913.00,0419.92381,S,05539.63297,E,AA,14,0.79,23.5,-47.6,,*63
$GNGGA,051913.00,0419.92381,S,05539.63297,E,1,12,0.79,23.5,M,-47.6,M,,*4F
$GNGSA,A,3,24,05,20,15,12,18,29,25,,,,,1.62,0.79,1.41*10
$GNGSA,A,3,79,80,83,84,73,85,,,,,,,1.62,0.79,1.41*1B
$GPGSV,5,1,17,05,62,080,27,11,06,026,,12,51,016,28,13,16,137,*7F
$GPGSV,5,2,17,15,31,171,21,18,32,252,25,20,33,045,20,22,07,132,*76
$GPGSV,5,3,17,23,17,207,18,24,51,207,22,25,27,342,16,29,09,319,15*78
$GPGSV,5,4,17,36,52,277,,40,86,351,,41,58,082,,49,32,274,*7C
$GPGSV,5,5,17,50,10,089,*4A
$GLGSV,3,1,09,68,16,098,,69,24,149,,70,03,208,,73,35,338,22*67
$GLGSV,3,2,09,79,27,150,19,80,81,100,32,83,15,355,18,84,28,299,27*6F
$GLGSV,3,3,09,85,11,250,25*51
$GNGLL,0419.92381,S,05539.63297,E,051913.00,A,A*6B
$GNGRS,051913.00,1,-2.6,-6.8,-1.0,3.1,7.9,-5.7,-96.6,9.0,,,,*47
$GNGRS,051913.00,1,-11.7,4.2,2.1,-0.9,-4.1,-14.8,,,,,,*5C
$GNGST,051913.00,42,,,,4.5,5.6,11*6C
$GNZDA,051913.00,28,05,2025,00,00*7D
$GNGBS,051913.00,4.5,5.6,11.3,,,,*61
$GNTXT,01,01,01,More than 100 frame errors, UART RX was disabled*70
b0L>PI3;
 1!-k3V?{4V_:R 
Y
lDbEFI#ROP!QdScT+UEbU
S9i$GNRMC,051914.00,A,0419.92374,S,05539.63302,E,0.054,,280525,,,A*7B
$GNVTG,,T,,M,0.054,N,0.101,K,A*3C
$GNGNS,051914.00,0419.92374,S,05539.63302,E,AA,14,0.79,23.5,-47.6,,*63
$GNGGA,051914.00,0419.92374,S,05539.63302,E,1,12,0.79,23.5,M,-47.6,M,,*4F
$GNGSA,A,3,24,05,20,15,12,18,29,25,,,,,1.62,0.79,1.41*10
$GNGSA,A,3,79,80,83,84,73,85,,,,,,,1.62,0.79,1.41*1B
$GPGSV,5,1,17,05,62,080,27,11,06,026,,12,51,016,28,13,16,137,*7F
$GPGSV,5,2,17,15,31,171,21,18,32,252,27,20,33,045,21,22,07,132,*75
$GPGSV,5,3,17,23,17,207,20,24,51,207,21,25,27,342,15,29,09,319,12*74
$GPGSV,5,4,17,36,52,277,,40,86,351,,41,58,082,,49,32,274,*7C
$GPGSV,5,5,17,50,10,089,*4A
$GLGSV,3,1,09,68,16,098,,69,24,149,,70,03,208,,73,35,338,22*67
$GLGSV,3,2,09,79,27,150,17,80,81,100,33,83,15,355,13,84,28,299,27*6B
$GLGSV,3,3,09,85,11,250,23*57
$GNGLL,0419.92374,S,05539.63302,E,051914.00,A,A*6B
$GNGRS,051914.00,1,-3.4,-6.9,-1.5,5.7,2.2,-7.2,25.5,12.4,,,,*56
$GNGRS,051914.00,1,-10.0,-0.7,14.3,-2.6,-5.6,-10.9,,,,,,*4A
$GNGST,051914.00,79822,,,,4.5,5.6,11*5B
$GNZDA,051914.00,28,05,2025,00,00*7A
$GNGBS,051914.00,4.5,5.6,11.4,,,,*61
$GNTXT,01,01,01,More than 100 frame errors, UART RX was disabled*70
b0L>P3
 u!-3V(?{4V_:R 
Y
lDbEFI#R
OP"QdScT+UQqbU
;:B$GNRMC,051915.00,A,0419.92371,S,05539.63302,E,0.076,,280525,,,A*7F
$GNVTG,,T,,M,0.076,N,0.141,K,A*38
$GNGNS,051915.00,0419.92371,S,05539.63302,E,AA,14,0.79,23.6,-47.6,,*64
$GNGGA,051915.00,0419.92371,S,05539.63302,E,1,12,0.79,23.6,M,-47.6,M,,*48
$GNGSA,A,3,24,05,20,15,12,18,29,25,,,,,1.62,0.79,1.41*10
$GNGSA,A,3,79,80,83,84,73,85,,,,,,,1.62,0.79,1.41*1B
$GPGSV,5,1,17,05,62,080,27,11,06,026,,12,51,016,29,13,16,137,*7E
$GPGSV,5,2,17,15,31,171,21,18,32,252,26,20,33,045,21,22,07,132,*74
$GPGSV,5,3,17,23,17,207,21,24,51,207,23,25,27,342,18,29,09,319,11*79
$GPGSV,5,4,17,36,52,277,,40,86,351,,41,58,082,,49,32,274,*7C
$GPGSV,5,5,17,50,10,089,*4A
$GLGSV,3,1,09,68,16,098,,69,24,149,17,70,03,208,,73,35,338,23*60
$GLGSV,3,2,09,79,27,150,19,80,81,100,34,83,15,355,12,84,28,299,28*6C
$GLGSV,3,3,09,85,11,250,24*50
$GNGLL,0419.92371,S,05539.63302,E,051915.00,A,A*6F
$GNGRS,051915.00,1,-3.4,-5.1,-2.7,6.7,-1.3,-4.0,25.4,10.6,,,,*71
$GNGRS,051915.00,1,-10.5,-1.3,14.3,-1.1,-5.0,-11.3,,,,,,*42
$GNGST,051915.00,119732,,,,4.5,5.6,11*63
$GNZDA,051915.00,28,05,2025,00,00*7B
$GNGBS,051915.00,4.5,5.6,11.4,,,,*60
$GNTXT,01,01,01,More than 100 frame errors, UART RX was disabled*70
b0Lp>P3e:
 !-|3Vj?^{4V_:R 
Y
lDbEFI#RO8P"QdScT+U@|bpU
#:w$GNRMC,051916.00,A,0419.92365,S,05539.63309,E,0.100,,280525,,,A*72
$GNVTG,,T,,M,0.100,N,0.185,K,A*30
$GNGNS,051916.00,0419.92365,S,05539.63309,E,AA,14,0.79,23.5,-47.6,,*6A
$GNGGA,051916.00,0419.92365,S,05539.63309,E,1,12,0.79,23.5,M,-47.6,M,,*46
$GNGSA,A,3,24,05,20,15,12,18,29,25,,,,,1.62,0.79,1.41*10
$GNGSA,A,3,79,80,83,84,73,85,,,,,,,1.62,0.79,1.41*1B
$GPGSV,5,1,17,05,62,080,27,11,06,026,,12,51,016,28,13,16,137,*7F
$GPGSV,5,2,17,15,31,171,22,18,32,252,27,20,33,045,22,22,07,132,*75
$GPGSV,5,3,17,23,17,207,22,24,51,207,25,25,27,342,20,29,09,319,14*72
$GPGSV,5,4,17,36,52,277,,40,86,351,,41,58,082,,49,32,274,*7C
$GPGSV,5,5,17,50,10,089,*4A
$GLGSV,3,1,09,68,16,098,,69,24,149,,70,03,208,,73,35,338,25*60
$GLGSV,3,2,09,79,27,150,20,80,81,100,34,83,15,355,15,84,28,299,28*61
$GLGSV,3,3,09,85,11,250,25*51
$GNGLL,0419.92365,S,05539.63309,E,051916.00,A,A*62
$GNGRS,051916.00,1,-2.7,-5.5,-1.3,5.7,1.0,-3.1,-45.1,11.3,,,,*72
$GNGRS,051916.00,1,-9.7,-3.2,17.6,-3.3,-5.0,-12.2,,,,,,*7C
$GNGST,051916.00,40,,,,4.5,5.6,11*6B
$GNZDA,051916.00,28,05,2025,00,00*78
$GNGBS,051916.00,4.5,5.6,11.3,,,,*64
$GNTXT,01,01,01,More than 100 frame errors, UART RX was disabled*70
b0LX>Pn3
 !-3V?{4V_:R 
Y
lDbEFI#ROrPQdScT+UbXU
:$GNRMC,051917.00,A,0419.92359,S,05539.63309,E,0.068,,280525,,,A*73
$GNVTG,,T,,M,0.068,N,0.125,K,A*35
$GNGNS,051917.00,0419.92359,S,05539.63309,E,AA,14,0.79,23.5,-47.6,,*64
$GNGGA,051917.00,0419.92359,S,05539.63309,E,1,12,0.79,23.5,M,-47.6,M,,*48
$GNGSA,A,3,24,05,20,15,12,18,29,25,,,,,1.62,0.79,1.41*10
$GNGSA,A,3,79,80,83,84,73,85,,,,,,,1.62,0.79,1.41*1B
$GPGSV,5,1,17,05,62,080,26,11,06,026,,12,51,016,29,13,16,137,*7F
$GPGSV,5,2,17,15,31,171,20,18,32,252,25,20,33,045,20,22,07,132,*77
$GPGSV,5,3,17,23,17,207,21,24,51,207,26,25,27,342,17,29,09,319,09*7A
$GPGSV,5,4,17,36,52,277,,40,86,351,,41,58,082,,49,32,274,*7C
$GPGSV,5,5,17,50,10,089,*4A
$GLGSV,3,1,09,68,16,098,,69,24,149,,70,03,208,,73,35,338,23*66
$GLGSV,3,2,09,79,27,150,18,80,81,100,29,83,15,355,13,84,28,299,20*68
$GLGSV,3,3,09,85,11,250,24*50
$GNGLL,0419.92359,S,05539.63309,E,051917.00,A,A*6C
$GNGRS,051917.00,1,-3.7,-6.6,-0.3,6.7,-0.5,-6.0,25.5,12.2,,,,*70
$GNGRS,051917.00,1,-6.5,-6.0,14.1,-3.1,-3.8,-10.5,,,,,,*7A
$GNGST,051917.00,36585,,,,4.5,5.6,11*53
$GNZDA,051917.00,28,05,2025,00,00*79
$GNGBS,051917.00,4.5,5.6,11.4,,,,*62
$GNTXT,01,01,01,More than 100 frame errors, UART RX was disabled*70
b0L@>P3)/
 !-R3V?{4V_:R 
Y
lDbEFI#ROP!QdScZT+Ub@U
:D$GNRMC,051918.00,A,0419.92351,S,05539.63321,E,0.080,,280525,,,A*78
$GNVTG,,T,,M,0.080,N,0.149,K,A*39
$GNGNS,051918.00,0419.92351,S,05539.63321,E,AA,13,0.79,23.1,-47.6,,*6A
$GNGGA,051918.00,0419.92351,S,05539.63321,E,1,12,0.79,23.1,M,-47.6,M,,*41
$GNGSA,A,3,24,05,20,15,12,18,25,,,,,,1.62,0.79,1.41*1B
$GNGSA,A,3,79,80,83,84,73,85,,,,,,,1.62,0.79,1.41*1B
$GPGSV,5,1,17,05,62,080,27,11,06,026,,12,51,016,28,13,16,137,*7F
$GPGSV,5,2,17,15,31,171,21,18,32,252,25,20,33,045,20,22,07,132,*76
$GPGSV,5,3,17,23,17,207,21,24,51,207,27,25,27,342,14,29,09,319,07*76
$GPGSV,5,4,17,36,52,277,,40,86,351,,41,58,082,,49,32,274,*7C
$GPGSV,5,5,17,50,10,089,*4A
$GLGSV,3,1,09,68,16,098,,69,24,149,,70,03,208,,73,35,338,20*65
$GLGSV,3,2,09,79,27,150,17,80,81,100,33,83,15,355,09,84,28,299,23*64
$GLGSV,3,3,09,85,11,250,23*57
$GNGLL,0419.92351,S,05539.63321,E,051918.00,A,A*61
$GNGRS,051918.00,1,-3.7,-5.7,0.8,5.6,3.0,-8.8,14.1,,,,,*6D
$GNGRS,051918.00,1,-4.9,-3.1,13.7,-2.4,-2.6,-10.8,,,,,,*78
$GNGST,051918.00,53214,,,,4.5,5.7,12*52
$GNZDA,051918.00,28,05,2025,00,00*76
$GNGBS,051918.00,4.5,5.7,11.5,,,,*6D
$GNTXT,01,01,01,More than 100 frame errors, UART RX was disabled*70
b0L(>P3+
 Q!-3qV?#{4V_:R 
Y
lDbEFI#RmOP QdScT+Ub(U
:$GNRMC,051919.00,A,0419.92359,S,05539.63338,E,0.629,,280525,,,A*7C
$GNVTG,,T,,M,0.629,N,1.164,K,A*32
$GNGNS,051919.00,0419.92359,S,05539.63338,E,AA,14,0.79,22.7,-47.6,,*6B
$GNGGA,051919.00,0419.92359,S,05539.63338,E,1,12,0.79,22.7,M,-47.6,M,,*47
$GNGSA,A,3,24,05,20,15,12,18,29,25,,,,,1.62,0.79,1.41*10
$GNGSA,A,3,79,80,83,84,73,85,,,,,,,1.62,0.79,1.41*1B
$GPGSV,5,1,17,05,62,080,27,11,06,026,,12,51,016,27,13,16,137,*70
$GPGSV,5,2,17,15,31,171,23,18,32,252,26,20,33,045,20,22,07,132,*77
$GPGSV,5,3,17,23,17,207,21,24,51,207,26,25,27,342,13,29,09,319,11*77
$GPGSV,5,4,17,36,52,277,,40,86,351,,41,58,082,,49,32,274,*7C
$GPGSV,5,5,17,50,10,089,*4A
$GLGSV,3,1,09,68,16,098,,69,24,149,,70,03,208,,73,35,338,17*61
$GLGSV,3,2,09,79,27,150,16,80,81,100,32,83,15,355,08,84,28,299,25*63
$GLGSV,3,3,09,85,11,250,22*56
$GNGLL,0419.92359,S,05539.63338,E,051919.00,A,A*60
$GNGRS,051919.00,1,-1.4,-6.0,-0.1,5.1,0.4,-6.9,-63.7,12.9,,,,*7D
$GNGRS,051919.00,1,-3.0,-3.3,7.5,-0.9,-1.5,-10.8,,,,,,*4D
$GNGST,051919.00,52,,,,4.6,5.8,12*69
$GNZDA,051919.00,28,05,2025,00,00*77
$GNGBS,051919.00,4.6,5.8,11.6,,,,*63
$GNTXT,01,01,01,More than 100 frame errors, UART RX was disabled*70
b0L>P3
 !-3WV?{4V_:R 
Y
lDbEFI#ROPQdScvT+JUvbU
:y$GNRMC,051920.00,A,0419.92354,S,05539.63344,E,0.094,,280525,,,A*70
$GNVTG,,T,,M,0.094,N,0.174,K,A*32
$GNGNS,051920.00,0419.92354,S,05539.63344,E,AA,14,0.79,22.7,-47.6,,*67
$GNGGA,051920.00,0419.92354,S,05539.63344,E,1,12,0.79,22.7,M,-47.6,M,,*4B
$GNGSA,A,3,24,05,20,15,12,18,29,25,,,,,1.62,0.79,1.41*10
$GNGSA,A,3,79,80,83,84,73,85,,,,,,,1.62,0.79,1.41*1B
$GPGSV,5,1,17,05,62,080,26,11,06,026,,12,51,016,27,13,16,137,*71
$GPGSV,5,2,17,15,31,171,22,18,32,252,25,20,33,045,19,22,07,132,*7F
$GPGSV,5,3,17,23,17,207,21,24,51,207,26,25,27,342,13,29,09,319,09*7E
$GPGSV,5,4,17,36,52,277,,40,86,351,,41,58,082,,49,32,274,*7C
$GPGSV,5,5,17,50,10,089,*4A
$GLGSV,3,1,09,68,16,098,,69,24,149,,70,03,208,,73,35,338,19*6F
$GLGSV,3,2,09,79,27,150,15,80,81,100,31,83,15,355,11,84,28,299,26*68
$GLGSV,3,3,09,85,11,250,25*51
$GNGLL,0419.92354,S,05539.63344,E,051920.00,A,A*6C
$GNGRS,051920.00,1,-4.2,-7.6,-0.4,2.8,-0.8,-3.3,25.3,17.6,,,,*77
$GNGRS,051920.00,1,-3.7,-2.9,14.0,-1.8,-2.4,-14.2,,,,,,*70
$GNGST,051920.00,69844,,,,4.6,5.8,12*53
$GNZDA,051920.00,28,05,2025,00,00*7D
$GNGBS,051920.00,4.6,5.8,11.7,,,,*68
$GNTXT,01,01,01,More than 100 frame errors, UART RX was disabled*70
b0L>O3
 !-T3VU

?{4V_:R 
Y
lDbEFI#ROP#Qd9ScPT+AUh8bU
:Pm$GNRMC,051921.00,A,0419.92356,S,05539.63352,E,0.224,,280525,,,A*7D
$GNVTG,,T,,M,0.224,N,0.415,K,A*39
$GNGNS,051921.00,0419.92356,S,05539.63352,E,AA,14,0.81,22.2,-47.6,,*61
$GNGGA,051921.00,0419.92356,S,05539.63352,E,1,12,0.81,22.2,M,-47.6,M,,*4D
$GNGSA,A,3,24,05,20,15,12,18,29,25,,,,,1.63,0.81,1.42*15
$GNGSA,A,3,79,80,83,84,73,85,,,,,,,1.63,0.81,1.42*1E
$GPGSV,5,1,17,05,62,079,25,11,06,026,,12,51,016,27,13,16,137,*74
$GPGSV,5,2,17,15,31,171,23,18,32,252,25,20,33,045,19,22,07,132,*7E
$GPGSV,5,3,17,23,17,207,21,24,51,207,27,25,27,342,09,29,09,319,10*7C
$GPGSV,5,4,17,36,52,277,,40,86,351,,41,58,082,,49,32,274,*7C
$GPGSV,5,5,17,50,10,089,*4A
$GLGSV,3,1,09,68,16,098,,69,24,149,,70,03,208,,73,35,338,20*65
$GLGSV,3,2,09,79,27,150,18,80,81,100,35,83,15,355,15,84,28,299,27*64
$GLGSV,3,3,09,85,11,250,23*57
$GNGLL,0419.92356,S,05539.63352,E,051921.00,A,A*68
$GNGRS,051921.00,1,-3.3,-5.4,0.8,0.1,-1.0,-1.1,24.6,26.4,,,,*57
$GNGRS,051921.00,1,-6.4,-2.0,13.6,-1.9,-3.4,-11.8,,,,,,*70
$GNGST,051921.00,107313,,,,4.6,5.8,12*62
$GNZDA,051921.00,28,05,2025,00,00*7C
$GNGBS,051921.00,4.6,5.8,11.7,,,,*69
$GNTXT,01,01,01,More than 100 frame errors, UART RX was disabled*70
b0L>O34
 !-F3V
?{4V_:R 
Y
lDbEFI#R@OP#QdScT+wUktbU
:($GNRMC,051922.00,A,0419.92340,S,05539.63346,E,0.185,,280525,,,A*74
$GNVTG,,T,,M,0.185,N,0.342,K,A*34
$GNGNS,051922.00,0419.92340,S,05539.63346,E,AA,14,0.78,22.6,-47.6,,*62
$GNGGA,051922.00,0419.92340,S,05539.63346,E,1,12,0.78,22.6,M,-47.6,M,,*4E
$GNGSA,A,3,24,05,20,15,12,18,29,25,,,,,1.54,0.78,1.33*11
$GNGSA,A,3,79,80,83,84,73,85,,,,,,,1.54,0.78,1.33*1A
$GPGSV,5,1,17,05,62,079,26,11,06,026,,12,51,016,28,13,16,137,*78
$GPGSV,5,2,17,15,31,171,22,18,32,252,25,20,33,045,20,22,07,132,*75
$GPGSV,5,3,17,23,17,207,19,24,51,207,27,25,27,342,13,29,09,319,15*79
$GPGSV,5,4,17,36,52,277,,40,86,351,,41,58,082,,49,32,274,*7C
$GPGSV,5,5,17,50,10,089,*4A
$GLGSV,3,1,09,68,16,098,,69,24,149,,70,03,208,,73,35,338,20*65
$GLGSV,3,2,09,79,27,150,22,80,81,100,35,83,15,355,14,84,28,299,28*63
$GLGSV,3,3,09,85,11,250,25*51
$GNGLL,0419.92340,S,05539.63346,E,051922.00,A,A*69
$GNGRS,051922.00,1,-5.8,-5.1,0.7,-2.0,4.9,2.3,5.0,27.4,,,,*44
$GNGRS,051922.00,1,-5.5,-0.2,9.1,-1.4,-4.5,-12.9,,,,,,*44
$GNGST,051922.00,52,,,,4.6,5.8,12*61
$GNZDA,051922.00,28,05,2025,00,00*7F
$GNGBS,051922.00,4.6,5.8,11.6,,,,*6B
$GNTXT,01,01,01,More than 100 frame errors, UART RX was disabled*70
b0L>O3B
 
!-3VP?
{4V_:R 
Y
lDbEFI#RSOP"QdScT+$UbU
{ :=$GNRMC,051923.00,A,0419.92326,S,05539.63336,E,0.095,,280525,,,A*72
$GNVTG,,T,,M,0.095,N,0.176,K,A*31
$GNGNS,051923.00,0419.92326,S,05539.63336,E,AA,14,0.81,23.3,-47.6,,*66
$GNGGA,051923.00,0419.92326,S,05539.63336,E,1,12,0.81,23.3,M,-47.6,M,,*4A
$GNGSA,A,3,24,05,20,15,12,18,29,25,,,,,1.63,0.81,1.42*15
$GNGSA,A,3,79,80,83,84,73,85,,,,,,,1.63,0.81,1.42*1E
$GPGSV,5,1,17,05,62,079,25,11,06,026,,12,51,016,28,13,16,137,*7B
$GPGSV,5,2,17,15,31,171,23,18,32,252,27,20,33,045,22,22,07,132,*74
$GPGSV,5,3,17,23,17,207,19,24,51,207,28,25,27,342,18,29,09,319,12*7A
$GPGSV,5,4,17,36,52,277,,40,86,351,,41,58,082,,49,32,274,*7C
$GPGSV,5,5,17,50,10,089,*4A
$GLGSV,3,1,09,68,16,098,,69,24,149,,70,03,208,,73,35,338,20*65
$GLGSV,3,2,09,79,27,150,22,80,81,100,34,83,15,355,13,84,28,299,29*64
$GLGSV,3,3,09,85,11,250,25*51
$GNGLL,0419.92326,S,05539.63336,E,051923.00,A,A*6F
$GNGRS,051923.00,1,-5.6,-3.7,-0.2,-0.1,5.8,2.7,25.7,23.8,,,,*59
$GNGRS,051923.00,1,-5.4,-0.7,14.5,-2.2,-4.3,-11.1,,,,,,*71
$GNGST,051923.00,48464,,,,4.5,5.8,12*5E
$GNZDA,051923.00,28,05,2025,00,00*7E
$GNGBS,051923.00,4.5,5.8,11.6,,,,*69
$GNTXT,01,01,01,More than 100 frame errors, UART RX was disabled*70
b0L>O]3`
 !-3V?
{4V_:R 
Y
lDbEFI#ROP!QdLScT+UIbU
c$:$GNRMC,051924.00,A,0419.92318,S,05539.63329,E,0.111,,280525,,,A*7B
$GNVTG,,T,,M,0.111,N,0.206,K,A*38
$GNGNS,051924.00,0419.92318,S,05539.63329,E,AA,14,0.81,23.8,-47.6,,*69
$GNGGA,051924.00,0419.92318,S,05539.63329,E,1,12,0.81,23.8,M,-47.6,M,,*45
$GNGSA,A,3,24,05,20,15,12,18,29,25,,,,,1.63,0.81,1.42*15
$GNGSA,A,3,79,80,83,84,73,85,,,,,,,1.63,0.81,1.42*1E
$GPGSV,5,1,17,05,62,079,26,11,06,026,,12,51,016,29,13,16,137,*79
$GPGSV,5,2,17,15,31,171,23,18,32,252,25,20,33,045,24,22,07,132,*70
$GPGSV,5,3,17,23,17,207,21,24,51,207,28,25,27,342,19,29,09,319,09*7A
$GPGSV,5,4,17,36,52,277,,40,86,351,,41,58,082,,49,32,274,*7C
$GPGSV,5,5,17,50,10,089,*4A
$GLGSV,3,1,09,68,16,098,,69,24,149,,70,03,208,,73,35,338,19*6F
$GLGSV,3,2,09,79,27,150,22,80,81,100,33,83,15,355,18,84,28,299,29*68
$GLGSV,3,3,09,85,11,250,25*51
$GNGLL,0419.92318,S,05539.63329,E,051924.00,A,A*6B
$GNGRS,051924.00,1,-5.8,-1.6,-0.9,1.0,5.4,7.2,25.7,22.9,,,,*79
$GNGRS,051924.00,1,-5.1,0.8,14.8,-0.8,-5.0,-11.3,,,,,,*54
$GNGST,051924.00,72696,,,,4.5,5.7,12*50
$GNZDA,051924.00,28,05,2025,00,00*79
$GNGBS,051924.00,4.5,5.7,11.5,,,,*62
$GNTXT,01,01,01,More than 100 frame errors, UART RX was disabled*70
b0L>O3_
 !-3V
?{4V_:R 
Y
lDbEFI#ROP!QdQS
cT+vUMbU
K(:$GNRMC,051925.00,A,0419.92311,S,05539.63321,E,0.117,,280525,,,A*7D
$GNVTG,,T,,M,0.117,N,0.216,K,A*3F
$GNGNS,051925.00,0419.92311,S,05539.63321,E,AA,14,0.80,24.3,-47.6,,*64
$GNGGA,051925.00,0419.92311,S,05539.63321,E,1,12,0.80,24.3,M,-47.6,M,,*48
$GNGSA,A,3,24,05,20,15,12,18,29,25,,,,,1.55,0.80,1.33*17
$GNGSA,A,3,79,80,83,84,73,85,,,,,,,1.55,0.80,1.33*1C
$GPGSV,5,1,17,05,62,079,26,11,06,026,,12,51,016,29,13,16,137,*79
$GPGSV,5,2,17,15,31,171,25,18,32,252,25,20,33,045,23,22,07,132,*71
$GPGSV,5,3,17,23,17,207,21,24,51,207,28,25,27,342,21,29,09,319,10*79
$GPGSV,5,4,17,36,52,277,,40,86,351,,41,58,082,,49,32,274,*7C
$GPGSV,5,5,17,50,10,089,*4A
$GLGSV,3,1,09,68,16,098,,69,24,149,,70,03,208,,73,35,338,20*65
$GLGSV,3,2,09,79,27,150,21,80,81,100,33,83,15,355,10,84,28,299,29*63
$GLGSV,3,3,09,85,11,250,25*51
$GNGLL,0419.92311,S,05539.63321,E,051925.00,A,A*6B
$GNGRS,051925.00,1,-5.6,-0.4,0.0,1.0,6.5,9.9,-5.9,20.7,,,,*4B
$GNGRS,051925.00,1,-7.5,3.4,14.8,-1.4,-8.1,-12.0,,,,,,*5D
$GNGST,051925.00,55,,,,4.5,5.7,11*6E
$GNZDA,051925.00,28,05,2025,00,00*78
$GNGBS,051925.00,4.5,5.7,11.4,,,,*62
$GNTXT,01,01,01,More than 100 frame errors, UART RX was disabled*70
b0L>OBW3W
 !-3VS
?{4V_:R 
Y
lDbEFI#R|OP!QdS
coT+UObU
3,:u$GNRMC,051926.00,A,0419.92297,S,05539.63321,E,0.255,,280525,,,A*74
$GNVTG,,T,,M,0.255,N,0.472,K,A*3E
$GNGNS,051926.00,0419.92297,S,05539.63321,E,AA,14,0.79,24.4,-47.6,,*69
$GNGGA,051926.00,0419.92297,S,05539.63321,E,1,12,0.79,24.4,M,-47.6,M,,*45
$GNGSA,A,3,24,05,20,15,12,18,29,25,,,,,1.62,0.79,1.41*10
$GNGSA,A,3,79,80,83,84,73,85,,,,,,,1.62,0.79,1.41*1B
$GPGSV,5,1,17,05,62,079,24,11,06,026,19,12,51,016,28,13,16,137,*72
$GPGSV,5,2,17,15,31,171,23,18,32,252,25,20,33,045,22,22,07,132,*76
$GPGSV,5,3,17,23,17,207,24,24,51,207,27,25,27,342,22,29,09,319,10*70
$GPGSV,5,4,17,36,52,277,,40,86,351,,41,58,082,,49,32,274,*7C
$GPGSV,5,5,17,50,10,089,*4A
$GLGSV,3,1,09,68,16,098,,69,24,149,,70,03,208,,73,35,338,21*64
$GLGSV,3,2,09,79,27,150,22,80,81,100,33,83,15,355,10,84,28,299,29*60
$GLGSV,3,3,09,85,11,250,23*57
$GNGLL,0419.92297,S,05539.63321,E,051926.00,A,A*67
$GNGRS,051926.00,1,-5.7,0.7,-0.8,2.6,6.0,9.9,25.4,18.8,,,,*54
$GNGRS,051926.00,1,-8.1,1.4,11.4,0.0,-6.4,-13.0,,,,,,*7C
$GNGST,051926.00,47,,,,4.4,5.7,11*6F
$GNZDA,051926.00,28,05,2025,00,00*7B
$GNGBS,051926.00,4.4,5.7,11.4,,,,*60
$GNTXT,01,01,01,More than 100 frame errors, UART RX was disabled*70
b0Lh>O/T3
 !-F3V?{4V_:R 
Y
lDbEFI#ROPQdSctT+U2]bhU
0:`$GNRMC,051927.00,A,0419.92278,S,05539.63310,E,0.326,,280525,,,A*73
$GNVTG,,T,,M,0.326,N,0.604,K,A*38
$GNGNS,051927.00,0419.92278,S,05539.63310,E,AA,14,0.79,25.0,-47.6,,*6E
$GNGGA,051927.00,0419.92278,S,05539.63310,E,1,12,0.79,25.0,M,-47.6,M,,*42
$GNGSA,A,3,24,05,20,15,12,18,29,25,,,,,1.62,0.79,1.41*10
$GNGSA,A,3,79,80,83,84,73,85,,,,,,,1.62,0.79,1.41*1B
$GPGSV,5,1,17,05,62,079,22,11,06,026,16,12,51,016,28,13,16,137,*7B
$GPGSV,5,2,17,15,31,171,23,18,32,252,23,20,33,045,23,22,07,132,*71
$GPGSV,5,3,17,23,17,207,23,24,51,207,26,25,27,342,21,29,09,319,09*7D
$GPGSV,5,4,17,36,52,277,,40,86,351,,41,58,082,,49,32,274,*7C
$GPGSV,5,5,17,50,10,089,*4A
$GLGSV,3,1,09,68,16,098,,69,24,149,,70,03,208,,73,35,338,22*67
$GLGSV,3,2,09,79,27,150,21,80,81,100,29,83,15,355,14,84,28,299,29*6C
$GLGSV,3,3,09,85,11,250,25*51
$GNGLL,0419.92278,S,05539.63310,E,051927.00,A,A*65
$GNGRS,051927.00,1,-7.9,0.5,-1.9,3.9,7.3,11.7,25.3,17.1,,,,*61
$GNGRS,051927.00,1,-7.4,1.3,11.4,-1.1,-7.6,-15.4,,,,,,*5C
$GNGST,051927.00,44,,,,4.4,5.7,11*6D
$GNZDA,051927.00,28,05,2025,00,00*7A
$GNGBS,051927.00,4.4,5.7,11.4,,,,*61
$GNTXT,01,01,01,More than 100 frame errors, UART RX was disabled*70
b0LP>OWV3
 !- 3V?${4V_:R 
Y
lDbEFI#RMOPQdfSc1T+zUo1bPU
4:8E$GNRMC,051928.00,A,0419.92266,S,05539.63315,E,0.040,,280525,,,A*75
$GNVTG,,T,,M,0.040,N,0.073,K,A*3D
$GNGNS,051928.00,0419.92266,S,05539.63315,E,AA,13,0.83,25.0,-47.6,,*69
$GNGGA,051928.00,0419.92266,S,05539.63315,E,1,12,0.83,25.0,M,-47.6,M,,*42
$GNGSA,A,3,24,05,20,15,12,18,29,25,,,,,1.80,0.83,1.60*1A
$GNGSA,A,3,79,80,84,73,85,,,,,,,,1.80,0.83,1.60*1A
$GPGSV,5,1,17,05,62,079,23,11,06,026,13,12,51,017,27,13,16,137,*71
$GPGSV,5,2,17,15,31,171,23,18,32,252,21,20,33,045,22,22,07,132,*72
$GPGSV,5,3,17,23,17,207,23,24,51,207,27,25,27,342,23,29,09,319,08*7F
$GPGSV,5,4,17,36,52,277,,40,86,351,,41,58,082,,49,32,274,*7C
$GPGSV,5,5,17,50,10,089,*4A
$GLGSV,3,1,09,68,16,098,,69,24,149,,70,03,208,,73,35,338,21*64
$GLGSV,3,2,09,79,27,150,21,80,81,100,31,83,15,355,14,84,28,299,29*65
$GLGSV,3,3,09,85,11,250,25*51
$GNGLL,0419.92266,S,05539.63315,E,051928.00,A,A*60
$GNGRS,051928.00,1,-8.8,0.9,0.3,3.9,7.1,11.9,94.2,12.8,,,,*41
$GNGRS,051928.00,1,-5.8,-1.5,-1.3,-6.9,-14.2,,,,,,,*67
$GNGST,051928.00,39,,,,4.4,5.7,11*68
$GNZDA,051928.00,28,05,2025,00,00*75
$GNGBS,051928.00,4.4,5.7,11.4,83,,-21.1,75.3*4B
$GNTXT,01,01,01,More than 100 frame errors, UART RX was disabled*70
b0L8>OY3
 _!-23V+?{4V_:R 
Y
lDbEQ:FI#RoOPQdWScT+UJb8U
7:$GNRMC,051929.00,A,0419.92253,S,05539.63313,E,0.197,,280525,,,A*7F
$GNVTG,,T,,M,0.197,N,0.366,K,A*31
$GNGNS,051929.00,0419.92253,S,05539.63313,E,AA,13,0.83,25.3,-47.6,,*6B
$GNGGA,051929.00,0419.92253,S,05539.63313,E,1,12,0.83,25.3,M,-47.6,M,,*40
$GNGSA,A,3,24,05,20,15,12,18,29,25,,,,,1.80,0.83,1.60*1A
$GNGSA,A,3,79,80,84,73,85,,,,,,,,1.80,0.83,1.60*1A
$GPGSV,5,1,17,05,62,079,23,11,06,026,11,12,51,017,26,13,16,137,*72
$GPGSV,5,2,17,15,31,171,22,18,32,252,21,20,33,045,22,22,07,132,*73
$GPGSV,5,3,17,23,17,207,22,24,51,207,26,25,27,342,22,29,09,319,12*75
$GPGSV,5,4,17,36,52,277,,40,86,351,,41,58,082,,49,32,274,*7C
$GPGSV,5,5,17,50,10,089,*4A
$GLGSV,3,1,09,68,16,098,,69,24,149,18,70,03,208,,73,35,338,21*6D
$GLGSV,3,2,09,79,27,150,20,80,81,100,28,83,15,355,12,84,28,299,27*64
$GLGSV,3,3,09,85,11,250,25*51
$GNGLL,0419.92253,S,05539.63313,E,051929.00,A,A*61
$GNGRS,051929.00,1,-11.0,-0.9,0.5,4.4,6.8,11.2,25.3,10.7,,,,*54
$GNGRS,051929.00,1,-5.7,-1.7,-1.0,-6.6,-15.6,,,,,,,*62
$GNGST,051929.00,41,,,,4.4,5.7,11*66
$GNZDA,051929.00,28,05,2025,00,00*74
$GNGBS,051929.00,4.4,5.7,11.4,83,,-33.0,69.4*42
$GNTXT,01,01,01,More than 100 frame errors, UART RX was disabled*70
b0L >O
U3
 !-j3aV
?{4V_:R 
Y
lDbEFI#ROPQdScT+Uc{b U
;:$GNRMC,051930.00,A,0419.92239,S,05539.63316,E,0.280,,280525,,,A*7B
$GNVTG,,T,,M,0.280,N,0.518,K,A*3B
$GNGNS,051930.00,0419.92239,S,05539.63316,E,AA,13,0.83,25.2,-47.6,,*6B
$GNGGA,051930.00,0419.92239,S,05539.63316,E,1,12,0.83,25.2,M,-47.6,M,,*40
$GNGSA,A,3,24,05,20,15,12,18,29,25,,,,,1.80,0.83,1.60*1A
$GNGSA,A,3,79,80,84,73,85,,,,,,,,1.80,0.83,1.60*1A
$GPGSV,5,1,17,05,62,079,22,11,06,026,10,12,51,017,25,13,16,137,*71
$GPGSV,5,2,17,15,31,171,21,18,32,252,22,20,33,045,22,22,07,132,*73
$GPGSV,5,3,17,23,17,207,22,24,51,207,27,25,27,342,23,29,09,319,10*77
$GPGSV,5,4,17,36,52,277,,40,86,351,,41,58,082,,49,32,274,*7C
$GPGSV,5,5,17,50,10,089,*4A
$GLGSV,3,1,09,68,16,098,,69,24,149,15,70,03,208,,73,35,338,19*6B
$GLGSV,3,2,09,79,27,150,19,80,81,100,29,83,15,355,08,84,28,299,27*64
$GLGSV,3,3,09,85,11,250,22*56
$GNGLL,0419.92239,S,05539.63316,E,051930.00,A,A*60
$GNGRS,051930.00,1,-9.3,-0.4,-1.5,5.2,7.2,7.9,24.8,7.6,,,,*4A
$GNGRS,051930.00,1,-3.8,1.8,-0.2,-7.5,-14.4,,,,,,,*43
$GNGST,051930.00,42,,,,4.4,5.8,11*62
$GNZDA,051930.00,28,05,2025,00,00*7C
$GNGBS,051930.00,4.4,5.8,11.5,83,,-45.6,80.7*47
$GNTXT,01,01,01,More than 100 frame errors, UART RX was disabled*70
b0L>OU3@G
 !-S3VD?{4V_:R 
Y
lDbEFI#ROPQdScT+UwAbU
?:z$GNRMC,051931.00,A,0419.92241,S,05539.63314,E,0.483,,280525,,,A*72
$GNVTG,,T,,M,0.483,N,0.895,K,A*36
$GNGNS,051931.00,0419.92241,S,05539.63314,E,AA,13,0.83,25.1,-47.6,,*64
$GNGGA,051931.00,0419.92241,S,05539.63314,E,1,12,0.83,25.1,M,-47.6,M,,*4F
$GNGSA,A,3,24,05,20,15,12,18,29,25,,,,,1.80,0.83,1.60*1A
$GNGSA,A,3,79,80,84,73,85,,,,,,,,1.80,0.83,1.60*1A
$GPGSV,5,1,17,05,62,079,20,11,06,026,08,12,51,017,24,13,16,137,*7B
$GPGSV,5,2,17,15,31,170,20,18,32,252,21,20,33,045,22,22,07,132,*70
$GPGSV,5,3,17,23,17,207,21,24,51,207,25,25,27,342,23,29,09,319,12*74
$GPGSV,5,4,17,36,52,277,,40,86,351,,41,58,082,,49,32,274,*7C
$GPGSV,5,5,17,50,10,089,*4A
$GLGSV,3,1,09,68,16,098,,69,24,149,14,70,03,208,,73,35,338,18*6B
$GLGSV,3,2,09,79,27,150,18,80,81,100,30,83,15,355,07,84,28,299,26*63
$GLGSV,3,3,09,85,11,250,22*56
$GNGLL,0419.92241,S,05539.63314,E,051931.00,A,A*6C
$GNGRS,051931.00,1,-8.8,1.4,-1.7,5.8,5.8,9.4,-52.0,5.8,,,,*46
$GNGRS,051931.00,1,-3.3,2.5,-5.7,-8.2,-14.2,,,,,,,*49
$GNGST,051931.00,44,,,,4.5,5.8,12*67
$GNZDA,051931.00,28,05,2025,00,00*7D
$GNGBS,051931.00,4.5,5.8,11.5,,,,*69
$GNTXT,01,01,01,More than 100 frame errors, UART RX was disabled*70
b0L>OT3
 g!-3V?{4V_:R 
Y
lDbE:8FI#ROP QdScT+U%bU
C:$GNRMC,051932.00,A,0419.92231,S,05539.63309,E,0.173,,280525,,,A*70
$GNVTG,,T,,M,0.173,N,0.320,K,A*39
$GNGNS,051932.00,0419.92231,S,05539.63309,E,AA,14,0.83,25.4,-47.6,,*6E
$GNGGA,051932.00,0419.92231,S,05539.63309,E,1,12,0.83,25.4,M,-47.6,M,,*42
$GNGSA,A,3,24,05,20,15,12,18,29,25,,,,,1.80,0.83,1.60*1A
$GNGSA,A,3,79,80,83,84,73,85,,,,,,,1.80,0.83,1.60*11
$GPGSV,5,1,17,05,62,079,21,11,06,026,08,12,51,017,25,13,16,137,*7B
$GPGSV,5,2,17,15,31,170,18,18,32,252,22,20,33,045,22,22,07,132,*78
$GPGSV,5,3,17,23,17,207,21,24,51,207,26,25,27,342,24,29,09,319,12*70
$GPGSV,5,4,17,36,52,277,,40,86,351,,41,58,082,,49,32,274,*7C
$GPGSV,5,5,17,50,10,089,*4A
$GLGSV,3,1,09,68,16,098,,69,24,149,13,70,03,208,,73,35,338,18*6C
$GLGSV,3,2,09,79,27,150,19,80,81,100,32,83,15,355,09,84,28,299,27*6F
$GLGSV,3,3,09,85,11,250,23*57
$GNGLL,0419.92231,S,05539.63309,E,051932.00,A,A*64
$GNGRS,051932.00,1,-9.9,2.5,0.2,4.2,4.7,11.3,25.5,4.3,,,,*77
$GNGRS,051932.00,1,-3.3,1.3,55.7,-3.4,-6.3,-13.9,,,,,,*50
$GNGST,051932.00,43,,,,4.5,5.9,12*62
$GNZDA,051932.00,28,05,2025,00,00*7E
$GNGBS,051932.00,4.5,5.9,11.6,,,,*68
$GNTXT,01,01,01,More than 100 frame errors, UART RX was disabled*70
b0L>OR35
 !-3HVk?{4V_:R 
Y
lDbEQ6FI#RMOP!QdScT+U%bU
G:n;$GNRMC,051933.00,A,0419.92223,S,05539.63303,E,0.086,,280525,,,A*73
$GNVTG,,T,,M,0.086,N,0.159,K,A*3E
$GNGNS,051933.00,0419.92223,S,05539.63303,E,AA,15,0.83,25.9,-47.6,,*6A
$GNGGA,051933.00,0419.92223,S,05539.63303,E,1,12,0.83,25.9,M,-47.6,M,,*47
$GNGSA,A,3,24,05,20,15,12,18,29,25,,,,,1.80,0.83,1.60*1A
$GNGSA,A,3,79,80,83,84,69,73,85,,,,,,1.80,0.83,1.60*1E
$GPGSV,5,1,17,05,62,079,22,11,06,026,08,12,51,017,24,13,16,137,18*70
$GPGSV,5,2,17,15,31,170,22,18,32,252,22,20,33,045,25,22,07,132,*76
$GPGSV,5,3,17,23,17,207,21,24,51,207,28,25,27,342,26,29,09,319,15*7B
$GPGSV,5,4,17,36,52,277,,40,86,351,,41,58,082,,49,32,274,*7C
$GPGSV,5,5,17,50,10,089,*4A
$GLGSV,3,1,09,68,16,098,,69,24,149,14,70,03,208,,73,35,338,19*6A
$GLGSV,3,2,09,79,27,150,20,80,81,100,33,83,15,355,08,84,28,299,28*6A
$GLGSV,3,3,09,85,11,250,25*51
$GNGLL,0419.92223,S,05539.63303,E,051933.00,A,A*6C
$GNGRS,051933.00,1,-9.5,2.0,-0.7,5.2,3.1,12.7,25.5,1.1,,,,*57
$GNGRS,051933.00,1,-4.9,1.5,55.8,-2.7,139,-6.9,-12.8,,,,,*66
$GNGST,051933.00,41,,,,4.5,5.9,12*61
$GNZDA,051933.00,28,05,2025,00,00*7F
$GNGBS,051933.00,4.5,5.9,11.5,,,,*6A
$GNTXT,01,01,01,More than 100 frame errors, UART RX was disabled*70
b0L>O%NS3X
 !-\3VVI?{4V_:R 
Y
lDbEH5FI#RVOCP QdSc4T+kU;a0bU
sK:F$GNRMC,051934.00,A,0419.92217,S,05539.63297,E,0.259,,280525,,,A*7F
$GNVTG,,T,,M,0.259,N,0.479,K,A*39
$GNGNS,051934.00,0419.92217,S,05539.63297,E,AA,15,0.82,26.3,-47.6,,*6E
$GNGGA,051934.00,0419.92217,S,05539.63297,E,1,12,0.82,26.3,M,-47.6,M,,*43
$GNGSA,A,3,24,05,20,15,12,18,29,25,,,,,1.65,0.82,1.43*11
$GNGSA,A,3,79,80,83,84,69,73,85,,,,,,1.65,0.82,1.43*15
$GPGSV,5,1,17,05,62,079,21,11,06,026,09,12,51,017,23,13,16,137,16*7B
$GPGSV,5,2,17,15,31,170,23,18,32,253,21,20,33,045,25,22,07,132,*75
$GPGSV,5,3,17,23,17,207,21,24,51,207,27,25,27,342,25,29,09,319,09*7A
$GPGSV,5,4,17,36,52,277,,40,86,351,,41,58,082,,49,32,274,*7C
$GPGSV,5,5,17,50,10,089,*4A
$GLGSV,3,1,09,68,16,098,,69,24,149,13,70,03,208,,73,35,338,19*6D
$GLGSV,3,2,09,79,27,150,20,80,81,100,32,83,15,355,08,84,28,299,28*6B
$GLGSV,3,3,09,85,11,250,26*52
$GNGLL,0419.92217,S,05539.63297,E,051934.00,A,A*60
$GNGRS,051934.00,1,-9.4,0.4,-1.6,3.4,3.8,10.1,-17.7,-1.8,,,,*50
$GNGRS,051934.00,1,-4.4,-0.2,44.0,-1.5,136,-6.8,-12.2,,,,,*4A
$GNGST,051934.00,54,,,,4.5,5.9,11*61
$GNZDA,051934.00,28,05,2025,00,00*78
$GNGBS,051934.00,4.5,5.9,11.5,,,,*6D
$GNTXT,01,01,01,More than 100 frame errors, UART RX was disabled*70
b0L>O_S3z
 !-3V?
{4V_:R 
Y
lDbE0FI#ROP!QdJScT+lU#bU
[O:$GNRMC,051935.00,A,0419.92210,S,05539.63292,E,0.207,,280525,,,A*77
$GNVTG,,T,,M,0.207,N,0.382,K,A*31
$GNGNS,051935.00,0419.92210,S,05539.63292,E,AA,15,0.79,26.7,-47.6,,*6D
$GNGGA,051935.00,0419.92210,S,05539.63292,E,1,12,0.79,26.7,M,-47.6,M,,*40
$GNGSA,A,3,24,05,20,15,12,18,29,25,,,,,1.62,0.79,1.41*10
$GNGSA,A,3,79,80,83,84,69,73,85,,,,,,1.62,0.79,1.41*14
$GPGSV,5,1,17,05,62,079,20,11,06,026,08,12,51,017,23,13,16,137,14*79
$GPGSV,5,2,17,15,31,170,25,18,32,253,20,20,33,045,24,22,07,132,*73
$GPGSV,5,3,17,23,17,207,20,24,51,207,28,25,27,342,26,29,09,319,08*76
$GPGSV,5,4,17,36,52,277,,40,86,351,,41,58,082,,49,32,274,*7C
$GPGSV,5,5,17,50,10,089,*4A
$GLGSV,3,1,09,68,16,098,,69,24,149,12,70,03,208,,73,35,338,19*6C
$GLGSV,3,2,09,79,27,150,20,80,81,100,33,83,15,355,09,84,28,299,28*6B
$GLGSV,3,3,09,85,11,250,28*5C
$GNGLL,0419.92210,S,05539.63292,E,051935.00,A,A*63
$GNGRS,051935.00,1,-7.9,-0.9,-0.2,3.8,3.9,10.0,25.7,-3.1,,,,*5C
$GNGRS,051935.00,1,-3.8,0.7,14.3,1.1,125,-6.1,-11.2,,,,,*4F
$GNGST,051935.00,133036,,,,4.5,5.9,11*65
$GNZDA,051935.00,28,05,2025,00,00*79
$GNGBS,051935.00,4.5,5.9,11.4,,,,*6D
$GNTXT,01,01,01,More than 100 frame errors, UART RX was disabled*70
b0L>OYR3uw
  -3VG?{4V_:R 
Y
lDbEg0FI#ROP!QdScT+Uv^bU
CS:s$GNRMC,051936.00,A,0419.92206,S,05539.63296,E,0.056,,280525,,,A*71
$GNVTG,,T,,M,0.056,N,0.105,K,A*3A
$GNGNS,051936.00,0419.92206,S,05539.63296,E,AA,15,0.79,26.8,-47.6,,*62
$GNGGA,051936.00,0419.92206,S,05539.63296,E,1,12,0.79,26.8,M,-47.6,M,,*4F
$GNGSA,A,3,24,05,20,15,12,18,29,25,,,,,1.62,0.79,1.41*10
$GNGSA,A,3,79,80,83,84,69,73,85,,,,,,1.62,0.79,1.41*14
$GPGSV,5,1,17,05,62,079,20,11,06,026,07,12,51,017,21,13,16,137,13*73
$GPGSV,5,2,17,15,31,170,25,18,32,253,20,20,32,045,25,22,07,132,*73
$GPGSV,5,3,17,23,17,207,21,24,51,207,29,25,27,342,26,29,09,319,16*79
$GPGSV,5,4,17,36,52,277,,40,86,351,,41,58,082,,49,32,274,*7C
$GPGSV,5,5,17,50,10,089,*4A
$GLGSV,3,1,09,68,16,098,,69,24,149,12,70,03,208,,73,35,338,18*6D
$GLGSV,3,2,09,79,27,150,19,80,81,100,33,83,15,355,11,84,28,299,29*69
$GLGSV,3,3,09,85,11,250,27*53
$GNGLL,0419.92206,S,05539.63296,E,051936.00,A,A*63
$GNGRS,051936.00,1,-6.0,-1.7,-2.4,3.8,6.3,9.8,25.6,-1.9,,,,*68
$GNGRS,051936.00,1,-3.3,0.0,14.2,-0.5,124,-6.4,-9.1,,,,,*57
$GNGST,051936.00,199554,,,,4.4,5.9,11*66
$GNZDA,051936.00,28,05,2025,00,00*7A
$GNGBS,051936.00,4.4,5.9,11.3,,,,*68
$GNTXT,01,01,01,More than 100 frame errors, UART RX was disabled*70
b0Lx>O43
 I -3V=?{4V_:R 
Y
lDbE/FI#RHOP!QdCS
ccT+UfbxU
+W:$GNRMC,051937.00,A,0419.92203,S,05539.63301,E,0.102,,280525,,,A*7A
$GNVTG,,T,,M,0.102,N,0.189,K,A*3E
$GNGNS,051937.00,0419.92203,S,05539.63301,E,AA,14,0.78,26.8,-47.6,,*69
$GNGGA,051937.00,0419.92203,S,05539.63301,E,1,12,0.78,26.8,M,-47.6,M,,*45
$GNGSA,A,3,24,05,20,15,12,18,29,25,,,,,1.54,0.78,1.33*11
$GNGSA,A,3,79,80,83,84,73,85,,,,,,,1.54,0.78,1.33*1A
$GPGSV,5,1,17,05,62,079,21,11,06,026,,12,51,017,21,13,16,137,13*75
$GPGSV,5,2,17,15,31,170,26,18,32,253,22,20,32,045,26,22,06,133,*71
$GPGSV,5,3,17,23,17,207,20,24,51,207,29,25,27,342,26,29,09,319,11*7F
$GPGSV,5,4,17,36,52,277,,40,86,351,,41,58,082,,49,32,274,*7C
$GPGSV,5,5,17,50,10,089,*4A
$GLGSV,3,1,09,68,16,098,,69,24,149,09,70,03,208,,73,35,338,17*68
$GLGSV,3,2,09,79,27,150,20,80,81,100,33,83,15,355,10,84,28,299,29*62
$GLGSV,3,3,09,85,11,250,27*53
$GNGLL,0419.92203,S,05539.63301,E,051937.00,A,A*68
$GNGRS,051937.00,1,-10.5,-2.0,-2.9,4.9,4.8,11.0,-2.7,-2.0,,,,*7F
$GNGRS,051937.00,1,-3.0,0.7,11.2,0.3,-7.0,-8.5,,,,,,*4B
$GNGST,051937.00,53,,,,4.4,5.8,11*65
$GNZDA,051937.00,28,05,2025,00,00*7B
$GNGBS,051937.00,4.4,5.8,11.0,,,,*6B
$GNTXT,01,01,01,More than 100 frame errors, UART RX was disabled*70
b0L`>O3F
  -%3V?{4V_:R 
Y
lDbE.FI#RCOP!Qd"ScT+Ub`U
[:C$GNRMC,051938.00,A,0419.92202,S,05539.63308,E,0.078,,280525,,,A*71
$GNVTG,,T,,M,0.078,N,0.144,K,A*33
$GNGNS,051938.00,0419.92202,S,05539.63308,E,AA,14,0.79,26.7,-47.6,,*60
$GNGGA,051938.00,0419.92202,S,05539.63308,E,1,12,0.79,26.7,M,-47.6,M,,*4C
$GNGSA,A,3,24,05,20,15,12,18,29,25,,,,,1.62,0.79,1.41*10
$GNGSA,A,3,79,80,83,84,73,85,,,,,,,1.62,0.79,1.41*1B
$GPGSV,5,1,17,05,62,079,21,11,06,026,,12,51,017,19,13,16,137,12*7F
$GPGSV,5,2,17,15,31,170,27,18,32,253,23,20,32,045,26,22,06,133,*71
$GPGSV,5,3,17,23,17,207,21,24,51,207,30,25,27,342,27,29,09,319,08*7F
$GPGSV,5,4,17,36,52,277,,40,86,351,,41,58,082,,49,32,274,*7C
$GPGSV,5,5,17,50,10,089,*4A
$GLGSV,3,1,09,68,16,098,,69,24,149,09,70,03,208,,73,35,338,18*67
$GLGSV,3,2,09,79,27,150,19,80,81,100,33,83,15,355,09,84,28,299,29*60
$GLGSV,3,3,09,85,11,250,27*53
$GNGLL,0419.92202,S,05539.63308,E,051938.00,A,A*6F
$GNGRS,051938.00,1,-6.1,0.1,0.4,5.0,5.8,10.2,25.5,-2.5,,,,*5A
$GNGRS,051938.00,1,-4.8,0.3,14.1,1.9,-7.0,-8.4,,,,,,*43
$GNGST,051938.00,33259,,,,4.3,5.7,11*5A
$GNZDA,051938.00,28,05,2025,00,00*74
$GNGBS,051938.00,4.3,5.7,10.8,,,,*65
$GNTXT,01,01,01,More than 100 frame errors, UART RX was disabled*70
b0LH>O3
 X -R3V?{4V_:R 
Y
lDbE
%/FI#ROP!Qd(S
cgT+wUzHbHU
^:~$GNRMC,051939.00,A,0419.92192,S,05539.63300,E,0.189,,280525,,,A*7D
$GNVTG,,T,,M,0.189,N,0.351,K,A*3A
$GNGNS,051939.00,0419.92192,S,05539.63300,E,AA,15,0.79,27.0,-47.6,,*64
$GNGGA,051939.00,0419.92192,S,05539.63300,E,1,12,0.79,27.0,M,-47.6,M,,*49
$GNGSA,A,3,24,05,20,15,12,18,29,25,,,,,1.62,0.79,1.41*10
$GNGSA,A,3,79,80,83,84,69,73,85,,,,,,1.62,0.79,1.41*14
$GPGSV,5,1,17,05,62,079,21,11,06,026,,12,51,017,17,13,16,137,11*72
$GPGSV,5,2,17,15,31,170,30,18,32,253,27,20,32,045,26,22,06,133,*73
$GPGSV,5,3,17,23,17,207,25,24,51,206,30,25,27,342,27,29,09,319,12*71
$GPGSV,5,4,17,36,52,277,,40,86,351,,41,58,082,,49,32,274,*7C
$GPGSV,5,5,17,50,10,089,*4A
$GLGSV,3,1,09,68,16,098,,69,24,149,10,70,03,208,,73,35,338,18*6F
$GLGSV,3,2,09,79,27,150,18,80,81,100,33,83,15,355,10,84,28,299,28*68
$GLGSV,3,3,09,85,11,250,26*52
$GNGLL,0419.92192,S,05539.63300,E,051939.00,A,A*6C
$GNGRS,051939.00,1,-7.9,-1.1,0.8,2.6,9.0,8.6,25.2,-3.4,,,,*4D
$GNGRS,051939.00,1,-6.3,0.4,13.8,3.7,121,-7.5,-9.0,,,,,*7C
$GNGST,051939.00,49889,,,,4.3,5.7,11*51
$GNZDA,051939.00,28,05,2025,00,00*75
$GNGBS,051939.00,4.3,5.7,10.7,,,,*6B
$GNTXT,01,01,01,More than 100 frame errors, UART RX was disabled*70
b0L0>OB3!
  -3V? {4V_:R 
Y
lDbEB.FI#RsO;P!QdSc(T+aU!ob0U
b:V$GNRMC,051940.00,A,0419.92185,S,05539.63299,E,0.113,,280525,,,A*77
$GNVTG,,T,,M,0.113,N,0.209,K,A*35
$GNGNS,051940.00,0419.92185,S,05539.63299,E,AA,15,0.83,27.5,-47.6,,*6D
$GNGGA,051940.00,0419.92185,S,05539.63299,E,1,12,0.83,27.5,M,-47.6,M,,*40
$GNGSA,A,3,24,05,20,15,12,18,29,25,,,,,1.80,0.83,1.60*1A
$GNGSA,A,3,79,80,83,84,69,73,85,,,,,,1.80,0.83,1.60*1E
$GPGSV,5,1,17,05,62,079,21,11,06,026,,12,51,017,23,13,16,137,12*76
$GPGSV,5,2,17,15,31,170,33,18,32,253,26,20,32,045,26,22,06,133,*71
$GPGSV,5,3,17,23,17,207,28,24,51,206,30,25,28,342,27,29,09,319,08*78
$GPGSV,5,4,17,36,52,277,,40,86,351,,41,58,082,,49,32,274,*7C
$GPGSV,5,5,17,50,10,089,*4A
$GLGSV,3,1,09,68,16,098,,69,24,149,14,70,03,208,,73,35,338,17*64
$GLGSV,3,2,09,79,27,150,18,80,81,100,33,83,15,355,12,84,28,299,13*62
$GLGSV,3,3,09,85,11,250,33*56
$GNGLL,0419.92185,S,05539.63299,E,051940.00,A,A*65
$GNGRS,051940.00,1,-1.1,0.7,1.5,1.7,9.1,6.5,83.2,-5.5,,,,*6E
$GNGRS,051940.00,1,-4.5,0.3,105,3.5,118,-6.5,-6.3,,,,,*54
$GNGST,051940.00,42,,,,4.2,5.7,11*6C
$GNZDA,051940.00,28,05,2025,00,00*7B
$GNGBS,051940.00,4.2,5.7,10.6,,,,*65
$GNTXT,01,01,01,More than 100 frame errors, UART RX was disabled*70
b0L>O3 m
   -Z3}V?{4V_:R 
Y
lDbE-FI#RO'P"QdScT+U!jbU
f:.$GNRMC,051941.00,A,0419.92177,S,05539.63295,E,0.399,,280525,,,A*77
$GNVTG,,T,,M,0.399,N,0.738,K,A*32
$GNGNS,051941.00,0419.92177,S,05539.63295,E,AA,15,0.79,27.6,-47.6,,*6B
$GNGGA,051941.00,0419.92177,S,05539.63295,E,1,12,0.79,27.6,M,-47.6,M,,*46
$GNGSA,A,3,24,05,20,15,12,18,29,25,,,,,1.62,0.79,1.41*10
$GNGSA,A,3,79,80,83,84,69,73,85,,,,,,1.62,0.79,1.41*14
$GPGSV,5,1,17,05,62,079,20,11,06,026,,12,51,017,23,13,16,137,13*76
$GPGSV,5,2,17,15,31,170,32,18,32,253,32,20,32,045,25,22,06,133,*76
$GPGSV,5,3,17,23,17,207,28,24,51,206,30,25,28,342,27,29,09,319,08*78
$GPGSV,5,4,17,36,52,277,,40,86,351,,41,58,082,,49,32,274,*7C
$GPGSV,5,5,17,50,10,089,*4A
$GLGSV,3,1,09,68,16,098,,69,24,149,14,70,03,208,,73,35,338,18*6B
$GLGSV,3,2,09,79,27,150,17,80,81,100,34,83,15,355,09,84,28,299,28*68
$GLGSV,3,3,09,85,11,250,33*56
$GNGLL,0419.92177,S,05539.63295,E,051941.00,A,A*65
$GNGRS,051941.00,1,-6.4,0.1,0.9,3.6,7.6,7.3,25.5,-5.9,,,,*6C
$GNGRS,051941.00,1,-4.7,0.1,14.2,2.5,117,-6.1,-2.7,,,,,*72
$GNGST,051941.00,206206,,,,4.2,5.6,10*6B
$GNZDA,051941.00,28,05,2025,00,00*7A
$GNGBS,051941.00,4.2,5.6,10.5,,,,*66
$GNTXT,01,01,01,More than 100 frame errors, UART RX was disabled*70
b0L>O3 
  -3V]?{4V_:R 
Y
lDbET-FI#R&OP!QdScT+aU Q}bU
j:$GNRMC,051942.00,A,0419.92185,S,05539.63288,E,0.166,,280525,,,A*77
$GNVTG,,T,,M,0.166,N,0.307,K,A*38
$GNGNS,051942.00,0419.92185,S,05539.63288,E,AA,14,0.83,27.7,-47.6,,*6C
$GNGGA,051942.00,0419.92185,S,05539.63288,E,1,12,0.83,27.7,M,-47.6,M,,*40
$GNGSA,A,3,24,05,20,15,12,18,29,25,,,,,1.80,0.83,1.60*1A
$GNGSA,A,3,79,80,84,69,73,85,,,,,,,1.80,0.83,1.60*15
$GPGSV,5,1,17,05,62,079,17,11,06,026,,12,51,017,23,13,16,137,11*70
$GPGSV,5,2,17,15,31,170,32,18,32,253,31,20,32,045,24,22,06,133,*74
$GPGSV,5,3,17,23,17,207,29,24,51,206,30,25,28,342,27,29,09,319,09*78
$GPGSV,5,4,17,36,52,277,,40,86,351,,41,58,082,,49,32,274,*7C
$GPGSV,5,5,17,50,10,089,*4A
$GLGSV,3,1,09,68,16,098,,69,24,149,14,70,03,208,,73,35,338,18*6B
$GLGSV,3,2,09,79,27,150,17,80,81,100,33,83,15,355,07,84,28,299,28*61
$GLGSV,3,3,09,85,11,250,32*57
$GNGLL,0419.92185,S,05539.63288,E,051942.00,A,A*67
$GNGRS,051942.00,1,0.2,-0.1,-0.3,7.0,9.0,9.8,25.4,-6.7,,,,*4B
$GNGRS,051942.00,1,-5.5,0.2,1.0,116,-4.7,-1.7,,,,,,*68
$GNGST,051942.00,37,,,,4.1,5.6,10*6F
$GNZDA,051942.00,28,05,2025,00,00*79
$GNGBS,051942.00,4.1,5.6,10.3,,,,*60
$GNTXT,01,01,01,More than 100 frame errors, UART RX was disabled*70
b0L>O3r!
   -3V?J{4V_:R 
Y
lDbE+FI#RO-P!QdS
c!T+3U!BVbU
n:G$GNRMC,051943.00,A,0419.92200,S,05539.63290,E,0.025,,280525,,,A*77
$GNVTG,,T,,M,0.025,N,0.047,K,A*39
$GNGNS,051943.00,0419.92200,S,05539.63290,E,AA,15,0.83,27.5,-47.6,,*69
$GNGGA,051943.00,0419.92200,S,05539.63290,E,1,12,0.83,27.5,M,-47.6,M,,*44
$GNGSA,A,3,24,05,20,15,12,18,29,25,,,,,1.80,0.83,1.60*1A
$GNGSA,A,3,79,80,83,84,69,73,85,,,,,,1.80,0.83,1.60*1E
$GPGSV,5,1,17,05,62,079,14,11,06,026,,12,51,017,22,13,16,137,12*71
$GPGSV,5,2,17,15,31,170,33,18,32,253,32,20,32,045,24,22,06,133,*76
$GPGSV,5,3,17,23,17,207,29,24,51,206,29,25,28,342,28,29,09,319,09*7F
$GPGSV,5,4,17,36,52,277,,40,86,351,,41,58,082,,49,32,274,*7C
$GPGSV,5,5,17,50,10,089,*4A
$GLGSV,3,1,09,68,16,098,,69,24,149,14,70,03,208,,73,35,338,18*6B
$GLGSV,3,2,09,79,27,150,16,80,81,100,33,83,15,355,10,84,28,299,28*66
$GLGSV,3,3,09,85,11,250,33*56
$GNGLL,0419.92200,S,05539.63290,E,051943.00,A,A*61
$GNGRS,051943.00,1,1.5,0.1,-0.5,3.9,11.4,7.0,-96.5,-7.4,,,,*77
$GNGRS,051943.00,1,-4.7,0.2,86.8,-2.0,112,-3.0,0.7,,,,,*74
$GNGST,051943.00,39,,,,4.0,5.4,10*63
$GNZDA,051943.00,28,05,2025,00,00*78
$GNGBS,051943.00,4.0,5.4,10.0,,,,*61
$GNTXT,01,01,01,More than 100 frame errors, UART RX was disabled*70
b0L>O3 Z
  -3QV@
{4V_:R 
Y
lDbE+FI#RO%P!QdScT+KU!DbU
r:$GNRMC,051944.00,A,0419.92208,S,05539.63292,E,0.048,,280525,,,A*71
$GNVTG,,T,,M,0.048,N,0.088,K,A*31
$GNGNS,051944.00,0419.92208,S,05539.63292,E,AA,15,0.79,27.5,-47.6,,*61
$GNGGA,051944.00,0419.92208,S,05539.63292,E,1,12,0.79,27.5,M,-47.6,M,,*4C
$GNGSA,A,3,24,05,20,15,12,18,29,25,,,,,1.61,0.79,1.41*13
$GNGSA,A,3,79,80,83,84,69,73,85,,,,,,1.61,0.79,1.41*17
$GPGSV,5,1,17,05,62,079,12,11,06,026,,12,51,017,22,13,16,137,13*76
$GPGSV,5,2,17,15,31,170,32,18,32,253,31,20,32,045,24,22,06,133,*74
$GPGSV,5,3,17,23,17,207,29,24,51,206,29,25,28,342,30,29,09,320,14*70
$GPGSV,5,4,17,36,52,277,,40,86,351,,41,58,082,,49,32,274,*7C
$GPGSV,5,5,17,50,10,089,*4A
$GLGSV,3,1,09,68,16,098,,69,24,149,14,70,03,208,,73,35,338,18*6B
$GLGSV,3,2,09,79,27,150,16,80,81,100,33,83,15,355,13,84,28,299,28*65
$GLGSV,3,3,09,85,11,250,33*56
$GNGLL,0419.92208,S,05539.63292,E,051944.00,A,A*6C
$GNGRS,051944.00,1,-1.7,-0.1,-0.7,3.5,12.5,4.9,25.7,-8.8,,,,*50
$GNGRS,051944.00,1,-4.7,0.3,14.4,0.8,113,-2.7,-0.6,,,,,*79
$GNGST,051944.00,3300339,,,,3.9,5.3,9.8*70
$GNZDA,051944.00,28,05,2025,00,00*7F
$GNGBS,051944.00,3.9,5.3,9.8,,,,*5F
$GNTXT,01,01,01,More than 100 frame errors, UART RX was disabled*70
b0L>O3 
 W -3VJ@
{4V_:R 
Y
lDbE+FI#RO2P!QdScT+U!QbU
kv:$GNRMC,051945.00,A,0419.92216,S,05539.63290,E,0.079,,280525,,,A*7F
$GNVTG,,T,,M,0.079,N,0.146,K,A*30
$GNGNS,051945.00,0419.92216,S,05539.63290,E,AA,15,0.79,27.7,-47.6,,*6F
$GNGGA,051945.00,0419.92216,S,05539.63290,E,1,12,0.79,27.7,M,-47.6,M,,*42
$GNGSA,A,3,24,05,20,15,12,18,29,25,,,,,1.61,0.79,1.41*13
$GNGSA,A,3,79,80,83,84,69,73,85,,,,,,1.61,0.79,1.41*17
$GPGSV,5,1,17,05,62,079,08,11,06,026,,12,51,017,21,13,16,137,14*79
$GPGSV,5,2,17,15,31,170,32,18,32,253,31,20,32,045,24,22,06,133,*74
$GPGSV,5,3,17,23,17,207,28,24,51,206,29,25,28,342,29,29,09,320,14*79
$GPGSV,5,4,17,36,52,277,,40,86,351,,41,58,082,,49,32,274,*7C
$GPGSV,5,5,17,50,10,089,*4A
$GLGSV,3,1,09,68,16,098,,69,24,149,14,70,03,208,,73,35,338,18*6B
$GLGSV,3,2,09,79,27,150,15,80,81,100,33,83,15,355,08,84,28,299,28*6C
$GLGSV,3,3,09,85,11,250,33*56
$GNGLL,0419.92216,S,05539.63290,E,051945.00,A,A*60
$GNGRS,051945.00,1,0.1,-0.2,1.4,5.0,12.7,8.6,25.8,-6.9,,,,*55
$GNGRS,051945.00,1,-4.6,0.2,14.6,-0.5,112,-3.0,-3.4,,,,,*5C
$GNGST,051945.00,3300339,,,,3.8,5.3,9.7*7F
$GNZDA,051945.00,28,05,2025,00,00*7E
$GNGBS,051945.00,3.8,5.3,9.7,,,,*50
$GNTXT,01,01,01,More than 100 frame errors, UART RX was disabled*70
b0L>O3: 
 ' -Q3V
@{4V_:R 
Y
lDbE*FI#RO|P!QdScT+U"obU
Sz:e$GNRMC,051946.00,A,0419.92222,S,05539.63297,E,0.032,,280525,,,A*73
$GNVTG,,T,,M,0.032,N,0.058,K,A*31
$GNGNS,051946.00,0419.92222,S,05539.63297,E,AA,15,0.79,27.8,-47.6,,*63
$GNGGA,051946.00,0419.92222,S,05539.63297,E,1,12,0.79,27.8,M,-47.6,M,,*4E
$GNGSA,A,3,24,05,20,15,12,18,29,25,,,,,1.61,0.79,1.41*13
$GNGSA,A,3,79,80,83,84,69,73,85,,,,,,1.61,0.79,1.41*17
$GPGSV,5,1,17,05,62,079,12,11,06,026,,12,51,017,22,13,16,137,12*77
$GPGSV,5,2,17,15,31,170,32,18,32,253,28,20,32,045,23,22,06,133,*7B
$GPGSV,5,3,17,23,17,207,28,24,51,206,29,25,28,342,30,29,09,320,10*75
$GPGSV,5,4,17,36,52,277,,40,86,351,,41,58,082,,49,32,274,*7C
$GPGSV,5,5,17,50,10,089,*4A
$GLGSV,3,1,09,68,16,098,,69,24,149,14,70,03,208,,73,35,338,18*6B
$GLGSV,3,2,09,79,27,150,17,80,81,100,33,83,15,355,16,84,28,299,28*61
$GLGSV,3,3,09,85,11,250,34*51
$GNGLL,0419.92222,S,05539.63297,E,051946.00,A,A*63
$GNGRS,051946.00,1,-2.8,15.2,-1.8,4.2,13.4,8.1,22.3,-5.9,,,,*41
$GNGRS,051946.00,1,-3.9,0.3,-5.2,-1.3,109,-3.5,-3.2,,,,,*41
$GNGST,051946.00,47,,,,3.7,5.2,9.5*4A
$GNZDA,051946.00,28,05,2025,00,00*7D
$GNGBS,051946.00,3.7,5.2,9.5,,,,*5F
$GNTXT,01,01,01,More than 100 frame errors, UART RX was disabled*70
b0L>O35
  - 3CV'@
{4V_:R 
Y
lDbE%*FI#RYOP!QdScT+U#bU
;~:=$GNRMC,051947.00,A,0419.92229,S,05539.63293,E,0.026,,280525,,,A*78
$GNVTG,,T,,M,0.026,N,0.049,K,A*34
$GNGNS,051947.00,0419.92229,S,05539.63293,E,AA,15,0.79,28.0,-47.6,,*6A
$GNGGA,051947.00,0419.92229,S,05539.63293,E,1,12,0.79,28.0,M,-47.6,M,,*47
$GNGSA,A,3,24,05,20,15,12,18,29,25,,,,,1.61,0.79,1.41*13
$GNGSA,A,3,79,80,83,84,69,73,85,,,,,,1.61,0.79,1.41*17
$GPGSV,5,1,17,05,62,079,13,11,06,026,,12,51,017,22,13,16,137,11*75
$GPGSV,5,2,17,15,31,170,31,18,32,253,28,20,32,045,25,22,06,133,*7E
$GPGSV,5,3,17,23,17,207,28,24,51,206,29,25,28,342,30,29,09,320,11*74
$GPGSV,5,4,17,36,52,277,,40,86,351,,41,58,082,,49,32,274,*7C
$GPGSV,5,5,17,50,10,089,*4A
$GLGSV,3,1,09,68,16,098,,69,24,149,13,70,03,208,,73,35,338,19*6D
$GLGSV,3,2,09,79,27,150,19,80,81,100,33,83,15,355,11,84,28,299,29*69
$GLGSV,3,3,09,85,11,250,35*50
$GNGLL,0419.92229,S,05539.63293,E,051947.00,A,A*6D
$GNGRS,051947.00,1,0.7,6.9,-2.2,4.2,13.3,12.7,25.6,-7.3,,,,*60
$GNGRS,051947.00,1,-1.2,0.0,14.4,2.0,108,-6.8,-2.8,,,,,*7E
$GNGST,051947.00,3303821,,,,3.7,5.1,9.3*75
$GNZDA,051947.00,28,05,2025,00,00*7C
$GNGBS,051947.00,3.7,5.1,9.3,,,,*5B
$GNTXT,01,01,01,More than 100 frame errors, UART RX was disabled*70
b0Lp#>O3 
 Z -3sVh
@{4V_:R 
Y
lDbE(FI#ROP!QdS
cT+IU#vbp#U
#:O$GNRMC,051948.00,A,0419.92236,S,05539.63289,E,0.121,,280525,,,A*74
$GNVTG,,T,,M,0.121,N,0.224,K,A*3B
$GNGNS,051948.00,0419.92236,S,05539.63289,E,AA,15,0.79,28.2,-47.6,,*62
$GNGGA,051948.00,0419.92236,S,05539.63289,E,1,12,0.79,28.2,M,-47.6,M,,*4F
$GNGSA,A,3,24,05,20,15,12,18,29,25,,,,,1.61,0.79,1.41*13
$GNGSA,A,3,79,80,83,84,69,73,85,,,,,,1.61,0.79,1.41*17
$GPGSV,5,1,17,05,62,079,15,11,06,026,,12,51,017,21,13,16,137,13*72
$GPGSV,5,2,17,15,31,170,32,18,32,253,31,20,32,045,25,22,06,133,*75
$GPGSV,5,3,17,23,17,207,28,24,51,206,29,25,28,342,30,29,09,320,10*75
$GPGSV,5,4,17,36,52,277,,40,86,351,,41,58,082,,49,32,274,*7C
$GPGSV,5,5,17,50,10,089,*4A
$GLGSV,3,1,09,68,16,098,,69,24,149,14,70,03,208,,73,35,338,17*64
$GLGSV,3,2,09,79,27,150,19,80,81,100,33,83,15,355,10,84,28,299,28*69
$GLGSV,3,3,09,85,11,250,35*50
$GNGLL,0419.92236,S,05539.63289,E,051948.00,A,A*67
$GNGRS,051948.00,1,-1.4,6.9,-3.2,4.2,12.4,11.1,25.5,-6.6,,,,*45
$GNGRS,051948.00,1,-0.8,-0.1,14.4,0.7,104,-5.0,-2.4,,,,,*58
$GNGST,051948.00,4665903,,,,3.6,5.1,9.2*79
$GNZDA,051948.00,28,05,2025,00,00*73
$GNGBS,051948.00,3.6,5.1,9.2,,,,*54
$GNTXT,01,01,01,More than 100 frame errors, UART RX was disabled*70
b0LX'>O3 
  -.3V@|{4V_:R 
Y
lDbED'FI#ROP!QdScT+U!&bX'U
:$GNRMC,051949.00,A,0419.92244,S,05539.63288,E,0.072,,280525,,,A*76
$GNVTG,,T,,M,0.072,N,0.134,K,A*3E
$GNGNS,051949.00,0419.92244,S,05539.63288,E,AA,15,0.78,28.3,-47.6,,*67
$GNGGA,051949.00,0419.92244,S,05539.63288,E,1,12,0.78,28.3,M,-47.6,M,,*4A
$GNGSA,A,3,24,05,20,15,12,18,29,25,,,,,1.54,0.78,1.33*11
$GNGSA,A,3,79,80,83,84,69,73,85,,,,,,1.54,0.78,1.33*15
$GPGSV,5,1,17,05,62,079,16,11,06,026,,12,51,017,21,13,16,137,13*71
$GPGSV,5,2,17,15,31,170,32,18,32,253,30,20,32,045,25,22,06,133,*74
$GPGSV,5,3,17,23,17,207,28,24,51,206,29,25,28,342,31,29,09,320,13*77
$GPGSV,5,4,17,36,52,277,,40,86,351,,41,58,082,,49,32,274,*7C
$GPGSV,5,5,17,50,10,089,*4A
$GLGSV,3,1,09,68,16,098,,69,24,149,13,70,03,208,,73,35,338,18*6C
$GLGSV,3,2,09,79,27,150,18,80,81,100,33,83,15,355,11,84,28,299,29*68
$GLGSV,3,3,09,85,11,250,33*56
$GNGLL,0419.92244,S,05539.63288,E,051949.00,A,A*62
$GNGRS,051949.00,1,-2.3,6.7,0.5,4.0,11.7,14.5,-16.7,-7.5,,,,*49
