b0L=J5 
! +1VBY{4V_:R 
Y
mD`EFFI"&QOPPw.Se=T.U bU
c?$GNRMC,052444.00,A,0419.91342,S,05539.63245,E,0.037,,280525,,,A*71
$GNVTG,,T,,M,0.037,N,0.069,K,A*36
$GNGNS,052444.00,0419.91342,S,05539.63245,E,AA,14,0.91,30.4,-47.6,,*69
$GNGGA,052444.00,0419.91342,S,05539.63245,E,1,12,0.91,30.4,M,-47.6,M,,*45
$GNGSA,A,3,24,05,20,15,12,18,29,25,23,,,,1.66,0.91,1.39*1C
$GNGSA,A,3,80,83,69,73,85,,,,,,,,1.66,0.91,1.39*1B
$GPGSV,5,1,17,05,61,074,30,11,04,027,,12,53,019,30,13,15,135,*77
$GPGSV,5,2,17,15,32,168,21,18,32,256,33,20,31,043,20,22,05,134,*7E
$GPGSV,5,3,17,23,19,207,13,24,49,203,26,25,30,342,31,29,09,322,14*7E
$GPGSV,5,4,17,36,52,277,,40,86,351,,41,58,082,31,49,32,274,*7E
$GPGSV,5,5,17,50,10,089,*4A
$GLGSV,3,1,09,68,16,096,,69,25,146,13,70,04,206,,73,38,337,34*69
$GLGSV,3,2,09,79,25,151,,80,80,119,27,83,14,357,21,84,27,302,*69
$GLGSV,3,3,09,85,11,252,32*55
$GNGLL,0419.91342,S,05539.63245,E,052444.00,A,A*64
$GNGRS,052444.00,1,-13.6,-3.5,-0.8,-3.7,5.3,-0.1,0.9,-3.0,2.5,,,*49
$GNGRS,052444.00,1,-7.2,-7.1,41.7,2.0,-10.3,,,,,,,*51
$GNGST,052444.00,41,,,,3.3,5.1,11*65
$GNZDA,052444.00,28,05,2025,00,00*71
$GNGBS,052444.00,3.3,5.1,10.8,,,,*61
$GNTXT,01,01,01,More than 100 frame errors, UART RX was disabled*70
b0L=J5 R
! x+j16VBP{4V_:R 
Y
mD`EFI!&QOPPwSeT.UbU
K
?~A$GNRMC,052445.00,A,0419.91349,S,05539.63256,E,0.249,,280525,,,A*72
$GNVTG,,T,,M,0.249,N,0.461,K,A*31
$GNGNS,052445.00,0419.91349,S,05539.63256,E,AA,14,0.77,30.2,-47.6,,*6F
$GNGGA,052445.00,0419.91349,S,05539.63256,E,1,12,0.77,30.2,M,-47.6,M,,*43
$GNGSA,A,3,24,05,20,15,12,18,29,25,23,,,,1.47,0.77,1.25*1A
$GNGSA,A,3,80,83,69,73,85,,,,,,,,1.47,0.77,1.25*1D
$GPGSV,5,1,17,05,61,074,30,11,04,027,,12,53,019,22,13,15,135,*74
$GPGSV,5,2,17,15,32,168,20,18,32,256,33,20,31,043,19,22,05,134,*75
$GPGSV,5,3,17,23,19,207,12,24,49,203,24,25,30,342,31,29,09,322,11*78
$GPGSV,5,4,17,36,52,277,,40,86,351,,41,58,082,,49,32,274,*7C
$GPGSV,5,5,17,50,10,089,*4A
$GLGSV,3,1,09,68,16,096,,69,25,146,12,70,04,206,,73,38,337,33*6F
$GLGSV,3,2,09,79,25,151,,80,80,119,26,83,14,357,20,84,27,302,*69
$GLGSV,3,3,09,85,11,252,26*50
$GNGLL,0419.91349,S,05539.63256,E,052445.00,A,A*6C
$GNGRS,052445.00,1,-12.3,-3.1,-3.5,0.8,1.9,-1.4,0.8,-6.2,13.9,,,*57
$GNGRS,052445.00,1,-5.3,-8.0,4.1,-0.3,-11.2,,,,,,,*46
$GNGST,052445.00,3182869,,,,3.3,5.1,11*5E
$GNZDA,052445.00,28,05,2025,00,00*70
$GNGBS,052445.00,3.3,5.1,10.9,,,,*61
$GNTXT,01,01,01,More than 100 frame errors, UART RX was disabled*70
b0L=J5 
! +b1~VKBI{4#V_:R 
Y
mD`EFI!&QOPPw)SeeT.U#bU
3?V$GNRMC,052446.00,A,0419.91349,S,05539.63253,E,0.043,,280525,,,A*7C
$GNVTG,,T,,M,0.043,N,0.079,K,A*34
$GNGNS,052446.00,0419.91349,S,05539.63253,E,AA,14,0.77,30.7,-47.6,,*6C
$GNGGA,052446.00,0419.91349,S,05539.63253,E,1,12,0.77,30.7,M,-47.6,M,,*40
$GNGSA,A,3,24,05,20,15,12,18,29,25,23,,,,1.47,0.77,1.25*1A
$GNGSA,A,3,80,83,69,73,85,,,,,,,,1.47,0.77,1.25*1D
$GPGSV,5,1,17,05,61,074,30,11,04,027,,12,53,019,25,13,15,135,*73
$GPGSV,5,2,17,15,32,168,18,18,32,256,33,20,31,043,20,22,05,134,*74
$GPGSV,5,3,17,23,19,207,12,24,49,203,24,25,30,342,31,29,09,322,14*7D
$GPGSV,5,4,17,36,52,277,,40,86,351,35,41,58,082,,49,32,274,*7A
$GPGSV,5,5,17,50,10,089,*4A
$GLGSV,3,1,09,68,16,096,,69,25,146,13,70,04,206,,73,38,337,33*6E
$GLGSV,3,2,09,79,25,151,,80,80,119,27,83,14,357,20,84,27,302,*68
$GLGSV,3,3,09,85,11,252,27*51
$GNGLL,0419.91349,S,05539.63253,E,052446.00,A,A*6A
$GNGRS,052446.00,1,-11.5,-0.6,-3.5,1.4,1.8,0.3,0.7,0.8,13.8,,,*5D
$GNGRS,052446.00,1,-2.1,-6.7,4.1,-5.4,-14.1,,,,,,,*4D
$GNGST,052446.00,3186094,,,,3.3,5.1,11*53
$GNZDA,052446.00,28,05,2025,00,00*73
$GNGBS,052446.00,3.3,5.1,10.9,,,,*62
$GNTXT,01,01,01,More than 100 frame errors, UART RX was disabled*70
b0Lh=J5 
" +1 V7Bn{4$V_:R 
Y
mD`E
<FI!&Q&OPPwSeT.U%bhU
?.$GNRMC,052447.00,A,0419.91343,S,05539.63242,E,0.111,,280525,,,A*71
$GNVTG,,T,,M,0.111,N,0.205,K,A*3B
$GNGNS,052447.00,0419.91343,S,05539.63242,E,AA,14,0.79,31.4,-47.6,,*6B
$GNGGA,052447.00,0419.91343,S,05539.63242,E,1,12,0.79,31.4,M,-47.6,M,,*47
$GNGSA,A,3,24,05,20,15,12,18,29,25,23,,,,1.53,0.79,1.31*14
$GNGSA,A,3,80,83,69,73,85,,,,,,,,1.53,0.79,1.31*13
$GPGSV,5,1,17,05,61,074,31,11,04,027,,12,53,019,27,13,15,135,*70
$GPGSV,5,2,17,15,32,168,17,18,32,256,34,20,31,043,20,22,05,134,*7C
$GPGSV,5,3,17,23,19,207,15,24,49,203,24,25,30,342,32,29,09,322,17*7A
$GPGSV,5,4,17,36,52,277,,40,86,351,36,41,58,082,29,49,32,274,*72
$GPGSV,5,5,17,50,10,089,*4A
$GLGSV,3,1,09,68,16,096,,69,25,146,10,70,04,206,,73,38,337,33*6D
$GLGSV,3,2,09,79,25,151,,80,80,119,29,83,14,357,21,84,27,302,*67
$GLGSV,3,3,09,85,11,252,29*5F
$GNGLL,0419.91343,S,05539.63242,E,052447.00,A,A*61
$GNGRS,052447.00,1,-10.6,-0.4,-0.8,-0.5,-5.3,0.2,31.8,0.5,-13.4,,,*4D
$GNGRS,052447.00,1,1.5,-7.9,-9.6,0.4,-12.4,,,,,,,*65
$GNGST,052447.00,51,,,,3.3,5.1,11*67
$GNZDA,052447.00,28,05,2025,00,00*72
$GNGBS,052447.00,3.3,5.1,10.9,,,,*63
$GNTXT,01,01,01,More than 100 frame errors, UART RX was disabled*70
b0LP =J]5 
" H+y1{!VB{4$V_:R 
Y
mD`EFI!&QIOPPwSeT.UbPU
?y$GNRMC,052448.00,A,0419.91343,S,05539.63247,E,0.089,,280525,,,A*7B
$GNVTG,,T,,M,0.089,N,0.164,K,A*3F
$GNGNS,052448.00,0419.91343,S,05539.63247,E,AA,14,0.79,31.3,-47.6,,*66
$GNGGA,052448.00,0419.91343,S,05539.63247,E,1,12,0.79,31.3,M,-47.6,M,,*4A
$GNGSA,A,3,24,05,20,15,12,18,29,25,23,,,,1.53,0.79,1.31*14
$GNGSA,A,3,80,83,69,73,85,,,,,,,,1.53,0.79,1.31*13
$GPGSV,5,1,17,05,61,074,32,11,04,027,,12,53,019,28,13,15,135,*7C
$GPGSV,5,2,17,15,32,168,19,18,32,256,34,20,31,043,19,22,05,134,*78
$GPGSV,5,3,17,23,19,207,21,24,49,203,30,25,30,342,33,29,09,322,16*78
$GPGSV,5,4,17,36,52,277,,40,86,351,36,41,58,082,31,49,32,274,*7B
$GPGSV,5,5,17,50,10,089,*4A
$GLGSV,3,1,09,68,16,096,,69,25,146,15,70,04,206,,73,38,337,33*68
$GLGSV,3,2,09,79,25,151,,80,80,119,29,83,14,357,22,84,27,302,*64
$GLGSV,3,3,09,85,11,252,29*5F
$GNGLL,0419.91343,S,05539.63247,E,052448.00,A,A*6B
$GNGRS,052448.00,1,-9.0,-1.6,1.2,1.5,2.4,0.7,25.6,-2.3,14.2,,,*53
$GNGRS,052448.00,1,-1.1,-8.0,4.4,0.7,-8.0,,,,,,,*5B
$GNGST,052448.00,159643,,,,3.3,5.2,11*63
$GNZDA,052448.00,28,05,2025,00,00*7D
$GNGBS,052448.00,3.3,5.2,10.8,,,,*6E
$GNTXT,01,01,01,More than 100 frame errors, UART RX was disabled*70
b0L8=J5 
# +1VB{4&V_":R 
Y
mD`EFI &QOPPwcSeHT.U;b8U
?$GNRMC,052449.00,A,0419.91344,S,05539.63250,E,0.402,,280525,,,A*7C
$GNVTG,,T,,M,0.402,N,0.744,K,A*3C
$GNGNS,052449.00,0419.91344,S,05539.63250,E,AA,14,0.79,31.3,-47.6,,*66
$GNGGA,052449.00,0419.91344,S,05539.63250,E,1,12,0.79,31.3,M,-47.6,M,,*4A
$GNGSA,A,3,24,05,20,15,12,18,29,25,23,,,,1.53,0.79,1.31*14
$GNGSA,A,3,80,83,69,73,85,,,,,,,,1.53,0.79,1.31*13
$GPGSV,5,1,17,05,61,074,31,11,04,027,,12,53,019,30,13,15,135,*76
$GPGSV,5,2,17,15,32,168,19,18,32,256,35,20,31,043,19,22,05,134,*79
$GPGSV,5,3,17,23,19,207,22,24,49,203,29,25,30,342,29,29,09,322,11*7F
$GPGSV,5,4,17,36,52,277,,40,86,351,38,41,58,082,34,49,32,274,*70
$GPGSV,5,5,17,50,10,089,*4A
$GLGSV,3,1,09,68,16,096,,69,25,146,11,70,04,206,,73,38,337,32*6D
$GLGSV,3,2,09,79,25,151,18,80,80,119,28,83,14,357,22,84,27,302,*6C
$GLGSV,3,3,09,85,11,252,22*54
$GNGLL,0419.91344,S,05539.63250,E,052449.00,A,A*6B
$GNGRS,052449.00,1,-15.5,-3.2,0.0,4.9,0.0,-2.5,25.6,-0.5,13.0,,,*4C
$GNGRS,052449.00,1,1.0,-7.0,4.6,1.4,-8.3,,,,,,,*7A
$GNGST,052449.00,3299292,,,,3.3,5.2,11*56
$GNZDA,052449.00,28,05,2025,00,00*7C
$GNGBS,052449.00,3.3,5.2,10.9,,,,*6E
$GNTXT,01,01,01,More than 100 frame errors, UART RX was disabled*70
b0L =J:!5 F
" R+H1#VYBE{4$V_":R 
Y
mD`E[FI &QxOPPwFSeT.U+&b U
?F$GNRMC,052450.00,A,0419.91345,S,05539.63251,E,0.127,,280525,,,A*76
$GNVTG,,T,,M,0.127,N,0.236,K,A*3E
$GNGNS,052450.00,0419.91345,S,05539.63251,E,AA,14,0.93,31.5,-47.6,,*6C
$GNGGA,052450.00,0419.91345,S,05539.63251,E,1,12,0.93,31.5,M,-47.6,M,,*40
$GNGSA,A,3,24,05,20,15,12,18,29,25,23,,,,1.72,0.93,1.44*11
$GNGSA,A,3,80,83,69,73,85,,,,,,,,1.72,0.93,1.44*16
$GPGSV,5,1,17,05,61,074,30,11,04,027,,12,53,019,33,13,15,135,*74
$GPGSV,5,2,17,15,32,168,18,18,32,256,34,20,31,043,18,22,05,134,*78
$GPGSV,5,3,17,23,19,207,21,24,49,203,20,25,30,342,35,29,09,322,12*7B
$GPGSV,5,4,17,36,52,277,,40,86,351,36,41,58,082,34,49,32,274,*7E
$GPGSV,5,5,17,50,10,089,*4A
$GLGSV,3,1,09,68,16,096,,69,25,146,08,70,04,206,,73,38,337,32*65
$GLGSV,3,2,09,79,25,151,16,80,80,119,27,83,14,357,20,84,27,302,*6F
$GLGSV,3,3,09,85,11,252,27*51
$GNGLL,0419.91345,S,05539.63251,E,052450.00,A,A*63
$GNGRS,052450.00,1,-13.9,-2.0,0.7,5.8,4.0,0.8,-22.3,0.9,9.2,,,*5B
$GNGRS,052450.00,1,0.7,-8.2,34.2,3.8,-7.2,,,,,,,*4E
$GNGST,052450.00,39,,,,3.3,5.2,11*6C
$GNZDA,052450.00,28,05,2025,00,00*74
$GNGBS,052450.00,3.3,5.2,10.9,,,,*66
$GNTXT,01,01,01,More than 100 frame errors, UART RX was disabled*70
b0L=JQ5 
! B+q1V
B
{4V_:R 
Y
mD`E
FI &QOPPwSe
T.UbU
!?$GNRMC,052451.00,A,0419.91340,S,05539.63247,E,0.071,,280525,,,A*77
$GNVTG,,T,,M,0.071,N,0.131,K,A*38
$GNGNS,052451.00,0419.91340,S,05539.63247,E,AA,14,0.79,31.8,-47.6,,*66
$GNGGA,052451.00,0419.91340,S,05539.63247,E,1,12,0.79,31.8,M,-47.6,M,,*4A
$GNGSA,A,3,24,05,20,15,12,18,29,25,23,,,,1.53,0.79,1.31*14
$GNGSA,A,3,80,83,69,73,85,,,,,,,,1.53,0.79,1.31*13
$GPGSV,5,1,17,05,61,074,29,11,04,027,,12,53,019,30,13,15,135,*7F
$GPGSV,5,2,17,15,32,168,18,18,32,256,33,20,31,043,18,22,05,134,*7F
$GPGSV,5,3,17,23,19,207,20,24,49,203,21,25,30,342,31,29,09,322,10*7D
$GPGSV,5,4,17,36,52,277,,40,86,351,31,41,58,082,31,49,32,274,*7C
$GPGSV,5,5,17,50,10,089,*4A
$GLGSV,3,1,09,68,16,096,,69,25,146,10,70,04,206,,73,38,337,32*6C
$GLGSV,3,2,09,79,25,151,16,80,80,119,24,83,14,357,18,84,27,302,*67
$GLGSV,3,3,09,85,11,252,28*5E
$GNGLL,0419.91340,S,05539.63247,E,052451.00,A,A*60
$GNGRS,052451.00,1,-11.2,-1.8,1.1,4.9,-0.5,-1.9,25.7,4.7,9.4,,,*7C
$GNGRS,052451.00,1,5.0,-10.1,4.7,5.3,-12.9,,,,,,,*73
$GNGST,052451.00,3299292,,,,3.3,5.2,11*5F
$GNZDA,052451.00,28,05,2025,00,00*75
$GNGBS,052451.00,3.3,5.2,10.9,,,,*67
$GNTXT,01,01,01,More than 100 frame errors, UART RX was disabled*70
b0L=J5 
 +12VB
{4#V_:R 
Y
mD`EFI&QOPPw&SeT.UubU
%?d$GNRMC,052452.00,A,0419.91339,S,05539.63245,E,0.070,,280525,,,A*79
$GNVTG,,T,,M,0.070,N,0.131,K,A*39
$GNGNS,052452.00,0419.91339,S,05539.63245,E,AA,13,0.93,32.0,-47.6,,*61
$GNGGA,052452.00,0419.91339,S,05539.63245,E,1,12,0.93,32.0,M,-47.6,M,,*4A
$GNGSA,A,3,24,05,20,15,12,18,29,25,23,,,,1.72,0.93,1.44*11
$GNGSA,A,3,80,83,73,85,,,,,,,,,1.72,0.93,1.44*19
$GPGSV,5,1,17,05,61,074,28,11,04,027,,12,53,019,30,13,15,135,*7E
$GPGSV,5,2,17,15,32,168,17,18,32,256,30,20,31,043,18,22,05,134,*73
$GPGSV,5,3,17,23,19,207,17,24,49,203,22,25,30,342,29,29,09,322,08*7A
$GPGSV,5,4,17,36,52,277,,40,86,351,35,41,58,082,29,49,32,274,*71
$GPGSV,5,5,17,50,10,089,*4A
$GLGSV,3,1,09,68,16,096,,69,25,146,06,70,04,206,,73,38,337,31*68
$GLGSV,3,2,09,79,25,151,16,80,80,119,22,83,14,357,15,84,27,302,*6C
$GLGSV,3,3,09,85,11,252,27*51
$GNGLL,0419.91339,S,05539.63245,E,052452.00,A,A*6F
$GNGRS,052452.00,1,-14.9,-2.5,-1.2,5.1,-2.3,0.2,25.7,5.1,7.9,,,*7F
$GNGRS,052452.00,1,8.1,-11.5,0.2,-14.2,,,,,,,,*5D
$GNGST,052452.00,43,,,,3.3,5.2,11*63
$GNZDA,052452.00,28,05,2025,00,00*76
$GNGBS,052452.00,3.3,5.2,11.0,,,,*6C
$GNTXT,01,01,01,More than 100 frame errors, UART RX was disabled*70
b0L=J58 Y
  p+:1VB&{4"V_:R 
Y
mD`E(FI &QWO PPw'SeT.UbU
)?<o$GNRMC,052453.00,A,0419.91338,S,05539.63243,E,0.122,,280525,,,A*79
$GNVTG,,T,,M,0.122,N,0.226,K,A*3A
$GNGNS,052453.00,0419.91338,S,05539.63243,E,AA,14,0.80,32.4,-47.6,,*66
$GNGGA,052453.00,0419.91338,S,05539.63243,E,1,12,0.80,32.4,M,-47.6,M,,*4A
$GNGSA,A,3,24,05,20,15,12,18,25,23,,,,,1.54,0.80,1.32*1D
$GNGSA,A,3,79,80,83,69,73,85,,,,,,,1.54,0.80,1.32*1F
$GPGSV,5,1,17,05,61,074,27,11,04,027,,12,53,019,29,13,15,135,*79
$GPGSV,5,2,17,15,32,168,15,18,32,256,32,20,31,043,18,22,05,134,*73
$GPGSV,5,3,17,23,19,207,15,24,49,203,22,25,30,342,28,29,09,322,07*76
$GPGSV,5,4,17,36,52,277,,40,86,351,34,41,58,082,30,49,32,274,*78
$GPGSV,5,5,17,50,10,089,*4A
$GLGSV,3,1,09,68,16,096,,69,25,146,15,70,04,206,,73,38,337,32*69
$GLGSV,3,2,09,79,25,151,16,80,80,119,20,83,14,357,14,84,27,302,*6F
$GLGSV,3,3,09,85,11,252,27*51
$GNGLL,0419.91338,S,05539.63243,E,052453.00,A,A*69
$GNGRS,052453.00,1,-10.0,-3.7,-0.8,8.6,0.6,-1.4,2.2,8.3,,,,*6E
$GNGRS,052453.00,1,-4.8,13.2,-13.4,-25.2,0.9,-13.4,,,,,,*55
$GNGST,052453.00,48,,,,3.3,5.3,11*68
$GNZDA,052453.00,28,05,2025,00,00*77
$GNGBS,052453.00,3.3,5.3,11.1,,,,*6D
$GNTXT,01,01,01,More than 100 frame errors, UART RX was disabled*70
b0L=J5 -
  )+1HVB{4"V_:R 
Y
mD`EFI!&Q
OPPwSeT.UCkbU
s-?$GNRMC,052454.00,A,0419.91334,S,05539.63243,E,0.021,,280525,,,A*70
$GNVTG,,T,,M,0.021,N,0.040,K,A*3A
$GNGNS,052454.00,0419.91334,S,05539.63243,E,AA,15,0.74,32.6,-47.6,,*65
$GNGGA,052454.00,0419.91334,S,05539.63243,E,1,12,0.74,32.6,M,-47.6,M,,*48
$GNGSA,A,3,24,05,20,15,12,18,29,25,23,,,,1.46,0.74,1.26*1B
$GNGSA,A,3,79,80,83,69,73,85,,,,,,,1.46,0.74,1.26*12
$GPGSV,5,1,17,05,61,074,29,11,04,027,,12,53,019,30,13,15,135,*7F
$GPGSV,5,2,17,15,32,168,14,18,32,256,32,20,31,043,16,22,05,134,*7C
$GPGSV,5,3,17,23,19,207,11,24,49,203,24,25,30,342,29,29,09,322,08*7A
$GPGSV,5,4,17,36,52,277,,40,86,351,34,41,58,082,31,49,32,274,*79
$GPGSV,5,5,17,50,10,089,*4A
$GLGSV,3,1,09,68,16,096,,69,25,146,09,70,04,206,,73,38,337,33*65
$GLGSV,3,2,09,79,25,151,15,80,80,119,22,83,14,357,15,84,27,302,*6F
$GLGSV,3,3,09,85,11,252,27*51
$GNGLL,0419.91334,S,05539.63243,E,052454.00,A,A*62
$GNGRS,052454.00,1,-9.5,0.0,1.3,8.1,-0.7,0.4,25.5,4.8,7.7,,,*46
$GNGRS,052454.00,1,-5.6,17.2,-10.3,4.6,2.7,-12.1,,,,,,*4F
$GNGST,052454.00,3180286,,,,3.3,5.3,11*55
$GNZDA,052454.00,28,05,2025,00,00*70
$GNGBS,052454.00,3.3,5.3,11.1,,,,*6A
$GNTXT,01,01,01,More than 100 frame errors, UART RX was disabled*70
b0L=J|5 
# W+1VB{4%V_:R 
Y
mD`EFI!&QO)PPw`SeT.U?{bU
[1??$GNRMC,052455.00,A,0419.91332,S,05539.63245,E,0.009,,280525,,,A*7B
$GNVTG,,T,,M,0.009,N,0.017,K,A*32
$GNGNS,052455.00,0419.91332,S,05539.63245,E,AA,15,0.74,32.6,-47.6,,*64
$GNGGA,052455.00,0419.91332,S,05539.63245,E,1,12,0.74,32.6,M,-47.6,M,,*49
$GNGSA,A,3,24,05,20,15,12,18,29,25,23,,,,1.46,0.74,1.26*1B
$GNGSA,A,3,79,80,83,69,73,85,,,,,,,1.46,0.74,1.26*12
$GPGSV,5,1,17,05,61,074,30,11,04,027,,12,53,019,31,13,15,135,*76
$GPGSV,5,2,17,15,32,168,15,18,32,256,35,20,31,043,18,22,05,134,*74
$GPGSV,5,3,17,23,19,207,18,24,49,203,31,25,30,342,30,29,09,322,08*7F
$GPGSV,5,4,17,36,52,277,,40,86,351,37,41,58,082,31,49,32,274,*7A
$GPGSV,5,5,17,50,10,089,*4A
$GLGSV,3,1,09,68,16,096,,69,25,146,08,70,04,206,,73,38,337,33*64
$GLGSV,3,2,09,79,25,151,13,80,80,119,23,83,14,357,15,84,27,302,*68
$GLGSV,3,3,09,85,11,252,26*50
$GNGLL,0419.91332,S,05539.63245,E,052455.00,A,A*63
$GNGRS,052455.00,1,-10.7,-1.3,4.5,9.2,-3.2,0.9,25.2,4.0,7.6,,,*56
$GNGRS,052455.00,1,-7.3,18.9,-10.6,4.6,-5.0,-9.6,,,,,,*58
$GNGST,052455.00,3180286,,,,3.3,5.3,11*54
$GNZDA,052455.00,28,05,2025,00,00*71
$GNGBS,052455.00,3.3,5.3,11.3,,,,*69
$GNTXT,01,01,01,More than 100 frame errors, UART RX was disabled*70
b0L=J5 
& 
++P1V'BW{4%V_ :R 
Y
mD`EFI$&QOPPwSeT.UNbU
C5?$GNRMC,052456.00,A,0419.91337,S,05539.63237,E,0.073,,280525,,,A*75
$GNVTG,,T,,M,0.073,N,0.134,K,A*3F
$GNGNS,052456.00,0419.91337,S,05539.63237,E,AA,15,0.72,32.7,-47.6,,*60
$GNGGA,052456.00,0419.91337,S,05539.63237,E,1,12,0.72,32.7,M,-47.6,M,,*4D
$GNGSA,A,3,24,05,20,15,12,18,29,25,23,,,,1.39,0.72,1.19*19
$GNGSA,A,3,79,80,83,69,73,85,,,,,,,1.39,0.72,1.19*10
$GPGSV,5,1,17,05,61,074,31,11,04,027,,12,53,019,29,13,15,135,*7E
$GPGSV,5,2,17,15,32,168,17,18,32,256,38,20,31,043,21,22,05,134,*71
$GPGSV,5,3,17,23,19,207,16,24,49,203,31,25,30,342,31,29,09,322,09*71
$GPGSV,5,4,17,36,52,277,,40,86,351,37,41,58,082,32,49,32,274,*79
$GPGSV,5,5,17,50,10,089,*4A
$GLGSV,3,1,09,68,16,096,,69,25,146,12,70,04,206,,73,38,337,36*6A
$GLGSV,3,2,09,79,25,151,12,80,80,119,24,83,14,357,15,84,27,302,*6E
$GLGSV,3,3,09,85,11,252,28*5E
$GNGLL,0419.91337,S,05539.63237,E,052456.00,A,A*60
$GNGRS,052456.00,1,-11.1,-5.2,3.0,7.8,-2.5,2.7,13.7,0.4,5.9,,,*56
$GNGRS,052456.00,1,-8.6,17.4,-8.7,1.3,-7.4,-6.9,,,,,,*6D
$GNGST,052456.00,62,,,,3.3,5.2,11*64
$GNZDA,052456.00,28,05,2025,00,00*72
$GNGBS,052456.00,3.3,5.2,11.2,,,,*6A
$GNTXT,01,01,01,More than 100 frame errors, UART RX was disabled*70
b0Lx"=J5 
# b+Z, 1{V
B
{4#V_ :R 
Y
mD`EFI#&Q OPPwFSeT.UIObxU
+9?$GNRMC,052457.00,A,0419.91337,S,05539.63230,E,0.061,,280525,,,A*70
$GNVTG,,T,,M,0.061,N,0.114,K,A*3E
$GNGNS,052457.00,0419.91337,S,05539.63230,E,AA,15,0.74,33.0,-47.6,,*66
$GNGGA,052457.00,0419.91337,S,05539.63230,E,1,12,0.74,33.0,M,-47.6,M,,*4B
$GNGSA,A,3,24,05,20,15,12,18,29,25,23,,,,1.46,0.74,1.26*1B
$GNGSA,A,3,79,80,83,69,73,85,,,,,,,1.46,0.74,1.26*12
$GPGSV,5,1,17,05,61,074,34,11,04,027,,12,53,019,29,13,15,135,*7B
$GPGSV,5,2,17,15,32,168,17,18,32,256,35,20,31,043,22,22,05,134,*7F
$GPGSV,5,3,17,23,19,207,26,24,49,203,32,25,30,342,31,29,09,322,10*79
$GPGSV,5,4,17,36,52,277,,40,86,351,35,41,58,082,32,49,32,274,*7B
$GPGSV,5,5,17,50,10,089,*4A
$GLGSV,3,1,09,68,16,096,,69,25,146,18,70,04,206,,73,38,337,35*63
$GLGSV,3,2,09,79,25,151,14,80,80,119,25,83,14,357,15,84,27,302,*69
$GLGSV,3,3,09,85,11,252,25*53
$GNGLL,0419.91337,S,05539.63230,E,052457.00,A,A*66
$GNGRS,052457.00,1,-6.5,-2.6,0.9,9.9,-6.3,1.0,25.8,-2.5,5.6,,,*4E
$GNGRS,052457.00,1,-13.6,16.1,-8.3,4.6,-4.8,-11.0,,,,,,*66
$GNGST,052457.00,35254,,,,3.2,5.2,11*55
$GNZDA,052457.00,28,05,2025,00,00*73
$GNGBS,052457.00,3.2,5.2,11.2,,,,*6A
$GNTXT,01,01,01,More than 100 frame errors, UART RX was disabled*70
b0L`"=J4 5 
" I+  1 V
B"
{4#V_:R 
Y
mD`EFI#&QUO2PPwSeT.UKb`U
=?tw$GNRMC,052458.00,A,0419.91341,S,05539.63228,E,0.114,,280525,,,A*74
$GNVTG,,T,,M,0.114,N,0.211,K,A*3B
$GNGNS,052458.00,0419.91341,S,05539.63228,E,AA,15,0.74,33.3,-47.6,,*62
$GNGGA,052458.00,0419.91341,S,05539.63228,E,1,12,0.74,33.3,M,-47.6,M,,*4F
$GNGSA,A,3,24,05,20,15,12,18,29,25,23,,,,1.46,0.74,1.26*1B
$GNGSA,A,3,79,80,83,69,73,85,,,,,,,1.46,0.74,1.26*12
$GPGSV,5,1,17,05,61,074,34,11,04,027,,12,53,019,32,13,15,135,*71
$GPGSV,5,2,17,15,32,168,18,18,32,256,34,20,31,043,21,22,05,134,*72
$GPGSV,5,3,17,23,19,207,32,24,49,203,27,25,30,342,32,29,09,322,10*7B
$GPGSV,5,4,17,36,52,277,,40,86,351,35,41,58,082,31,49,32,274,*78
$GPGSV,5,5,17,50,10,089,*4A
$GLGSV,3,1,09,68,16,096,,69,25,146,09,70,04,206,,73,38,337,35*63
$GLGSV,3,2,09,79,25,151,13,80,80,119,27,83,14,357,16,84,27,302,*6F
$GLGSV,3,3,09,85,11,252,25*53
$GNGLL,0419.91341,S,05539.63228,E,052458.00,A,A*61
$GNGRS,052458.00,1,-6.0,0.5,1.7,9.6,-5.3,0.7,25.9,4.9,2.9,,,*43
$GNGRS,052458.00,1,-12.3,15.1,-7.7,4.5,-4.3,-12.5,,,,,,*6B
$GNGST,052458.00,51279,,,,3.2,5.1,11*54
$GNZDA,052458.00,28,05,2025,00,00*7C
$GNGBS,052458.00,3.2,5.1,11.2,,,,*66
$GNTXT,01,01,01,More than 100 frame errors, UART RX was disabled*70
b0LH"=J 5 H
& $+1VBd{4%V_:R 
Y
mD`E@FI&QOPPwSeT.URbHU
@?K$GNRMC,052459.00,A,0419.91350,S,05539.63224,E,0.143,,280525,,,A*7B
$GNVTG,,T,,M,0.143,N,0.266,K,A*39
$GNGNS,052459.00,0419.91350,S,05539.63224,E,AA,14,0.74,33.4,-47.6,,*69
$GNGGA,052459.00,0419.91350,S,05539.63224,E,1,12,0.74,33.4,M,-47.6,M,,*45
$GNGSA,A,3,24,05,20,15,12,18,25,23,,,,,1.46,0.74,1.26*10
$GNGSA,A,3,79,80,83,69,73,85,,,,,,,1.46,0.74,1.26*12
$GPGSV,5,1,17,05,61,074,34,11,04,027,,12,53,019,32,13,15,135,*71
$GPGSV,5,2,17,15,32,168,18,18,32,256,38,20,31,043,22,22,05,134,*7D
$GPGSV,5,3,17,23,19,207,28,24,49,203,27,25,30,342,27,29,09,322,20*77
$GPGSV,5,4,17,36,52,277,,40,86,351,37,41,58,082,31,49,32,274,*7A
$GPGSV,5,5,17,50,10,089,*4A
$GLGSV,3,1,09,68,16,096,,69,25,146,08,70,04,206,,73,38,337,30*67
$GLGSV,3,2,09,79,25,151,13,80,80,119,27,83,14,357,16,84,27,302,*6F
$GLGSV,3,3,09,85,11,252,30*57
$GNGLL,0419.91350,S,05539.63224,E,052459.00,A,A*6C
$GNGRS,052459.00,1,-4.8,-0.7,1.4,11.0,-7.4,0.4,-0.8,11.6,,,,*58
$GNGRS,052459.00,1,-10.7,10.3,-7.8,-1.9,-3.3,-6.9,,,,,,*7E
$GNGST,052459.00,53,,,,3.1,5.0,11*69
$GNZDA,052459.00,28,05,2025,00,00*7D
$GNGBS,052459.00,3.1,5.0,11.0,,,,*67
$GNTXT,01,01,01,More than 100 frame errors, UART RX was disabled*70
b0L0 =J_ 5z 
& +!1VB\{4%V_:R 
Y
mD`EFI&QfOPPwSe|T.UVb0U
D?#D$GNRMC,052500.00,A,0419.91350,S,05539.63219,E,0.076,,280525,,,A*7F
$GNVTG,,T,,M,0.076,N,0.141,K,A*38
$GNGNS,052500.00,0419.91350,S,05539.63219,E,AA,14,0.74,33.7,-47.6,,*69
$GNGGA,052500.00,0419.91350,S,05539.63219,E,1,12,0.74,33.7,M,-47.6,M,,*45
$GNGSA,A,3,24,05,20,15,12,18,25,23,,,,,1.46,0.74,1.26*10
$GNGSA,A,3,79,80,83,69,73,85,,,,,,,1.46,0.74,1.26*12
$GPGSV,5,1,17,05,61,074,32,11,04,027,,12,53,019,32,13,15,135,*77
$GPGSV,5,2,17,15,32,168,18,18,32,256,38,20,31,043,21,22,05,134,*7E
$GPGSV,5,3,17,23,19,207,29,24,49,203,33,25,30,342,28,29,09,322,21*7D
$GPGSV,5,4,17,36,52,277,,40,86,351,37,41,58,082,30,49,32,274,*7B
$GPGSV,5,5,17,50,10,089,*4A
$GLGSV,3,1,09,68,16,096,,69,25,146,12,70,04,206,,73,38,337,24*69
$GLGSV,3,2,09,79,25,151,12,80,80,119,28,83,14,357,14,84,27,302,*63
$GLGSV,3,3,09,85,11,252,31*56
$GNGLL,0419.91350,S,05539.63219,E,052500.00,A,A*6F
$GNGRS,052500.00,1,-3.5,-4.2,1.5,10.0,-3.9,0.3,-0.9,5.4,,,,*66
$GNGRS,052500.00,1,-10.5,10.3,-9.0,4.6,-1.5,-8.5,,,,,,*56
$GNGST,052500.00,70508,,,,3.1,4.9,11*50
$GNZDA,052500.00,28,05,2025,00,00*70
$GNGBS,052500.00,3.1,4.9,10.8,,,,*6B
$GNTXT,01,01,01,More than 100 frame errors, UART RX was disabled*70
b0L=J5 
& B+
F 1VB{{4%V_:R 
Y
mD`EFI &QOzPPwSewT.UbU
H?$GNRMC,052501.00,A,0419.91350,S,05539.63220,E,0.042,,280525,,,A*73
$GNVTG,,T,,M,0.042,N,0.078,K,A*34
$GNGNS,052501.00,0419.91350,S,05539.63220,E,AA,14,0.74,33.6,-47.6,,*63
$GNGGA,052501.00,0419.91350,S,05539.63220,E,1,12,0.74,33.6,M,-47.6,M,,*4F
$GNGSA,A,3,24,05,20,15,12,18,25,23,,,,,1.46,0.74,1.26*10
$GNGSA,A,3,79,80,83,69,73,85,,,,,,,1.46,0.74,1.26*12
$GPGSV,5,1,17,05,61,074,31,11,04,027,,12,53,019,31,13,15,135,*77
$GPGSV,5,2,17,15,32,168,18,18,32,256,38,20,31,043,22,22,05,134,*7D
$GPGSV,5,3,17,23,19,207,27,24,49,203,32,25,30,342,28,29,09,322,21*72
$GPGSV,5,4,17,36,52,277,,40,86,351,37,41,58,082,31,49,32,274,*7A
$GPGSV,5,5,17,50,10,089,*4A
$GLGSV,3,1,09,68,16,096,,69,25,146,12,70,04,206,,73,38,337,32*6E
$GLGSV,3,2,09,79,25,151,11,80,80,119,28,83,14,357,13,84,27,302,*67
$GLGSV,3,3,09,85,11,252,29*5F
$GNGLL,0419.91350,S,05539.63220,E,052501.00,A,A*64
$GNGRS,052501.00,1,-6.2,-3.0,2.7,12.8,-2.4,0.7,6.8,8.4,,,,*44
$GNGRS,052501.00,1,-11.6,9.3,-11.6,4.4,-0.3,-8.6,,,,,,*54
$GNGST,052501.00,102557,,,,3.1,4.8,11*6E
$GNZDA,052501.00,28,05,2025,00,00*71
$GNGBS,052501.00,3.1,4.8,10.7,,,,*64
$GNTXT,01,01,01,More than 100 frame errors, UART RX was disabled*70
b0L =JM!5 {
& +g1!VB{4'V_ :R 
Y
mD`E}FI &QmOoPPwSe?T.U[bU
L?*$GNRMC,052502.00,A,0419.91353,S,05539.63222,E,0.183,,280525,,,D*78
$GNVTG,,T,,M,0.183,N,0.339,K,D*3B
$GNGNS,052502.00,0419.91353,S,05539.63222,E,DA,15,0.78,33.3,-47.6,,0000*6C
$GNGGA,052502.00,0419.91353,S,05539.63222,E,2,12,0.78,33.3,M,-47.6,M,,0000*47
$GNGSA,A,3,24,05,20,15,12,18,29,25,23,,,,1.47,0.78,1.25*15
$GNGSA,A,3,79,80,83,69,73,85,,,,,,,1.47,0.78,1.25*1C
$GPGSV,5,1,17,05,61,074,32,11,04,027,,12,53,019,33,13,15,135,*76
$GPGSV,5,2,17,15,32,168,19,18,32,256,38,20,31,043,21,22,05,134,*7F
$GPGSV,5,3,17,23,19,207,29,24,49,203,30,25,30,342,33,29,09,322,18*7E
$GPGSV,5,4,17,36,52,277,,40,86,351,39,41,58,082,32,49,32,274,*77
$GPGSV,5,5,17,50,10,089,*4A
$GLGSV,3,1,09,68,16,096,,69,25,146,12,70,04,206,,73,38,337,32*6E
$GLGSV,3,2,09,79,25,151,12,80,80,119,28,83,14,357,13,84,27,302,*64
$GLGSV,3,3,09,85,11,252,29*5F
$GNGLL,0419.91353,S,05539.63222,E,052502.00,A,D*63
$GNGRS,052502.00,1,-0.6,-1.8,4.5,11.5,-6.1,1.3,12.1,5.1,8.7,,,*54
$GNGRS,052502.00,1,-14.3,7.1,-9.6,60.1,1.1,-1.1,,,,,,*75
$GNGST,052502.00,48,,,,3.0,4.7,11*6B
$GNZDA,052502.00,28,05,2025,00,00*72
$GNGBS,052502.00,3.0,4.7,10.5,,,,*6B
$GNTXT,01,01,01,More than 100 frame errors, UART RX was disabled*70
b0L=J<!5 ?
& c+n1 V[BB{4%V_ :R 
Y
mD`E#FI &QDOPPwSeT.U*AbU
P?$GNRMC,052503.00,A,0419.91360,S,05539.63224,E,0.056,,280525,,,D*76
$GNVTG,,T,,M,0.056,N,0.104,K,D*3E
$GNGNS,052503.00,0419.91360,S,05539.63224,E,DA,15,0.77,33.2,-47.6,,0000*65
$GNGGA,052503.00,0419.91360,S,05539.63224,E,2,12,0.77,33.2,M,-47.6,M,,0000*4E
$GNGSA,A,3,24,05,20,15,12,18,29,25,23,,,,1.47,0.77,1.25*1A
$GNGSA,A,3,79,80,83,69,73,85,,,,,,,1.47,0.77,1.25*13
$GPGSV,5,1,17,05,61,074,30,11,04,027,,12,53,019,33,13,15,135,*74
$GPGSV,5,2,17,15,32,168,20,18,32,256,38,20,31,043,22,22,05,134,*76
$GPGSV,5,3,17,23,19,207,28,24,49,203,29,25,30,342,32,29,09,322,17*79
$GPGSV,5,4,17,36,52,277,,40,86,351,37,41,58,082,32,49,32,274,*79
$GPGSV,5,5,17,50,10,089,*4A
$GLGSV,3,1,09,68,16,096,,69,25,146,12,70,04,206,,73,38,337,32*6E
$GLGSV,3,2,09,79,25,151,12,80,80,119,29,83,14,357,16,84,27,302,*60
$GLGSV,3,3,09,85,11,252,29*5F
$GNGLL,0419.91360,S,05539.63224,E,052503.00,A,D*64
$GNGRS,052503.00,1,-1.0,-4.5,-0.2,5.8,-8.1,-1.6,13.5,3.5,11.3,,,*51
$GNGRS,052503.00,1,-21.0,-1.1,-13.0,-2.2,-1.9,-8.7,,,,,,*57
$GNGST,052503.00,3179277,,,,3.6,5.2,11*5A
$GNZDA,052503.00,28,05,2025,00,00*73
$GNGBS,052503.00,3.6,5.2,10.7,,,,*6A
$GNTXT,01,01,01,More than 100 frame errors, UART RX was disabled*70
b0L=JY 5 0
& +1VB{4%V_:R 
Y
mD`EFI &QhO
PPw=Se<T.U'^bU
T?$GNRMC,052504.00,A,0419.91364,S,05539.63228,E,0.042,,280525,,,D*7C
$GNVTG,,T,,M,0.042,N,0.078,K,D*31
$GNGNS,052504.00,0419.91364,S,05539.63228,E,DA,15,0.77,32.8,-47.6,,0000*61
$GNGGA,052504.00,0419.91364,S,05539.63228,E,2,12,0.77,32.8,M,-47.6,M,,0000*4A
$GNGSA,A,3,24,05,20,15,12,18,29,25,23,,,,1.47,0.77,1.25*1A
$GNGSA,A,3,79,80,83,69,73,85,,,,,,,1.47,0.77,1.25*13
$GPGSV,5,1,17,05,61,074,29,11,04,027,,12,53,019,32,13,15,135,*7D
$GPGSV,5,2,17,15,32,168,19,18,32,256,38,20,31,043,22,22,05,134,*7C
$GPGSV,5,3,17,23,19,207,27,24,49,203,30,25,30,342,31,29,09,322,18*72
$GPGSV,5,4,17,36,52,277,,40,86,351,37,41,58,082,31,49,32,274,*7A
$GPGSV,5,5,17,50,10,089,*4A
$GLGSV,3,1,09,68,16,096,,69,25,146,12,70,04,206,,73,38,337,32*6E
$GLGSV,3,2,09,79,25,151,10,80,80,119,29,83,14,357,18,84,27,302,*6C
$GLGSV,3,3,09,85,11,252,27*51
$GNGLL,0419.91364,S,05539.63228,E,052504.00,A,D*6B
$GNGRS,052504.00,1,-2.3,-4.2,-1.2,3.0,-8.5,-1.2,4.1,7.3,4.2,,,*5B
$GNGRS,052504.00,1,-23.6,-1.9,-12.2,-2.7,-4.1,-4.7,,,,,,*5B
$GNGST,052504.00,3179277,,,,3.5,5.2,11*5E
$GNZDA,052504.00,28,05,2025,00,00*74
$GNGBS,052504.00,3.5,5.2,10.6,,,,*6F
$GNTXT,01,01,01,More than 100 frame errors, UART RX was disabled*70
b0L=J 5 v
& +j%1V VB{4&V_:R 
Y
nD`EFI!&QOPPwSeT.UbU
kX?\S$GNRMC,052505.00,A,0419.91368,S,05539.63234,E,0.068,,280525,,,D*74
$GNVTG,,T,,M,0.068,N,0.126,K,D*33
$GNGNS,052505.00,0419.91368,S,05539.63234,E,DA,15,0.77,32.4,-47.6,,0000*6D
$GNGGA,052505.00,0419.91368,S,05539.63234,E,2,12,0.77,32.4,M,-47.6,M,,0000*46
$GNGSA,A,3,24,05,20,15,12,18,29,25,23,,,,1.47,0.77,1.25*1A
$GNGSA,A,3,79,80,83,69,73,85,,,,,,,1.47,0.77,1.25*13
$GPGSV,5,1,17,05,61,074,28,11,04,027,,12,53,019,32,13,15,135,*7C
$GPGSV,5,2,17,15,32,168,18,18,32,256,38,20,31,043,21,22,05,134,*7E
$GPGSV,5,3,17,23,19,207,28,24,49,203,29,25,30,342,32,29,09,322,20*7D
$GPGSV,5,4,17,36,52,277,,40,86,351,38,41,58,082,31,49,32,274,*75
$GPGSV,5,5,17,50,10,089,*4A
$GLGSV,3,1,09,68,16,096,,69,25,146,15,70,04,206,,73,38,337,33*68
$GLGSV,3,2,09,79,25,151,08,80,80,119,29,83,14,357,17,84,27,302,*6A
$GLGSV,3,3,09,85,11,252,26*50
$GNGLL,0419.91368,S,05539.63234,E,052505.00,A,D*6B
$GNGRS,052505.00,1,-6.8,-0.8,-1.5,1.2,-8.3,-0.7,-3.8,3.9,8.0,,,*7D
$GNGRS,052505.00,1,-25.9,-6.2,-10.6,4.7,-2.9,-7.9,,,,,,*71
$GNGST,052505.00,49,,,,3.5,5.1,11*6F
$GNZDA,052505.00,28,05,2025,00,00*75
$GNGBS,052505.00,3.5,5.1,10.5,,,,*6E
$GNTXT,01,01,01,More than 100 frame errors, UART RX was disabled*70
b0L=J!5 
& +1R VB{4%V_ :R 
Y
nD`EFI &Q;O
PPwSeT.UbU
S\?4$GNRMC,052506.00,A,0419.91372,S,05539.63237,E,0.055,,280525,,,D*71
$GNVTG,,T,,M,0.055,N,0.102,K,D*3B
$GNGNS,052506.00,0419.91372,S,05539.63237,E,DA,15,0.77,31.9,-47.6,,0000*68
$GNGGA,052506.00,0419.91372,S,05539.63237,E,2,12,0.77,31.9,M,-47.6,M,,0000*43
$GNGSA,A,3,24,05,20,15,12,18,29,25,23,,,,1.47,0.77,1.25*1A
$GNGSA,A,3,79,80,83,69,73,85,,,,,,,1.47,0.77,1.25*13
$GPGSV,5,1,17,05,61,074,28,11,04,027,,12,53,019,33,13,15,135,*7D
$GPGSV,5,2,17,15,32,168,20,18,32,256,38,20,31,043,21,22,05,134,*75
$GPGSV,5,3,17,23,19,207,28,24,49,203,28,25,30,342,32,29,09,322,21*7D
$GPGSV,5,4,17,36,52,277,,40,86,351,37,41,58,082,32,49,32,274,*79
$GPGSV,5,5,17,50,10,089,*4A
$GLGSV,3,1,09,68,16,096,,69,25,146,15,70,04,206,,73,38,337,32*69
$GLGSV,3,2,09,79,25,151,10,80,80,119,29,83,14,357,16,84,27,302,*62
$GLGSV,3,3,09,85,11,252,26*50
$GNGLL,0419.91372,S,05539.63237,E,052506.00,A,D*60
$GNGRS,052506.00,1,-4.3,-0.6,-1.3,-0.6,-8.0,-0.6,-2.4,3.9,2.3,,,*51
$GNGRS,052506.00,1,-26.1,-5.8,-9.9,4.1,-4.5,-0.9,,,,,,*4C
$GNGST,052506.00,89738,,,,3.4,5.1,10*5C
$GNZDA,052506.00,28,05,2025,00,00*76
$GNGBS,052506.00,3.4,5.1,10.4,,,,*6D
$GNTXT,01,01,01,More than 100 frame errors, UART RX was disabled*70
b0L=Jz5w 
& +~1VB{4%V_!:R 
Y
nD`EFI &QOPPwSeT.U bU
;`?1$GNRMC,052507.00,A,0419.91375,S,05539.63238,E,0.026,,280525,,,D*7C
$GNVTG,,T,,M,0.026,N,0.048,K,D*30
$GNGNS,052507.00,0419.91375,S,05539.63238,E,DA,15,0.77,31.9,-47.6,,0000*61
$GNGGA,052507.00,0419.91375,S,05539.63238,E,2,12,0.77,31.9,M,-47.6,M,,0000*4A
$GNGSA,A,3,24,05,20,15,12,18,29,25,23,,,,1.47,0.77,1.25*1A
$GNGSA,A,3,79,80,83,69,73,85,,,,,,,1.47,0.77,1.25*13
$GPGSV,5,1,17,05,61,074,28,11,04,027,,12,53,019,31,13,15,135,*7F
$GPGSV,5,2,17,15,32,168,22,18,32,256,38,20,31,043,23,22,05,134,*75
$GPGSV,5,3,17,23,19,207,27,24,49,203,29,25,30,342,31,29,09,322,21*70
$GPGSV,5,4,17,36,52,277,,40,86,351,37,41,58,082,33,49,32,274,*78
$GPGSV,5,5,17,50,10,089,*4A
$GLGSV,3,1,09,68,16,096,,69,25,146,15,70,04,206,,73,38,337,32*69
$GLGSV,3,2,09,79,25,151,12,80,80,119,30,83,14,357,14,84,27,302,*6A
$GLGSV,3,3,09,85,11,252,30*57
$GNGLL,0419.91375,S,05539.63238,E,052507.00,A,D*69
$GNGRS,052507.00,1,-0.8,-1.3,-2.9,-5.6,-6.5,-0.9,-5.9,1.7,6.4,,,*56
$GNGRS,052507.00,1,-26.3,-3.1,-7.9,4.0,-2.9,-4.8,,,,,,*40
$GNGST,052507.00,134606,,,,3.4,5.1,10*66
$GNZDA,052507.00,28,05,2025,00,00*77
$GNGBS,052507.00,3.4,5.1,10.3,,,,*6B
$GNTXT,01,01,01,More than 100 frame errors, UART RX was disabled*70
b0Lp=J5c 
& z+l1D VB{4&V_!:R 
Y
nD`EFI!&QOPPw(SeT.UbpU
#d?$GNRMC,052508.00,A,0419.91374,S,05539.63235,E,0.012,,280525,,,D*78
$GNVTG,,T,,M,0.012,N,0.022,K,D*3B
$GNGNS,052508.00,0419.91374,S,05539.63235,E,DA,15,0.72,31.9,-47.6,,0000*67
$GNGGA,052508.00,0419.91374,S,05539.63235,E,2,12,0.72,31.9,M,-47.6,M,,0000*4C
$GNGSA,A,3,24,05,20,15,12,18,29,25,23,,,,1.39,0.72,1.19*19
$GNGSA,A,3,79,80,83,69,73,85,,,,,,,1.39,0.72,1.19*10
$GPGSV,5,1,17,05,61,074,26,11,04,027,,12,53,019,31,13,15,135,*71
$GPGSV,5,2,17,15,32,168,21,18,32,256,38,20,31,043,24,22,05,134,*71
$GPGSV,5,3,17,23,19,207,27,24,49,203,27,25,30,342,32,29,09,322,20*7C
$GPGSV,5,4,17,36,52,277,,40,86,351,38,41,58,082,33,49,32,274,*77
$GPGSV,5,5,17,50,10,089,*4A
$GLGSV,3,1,09,68,16,096,,69,25,146,15,70,04,206,,73,38,337,33*68
$GLGSV,3,2,09,79,25,151,16,80,80,119,28,83,14,357,16,84,27,302,*65
$GLGSV,3,3,09,85,11,252,29*5F
$GNGLL,0419.91374,S,05539.63235,E,052508.00,A,D*6A
$GNGRS,052508.00,1,-4.4,-1.2,-1.5,-4.8,-4.1,-1.3,-7.4,1.7,5.0,,,*55
$GNGRS,052508.00,1,-0.4,-2.2,-7.5,-5.4,-1.3,-4.8,,,,,,*53
$GNGST,052508.00,50,,,,3.3,5.0,10*6C
$GNZDA,052508.00,28,05,2025,00,00*78
$GNGBS,052508.00,3.3,5.0,10.2,,,,*63
$GNTXT,01,01,01,More than 100 frame errors, UART RX was disabled*70
b0LX=J} 5 
% +1g VfB{4&V_!:R 
Y
nD`EFI"&QJOPPwSeLT.UbXU
h?$GNRMC,052509.00,A,0419.91378,S,05539.63244,E,0.083,,280525,,,D*7B
$GNVTG,,T,,M,0.083,N,0.153,K,D*34
$GNGNS,052509.00,0419.91378,S,05539.63244,E,DA,15,0.72,31.5,-47.6,,0000*60
$GNGGA,052509.00,0419.91378,S,05539.63244,E,2,12,0.72,31.5,M,-47.6,M,,0000*4B
$GNGSA,A,3,24,05,20,15,12,18,29,25,23,,,,1.39,0.72,1.19*19
$GNGSA,A,3,79,80,83,69,73,85,,,,,,,1.39,0.72,1.19*10
$GPGSV,5,1,17,05,61,074,26,11,04,027,,12,53,019,32,13,15,135,*72
$GPGSV,5,2,17,15,32,168,22,18,32,256,37,20,31,043,22,22,05,134,*7B
$GPGSV,5,3,17,23,19,207,28,24,49,203,29,25,30,342,32,29,09,322,19*77
$GPGSV,5,4,17,36,52,277,,40,86,351,38,41,58,082,33,49,32,274,*77
$GPGSV,5,5,17,50,10,089,*4A
$GLGSV,3,1,09,68,16,096,,69,25,146,15,70,04,206,,73,38,337,34*6F
$GLGSV,3,2,09,79,25,151,15,80,80,119,29,83,14,357,15,84,27,302,*64
$GLGSV,3,3,09,85,11,252,29*5F
$GNGLL,0419.91378,S,05539.63244,E,052509.00,A,D*61
$GNGRS,052509.00,1,-6.6,1.2,0.3,-3.1,-8.0,-1.1,-7.9,1.0,9.3,,,*57
$GNGRS,052509.00,1,2.4,-3.7,-1.8,4.1,-1.8,-3.7,,,,,,*58
$GNGST,052509.00,3073071,,,,3.3,5.0,10*59
$GNZDA,052509.00,28,05,2025,00,00*79
$GNGBS,052509.00,3.3,5.0,10.1,,,,*61
$GNTXT,01,01,01,More than 100 frame errors, UART RX was disabled*70
b0L@=Jfx5A =
% +Zz1VBT{4%V_!:R 
Y
nD`EFI"&QCOPPwSeT.UYJb@U
k?f$GNRMC,052510.00,A,0419.91377,S,05539.63248,E,0.042,,280525,,,D*7D
$GNVTG,,T,,M,0.042,N,0.078,K,D*31
$GNGNS,052510.00,0419.91377,S,05539.63248,E,DA,15,0.72,31.5,-47.6,,0000*6B
$GNGGA,052510.00,0419.91377,S,05539.63248,E,2,12,0.72,31.5,M,-47.6,M,,0000*40
$GNGSA,A,3,24,05,20,15,12,18,29,25,23,,,,1.39,0.72,1.19*19
$GNGSA,A,3,79,80,83,69,73,85,,,,,,,1.39,0.72,1.19*10
$GPGSV,5,1,17,05,61,074,25,11,04,027,13,12,53,019,31,13,15,135,*70
$GPGSV,5,2,17,15,32,168,24,18,32,256,37,20,31,043,23,22,05,134,*7C
$GPGSV,5,3,17,23,19,207,31,24,49,203,29,25,30,342,31,29,09,322,18*7D
$GPGSV,5,4,17,36,52,277,,40,86,351,37,41,58,082,33,49,32,274,*78
$GPGSV,5,5,17,50,10,089,*4A
$GLGSV,3,1,09,68,16,096,,69,25,146,15,70,04,206,,73,38,337,34*6F
$GLGSV,3,2,09,79,25,151,13,80,80,119,28,83,14,357,17,84,27,302,*61
$GLGSV,3,3,09,85,11,252,31*56
$GNGLL,0419.91377,S,05539.63248,E,052510.00,A,D*6A
$GNGRS,052510.00,1,-11.3,1.0,0.9,-7.1,-4.5,-0.7,-9.4,1.6,8.9,,,*60
$GNGRS,052510.00,1,2.3,-2.4,0.3,3.9,-1.9,-11.9,,,,,,*41
$GNGST,052510.00,3075067,,,,3.2,4.9,10*59
$GNZDA,052510.00,28,05,2025,00,00*71
$GNGBS,052510.00,3.2,4.9,10.0,,,,*61
$GNTXT,01,01,01,More than 100 frame errors, UART RX was disabled*70
b0L(=J 52 
% +<1VB{4&V_!:R 
Y
nD_EJFI"&Q*O
PPwSeT.U #b(U
o?l$GNRMC,052511.00,A,0419.91384,S,05539.63255,E,0.085,,280525,,,D*77
$GNVTG,,T,,M,0.085,N,0.157,K,D*36
$GNGNS,052511.00,0419.91384,S,05539.63255,E,DA,15,0.78,31.4,-47.6,,0000*61
$GNGGA,052511.00,0419.91384,S,05539.63255,E,2,12,0.78,31.4,M,-47.6,M,,0000*4A
$GNGSA,A,3,24,05,20,15,12,18,29,25,23,,,,1.47,0.78,1.25*15
$GNGSA,A,3,79,80,83,69,73,85,,,,,,,1.47,0.78,1.25*1C
$GPGSV,5,1,17,05,61,074,25,11,04,027,11,12,53,019,32,13,15,135,*71
$GPGSV,5,2,17,15,32,168,24,18,32,256,37,20,31,043,22,22,05,134,*7D
$GPGSV,5,3,17,23,19,207,30,24,49,203,28,25,30,342,30,29,09,322,17*73
$GPGSV,5,4,17,36,52,277,,40,86,351,38,41,58,082,33,49,32,274,*77
$GPGSV,5,5,17,50,10,089,*4A
$GLGSV,3,1,09,68,16,095,,69,25,146,15,70,04,206,,73,38,337,34*6C
$GLGSV,3,2,09,79,25,151,10,80,80,119,28,83,14,357,15,84,27,302,*60
$GLGSV,3,3,09,85,11,252,32*55
$GNGLL,0419.91384,S,05539.63255,E,052511.00,A,D*6B
$GNGRS,052511.00,1,-2.3,1.7,0.6,-8.0,-7.2,-0.8,-11.2,1.4,12.2,,,*53
$GNGRS,052511.00,1,-8.9,-5.1,-0.1,-58.1,-2.1,-10.3,,,,,,*5B
$GNGST,052511.00,44,,,,3.2,4.9,9.9*47
$GNZDA,052511.00,28,05,2025,00,00*70
$GNGBS,052511.00,3.2,4.9,9.9,,,,*51
$GNTXT,01,01,01,More than 100 frame errors, UART RX was disabled*70
b0L=J
"5H 
% +1VBs{4&V_ :R 
Y
nD_EFI"&QDOPPwSeT.UbU
s?D6$GNRMC,052512.00,A,0419.91391,S,05539.63263,E,0.041,,280525,,,D*7D
$GNVTG,,T,,M,0.041,N,0.075,K,D*3F
$GNGNS,052512.00,0419.91391,S,05539.63263,E,DA,15,0.72,31.1,-47.6,,0000*6C
$GNGGA,052512.00,0419.91391,S,05539.63263,E,2,12,0.72,31.1,M,-47.6,M,,0000*47
$GNGSA,A,3,24,05,20,15,12,18,29,25,23,,,,1.39,0.72,1.19*19
$GNGSA,A,3,79,80,83,69,73,85,,,,,,,1.39,0.72,1.19*10
$GPGSV,5,1,17,05,61,074,25,11,04,027,10,12,53,019,34,13,15,135,*76
$GPGSV,5,2,17,15,32,168,23,18,32,256,37,20,31,043,22,22,05,134,*7A
$GPGSV,5,3,17,23,19,207,30,24,49,203,28,25,30,342,30,29,09,322,19*7D
$GPGSV,5,4,17,36,52,277,,40,86,351,38,41,58,082,32,49,32,274,*76
$GPGSV,5,5,17,50,10,089,*4A
$GLGSV,3,1,09,68,16,095,,69,25,146,12,70,04,206,,73,38,337,34*6B
$GLGSV,3,2,09,79,25,151,13,80,80,119,28,83,14,357,12,84,27,302,*64
$GLGSV,3,3,09,85,11,252,31*56
$GNGLL,0419.91391,S,05539.63263,E,052512.00,A,D*69
$GNGRS,052512.00,1,-2.5,1.8,1.5,-8.1,-7.0,-0.6,-9.1,4.8,10.2,,,*67
$GNGRS,052512.00,1,2.6,-3.0,0.3,4.2,-1.9,-10.0,,,,,,*47
$GNGST,052512.00,3073726,,,,3.1,4.9,9.8*72
$GNZDA,052512.00,28,05,2025,00,00*73
$GNGBS,052512.00,3.1,4.9,9.8,,,,*50
$GNTXT,01,01,01,More than 100 frame errors, UART RX was disabled*70
b0L=J5 
" +f1VB{4%V_:R 
Y
nD_E
FI#&QXOPPw#SeT.Ua0bU
w?$GNRMC,052513.00,A,0419.91397,S,05539.63270,E,0.031,,280525,,,D*7F
$GNVTG,,T,,M,0.031,N,0.058,K,D*37
$GNGNS,052513.00,0419.91397,S,05539.63270,E,DA,15,0.72,30.8,-47.6,,0000*61
$GNGGA,052513.00,0419.91397,S,05539.63270,E,2,12,0.72,30.8,M,-47.6,M,,0000*4A
$GNGSA,A,3,24,05,20,15,12,18,29,25,23,,,,1.39,0.72,1.19*19
$GNGSA,A,3,79,80,83,69,73,85,,,,,,,1.39,0.72,1.19*10
$GPGSV,5,1,17,05,61,074,24,11,04,027,08,12,53,019,31,13,15,135,*7B
$GPGSV,5,2,17,15,32,168,23,18,32,256,34,20,31,043,22,22,05,134,*79
$GPGSV,5,3,17,23,19,207,30,24,49,203,28,25,30,342,31,29,09,322,19*7C
$GPGSV,5,4,17,36,52,277,,40,86,351,37,41,58,082,31,49,32,274,*7A
$GPGSV,5,5,17,50,10,089,*4A
$GLGSV,3,1,09,68,16,095,,69,25,146,10,70,04,205,,73,38,337,35*6B
$GLGSV,3,2,09,79,25,151,14,80,80,119,28,83,14,357,11,84,27,302,*60
$GLGSV,3,3,09,85,11,252,31*56
$GNGLL,0419.91397,S,05539.63270,E,052513.00,A,D*6C
$GNGRS,052513.00,1,-2.4,3.8,3.6,-10.7,-7.5,-0.2,-10.3,2.6,12.0,,,*68
$GNGRS,052513.00,1,2.6,-7.3,2.0,4.0,-1.7,-6.7,,,,,,*7C
$GNGST,052513.00,3076363,,,,3.1,4.9,9.7*7C
$GNZDA,052513.00,28,05,2025,00,00*72
$GNGBS,052513.00,3.1,4.9,9.7,,,,*5E
$GNTXT,01,01,01,More than 100 frame errors, UART RX was disabled*70
b0L=J= 5 
# @+1JVB{4&V_ :R 
Y
nD_EFI#&QNOXPPwSe$T.U>bU
{?$GNRMC,052514.00,A,0419.91402,S,05539.63278,E,0.042,,280525,,,D*7F
$GNVTG,,T,,M,0.042,N,0.077,K,D*3E
$GNGNS,052514.00,0419.91402,S,05539.63278,E,DA,15,0.77,30.4,-47.6,,0000*6C
$GNGGA,052514.00,0419.91402,S,05539.63278,E,2,12,0.77,30.4,M,-47.6,M,,0000*47
$GNGSA,A,3,24,05,20,15,12,18,29,25,23,,,,1.47,0.77,1.25*1A
$GNGSA,A,3,79,80,83,69,73,85,,,,,,,1.47,0.77,1.25*13
$GPGSV,5,1,17,05,61,074,25,11,04,027,07,12,53,019,32,13,15,135,*76
$GPGSV,5,2,17,15,32,168,25,18,32,256,35,20,31,043,22,22,05,134,*7E
$GPGSV,5,3,17,23,19,207,30,24,49,203,28,25,30,342,31,29,09,322,18*7D
$GPGSV,5,4,17,36,52,277,,40,86,351,38,41,58,082,32,49,32,274,*76
$GPGSV,5,5,17,50,10,089,*4A
$GLGSV,3,1,09,68,16,095,,69,25,146,12,70,04,205,,73,38,337,35*69
$GLGSV,3,2,09,79,25,151,11,80,80,119,28,83,14,357,11,84,27,302,*65
$GLGSV,3,3,09,85,11,252,31*56
$GNGLL,0419.91402,S,05539.63278,E,052514.00,A,D*68
$GNGRS,052514.00,1,0.7,1.7,3.8,-11.0,-7.6,0.6,-10.8,4.1,9.1,,,*5D
$GNGRS,052514.00,1,-24.7,-5.3,2.9,4.0,-1.8,-6.3,,,,,,*63
$GNGST,052514.00,52,,,,3.0,4.9,9.7*49
$GNZDA,052514.00,28,05,2025,00,00*75
$GNGBS,052514.00,3.0,4.9,9.7,,,,*58
$GNTXT,01,01,01,More than 100 frame errors, UART RX was disabled*70
b0L =J"5Y e
% F+1VB{4&V_ :R 
Y
nD_E^FI"&QDOPPwSe+T.Ub U
{?_$GNRMC,052515.00,A,0419.91400,S,05539.63272,E,0.059,,280525,,,D*7C
$GNVTG,,T,,M,0.059,N,0.109,K,D*3C
$GNGNS,052515.00,0419.91400,S,05539.63272,E,DA,15,0.72,30.6,-47.6,,0000*62
$GNGGA,052515.00,0419.91400,S,05539.63272,E,2,12,0.72,30.6,M,-47.6,M,,0000*49
$GNGSA,A,3,24,05,20,15,12,18,29,25,23,,,,1.39,0.72,1.19*19
$GNGSA,A,3,79,80,83,69,73,85,,,,,,,1.39,0.72,1.19*10
$GPGSV,5,1,17,05,61,074,23,11,04,027,,12,53,019,34,13,15,135,*71
$GPGSV,5,2,17,15,32,168,26,18,32,256,37,20,31,043,22,22,05,134,*7F
$GPGSV,5,3,17,23,19,207,30,24,49,203,27,25,30,342,31,29,09,322,16*7C
$GPGSV,5,4,17,36,52,277,,40,86,351,38,41,58,082,32,49,32,274,*76
$GPGSV,5,5,17,50,10,089,*4A
$GLGSV,3,1,09,68,16,095,,69,25,146,16,70,04,205,,73,38,337,34*6C
$GLGSV,3,2,09,79,25,151,16,80,80,119,28,83,14,357,15,84,27,302,*66
$GLGSV,3,3,09,85,11,252,31*56
$GNGLL,0419.91400,S,05539.63272,E,052515.00,A,D*61
$GNGRS,052515.00,1,-0.2,4.4,1.3,-11.8,-4.2,0.7,-11.4,4.1,5.1,,,*74
$GNGRS,052515.00,1,2.8,-3.6,3.0,6.1,-1.9,-11.2,,,,,,*4A
$GNGST,052515.00,3072448,,,,3.0,4.9,9.6*70
$GNZDA,052515.00,28,05,2025,00,00*74
$GNGBS,052515.00,3.0,4.9,9.6,,,,*58
$GNTXT,01,01,01,More than 100 frame errors, UART RX was disabled*70
b0L$=J 5 
$ Z+/1gVBn{4&V_ :R 
Y
nD_EFI#&Q!OPPwASe$T.U[Tb$U
c?$GNRMC,052516.00,A,0419.91406,S,05539.63283,E,0.153,,280525,,,D*7C
$GNVTG,,T,,M,0.153,N,0.283,K,D*36
$GNGNS,052516.00,0419.91406,S,05539.63283,E,DA,15,0.72,30.3,-47.6,,0000*6C
$GNGGA,052516.00,0419.91406,S,05539.63283,E,2,12,0.72,30.3,M,-47.6,M,,0000*47
$GNGSA,A,3,24,05,20,15,12,18,29,25,23,,,,1.39,0.72,1.19*19
$GNGSA,A,3,79,80,83,69,73,85,,,,,,,1.39,0.72,1.19*10
$GPGSV,5,1,17,05,61,074,22,11,04,027,,12,53,019,32,13,15,135,*76
$GPGSV,5,2,17,15,32,168,24,18,32,256,36,20,31,043,21,22,05,134,*7F
$GPGSV,5,3,17,23,19,207,31,24,49,203,28,25,30,342,31,29,09,322,12*76
$GPGSV,5,4,17,36,52,277,,40,86,351,38,41,58,082,32,49,32,274,*76
$GPGSV,5,5,17,50,10,089,*4A
$GLGSV,3,1,09,68,16,095,,69,25,146,16,70,04,205,,73,38,337,35*6D
$GLGSV,3,2,09,79,25,151,13,80,80,119,27,83,14,357,09,84,27,302,*61
$GLGSV,3,3,09,85,11,252,29*5F
$GNGLL,0419.91406,S,05539.63283,E,052516.00,A,D*6A
$GNGRS,052516.00,1,1.0,5.3,1.7,-10.8,-7.9,0.9,-14.3,5.2,8.2,,,*52
$GNGRS,052516.00,1,2.4,-1.9,2.9,7.1,-2.2,-11.9,,,,,,*42
$GNGST,052516.00,3072448,,,,2.9,4.8,9.5*79
$GNZDA,052516.00,28,05,2025,00,00*77
$GNGBS,052516.00,2.9,4.8,9.5,,,,*51
$GNTXT,01,01,01,More than 100 frame errors, UART RX was disabled*70
b0L(=J 5D E
$ +1V_B.{4&V_ :R 
Y
nD_EFI"&QO
PPwESeT.US<b(U
K?{/$GNRMC,052517.00,A,0419.91411,S,05539.63292,E,0.180,,280525,,,D*75
$GNVTG,,T,,M,0.180,N,0.333,K,D*32
$GNGNS,052517.00,0419.91411,S,05539.63292,E,DA,15,0.72,30.0,-47.6,,0000*68
$GNGGA,052517.00,0419.91411,S,05539.63292,E,2,12,0.72,30.0,M,-47.6,M,,0000*43
$GNGSA,A,3,24,05,20,15,12,18,29,25,23,,,,1.39,0.72,1.19*19
$GNGSA,A,3,79,80,83,69,73,85,,,,,,,1.39,0.72,1.19*10
$GPGSV,5,1,17,05,61,074,20,11,04,027,,12,53,019,32,13,15,135,*74
$GPGSV,5,2,17,15,32,168,24,18,32,256,36,20,31,043,20,22,05,134,*7E
$GPGSV,5,3,17,23,19,207,30,24,49,203,29,25,30,342,30,29,09,322,12*77
$GPGSV,5,4,17,36,52,277,,40,86,351,38,41,58,082,32,49,32,274,*76
$GPGSV,5,5,17,50,10,089,*4A
$GLGSV,3,1,09,68,16,095,,69,25,146,14,70,04,205,,73,38,337,34*6E
$GLGSV,3,2,09,79,25,151,10,80,80,119,27,83,14,357,09,84,27,302,*62
$GLGSV,3,3,09,85,11,252,29*5F
$GNGLL,0419.91411,S,05539.63292,E,052517.00,A,D*6D
$GNGRS,052517.00,1,-1.3,7.2,1.6,-14.7,-7.0,1.5,-14.9,3.5,7.3,,,*75
$GNGRS,052517.00,1,-4.9,-1.9,7.9,12.9,-2.4,-10.4,,,,,,*56
$GNGST,052517.00,57,,,,2.9,4.8,9.5*44
$GNZDA,052517.00,28,05,2025,00,00*76
$GNGBS,052517.00,2.9,4.8,9.5,,,,*50
$GNTXT,01,01,01,More than 100 frame errors, UART RX was disabled*70
b0L,=JL 5- 
$ +i1(V
B4{4&V_ :R 
Y
nD_E6FI"&QO#PPw/S
eaT.Ub,U
3?S$GNRMC,052518.00,A,0419.91412,S,05539.63290,E,0.080,,280525,,,D*7A
$GNVTG,,T,,M,0.080,N,0.148,K,D*3D
$GNGNS,052518.00,0419.91412,S,05539.63290,E,DA,15,0.72,30.1,-47.6,,0000*67
$GNGGA,052518.00,0419.91412,S,05539.63290,E,2,12,0.72,30.1,M,-47.6,M,,0000*4C
$GNGSA,A,3,24,05,20,15,12,18,29,25,23,,,,1.39,0.72,1.19*19
$GNGSA,A,3,79,80,83,69,73,85,,,,,,,1.39,0.72,1.19*10
$GPGSV,5,1,17,05,61,074,20,11,04,027,,12,53,019,32,13,15,135,*74
$GPGSV,5,2,17,15,32,168,25,18,32,256,36,20,31,043,20,22,05,134,*7F
$GPGSV,5,3,17,23,19,207,30,24,49,203,27,25,30,342,29,29,09,322,10*73
$GPGSV,5,4,17,36,52,277,,40,86,351,38,41,58,082,32,49,32,274,*76
$GPGSV,5,5,17,50,10,089,*4A
$GLGSV,3,1,09,68,16,095,,69,25,146,13,70,04,205,,73,38,337,34*69
$GLGSV,3,2,09,79,25,151,08,80,80,119,26,83,14,357,10,84,27,302,*62
$GLGSV,3,3,09,85,11,252,29*5F
$GNGLL,0419.91412,S,05539.63290,E,052518.00,A,D*63
$GNGRS,052518.00,1,0.4,8.4,1.0,-13.5,-4.7,1.5,-14.8,4.9,7.4,,,*52
$GNGRS,052518.00,1,2.9,-2.1,16.3,13.3,-2.8,-15.1,,,,,,*44
$GNGST,052518.00,119517,,,,2.9,4.8,9.5*43
$GNZDA,052518.00,28,05,2025,00,00*79
$GNGBS,052518.00,2.9,4.8,9.5,,,,*5F
$GNTXT,01,01,01,More than 100 frame errors, UART RX was disabled*70
b0Lh0=J5( 
$ +!1"V|B3{4&V_ :R 
Y
nD_EFI"&QO)PPwSegT.Ubh0U
?+$GNRMC,052519.00,A,0419.91416,S,05539.63298,E,0.185,,280525,,,D*73
$GNVTG,,T,,M,0.185,N,0.342,K,D*31
$GNGNS,052519.00,0419.91416,S,05539.63298,E,DA,15,0.72,29.9,-47.6,,0000*6A
$GNGGA,052519.00,0419.91416,S,05539.63298,E,2,12,0.72,29.9,M,-47.6,M,,0000*41
$GNGSA,A,3,24,05,20,15,12,18,29,25,23,,,,1.39,0.72,1.19*19
$GNGSA,A,3,79,80,83,69,73,85,,,,,,,1.39,0.72,1.19*10
$GPGSV,5,1,17,05,61,074,20,11,04,027,,12,53,019,30,13,15,135,*76
$GPGSV,5,2,17,15,32,168,23,18,32,256,36,20,31,043,20,22,05,134,*79
$GPGSV,5,3,17,23,19,207,28,24,49,203,28,25,30,342,30,29,09,322,14*79
$GPGSV,5,4,17,36,52,277,,40,86,351,38,41,58,082,32,49,32,274,*76
$GPGSV,5,5,17,50,10,089,*4A
$GLGSV,3,1,09,68,16,095,,69,25,146,14,70,04,205,,73,38,337,34*6E
$GLGSV,3,2,09,79,25,151,15,80,80,119,26,83,14,357,11,84,27,302,*6F
$GLGSV,3,3,09,85,11,252,27*51
$GNGLL,0419.91416,S,05539.63298,E,052519.00,A,D*6E
$GNGRS,052519.00,1,0.3,6.8,0.1,-13.5,-4.7,1.6,-14.9,3.8,13.1,,,*62
$GNGRS,052519.00,1,3.0,-2.6,16.4,13.1,-2.7,-16.2,,,,,,*40
$GNGST,052519.00,156230,,,,2.9,4.8,9.5*4B
$GNZDA,052519.00,28,05,2025,00,00*78
$GNGBS,052519.00,2.9,4.8,9.5,,,,*5E
$GNTXT,01,01,01,More than 100 frame errors, UART RX was disabled*70
b0LP4=J5D 
# +P1GVB{4&V_!:R 
Y
nD_EqFI"&QObPPw.SeT.URhbP4U
?g$GNRMC,052520.00,A,0419.91420,S,05539.63304,E,0.177,,280525,,,D*75
$GNVTG,,T,,M,0.177,N,0.328,K,D*30
$GNGNS,052520.00,0419.91420,S,05539.63304,E,DA,15,0.81,29.6,-47.6,,0000*62
$GNGGA,052520.00,0419.91420,S,05539.63304,E,2,12,0.81,29.6,M,-47.6,M,,0000*49
$GNGSA,A,3,24,05,20,15,12,18,29,25,23,,,,1.58,0.81,1.36*1F
$GNGSA,A,3,79,80,83,69,73,85,,,,,,,1.58,0.81,1.36*16
$GPGSV,5,1,17,05,61,074,21,11,04,027,,12,53,019,31,13,15,135,*76
$GPGSV,5,2,17,15,32,168,23,18,32,256,35,20,31,043,21,22,05,134,*7B
$GPGSV,5,3,17,23,19,207,28,24,49,203,30,25,30,342,29,29,09,322,16*7A
$GPGSV,5,4,17,36,52,277,,40,86,351,38,41,58,082,33,49,32,274,*77
$GPGSV,5,5,17,50,10,089,*4A
$GLGSV,3,1,09,68,16,095,,69,25,146,14,70,04,205,,73,38,337,34*6E
$GLGSV,3,2,09,79,25,151,09,80,80,119,26,83,14,357,09,84,27,302,*6B
$GLGSV,3,3,09,85,11,252,27*51
$GNGLL,0419.91420,S,05539.63304,E,052520.00,A,D*65
$GNGRS,052520.00,1,0.7,5.1,-1.8,-15.7,-1.9,1.5,-3.8,7.2,12.4,,,*72
$GNGRS,052520.00,1,-55.3,-2.1,-87.6,19.1,-2.9,-6.9,,,,,,*49
$GNGST,052520.00,40,,,,2.8,4.8,9.5*47
$GNZDA,052520.00,28,05,2025,00,00*72
$GNGBS,052520.00,2.8,4.8,9.5,,,,*55
$GNTXT,01,01,01,More than 100 frame errors, UART RX was disabled*70
b0L88=JN5 
# +1kVB{4'V_!:R 
Y
nD_EuFI"&QOPPwSeST.U?b88U
?$GNRMC,052521.00,A,0419.91421,S,05539.63299,E,0.064,,280525,,,D*73
$GNVTG,,T,,M,0.064,N,0.119,K,D*33
$GNGNS,052521.00,0419.91421,S,05539.63299,E,DA,15,0.80,29.5,-47.6,,0000*65
$GNGGA,052521.00,0419.91421,S,05539.63299,E,2,12,0.80,29.5,M,-47.6,M,,0000*4E
$GNGSA,A,3,24,05,20,15,12,18,29,25,23,,,,1.54,0.80,1.31*15
$GNGSA,A,3,79,80,83,69,73,85,,,,,,,1.54,0.80,1.31*1C
$GPGSV,5,1,17,05,61,074,21,11,04,027,,12,53,019,31,13,15,135,*76
$GPGSV,5,2,17,15,32,168,25,18,32,256,35,20,31,043,23,22,05,134,*7F
$GPGSV,5,3,17,23,19,207,29,24,49,203,29,25,30,342,29,29,09,322,12*77
$GPGSV,5,4,17,36,52,277,,40,86,351,39,41,58,082,33,49,32,274,*76
$GPGSV,5,5,17,50,10,089,*4A
$GLGSV,3,1,09,68,16,095,,69,25,146,12,70,04,205,,73,38,337,34*68
$GLGSV,3,2,09,79,25,151,18,80,80,119,26,83,14,357,15,84,27,302,*66
$GLGSV,3,3,09,85,11,252,28*5E
$GNGLL,0419.91421,S,05539.63299,E,052521.00,A,D*60
$GNGRS,052521.00,1,3.6,5.9,-3.1,-16.3,-3.3,1.6,41.1,3.9,11.6,,,*62
$GNGRS,052521.00,1,2.9,-5.4,16.2,21.6,-2.9,-3.0,,,,,,*7E
$GNGST,052521.00,4665903,,,,2.8,4.8,9.4*78
$GNZDA,052521.00,28,05,2025,00,00*73
$GNGBS,052521.00,2.8,4.8,9.4,,,,*55
$GNTXT,01,01,01,More than 100 frame errors, UART RX was disabled*70
b0L <=J5 i
# +1KVB{4'V_!:R 
Y
nD_ELFI"&QOPPwSeOT.UEfb <U
?4$GNRMC,052522.00,A,0419.91427,S,05539.63304,E,0.128,,280525,,,D*7A
$GNVTG,,T,,M,0.128,N,0.238,K,D*3A
$GNGNS,052522.00,0419.91427,S,05539.63304,E,DA,15,0.84,29.3,-47.6,,0000*67
$GNGGA,052522.00,0419.91427,S,05539.63304,E,2,12,0.84,29.3,M,-47.6,M,,0000*4C
$GNGSA,A,3,24,05,20,15,12,18,29,25,23,,,,1.57,0.84,1.32*11
$GNGSA,A,3,79,80,83,69,73,85,,,,,,,1.57,0.84,1.32*18
$GPGSV,5,1,17,05,61,074,21,11,04,027,,12,53,019,30,13,15,135,*77
$GPGSV,5,2,17,15,32,168,26,18,32,256,35,20,31,043,21,22,05,134,*7E
$GPGSV,5,3,17,23,19,207,29,24,49,203,29,25,30,342,29,29,09,322,14*71
$GPGSV,5,4,17,36,52,277,,40,86,351,39,41,58,082,33,49,32,274,*76
$GPGSV,5,5,17,50,10,089,*4A
$GLGSV,3,1,09,68,16,095,,69,25,146,11,70,04,205,,73,38,337,34*6B
$GLGSV,3,2,09,79,25,151,15,80,80,119,26,83,14,357,09,84,27,302,*66
$GLGSV,3,3,09,85,11,252,29*5F
$GNGLL,0419.91427,S,05539.63304,E,052522.00,A,D*60
$GNGRS,052522.00,1,0.7,7.3,-3.4,-16.9,-3.2,1.6,40.9,1.7,10.5,,,*62
$GNGRS,052522.00,1,2.7,-6.0,16.1,21.2,-3.0,-6.3,,,,,,*7D
$GNGST,052522.00,4856426,,,,2.8,4.8,9.4*7F
$GNZDA,052522.00,28,05,2025,00,00*70
$GNGBS,052522.00,2.8,4.8,9.4,,,,*56
$GNTXT,01,01,01,More than 100 frame errors, UART RX was disabled*70
b0L@=J5 
# +1VB{4'V_ :R 
Y
nD_EBFI!&QOPP{@SeFT.U]b@U
?$GNRMC,052523.00,A,0419.91432,S,05539.63309,E,0.125,,280525,,,D*7F
$GNVTG,,T,,M,0.125,N,0.232,K,D*3D
$GNGNS,052523.00,0419.91432,S,05539.63309,E,DA,14,1.07,29.2,-47.6,,0000*65
$GNGGA,052523.00,0419.91432,S,05539.63309,E,2,12,1.07,29.2,M,-47.6,M,,0000*4F
$GNGSA,A,3,24,05,20,15,12,18,29,25,23,,,,1.85,1.07,1.51*11
$GNGSA,A,3,80,83,69,73,85,,,,,,,,1.85,1.07,1.51*16
$GPGSV,5,1,17,05,61,074,21,11,04,027,,12,53,019,30,13,15,135,*77
$GPGSV,5,2,17,15,32,168,26,18,32,256,35,20,31,043,21,22,05,134,*7E
$GPGSV,5,3,17,23,19,207,29,24,49,203,28,25,30,342,28,29,09,322,14*71
$GPGSV,5,4,17,36,52,277,,40,86,351,39,41,58,082,32,49,32,274,*77
$GPGSV,5,5,17,50,10,089,*4A
$GLGSV,3,1,09,68,16,095,,69,25,146,14,70,04,205,,73,38,337,33*69
$GLGSV,3,2,09,79,25,151,08,80,80,123,25,83,14,357,13,84,27,302,*6B
$GLGSV,3,3,09,85,11,252,28*5E
$GNGLL,0419.91432,S,05539.63309,E,052523.00,A,D*68
$GNGRS,052523.00,1,2.2,10.4,-5.0,-18.3,-2.3,1.9,-10.8,7.8,9.9,,,*48
$GNGRS,052523.00,1,-7.0,3.3,21.1,-3.0,-12.7,,,,,,,*52
$GNGST,052523.00,48,,,,2.8,4.9,9.5*4D
$GNZDA,052523.00,28,05,2025,00,00*71
$GNGBS,052523.00,2.8,4.9,9.5,,,,*57
$GNTXT,01,01,01,More than 100 frame errors, UART RX was disabled*70
b0LC=J5q n
# +1a VB{4&V_!:R 
Y
nD_E
DFI!&QOPP{fSeZT.UybCU
?a$GNRMC,052524.00,A,0419.91435,S,05539.63313,E,0.072,,280525,,,D*77
$GNVTG,,T,,M,0.072,N,0.134,K,D*3B
$GNGNS,052524.00,0419.91435,S,05539.63313,E,DA,15,0.84,29.2,-47.6,,0000*65
$GNGGA,052524.00,0419.91435,S,05539.63313,E,2,12,0.84,29.2,M,-47.6,M,,0000*4E
$GNGSA,A,3,24,05,20,15,12,18,29,25,23,,,,1.57,0.84,1.32*11
$GNGSA,A,3,79,80,83,69,73,85,,,,,,,1.57,0.84,1.32*18
$GPGSV,5,1,17,05,61,074,21,11,04,027,,12,53,019,31,13,15,135,*76
$GPGSV,5,2,17,15,32,168,26,18,32,256,35,20,31,043,22,22,05,134,*7D
$GPGSV,5,3,17,23,19,207,30,24,49,203,28,25,30,342,32,29,09,322,12*74
$GPGSV,5,4,17,36,52,277,,40,86,351,38,41,58,082,33,49,32,274,*77
$GPGSV,5,5,17,50,10,089,*4A
$GLGSV,3,1,09,68,16,095,,69,25,146,10,70,04,205,,73,38,337,33*6D
$GLGSV,3,2,09,79,25,151,12,80,80,123,25,83,14,357,11,84,27,302,*62
$GLGSV,3,3,09,85,11,252,29*5F
$GNGLL,0419.91435,S,05539.63313,E,052524.00,A,D*63
$GNGRS,052524.00,1,6.1,9.9,-5.2,-16.8,-4.0,2.3,41.2,7.9,7.5,,,*56
$GNGRS,052524.00,1,2.4,-6.7,16.3,21.2,-2.9,-11.2,,,,,,*42
$GNGST,052524.00,152315,,,,2.8,4.9,9.5*47
$GNZDA,052524.00,28,05,2025,00,00*76
$GNGBS,052524.00,2.8,4.9,9.5,,,,*50
$GNTXT,01,01,01,More than 100 frame errors, UART RX was disabled*70
b0LG=J5 
" +51DVB
{4&V_!:R 
Y
nD_E]FI!&QOwPP{SegT.UsRbGU
?9]$GNRMC,052525.00,A,0419.91434,S,05539.63309,E,0.062,,280525,,,D*7D
$GNVTG,,T,,M,0.062,N,0.114,K,D*38
$GNGNS,052525.00,0419.91434,S,05539.63309,E,DA,15,0.80,29.4,-47.6,,0000*6C
$GNGGA,052525.00,0419.91434,S,05539.63309,E,2,12,0.80,29.4,M,-47.6,M,,0000*47
$GNGSA,A,3,24,05,20,15,12,18,29,25,23,,,,1.54,0.80,1.31*15
$GNGSA,A,3,79,80,83,69,73,85,,,,,,,1.54,0.80,1.31*1C
$GPGSV,5,1,17,05,61,074,21,11,04,027,,12,53,019,30,13,15,135,*77
$GPGSV,5,2,17,15,32,168,26,18,32,256,34,20,31,043,23,22,05,134,*7D
$GPGSV,5,3,17,23,19,207,30,24,49,203,28,25,30,342,28,29,09,322,11*7C
$GPGSV,5,4,17,36,52,277,,40,86,351,38,41,58,082,33,49,32,274,*77
$GPGSV,5,5,17,50,10,089,*4A
$GLGSV,3,1,09,68,16,095,,69,25,146,14,70,04,205,,73,38,337,33*69
$GLGSV,3,2,09,79,25,151,16,80,80,123,25,83,14,357,08,84,27,302,*6E
$GLGSV,3,3,09,85,11,252,30*57
$GNGLL,0419.91434,S,05539.63309,E,052525.00,A,D*68
$GNGRS,052525.00,1,3.2,9.0,-3.6,-15.6,-0.8,2.5,41.1,9.5,8.2,,,*54
$GNGRS,052525.00,1,-1.4,-5.5,16.4,21.4,-3.0,-11.7,,,,,,*60
$GNGST,052525.00,3299292,,,,2.8,4.9,9.4*7E
$GNZDA,052525.00,28,05,2025,00,00*77
$GNGBS,052525.00,2.8,4.9,9.4,,,,*50
$GNTXT,01,01,01,More than 100 frame errors, UART RX was disabled*70
b0LK=J_5 
" '+1V-B{4&V_ :R 
Y
nD_E0FI!&QO8PP{SeT.U*bKU
s?$GNRMC,052526.00,A,0419.91435,S,05539.63299,E,0.122,,280525,,,D*72
$GNVTG,,T,,M,0.122,N,0.226,K,D*3F
$GNGNS,052526.00,0419.91435,S,05539.63299,E,DA,14,0.78,29.7,-47.6,,0000*63
$GNGGA,052526.00,0419.91435,S,05539.63299,E,2,12,0.78,29.7,M,-47.6,M,,0000*49
$GNGSA,A,3,24,05,20,15,12,18,29,25,23,,,,1.47,0.78,1.25*15
$GNGSA,A,3,79,80,83,73,85,,,,,,,,1.47,0.78,1.25*13
$GPGSV,5,1,17,05,61,074,20,11,04,027,,12,53,019,31,13,15,135,*77
$GPGSV,5,2,17,15,32,168,26,18,32,256,34,20,31,043,23,22,05,134,*7D
$GPGSV,5,3,17,23,19,207,30,24,49,203,28,25,30,342,29,29,09,322,13*7F
$GPGSV,5,4,17,36,52,277,,40,86,351,38,41,58,082,32,49,32,274,*76
$GPGSV,5,5,17,50,10,089,*4A
$GLGSV,3,1,09,68,16,095,,69,25,146,11,70,04,205,,73,38,337,33*6C
$GLGSV,3,2,09,79,25,151,18,80,80,123,24,83,13,357,11,84,27,302,*6E
$GLGSV,3,3,09,85,11,252,26*50
$GNGLL,0419.91435,S,05539.63299,E,052526.00,A,D*62
$GNGRS,052526.00,1,7.2,8.6,-2.8,-16.4,0.0,2.9,-15.1,3.0,5.0,,,*5F
$GNGRS,052526.00,1,-2.0,-5.4,-15.3,-3.3,-7.3,,,,,,,*65
$GNGST,052526.00,52,,,,2.8,4.9,9.4*42
$GNZDA,052526.00,28,05,2025,00,00*74
$GNGBS,052526.00,2.8,4.9,9.4,69,,-124.0,139.6*7B
$GNTXT,01,01,01,More than 100 frame errors, UART RX was disabled*70
b0LO=J59 
" B+r1~VB{4&V_ :R 
Y
nD_EFI!&QOPP{.SeIT/UIbOU
[?-$GNRMC,052527.00,A,0419.91437,S,05539.63301,E,0.077,,280525,,,D*70
$GNVTG,,T,,M,0.077,N,0.143,K,D*3E
$GNGNS,052527.00,0419.91437,S,05539.63301,E,DA,15,0.76,29.8,-47.6,,0000*60
$GNGGA,052527.00,0419.91437,S,05539.63301,E,2,12,0.76,29.8,M,-47.6,M,,0000*4B
$GNGSA,A,3,24,05,20,15,12,18,29,25,23,,,,1.47,0.76,1.26*18
$GNGSA,A,3,79,80,83,69,73,85,,,,,,,1.47,0.76,1.26*11
$GPGSV,5,1,17,05,61,074,18,11,04,027,,12,53,019,31,13,15,135,*7C
$GPGSV,5,2,17,15,32,168,25,18,32,256,34,20,31,043,23,22,05,134,*7E
$GPGSV,5,3,17,23,19,207,31,24,49,203,28,25,30,342,28,29,09,322,14*78
$GPGSV,5,4,17,36,52,277,,40,86,351,38,41,58,082,32,49,32,274,*76
$GPGSV,5,5,17,50,10,089,*4A
$GLGSV,3,1,09,68,16,095,,69,25,146,12,70,04,205,,73,38,337,33*6F
$GLGSV,3,2,09,79,25,151,19,80,80,123,23,83,13,357,14,84,27,303,*6C
$GLGSV,3,3,09,85,11,252,31*56
$GNGLL,0419.91437,S,05539.63301,E,052527.00,A,D*61
$GNGRS,052527.00,1,3.8,7.8,-2.9,-19.1,3.1,3.2,41.2,2.4,3.7,,,*79
$GNGRS,052527.00,1,-2.6,-4.7,16.1,4.1,-3.2,-8.5,,,,,,*6F
$GNGST,052527.00,4665903,,,,2.7,4.8,9.4*71
$GNZDA,052527.00,28,05,2025,00,00*75
$GNGBS,052527.00,2.7,4.8,9.4,,,,*5C
$GNTXT,01,01,01,More than 100 frame errors, UART RX was disabled*70
b0LS=Jy5 
" @+Zy1ViB{4&V_!:R 
Y
nD_EmFI!&QOPP{Se<T/UZbSU
C?$GNRMC,052528.00,A,0419.91441,S,05539.63300,E,0.082,,280525,,,D*75
$GNVTG,,T,,M,0.082,N,0.152,K,D*34
$GNGNS,052528.00,0419.91441,S,05539.63300,E,DA,15,0.76,29.8,-47.6,,0000*6F
$GNGGA,052528.00,0419.91441,S,05539.63300,E,2,12,0.76,29.8,M,-47.6,M,,0000*44
$GNGSA,A,3,24,05,20,15,12,18,29,25,23,,,,1.47,0.76,1.26*18
$GNGSA,A,3,79,80,83,69,73,85,,,,,,,1.47,0.76,1.26*11
$GPGSV,5,1,17,05,61,074,17,11,04,027,,12,53,019,31,13,15,135,*73
$GPGSV,5,2,17,15,32,168,25,18,32,256,34,20,31,043,23,22,05,134,*7E
$GPGSV,5,3,17,23,19,207,31,24,49,203,28,25,30,342,28,29,09,322,15*79
$GPGSV,5,4,17,36,52,277,,40,86,351,38,41,58,082,33,49,32,274,*77
$GPGSV,5,5,17,50,10,089,*4A
$GLGSV,3,1,09,68,16,095,,69,25,146,12,70,04,205,,73,38,337,33*6F
$GLGSV,3,2,09,79,25,151,18,80,80,123,23,83,13,357,07,84,27,303,*6F
$GLGSV,3,3,09,85,11,253,31*57
$GNGLL,0419.91441,S,05539.63300,E,052528.00,A,D*6E
$GNGRS,052528.00,1,2.6,6.3,-1.7,-18.4,1.3,3.2,41.0,6.2,6.3,,,*7B
$GNGRS,052528.00,1,-3.5,-5.8,16.0,3.6,-3.4,-3.7,,,,,,*62
$GNGST,052528.00,4665903,,,,2.7,4.8,9.4*7E
$GNZDA,052528.00,28,05,2025,00,00*7A
$GNGBS,052528.00,2.7,4.8,9.4,,,,*53
$GNTXT,01,01,01,More than 100 frame errors, UART RX was disabled*70
b0LxW=J5  
" V+`U1VzB{4%V_ :R 
Y
nD_E{FI!&QOPP{Se@T/UDRbxWU
+?$GNRMC,052529.00,A,0419.91440,S,05539.63291,E,0.083,,280525,,,D*7D
$GNVTG,,T,,M,0.083,N,0.154,K,D*33
$GNGNS,052529.00,0419.91440,S,05539.63291,E,DA,15,0.80,30.2,-47.6,,0000*6D
$GNGGA,052529.00,0419.91440,S,05539.63291,E,2,12,0.80,30.2,M,-47.6,M,,0000*46
$GNGSA,A,3,24,05,20,15,12,18,29,25,23,,,,1.53,0.80,1.31*12
$GNGSA,A,3,79,80,83,69,73,85,,,,,,,1.53,0.80,1.31*1B
$GPGSV,5,1,17,05,61,074,20,11,04,027,,12,53,019,30,13,15,135,*76
$GPGSV,5,2,17,15,32,168,24,18,32,256,34,20,31,043,23,22,05,134,*7F
$GPGSV,5,3,17,23,19,207,31,24,49,203,30,25,30,342,29,29,09,322,14*70
$GPGSV,5,4,17,36,52,277,,40,86,351,37,41,58,082,32,49,32,274,*79
$GPGSV,5,5,17,50,10,089,*4A
$GLGSV,3,1,09,68,16,095,,69,25,146,12,70,04,205,,73,38,337,33*6F
$GLGSV,3,2,09,79,25,151,19,80,80,123,23,83,13,357,11,84,27,303,*69
$GLGSV,3,3,09,85,11,253,31*57
$GNGLL,0419.91440,S,05539.63291,E,052529.00,A,D*67
$GNGRS,052529.00,1,-0.5,3.8,-1.6,-17.6,-0.8,3.4,40.6,3.8,3.4,,,*7F
$GNGRS,052529.00,1,-2.4,-6.0,10.9,-80.7,-3.5,-7.0,,,,,,*72
$GNGST,052529.00,46,,,,2.7,4.8,9.4*46
$GNZDA,052529.00,28,05,2025,00,00*7B
$GNGBS,052529.00,2.7,4.8,9.4,,,,*52
$GNTXT,01,01,01,More than 100 frame errors, UART RX was disabled*70
b0L`[=J5 
" U+1TVBF{4&V_!:R 
Y
nD_EFI!&QOPP{SelT/U cb`[U
?qe$GNRMC,052530.00,A,0419.91442,S,05539.63287,E,0.073,,280525,,,D*7F
$GNVTG,,T,,M,0.073,N,0.135,K,D*3B
$GNGNS,052530.00,0419.91442,S,05539.63287,E,DA,15,0.76,30.6,-47.6,,0000*6D
$GNGGA,052530.00,0419.91442,S,05539.63287,E,2,12,0.76,30.6,M,-47.6,M,,0000*46
$GNGSA,A,3,24,05,20,15,12,18,29,25,23,,,,1.47,0.76,1.26*18
$GNGSA,A,3,79,80,83,69,73,85,,,,,,,1.47,0.76,1.26*11
$GPGSV,5,1,17,05,61,074,21,11,04,027,,12,53,019,31,13,15,135,*76
$GPGSV,5,2,17,15,32,168,25,18,32,256,34,20,31,043,22,22,05,134,*7F
$GPGSV,5,3,17,23,19,207,31,24,49,203,30,25,30,342,30,29,09,322,16*7A
$GPGSV,5,4,17,36,52,277,,40,86,351,38,41,58,082,33,49,32,274,*77
$GPGSV,5,5,17,50,10,089,*4A
$GLGSV,3,1,09,68,16,095,,69,25,146,11,70,04,205,,73,38,337,33*6C
$GLGSV,3,2,09,79,25,151,18,80,80,123,23,83,13,357,12,84,27,303,*6B
$GLGSV,3,3,09,85,11,253,32*54
$GNGLL,0419.91442,S,05539.63287,E,052530.00,A,D*6A
$GNGRS,052530.00,1,0.8,1.5,-3.7,-18.6,1.4,3.4,36.5,4.4,6.8,,,*74
$GNGRS,052530.00,1,-3.4,-6.0,16.4,4.5,-3.7,-10.2,,,,,,*55
$GNGST,052530.00,138455,,,,2.7,4.8,9.3*45
$GNZDA,052530.00,28,05,2025,00,00*73
$GNGBS,052530.00,2.7,4.8,9.3,,,,*5D
$GNTXT,01,01,01,More than 100 frame errors, UART RX was disabled*70
b0LH_=J5  
" U+vd1V%BW{4&V_ :R 
Y
nD_EFI!&QOkPP{SeoT/UjbH_U
?H$GNRMC,052531.00,A,0419.91446,S,05539.63288,E,0.065,,280525,,,D*72
$GNVTG,,T,,M,0.065,N,0.121,K,D*39
$GNGNS,052531.00,0419.91446,S,05539.63288,E,DA,15,0.76,30.7,-47.6,,0000*66
$GNGGA,052531.00,0419.91446,S,05539.63288,E,2,12,0.76,30.7,M,-47.6,M,,0000*4D
$GNGSA,A,3,24,05,20,15,12,18,29,25,23,,,,1.47,0.76,1.26*18
$GNGSA,A,3,79,80,83,69,73,85,,,,,,,1.47,0.76,1.26*11
$GPGSV,5,1,17,05,61,074,21,11,04,027,,12,53,019,30,13,15,135,*77
