$GNRMC,050005.00,A,0419.72544,S,05539.92711,E,0.003,,030625,,,A*78
$GNVTG,,T,,M,0.003,N,0.006,K,A*38
$GNGGA,050005.00,0419.72544,S,05539.92711,E,1,12,0.57,11.4,M,-47.6,M,,*48
$GNGSA,A,3,05,12,24,18,15,20,25,13,29,23,,,1.13,0.57,0.98*1C
$GNGSA,A,3,78,79,82,67,66,81,83,,,,,,1.13,0.57,0.98*14
$GPGSV,5,1,17,05,61,074,35,11,04,027,38,12,53,018,20,13,15,135,41*7C
$GPGSV,5,2,17,15,32,168,33,18,32,255,41,20,31,043,38,22,05,134,36*77
$GPGSV,5,3,17,23,19,207,29,24,49,204,27,25,30,342,34,29,09,322,41*74
$GPGSV,5,4,17,36,52,277,38,40,86,350,38,41,58,082,,49,32,274,*7D
$GPGSV,5,5,17,50,10,089,39*40
$GLGSV,3,1,09,66,16,096,36,67,25,153,29,68,08,199,23,77,21,152,23*6B
$GLGSV,3,2,09,78,81,120,31,79,40,340,42,81,15,351,37,82,26,303,35*67
$GLGSV,3,3,09,83,12,252,39*5B
$GNGLL,0419.72544,S,05539.92711,E,050005.00,A,A*60
$GNRMC,050006.00,A,0419.72545,S,05539.92710,E,0.013,,030625,,,A*7A
$GNVTG,,T,,M,0.013,N,0.024,K,A*39
$GNGGA,050006.00,0419.72545,S,05539.92710,E,1,12,0.57,11.5,M,-47.6,M,,*4A
$GNGSA,A,3,05,12,24,18,15,20,25,13,29,23,,,1.13,0.57,0.98*1C
$GNGSA,A,3,78,79,82,67,66,81,83,,,,,,1.13,0.57,0.98*14
$GPGSV,5,1,17,05,61,074,33,11,04,027,33,12,53,018,20,13,15,135,35*72
$GPGSV,5,2,17,15,32,168,28,18,32,255,40,20,31,043,33,22,05,134,32*73
$GPGSV,5,3,17,23,19,207,28,24,49,204,27,25,30,342,30,29,09,322,38*7F
$GPGSV,5,4,17,36,52,277,32,40,86,350,36,41,58,082,,49,32,274,*79
$GPGSV,5,5,17,50,10,089,37*4E
$GLGSV,3,1,09,66,16,096,32,67,25,153,28,68,08,199,21,77,21,152,22*6D
$GLGSV,3,2,09,78,81,120,26,79,40,340,36,81,15,351,31,82,26,303,32*63
$GLGSV,3,3,09,83,12,252,34*56
$GNGLL,0419.72545,S,05539.92710,E,050006.00,A,A*63
$GNRMC,050007.00,A,0419.72549,S,05539.92711,E,0.017,,030625,,,A*72
$GNVTG,,T,,M,0.017,N,0.032,K,A*3A
$GNGGA,050007.00,0419.72549,S,05539.92711,E,1,12,0.57,11.5,M,-47.6,M,,*46
$GNGSA,A,3,05,12,24,18,15,20,25,13,29,23,,,1.13,0.57,0.98*1C
$GNGSA,A,3,78,79,82,67,66,81,83,,,,,,1.13,0.57,0.98*14
$GPGSV,5,1,17,05,61,074,34,11,04,027,35,12,53,018,23,13,15,135,39*7C
$GPGSV,5,2,17,15,32,168,28,18,32,255,41,20,31,043,36,22,05,134,33*76
$GPGSV,5,3,17,23,19,207,30,24,49,204,27,25,30,342,31,29,09,322,41*79
$GPGSV,5,4,17,36,52,277,35,40,86,350,40,41,58,082,,49,32,274,*7F
$GPGSV,5,5,17,50,10,089,37*4E
$GLGSV,3,1,09,66,16,096,38,67,25,153,29,68,08,199,21,77,20,152,22*67
$GLGSV,3,2,09,78,81,120,32,79,40,340,40,81,15,351,35,82,26,303,35*64
$GLGSV,3,3,09,83,12,252,41*54
$GNGLL,0419.72549,S,05539.92711,E,050007.00,A,A*6F
$GNRMC,050008.00,A,0419.72551,S,05539.92711,E,0.009,,030625,,,A*7B
$GNVTG,,T,,M,0.009,N,0.017,K,A*32
$GNGGA,050008.00,0419.72551,S,05539.92711,E,1,12,0.57,11.6,M,-47.6,M,,*43
$GNGSA,A,3,05,12,24,18,15,20,25,13,29,23,,,1.13,0.57,0.98*1C
$GNGSA,A,3,78,79,82,67,66,81,83,,,,,,1.13,0.57,0.98*14
$GPGSV,5,1,17,05,61,074,35,11,04,027,34,12,53,018,24,13,15,135,40*75
$GPGSV,5,2,17,15,32,168,29,18,32,255,38,20,31,043,36,22,05,134,34*7E
$GPGSV,5,3,17,23,19,207,30,24,49,204,26,25,30,342,34,29,09,322,41*7D
$GPGSV,5,4,17,36,52,277,35,40,86,350,38,41,58,082,,49,32,274,*70
$GPGSV,5,5,17,50,10,089,39*40
$GLGSV,3,1,09,66,16,096,40,67,25,153,32,68,08,199,21,77,20,152,25*65
$GLGSV,3,2,09,78,80,123,33,79,40,340,43,81,15,351,39,82,26,303,38*65
$GLGSV,3,3,09,83,12,252,39*5B
$GNGLL,0419.72551,S,05539.92711,E,050008.00,A,A*69
$GNRMC,050009.00,A,0419.72551,S,05539.92710,E,0.010,,030625,,,A*73
$GNVTG,,T,,M,0.010,N,0.018,K,A*35
$GNGGA,050009.00,0419.72551,S,05539.92710,E,1,12,0.57,11.6,M,-47.6,M,,*43
$GNGSA,A,3,05,12,24,18,15,20,25,13,29,23,,,1.13,0.57,0.98*1C
$GNGSA,A,3,78,79,82,67,66,81,83,,,,,,1.13,0.57,0.98*14
$GPGSV,5,1,17,05,61,074,35,11,04,027,35,12,53,018,22,13,15,135,40*72
$GPGSV,5,2,17,15,32,168,31,18,32,255,39,20,31,043,37,22,05,134,34*77
$GPGSV,5,3,17,23,19,207,29,24,49,204,26,25,30,342,35,29,09,322,41*74
$GPGSV,5,4,17,36,52,277,35,40,86,350,37,41,58,082,,49,32,274,*7F
$GPGSV,5,5,17,50,10,089,39*40
$GLGSV,3,1,09,66,16,096,39,67,25,153,31,68,08,199,21,77,20,152,26*6B
$GLGSV,3,2,09,78,80,123,33,79,41,340,43,81,15,351,38,82,25,303,38*66
$GLGSV,3,3,09,83,12,252,39*5B
$GNGLL,0419.72551,S,05539.92710,E,050009.00,A,A*69
$GNRMC,050010.00,A,0419.72553,S,05539.92711,E,0.013,,030625,,,A*7B
$GNVTG,,T,,M,0.013,N,0.024,K,A*39
$GNGGA,050010.00,0419.72553,S,05539.92711,E,1,12,0.57,11.6,M,-47.6,M,,*48
$GNGSA,A,3,05,12,24,18,15,20,25,13,29,23,,,1.13,0.57,0.98*1C
$GNGSA,A,3,78,79,82,67,66,81,83,,,,,,1.13,0.57,0.98*14
$GPGSV,5,1,17,05,61,074,35,11,04,027,35,12,53,018,19,13,15,135,40*7A
$GPGSV,5,2,17,15,32,168,31,18,32,255,39,20,31,043,37,22,05,134,34*77
$GPGSV,5,3,17,23,19,207,29,24,49,204,26,25,30,342,34,29,09,322,42*76
$GPGSV,5,4,17,36,52,277,35,40,86,350,38,41,58,082,,49,32,274,*70
$GPGSV,5,5,17,50,10,089,39*40
$GLGSV,3,1,09,66,16,096,38,67,25,153,29,68,08,199,22,77,20,152,25*63
$GLGSV,3,2,09,78,80,123,32,79,41,340,43,81,15,351,37,82,25,303,38*68
$GLGSV,3,3,09,83,12,252,39*5B
$GNGLL,0419.72553,S,05539.92711,E,050010.00,A,A*62
$GNRMC,050011.00,A,0419.72554,S,05539.92712,E,0.015,,030625,,,A*78
$GNVTG,,T,,M,0.015,N,0.028,K,A*33
$GNGGA,050011.00,0419.72554,S,05539.92712,E,1,12,0.57,11.6,M,-47.6,M,,*4D
$GNGSA,A,3,05,12,24,18,15,20,25,13,29,23,,,1.13,0.57,0.98*1C
$GNGSA,A,3,78,79,82,67,66,81,83,,,,,,1.13,0.57,0.98*14
$GPGSV,5,1,17,05,61,074,35,11,04,027,35,12,53,018,16,13,15,135,40*75
$GPGSV,5,2,17,15,32,168,31,18,32,255,40,20,31,043,38,22,05,134,35*77
$GPGSV,5,3,17,23,19,207,29,24,49,204,26,25,30,342,34,29,09,322,42*76
$GPGSV,5,4,17,36,52,277,36,40,86,350,38,41,58,082,,49,32,274,*73
$GPGSV,5,5,17,50,10,089,39*40
$GLGSV,3,1,09,66,16,096,37,67,25,153,29,68,08,199,22,77,20,152,25*6C
$GLGSV,3,2,09,78,80,123,33,79,41,340,43,81,15,351,35,82,25,303,38*6B
$GLGSV,3,3,09,83,12,252,38*5A
$GNGLL,0419.72554,S,05539.92712,E,050011.00,A,A*67
$GNRMC,050012.00,A,0419.72554,S,05539.92714,E,0.009,,030625,,,A*70
$GNVTG,,T,,M,0.009,N,0.017,K,A*32
$GNGGA,050012.00,0419.72554,S,05539.92714,E,1,12,0.57,11.6,M,-47.6,M,,*48
$GNGSA,A,3,05,12,24,18,15,20,25,13,29,23,,,1.13,0.57,0.98*1C
$GNGSA,A,3,78,79,82,67,66,81,83,,,,,,1.13,0.57,0.98*14
$GPGSV,5,1,17,05,61,074,36,11,04,027,36,12,53,018,16,13,15,135,41*74
$GPGSV,5,2,17,15,32,168,31,18,32,255,42,20,31,043,37,22,05,134,35*7A
$GPGSV,5,3,17,23,19,207,29,24,49,204,27,25,30,342,33,29,09,322,41*73
$GPGSV,5,4,17,36,52,277,36,40,86,350,39,41,58,082,,49,32,274,*72
$GPGSV,5,5,17,50,10,089,39*40
$GLGSV,3,1,09,66,16,096,37,67,25,153,31,68,08,199,22,77,20,152,25*65
$GLGSV,3,2,09,78,80,123,33,79,41,340,43,81,15,351,34,82,25,303,37*65
$GLGSV,3,3,09,83,12,252,40*55
$GNGLL,0419.72554,S,05539.92714,E,050012.00,A,A*62
$GNRMC,050013.00,A,0419.72554,S,05539.92715,E,0.015,,030625,,,A*7D
$GNVTG,,T,,M,0.015,N,0.028,K,A*33
$GNGGA,050013.00,0419.72554,S,05539.92715,E,1,12,0.57,11.6,M,-47.6,M,,*48
$GNGSA,A,3,05,12,24,18,15,20,25,13,29,23,,,1.13,0.57,0.98*1C
$GNGSA,A,3,78,79,82,67,66,81,83,,,,,,1.13,0.57,0.98*14
$GPGSV,5,1,17,05,61,074,36,11,04,027,38,12,53,018,16,13,15,135,41*7A
$GPGSV,5,2,17,15,32,168,31,18,32,255,42,20,31,043,37,22,05,134,36*79
$GPGSV,5,3,17,23,19,207,29,24,49,204,27,25,30,342,34,29,09,322,42*77
$GPGSV,5,4,17,36,52,277,37,40,86,350,38,41,58,082,,49,32,274,*72
$GPGSV,5,5,17,50,10,089,39*40
$GLGSV,3,1,09,66,16,096,37,67,25,153,31,68,08,199,23,77,20,152,25*64
$GLGSV,3,2,09,78,80,123,33,79,41,340,44,81,15,351,34,82,25,303,37*62
$GLGSV,3,3,09,83,12,252,41*54
$GNGLL,0419.72554,S,05539.92715,E,050013.00,A,A*62
$GNRMC,050014.00,A,0419.72553,S,05539.92715,E,0.021,,030625,,,A*7A
$GNVTG,,T,,M,0.021,N,0.038,K,A*35
$GNGGA,050014.00,0419.72553,S,05539.92715,E,1,12,0.57,11.5,M,-47.6,M,,*4B
$GNGSA,A,3,05,12,24,18,15,20,25,13,29,23,,,1.13,0.57,0.98*1C
$GNGSA,A,3,78,79,82,67,66,81,83,,,,,,1.13,0.57,0.98*14
$GPGSV,5,1,17,05,61,074,36,11,04,027,38,12,53,018,14,13,15,135,41*78
$GPGSV,5,2,17,15,32,168,31,18,32,255,43,20,31,043,37,22,05,134,35*7B
$GPGSV,5,3,17,23,19,207,30,24,49,204,28,25,30,342,35,29,09,322,42*71
$GPGSV,5,4,17,36,52,277,36,40,86,350,38,41,58,082,,49,32,274,*73
$GPGSV,5,5,17,50,10,089,39*40
$GLGSV,3,1,09,66,16,096,36,67,25,153,31,68,08,199,24,77,20,152,23*64
$GLGSV,3,2,09,78,80,123,33,79,41,340,43,81,15,351,34,82,25,303,35*67
$GLGSV,3,3,09,83,12,252,41*54
$GNGLL,0419.72553,S,05539.92715,E,050014.00,A,A*62
$GNRMC,050015.00,A,0419.72553,S,05539.92714,E,0.017,,030625,,,A*7F
$GNVTG,,T,,M,0.017,N,0.032,K,A*3A
$GNGGA,050015.00,0419.72553,S,05539.92714,E,1,12,0.57,11.5,M,-47.6,M,,*4B
$GNGSA,A,3,05,12,24,18,15,20,25,13,29,23,,,1.13,0.57,0.98*1C
$GNGSA,A,3,78,79,82,67,66,81,83,,,,,,1.13,0.57,0.98*14
$GPGSV,5,1,17,05,61,074,37,11,04,027,38,12,53,018,17,13,15,135,41*7A
$GPGSV,5,2,17,15,32,168,30,18,32,255,43,20,31,043,37,22,05,134,35*7A
$GPGSV,5,3,17,23,19,207,31,24,49,204,30,25,30,342,34,29,09,322,42*78
$GPGSV,5,4,17,36,52,277,36,40,86,350,38,41,58,082,,49,32,274,*73
$GPGSV,5,5,17,50,10,089,39*40
$GLGSV,3,1,09,66,16,096,36,67,25,153,30,68,08,199,25,77,20,152,22*65
$GLGSV,3,2,09,78,80,123,33,79,41,340,42,81,15,351,33,82,25,303,35*61
$GLGSV,3,3,09,83,12,252,39*5B
$GNGLL,0419.72553,S,05539.92714,E,050015.00,A,A*62
$GNRMC,050016.00,A,0419.72553,S,05539.92714,E,0.008,,030625,,,A*72
$GNVTG,,T,,M,0.008,N,0.015,K,A*31
$GNGGA,050016.00,0419.72553,S,05539.92714,E,1,12,0.57,11.4,M,-47.6,M,,*49
$GNGSA,A,3,05,12,24,18,15,20,25,13,29,23,,,1.13,0.57,0.98*1C
$GNGSA,A,3,78,79,82,67,66,81,83,,,,,,1.13,0.57,0.98*14
$GPGSV,5,1,17,05,61,074,38,11,04,027,38,12,53,018,24,13,15,135,41*75
$GPGSV,5,2,17,15,32,168,29,18,32,255,43,20,31,043,37,22,05,134,35*72
$GPGSV,5,3,17,23,19,207,31,24,49,204,31,25,30,342,34,29,09,322,42*79
$GPGSV,5,4,17,36,52,277,35,40,86,350,38,41,58,082,,49,32,274,*70
$GPGSV,5,5,17,50,10,089,38*41
$GLGSV,3,1,09,66,16,096,36,67,25,153,30,68,08,199,25,77,20,152,21*66
$GLGSV,3,2,09,78,80,123,33,79,41,340,42,81,15,351,33,82,25,303,36*62
$GLGSV,3,3,09,83,12,252,41*54
$GNGLL,0419.72553,S,05539.92714,E,050016.00,A,A*61
$GNRMC,050017.00,A,0419.72553,S,05539.92714,E,0.002,,030625,,,A*79
$GNVTG,,T,,M,0.002,N,0.004,K,A*3B
$GNGGA,050017.00,0419.72553,S,05539.92714,E,1,12,0.57,11.4,M,-47.6,M,,*48
$GNGSA,A,3,05,12,24,18,15,20,25,13,29,23,,,1.13,0.57,0.98*1C
$GNGSA,A,3,78,79,82,67,66,81,83,,,,,,1.13,0.57,0.98*14
$GPGSV,5,1,17,05,61,074,36,11,04,027,36,12,53,018,25,13,15,135,40*75
$GPGSV,5,2,17,15,32,168,29,18,32,255,41,20,31,043,36,22,05,134,34*70
$GPGSV,5,3,17,23,19,207,31,24,49,204,29,25,30,342,33,29,09,322,41*74
$GPGSV,5,4,17,36,52,277,37,40,86,350,38,41,58,082,,49,32,274,*72
$GPGSV,5,5,17,50,10,089,39*40
$GLGSV,3,1,09,66,16,096,39,67,25,153,31,68,08,199,24,77,20,152,22*6A
$GLGSV,3,2,09,78,80,123,32,79,41,340,39,81,15,351,33,82,25,303,35*6C
$GLGSV,3,3,09,83,12,252,39*5B
$GNGLL,0419.72553,S,05539.92714,E,050017.00,A,A*60
$GNRMC,050018.00,A,0419.72553,S,05539.92713,E,0.016,,030625,,,A*74
$GNVTG,,T,,M,0.016,N,0.030,K,A*39
$GNGGA,050018.00,0419.72553,S,05539.92713,E,1,12,0.57,11.4,M,-47.6,M,,*40
$GNGSA,A,3,05,12,24,18,15,20,25,13,29,23,,,1.13,0.57,0.98*1C
$GNGSA,A,3,78,79,82,67,66,81,83,,,,,,1.13,0.57,0.98*14
$GPGSV,5,1,17,05,61,074,36,11,04,027,37,12,53,018,28,13,15,135,40*79
$GPGSV,5,2,17,15,32,168,30,18,32,255,40,20,31,043,36,22,05,134,35*78
$GPGSV,5,3,17,23,19,207,31,24,49,204,28,25,30,342,34,29,09,322,40*73
$GPGSV,5,4,17,36,52,277,38,40,86,350,39,41,58,082,,49,32,274,*7C
$GPGSV,5,5,17,50,10,089,39*40
$GLGSV,3,1,09,66,16,096,36,67,25,153,32,68,08,199,25,77,20,152,25*60
$GLGSV,3,2,09,78,80,123,32,79,41,340,40,81,15,351,33,82,25,303,33*64
$GLGSV,3,3,09,83,12,252,38*5A
$GNGLL,0419.72553,S,05539.92713,E,050018.00,A,A*68
$GNRMC,050019.00,A,0419.72554,S,05539.92713,E,0.007,,030625,,,A*72
$GNVTG,,T,,M,0.007,N,0.014,K,A*3F
$GNGGA,050019.00,0419.72554,S,05539.92713,E,1,12,0.57,11.3,M,-47.6,M,,*41
$GNGSA,A,3,05,12,24,18,15,20,25,13,29,23,,,1.13,0.57,0.98*1C
$GNGSA,A,3,78,79,82,67,66,81,83,,,,,,1.13,0.57,0.98*14
$GPGSV,5,1,17,05,61,074,39,11,04,027,39,12,53,018,27,13,15,135,44*73
$GPGSV,5,2,17,15,32,168,31,18,32,255,44,20,31,043,39,22,05,134,36*71
$GPGSV,5,3,17,23,19,207,35,24,49,204,27,25,30,342,37,29,09,322,43*78
$GPGSV,5,4,17,36,52,277,40,40,86,350,41,41,58,082,,49,32,274,*7C
$GPGSV,5,5,17,50,10,089,43*4D
$GLGSV,3,1,09,66,16,096,38,67,25,153,32,68,08,199,24,77,20,152,25*6F
$GLGSV,3,2,09,78,80,123,33,79,41,340,41,81,15,351,34,82,25,303,34*64
$GLGSV,3,3,09,83,12,252,39*5B
$GNGLL,0419.72554,S,05539.92713,E,050019.00,A,A*6E
$GNRMC,050020.00,A,0419.72553,S,05539.92712,E,0.001,,030625,,,A*78
$GNVTG,,T,,M,0.001,N,0.002,K,A*3E
$GNGGA,050020.00,0419.72553,S,05539.92712,E,1,12,0.57,11.2,M,-47.6,M,,*4C
$GNGSA,A,3,05,12,24,18,15,20,25,13,29,23,,,1.13,0.57,0.98*1C
$GNGSA,A,3,78,79,82,67,66,81,83,,,,,,1.13,0.57,0.98*14
$GPGSV,5,1,17,05,61,074,38,11,04,027,39,12,53,018,28,13,15,135,43*7A
$GPGSV,5,2,17,15,32,168,31,18,32,255,43,20,31,043,39,22,05,134,36*76
$GPGSV,5,3,17,23,19,207,34,24,49,204,27,25,30,342,37,29,09,322,42*78
$GPGSV,5,4,17,36,52,277,40,40,86,350,41,41,58,082,,49,32,274,*7C
$GPGSV,5,5,17,50,10,089,42*4C
$GLGSV,3,1,09,66,16,096,38,67,25,153,33,68,08,199,22,77,20,152,25*68
$GLGSV,3,2,09,78,80,123,33,79,41,340,41,81,15,351,33,82,25,303,35*62
$GLGSV,3,3,09,83,12,252,39*5B
$GNGLL,0419.72553,S,05539.92712,E,050020.00,A,A*62
$GNRMC,050021.00,A,0419.72554,S,05539.92711,E,0.024,,030625,,,A*7A
$GNVTG,,T,,M,0.024,N,0.045,K,A*3A
$GNGGA,050021.00,0419.72554,S,05539.92711,E,1,12,0.57,11.1,M,-47.6,M,,*4A
$GNGSA,A,3,05,12,24,18,15,20,25,13,29,23,,,1.13,0.57,0.98*1C
$GNGSA,A,3,78,79,82,67,66,81,83,,,,,,1.13,0.57,0.98*14
$GPGSV,5,1,17,05,61,074,37,11,04,027,39,12,53,018,27,13,15,135,42*7B
$GPGSV,5,2,17,15,32,168,31,18,32,255,42,20,31,043,38,22,05,134,36*76
$GPGSV,5,3,17,23,19,207,33,24,49,204,27,25,30,342,36,29,09,322,42*7E
$GPGSV,5,4,17,36,52,277,40,40,86,350,40,41,58,082,,49,32,274,*7D
$GPGSV,5,5,17,50,10,089,41*4F
$GLGSV,3,1,09,66,16,096,38,67,25,153,33,68,08,199,22,77,20,152,26*6B
$GLGSV,3,2,09,78,80,123,32,79,41,340,41,81,15,351,33,82,25,303,35*63
$GLGSV,3,3,09,83,12,252,39*5B
$GNGLL,0419.72554,S,05539.92711,E,050021.00,A,A*67
$GNRMC,050022.00,A,0419.72556,S,05539.92711,E,0.015,,030625,,,A*79
$GNVTG,,T,,M,0.015,N,0.027,K,A*3C
$GNGGA,050022.00,0419.72556,S,05539.92711,E,1,12,0.57,11.2,M,-47.6,M,,*48
$GNGSA,A,3,05,12,24,18,15,20,25,13,29,23,,,1.13,0.57,0.98*1C
$GNGSA,A,3,78,79,82,67,66,81,83,,,,,,1.13,0.57,0.98*14
$GPGSV,5,1,17,05,61,074,37,11,04,027,39,12,53,018,27,13,15,135,42*7B
$GPGSV,5,2,17,15,32,168,31,18,32,255,43,20,31,043,40,22,05,134,35*7B
$GPGSV,5,3,17,23,19,207,32,24,49,204,28,25,30,342,32,29,09,322,41*77
$GPGSV,5,4,17,36,52,277,39,40,86,350,40,41,58,082,,49,32,274,*73
$GPGSV,5,5,17,50,10,089,40*4E
$GLGSV,3,1,09,66,16,096,38,67,25,153,32,68,08,199,22,77,20,152,26*6A
$GLGSV,3,2,09,78,80,123,33,79,41,340,41,81,15,351,34,82,25,303,38*68
$GLGSV,3,3,09,83,12,252,39*5B
$GNGLL,0419.72556,S,05539.92711,E,050022.00,A,A*66
$GNRMC,050023.00,A,0419.72557,S,05539.92709,E,0.023,,030625,,,A*75
$GNVTG,,T,,M,0.023,N,0.042,K,A*3A
$GNGGA,050023.00,0419.72557,S,05539.92709,E,1,12,0.57,11.2,M,-47.6,M,,*41
$GNGSA,A,3,05,12,24,18,15,20,25,13,29,23,,,1.13,0.57,0.98*1C
$GNGSA,A,3,78,79,82,67,66,81,83,,,,,,1.13,0.57,0.98*14
$GPGSV,5,1,17,05,61,073,38,11,04,027,39,12,53,018,25,13,15,135,40*73
$GPGSV,5,2,17,15,32,168,31,18,32,255,43,20,31,043,40,22,05,134,34*7A
$GPGSV,5,3,17,23,19,207,31,24,49,204,29,25,30,342,34,29,09,322,41*73
$GPGSV,5,4,17,36,52,277,39,40,86,350,39,41,58,082,,49,32,274,*7D
$GPGSV,5,5,17,50,10,089,40*4E
$GLGSV,3,1,09,66,16,096,37,67,25,153,31,68,08,199,24,77,20,152,25*63
$GLGSV,3,2,09,78,80,123,33,79,41,340,41,81,15,351,37,82,25,303,38*6B
$GLGSV,3,3,09,83,12,252,38*5A
$GNGLL,0419.72557,S,05539.92709,E,050023.00,A,A*6F
$GNRMC,050024.00,A,0419.72557,S,05539.92708,E,0.018,,030625,,,A*7B
$GNVTG,,T,,M,0.018,N,0.034,K,A*33
$GNGGA,050024.00,0419.72557,S,05539.92708,E,1,12,0.57,11.1,M,-47.6,M,,*44
$GNGSA,A,3,05,12,24,18,15,20,25,13,29,23,,,1.13,0.57,0.98*1C
$GNGSA,A,3,78,79,82,67,66,81,83,,,,,,1.13,0.57,0.98*14
$GPGSV,5,1,17,05,61,073,38,11,04,027,38,12,53,018,26,13,15,135,40*71
$GPGSV,5,2,17,15,32,168,31,18,32,255,43,20,31,043,40,22,05,134,34*7A
$GPGSV,5,3,17,23,19,207,30,24,49,204,30,25,30,342,35,29,09,322,42*78
$GPGSV,5,4,17,36,52,277,40,40,86,350,39,41,58,082,,49,32,274,*73
$GPGSV,5,5,17,50,10,089,40*4E
$GLGSV,3,1,09,66,16,096,37,67,25,153,30,68,08,199,24,77,20,152,24*63
$GLGSV,3,2,09,78,80,123,33,79,41,340,41,81,15,351,36,82,25,303,38*6A
$GLGSV,3,3,09,83,12,252,37*55
$GNGLL,0419.72557,S,05539.92708,E,050024.00,A,A*69
$GNRMC,050025.00,A,0419.72559,S,05539.92707,E,0.026,,030625,,,A*76
$GNVTG,,T,,M,0.026,N,0.047,K,A*3A
$GNGGA,050025.00,0419.72559,S,05539.92707,E,1,12,0.57,11.2,M,-47.6,M,,*47
$GNGSA,A,3,05,12,24,18,15,20,25,13,29,23,,,1.13,0.57,0.98*1C
$GNGSA,A,3,78,79,82,67,66,81,83,,,,,,1.13,0.57,0.98*14
$GPGSV,5,1,17,05,61,073,38,11,04,027,37,12,53,018,25,13,15,135,40*7D
$GPGSV,5,2,17,15,32,168,30,18,32,255,43,20,31,043,39,22,05,134,33*72
$GPGSV,5,3,17,23,19,207,29,24,49,204,29,25,30,342,34,29,09,322,41*7A
$GPGSV,5,4,17,36,52,277,40,40,86,350,38,41,58,082,,49,32,274,*72
$GPGSV,5,5,17,50,10,089,39*40
$GLGSV,3,1,09,66,16,096,37,67,25,153,29,68,08,199,25,77,20,152,24*6A
$GLGSV,3,2,09,78,80,123,33,79,41,340,42,81,15,351,36,82,25,303,38*69
$GLGSV,3,3,09,83,12,252,37*55
$GNGLL,0419.72559,S,05539.92707,E,050025.00,A,A*69
$GNRMC,050026.00,A,0419.72560,S,05539.92706,E,0.004,,030625,,,A*7E
$GNVTG,,T,,M,0.004,N,0.007,K,A*3E
$GNGGA,050026.00,0419.72560,S,05539.92706,E,1,12,0.57,11.1,M,-47.6,M,,*4C
$GNGSA,A,3,05,12,24,18,15,20,25,13,29,23,,,1.13,0.57,0.98*1C
$GNGSA,A,3,78,79,82,67,66,81,83,,,,,,1.13,0.57,0.98*14
$GPGSV,5,1,17,05,61,073,38,11,04,027,37,12,53,018,25,13,15,135,41*7C
$GPGSV,5,2,17,15,32,168,30,18,32,255,41,20,31,043,39,22,05,134,34*77
$GPGSV,5,3,17,23,19,207,29,24,49,204,29,25,30,342,34,29,09,322,41*7A
$GPGSV,5,4,17,36,52,277,38,40,86,350,38,41,58,082,,49,32,274,*7D
$GPGSV,5,5,17,50,10,089,39*40
$GLGSV,3,1,09,66,16,096,37,67,25,153,30,68,08,199,24,77,20,152,25*62
$GLGSV,3,2,09,78,80,123,32,79,41,340,41,81,15,351,36,82,25,303,37*64
$GLGSV,3,3,09,83,12,252,36*54
$GNGLL,0419.72560,S,05539.92706,E,050026.00,A,A*61
$GNRMC,050027.00,A,0419.72561,S,05539.92705,E,0.048,,030625,,,A*75
$GNVTG,,T,,M,0.048,N,0.090,K,A*38
$GNGGA,050027.00,0419.72561,S,05539.92705,E,1,12,0.57,11.1,M,-47.6,M,,*4F
$GNGSA,A,3,05,12,24,18,15,20,25,13,29,23,,,1.13,0.57,0.98*1C
$GNGSA,A,3,78,79,82,67,66,81,83,,,,,,1.13,0.57,0.98*14
$GPGSV,5,1,17,05,61,073,33,11,04,027,37,12,53,018,26,13,15,135,41*74
$GPGSV,5,2,17,15,32,168,30,18,32,255,43,20,31,043,39,22,05,134,35*74
$GPGSV,5,3,17,23,19,207,29,24,49,204,29,25,30,342,33,29,09,322,43*7F
$GPGSV,5,4,17,36,52,277,38,40,86,350,41,41,58,082,,49,32,274,*73
$GPGSV,5,5,17,50,10,089,39*40
$GLGSV,3,1,09,66,16,096,38,67,25,153,30,68,08,199,24,77,20,152,26*6E
$GLGSV,3,2,09,78,80,123,33,79,41,340,41,81,15,351,36,82,25,303,37*65
$GLGSV,3,3,09,83,12,252,39*5B
$GNGLL,0419.72561,S,05539.92705,E,050027.00,A,A*62
$GNRMC,050028.00,A,0419.72562,S,05539.92704,E,0.024,,030625,,,A*72
$GNVTG,,T,,M,0.024,N,0.044,K,A*3B
$GNGGA,050028.00,0419.72562,S,05539.92704,E,1,12,0.57,11.1,M,-47.6,M,,*42
$GNGSA,A,3,05,12,24,18,15,20,25,13,29,23,,,1.13,0.57,0.98*1C
$GNGSA,A,3,78,79,82,67,66,81,83,,,,,,1.13,0.57,0.98*14
$GPGSV,5,1,17,05,61,073,35,11,04,027,37,12,53,018,29,13,15,135,40*7C
$GPGSV,5,2,17,15,32,168,30,18,32,255,42,20,31,043,38,22,05,134,36*77
$GPGSV,5,3,17,23,19,207,29,24,49,204,26,25,30,342,34,29,09,322,42*76
$GPGSV,5,4,17,36,52,277,37,40,86,350,40,41,58,082,,49,32,274,*7D
$GPGSV,5,5,17,50,10,089,39*40
$GLGSV,3,1,09,66,16,096,38,67,25,153,31,68,08,199,22,77,20,152,26*69
$GLGSV,3,2,09,78,80,123,33,79,41,340,41,81,15,351,36,82,25,303,34*66
$GLGSV,3,3,09,83,12,252,36*54
$GNGLL,0419.72562,S,05539.92704,E,050028.00,A,A*6F
$GNRMC,050029.00,A,0419.72563,S,05539.92703,E,0.007,,030625,,,A*74
$GNVTG,,T,,M,0.007,N,0.013,K,A*38
$GNGGA,050029.00,0419.72563,S,05539.92703,E,1,12,0.57,11.0,M,-47.6,M,,*44
$GNGSA,A,3,05,12,24,18,15,20,25,13,29,23,,,1.13,0.57,0.98*1C
$GNGSA,A,3,78,79,82,67,66,81,83,,,,,,1.13,0.57,0.98*14
$GPGSV,5,1,17,05,61,073,36,11,04,027,38,12,53,018,30,13,15,135,40*78
$GPGSV,5,2,17,15,32,168,30,18,32,255,43,20,31,043,39,22,05,134,37*76
$GPGSV,5,3,17,23,19,207,30,24,49,204,25,25,30,342,34,29,09,322,42*7D
$GPGSV,5,4,17,36,52,277,38,40,86,350,40,41,58,082,,49,32,274,*72
$GPGSV,5,5,17,50,10,089,41*4F
$GLGSV,3,1,09,66,16,096,38,67,25,153,32,68,08,199,21,77,20,152,27*68
$GLGSV,3,2,09,78,80,123,32,79,41,340,40,81,15,351,36,82,25,303,33*61
$GLGSV,3,3,09,83,12,252,37*55
$GNGLL,0419.72563,S,05539.92703,E,050029.00,A,A*68
$GNRMC,050030.00,A,0419.72565,S,05539.92702,E,0.031,,030625,,,A*7E
$GNVTG,,T,,M,0.031,N,0.058,K,A*32
$GNGGA,050030.00,0419.72565,S,05539.92702,E,1,12,0.57,11.0,M,-47.6,M,,*4B
$GNGSA,A,3,05,12,24,18,15,20,25,13,29,23,,,1.13,0.57,0.98*1C
$GNGSA,A,3,78,79,82,67,66,81,83,,,,,,1.13,0.57,0.98*14
$GPGSV,5,1,17,05,61,073,37,11,04,027,39,12,53,019,29,13,15,135,40*71
$GPGSV,5,2,17,15,32,168,30,18,32,255,43,20,31,043,38,22,05,134,37*77
$GPGSV,5,3,17,23,19,207,30,24,49,204,23,25,30,342,34,29,09,322,42*7B
$GPGSV,5,4,17,36,52,277,38,40,86,350,40,41,58,082,,49,32,274,*72
$GPGSV,5,5,17,50,10,089,41*4F
$GLGSV,3,1,09,66,16,096,38,67,25,153,33,68,08,199,19,77,20,152,27*62
$GLGSV,3,2,09,78,80,123,33,79,41,340,41,81,15,351,35,82,25,303,33*62
$GLGSV,3,3,09,83,12,252,37*55
$GNGLL,0419.72565,S,05539.92702,E,050030.00,A,A*67
$GNRMC,050031.00,A,0419.72567,S,05539.92701,E,0.033,,030625,,,A*7C
$GNVTG,,T,,M,0.033,N,0.061,K,A*3A
$GNGGA,050031.00,0419.72567,S,05539.92701,E,1,12,0.57,11.0,M,-47.6,M,,*4B
$GNGSA,A,3,05,12,24,18,15,20,25,13,29,23,,,1.13,0.57,0.98*1C
$GNGSA,A,3,78,79,82,67,66,81,83,,,,,,1.13,0.57,0.98*14
$GPGSV,5,1,17,05,61,073,37,11,04,027,39,12,53,019,29,13,15,134,40*70
$GPGSV,5,2,17,15,32,167,30,18,32,255,43,20,31,043,38,22,05,134,38*77
$GPGSV,5,3,17,23,19,207,31,24,49,204,23,25,30,342,34,29,09,322,42*7A
$GPGSV,5,4,17,36,52,277,38,40,86,350,39,41,58,082,,49,32,274,*7C
$GPGSV,5,5,17,50,10,089,40*4E
$GLGSV,3,1,09,66,16,096,38,67,25,153,33,68,08,199,18,77,20,152,27*63
$GLGSV,3,2,09,78,80,123,32,79,41,340,41,81,15,351,35,82,25,303,33*63
$GLGSV,3,3,09,83,12,252,38*5A
$GNGLL,0419.72567,S,05539.92701,E,050031.00,A,A*67
$GNRMC,050032.00,A,0419.72567,S,05539.92700,E,0.048,,030625,,,A*72
$GNVTG,,T,,M,0.048,N,0.089,K,A*30
$GNGGA,050032.00,0419.72567,S,05539.92700,E,1,12,0.57,11.0,M,-47.6,M,,*49
$GNGSA,A,3,05,12,24,18,15,20,25,13,29,23,,,1.13,0.57,0.98*1C
$GNGSA,A,3,78,79,82,67,66,81,83,,,,,,1.13,0.57,0.98*14
$GPGSV,5,1,17,05,61,073,37,11,04,027,39,12,53,019,28,13,15,134,40*71
$GPGSV,5,2,17,15,32,167,30,18,32,255,43,20,31,043,38,22,05,134,37*78
$GPGSV,5,3,17,23,19,207,31,24,49,204,25,25,30,342,33,29,09,322,42*7B
$GPGSV,5,4,17,36,52,277,38,40,86,350,39,41,58,082,,49,32,274,*7C
$GPGSV,5,5,17,50,10,089,41*4F
$GLGSV,3,1,09,66,16,096,38,67,25,153,33,68,08,199,17,77,20,152,27*6C
$GLGSV,3,2,09,78,80,123,32,79,41,340,41,81,15,351,35,82,25,303,33*63
$GLGSV,3,3,09,83,12,252,38*5A
$GNGLL,0419.72567,S,05539.92700,E,050032.00,A,A*65
$GNRMC,050033.00,A,0419.72568,S,05539.92699,E,0.022,,030625,,,A*71
$GNVTG,,T,,M,0.022,N,0.041,K,A*38
$GNGGA,050033.00,0419.72568,S,05539.92699,E,1,12,0.57,11.0,M,-47.6,M,,*46
$GNGSA,A,3,05,12,24,18,15,20,25,13,29,23,,,1.13,0.57,0.98*1C
$GNGSA,A,3,78,79,82,67,66,81,83,,,,,,1.13,0.57,0.98*14
$GPGSV,5,1,17,05,61,073,37,11,04,027,39,12,53,019,28,13,15,134,40*71
$GPGSV,5,2,17,15,32,167,30,18,32,255,43,20,31,043,38,22,05,134,37*78
$GPGSV,5,3,17,23,19,207,31,24,49,204,25,25,30,342,33,29,09,322,42*7B
$GPGSV,5,4,17,36,52,277,38,40,86,350,40,41,58,082,,49,32,274,*72
$GPGSV,5,5,17,50,10,089,41*4F
$GLGSV,3,1,09,66,16,096,38,67,25,153,34,68,08,199,19,77,20,152,28*6A
$GLGSV,3,2,09,78,80,123,32,79,41,340,41,81,15,351,35,82,25,303,34*64
$GLGSV,3,3,09,83,12,252,38*5A
$GNGLL,0419.72568,S,05539.92699,E,050033.00,A,A*6A
$GNRMC,050034.00,A,0419.72569,S,05539.92699,E,0.020,,030625,,,A*75
$GNVTG,,T,,M,0.020,N,0.037,K,A*3B
$GNGGA,050034.00,0419.72569,S,05539.92699,E,1,12,0.57,11.0,M,-47.6,M,,*40
$GNGSA,A,3,05,12,24,18,15,20,25,13,29,23,,,1.13,0.57,0.98*1C
$GNGSA,A,3,78,79,82,67,66,81,83,,,,,,1.13,0.57,0.98*14
$GPGSV,5,1,17,05,61,073,36,11,04,027,38,12,53,019,28,13,15,134,40*71
$GPGSV,5,2,17,15,32,167,30,18,32,255,43,20,31,043,38,22,05,134,37*78
$GPGSV,5,3,17,23,19,207,31,24,49,204,26,25,30,342,33,29,09,322,42*78
$GPGSV,5,4,17,36,52,277,38,40,86,350,40,41,58,082,,49,32,274,*72
$GPGSV,5,5,17,50,10,089,41*4F
$GLGSV,3,1,09,66,16,096,38,67,25,153,34,68,08,199,18,77,20,152,28*6B
$GLGSV,3,2,09,78,80,123,32,79,41,340,41,81,15,351,35,82,25,303,33*63
$GLGSV,3,3,09,83,12,252,38*5A
$GNGLL,0419.72569,S,05539.92699,E,050034.00,A,A*6C
$GNRMC,050035.00,A,0419.72570,S,05539.92698,E,0.017,,030625,,,A*79
$GNVTG,,T,,M,0.017,N,0.031,K,A*39
$GNGGA,050035.00,0419.72570,S,05539.92698,E,1,12,0.57,11.0,M,-47.6,M,,*48
$GNGSA,A,3,05,12,24,18,15,20,25,13,29,23,,,1.13,0.57,0.98*1C
$GNGSA,A,3,78,79,82,67,66,81,83,,,,,,1.13,0.57,0.98*14
$GPGSV,5,1,17,05,61,073,37,11,04,027,37,12,53,019,29,13,15,134,40*7E
$GPGSV,5,2,17,15,32,167,29,18,32,255,43,20,31,043,38,22,05,134,37*70
$GPGSV,5,3,17,23,19,207,31,24,49,204,25,25,30,342,33,29,09,322,42*7B
$GPGSV,5,4,17,36,52,277,38,40,86,350,39,41,58,082,,49,32,274,*7C
$GPGSV,5,5,17,50,10,089,41*4F
$GLGSV,3,1,09,66,16,096,38,67,25,153,34,68,08,199,18,77,20,152,28*6B
$GLGSV,3,2,09,78,80,123,32,79,41,340,41,81,15,351,35,82,25,303,34*64
$GLGSV,3,3,09,83,12,252,37*55
$GNGLL,0419.72570,S,05539.92698,E,050035.00,A,A*64
$GNRMC,050036.00,A,0419.72570,S,05539.92698,E,0.009,,030625,,,A*75
$GNVTG,,T,,M,0.009,N,0.016,K,A*33
$GNGGA,050036.00,0419.72570,S,05539.92698,E,1,12,0.57,11.0,M,-47.6,M,,*4B
$GNGSA,A,3,05,12,24,18,15,20,25,13,29,23,,,1.13,0.57,0.98*1C
$GNGSA,A,3,78,79,82,67,66,81,83,,,,,,1.13,0.57,0.98*14
$GPGSV,5,1,17,05,61,073,37,11,04,027,38,12,53,019,30,13,15,134,41*78
$GPGSV,5,2,17,15,32,167,30,18,32,256,43,20,31,043,38,22,05,134,38*74
$GPGSV,5,3,17,23,19,207,31,24,49,204,23,25,30,342,33,29,09,322,42*7D
$GPGSV,5,4,17,36,52,277,37,40,86,350,39,41,58,082,,49,32,274,*73
$GPGSV,5,5,17,50,10,089,41*4F
$GLGSV,3,1,09,66,16,096,38,67,25,153,32,68,08,199,18,77,20,152,27*62
$GLGSV,3,2,09,78,80,123,32,79,41,340,42,81,15,351,36,82,25,303,34*64
$GLGSV,3,3,09,83,12,252,38*5A
$GNGLL,0419.72570,S,05539.92698,E,050036.00,A,A*67
$GNRMC,050037.00,A,0419.72570,S,05539.92697,E,0.013,,030625,,,A*70
$GNVTG,,T,,M,0.013,N,0.024,K,A*39
$GNGGA,050037.00,0419.72570,S,05539.92697,E,1,12,0.57,11.1,M,-47.6,M,,*44
$GNGSA,A,3,05,12,24,18,15,20,25,13,29,23,,,1.13,0.57,0.98*1C
$GNGSA,A,3,78,79,82,67,66,81,83,,,,,,1.13,0.57,0.98*14
$GPGSV,5,1,17,05,61,073,36,11,04,027,37,12,53,019,30,13,15,134,40*77
$GPGSV,5,2,17,15,32,167,30,18,32,256,42,20,31,043,38,22,05,134,37*7A
$GPGSV,5,3,17,23,19,207,30,24,49,204,21,25,30,342,32,29,09,322,42*7F
$GPGSV,5,4,17,36,52,277,37,40,86,350,38,41,58,082,,49,32,274,*72
$GPGSV,5,5,17,50,10,089,40*4E
$GLGSV,3,1,09,66,16,096,37,67,26,152,31,68,08,199,17,77,20,152,26*62
$GLGSV,3,2,09,78,80,123,32,79,41,340,41,81,15,351,35,82,25,303,34*64
$GLGSV,3,3,09,83,12,252,37*55
$GNGLL,0419.72570,S,05539.92697,E,050037.00,A,A*69
$GNRMC,050038.00,A,0419.72570,S,05539.92696,E,0.024,,030625,,,A*7A
$GNVTG,,T,,M,0.024,N,0.045,K,A*3A
$GNGGA,050038.00,0419.72570,S,05539.92696,E,1,12,0.57,11.0,M,-47.6,M,,*4B
$GNGSA,A,3,05,12,24,18,15,20,25,13,29,23,,,1.13,0.57,0.98*1C
$GNGSA,A,3,78,79,82,67,66,81,83,,,,,,1.13,0.57,0.98*14
$GPGSV,5,1,17,05,61,073,36,11,04,027,37,12,53,019,31,13,15,134,40*76
$GPGSV,5,2,17,15,32,167,31,18,32,256,42,20,31,043,38,22,05,134,37*7B
$GPGSV,5,3,17,23,19,207,31,24,49,204,21,25,30,342,32,29,09,322,42*7E
$GPGSV,5,4,17,36,52,277,37,40,86,350,38,41,58,082,,49,32,274,*72
$GPGSV,5,5,17,50,10,089,40*4E
$GLGSV,3,1,09,66,16,096,37,67,26,152,30,68,08,199,16,77,20,152,25*61
$GLGSV,3,2,09,78,80,123,32,79,41,340,41,81,15,351,34,82,25,303,34*65
$GLGSV,3,3,09,83,12,252,37*55
$GNGLL,0419.72570,S,05539.92696,E,050038.00,A,A*67
$GNRMC,050039.00,A,0419.72571,S,05539.92696,E,0.004,,030625,,,A*78
$GNVTG,,T,,M,0.004,N,0.008,K,A*31
$GNGGA,050039.00,0419.72571,S,05539.92696,E,1,12,0.57,11.0,M,-47.6,M,,*4B
$GNGSA,A,3,05,12,24,18,15,20,25,13,29,23,,,1.13,0.57,0.98*1C
$GNGSA,A,3,78,79,82,67,66,81,83,,,,,,1.13,0.57,0.98*14
$GPGSV,5,1,17,05,61,073,35,11,04,027,37,12,53,019,31,13,15,134,40*75
$GPGSV,5,2,17,15,32,167,31,18,32,256,42,20,31,043,38,22,05,134,37*7B
$GPGSV,5,3,17,23,19,207,31,24,49,204,21,25,30,342,32,29,09,322,42*7E
$GPGSV,5,4,17,36,52,277,37,40,86,350,39,41,58,082,,49,32,274,*73
$GPGSV,5,5,17,50,10,089,40*4E
$GLGSV,3,1,09,66,16,096,36,67,26,152,30,68,08,199,14,77,20,152,25*62
$GLGSV,3,2,09,78,80,123,32,79,41,340,40,81,15,351,35,82,25,303,34*65
$GLGSV,3,3,09,83,12,252,37*55
$GNGLL,0419.72571,S,05539.92696,E,050039.00,A,A*67
$GNRMC,050040.00,A,0419.72570,S,05539.92695,E,0.017,,030625,,,A*76
$GNVTG,,T,,M,0.017,N,0.032,K,A*3A
$GNGGA,050040.00,0419.72570,S,05539.92695,E,1,12,0.57,11.0,M,-47.6,M,,*47
$GNGSA,A,3,05,12,24,18,15,20,25,13,29,23,,,1.13,0.57,0.98*1C
$GNGSA,A,3,78,79,82,67,66,81,83,,,,,,1.13,0.57,0.98*14
$GPGSV,5,1,17,05,61,073,35,11,04,027,37,12,53,019,31,13,15,134,40*75
$GPGSV,5,2,17,15,32,167,31,18,32,256,42,20,31,043,38,22,05,134,37*7B
$GPGSV,5,3,17,23,20,207,31,24,49,204,21,25,30,342,32,29,09,322,42*74
$GPGSV,5,4,17,36,52,277,37,40,86,350,39,41,58,082,,49,32,274,*73
$GPGSV,5,5,17,50,10,089,40*4E
$GLGSV,3,1,09,66,16,096,37,67,26,152,30,68,08,199,16,77,20,152,25*61
$GLGSV,3,2,09,78,80,123,32,79,41,340,40,81,15,351,35,82,25,303,34*65
$GLGSV,3,3,09,83,12,252,36*54
$GNGLL,0419.72570,S,05539.92695,E,050040.00,A,A*6B
$GNRMC,050041.00,A,0419.72571,S,05539.92695,E,0.029,,030625,,,A*7B
$GNVTG,,T,,M,0.029,N,0.054,K,A*37
$GNGGA,050041.00,0419.72571,S,05539.92695,E,1,12,0.57,11.1,M,-47.6,M,,*46
$GNGSA,A,3,05,12,24,18,15,20,25,13,29,23,,,1.13,0.57,0.98*1C
$GNGSA,A,3,78,79,82,67,66,81,83,,,,,,1.13,0.57,0.98*14
$GPGSV,5,1,17,05,61,073,36,11,04,027,37,12,53,019,30,13,15,134,40*77
$GPGSV,5,2,17,15,32,167,31,18,32,256,42,20,31,043,38,22,05,134,37*7B
$GPGSV,5,3,17,23,20,207,31,24,49,203,20,25,30,342,33,29,09,322,42*73
$GPGSV,5,4,17,36,52,277,37,40,86,350,39,41,58,082,,49,32,274,*73
$GPGSV,5,5,17,50,10,089,40*4E
$GLGSV,3,1,09,66,16,096,37,67,26,152,31,68,08,199,17,77,20,152,26*62
$GLGSV,3,2,09,78,80,123,31,79,41,340,40,81,15,351,35,82,25,303,34*66
$GLGSV,3,3,09,83,12,252,36*54
$GNGLL,0419.72571,S,05539.92695,E,050041.00,A,A*6B
$GNRMC,050042.00,A,0419.72571,S,05539.92694,E,0.017,,030625,,,A*74
$GNVTG,,T,,M,0.017,N,0.032,K,A*3A
$GNGGA,050042.00,0419.72571,S,05539.92694,E,1,12,0.57,11.0,M,-47.6,M,,*45
$GNGSA,A,3,05,12,24,18,15,20,25,13,29,23,,,1.13,0.57,0.98*1C
$GNGSA,A,3,78,79,82,67,66,81,83,,,,,,1.13,0.57,0.98*14
$GPGSV,5,1,17,05,61,073,36,11,04,027,37,12,53,019,30,13,15,134,40*77
$GPGSV,5,2,17,15,32,167,30,18,32,256,42,20,31,043,38,22,05,134,37*7A
$GPGSV,5,3,17,23,20,207,31,24,49,203,19,25,30,342,33,29,09,322,42*79
$GPGSV,5,4,17,36,52,277,38,40,86,350,39,41,58,082,,49,32,274,*7C
$GPGSV,5,5,17,50,10,089,40*4E
$GLGSV,3,1,09,66,16,096,37,67,26,152,32,68,08,199,19,77,20,152,26*6F
$GLGSV,3,2,09,78,80,123,31,79,41,340,40,81,15,351,34,82,25,303,34*67
$GLGSV,3,3,09,83,12,252,37*55
$GNGLL,0419.72571,S,05539.92694,E,050042.00,A,A*69
$GNRMC,050043.00,A,0419.72571,S,05539.92693,E,0.002,,030625,,,A*76
$GNVTG,,T,,M,0.002,N,0.004,K,A*3B
$GNGGA,050043.00,0419.72571,S,05539.92693,E,1,12,0.57,11.0,M,-47.6,M,,*43
$GNGSA,A,3,05,12,24,18,15,20,25,13,29,23,,,1.13,0.57,0.98*1C
$GNGSA,A,3,78,79,82,67,66,81,83,,,,,,1.13,0.57,0.98*14
$GPGSV,5,1,17,05,61,073,36,11,04,027,37,12,53,019,29,13,15,134,40*7F
$GPGSV,5,2,17,15,32,167,30,18,32,256,43,20,31,043,37,22,05,134,37*74
$GPGSV,5,3,17,23,20,207,31,24,49,203,19,25,30,342,33,29,09,322,42*79
$GPGSV,5,4,17,36,52,277,38,40,86,350,39,41,58,082,,49,32,274,*7C
$GPGSV,5,5,17,50,10,089,40*4E
$GLGSV,3,1,09,66,16,096,37,67,26,152,32,68,08,199,19,77,20,152,26*6F
$GLGSV,3,2,09,78,80,123,31,79,41,340,40,81,15,351,34,82,25,303,34*67
$GLGSV,3,3,09,83,12,252,37*55
$GNGLL,0419.72571,S,05539.92693,E,050043.00,A,A*6F
$GNRMC,050044.00,A,0419.72570,S,05539.92693,E,0.028,,030625,,,A*78
$GNVTG,,T,,M,0.028,N,0.053,K,A*31
$GNGGA,050044.00,0419.72570,S,05539.92693,E,1,12,0.57,11.0,M,-47.6,M,,*45
$GNGSA,A,3,05,12,24,18,15,20,25,13,29,23,,,1.13,0.57,0.98*1C
$GNGSA,A,3,78,79,82,67,66,81,83,,,,,,1.13,0.57,0.98*14
$GPGSV,5,1,17,05,61,073,36,11,04,027,36,12,53,019,28,13,15,134,40*7F
$GPGSV,5,2,17,15,32,167,30,18,32,256,43,20,31,043,37,22,05,134,37*74
$GPGSV,5,3,17,23,20,207,32,24,49,203,20,25,30,342,32,29,09,322,42*71
$GPGSV,5,4,17,36,52,277,38,40,86,350,39,41,58,082,,49,32,274,*7C
$GPGSV,5,5,17,50,10,089,40*4E
$GLGSV,3,1,09,66,16,096,37,67,26,152,32,68,08,199,19,77,20,152,26*6F
$GLGSV,3,2,09,78,80,123,31,79,41,340,40,81,15,351,34,82,25,303,34*67
$GLGSV,3,3,09,83,12,252,37*55
$GNGLL,0419.72570,S,05539.92693,E,050044.00,A,A*69
$GNRMC,050045.00,A,0419.72570,S,05539.92692,E,0.004,,030625,,,A*76
$GNVTG,,T,,M,0.004,N,0.008,K,A*31
$GNGGA,050045.00,0419.72570,S,05539.92692,E,1,12,0.57,11.0,M,-47.6,M,,*45
$GNGSA,A,3,05,12,24,18,15,20,25,13,29,23,,,1.13,0.57,0.98*1C
$GNGSA,A,3,78,79,82,67,66,81,83,,,,,,1.13,0.57,0.98*14
$GPGSV,5,1,17,05,61,073,36,11,04,027,36,12,53,019,29,13,15,134,40*7E
$GPGSV,5,2,17,15,32,167,30,18,32,256,43,20,31,043,37,22,05,134,37*74
$GPGSV,5,3,17,23,20,207,32,24,49,203,20,25,30,342,32,29,09,322,41*72
$GPGSV,5,4,17,36,52,277,38,40,86,350,39,41,58,082,,49,32,274,*7C
$GPGSV,5,5,17,50,10,089,40*4E
$GLGSV,3,1,09,66,16,096,38,67,26,152,33,68,08,199,19,77,20,152,26*61
$GLGSV,3,2,09,78,80,123,31,79,41,340,40,81,15,351,34,82,25,303,34*67
$GLGSV,3,3,09,83,12,252,37*55
$GNGLL,0419.72570,S,05539.92692,E,050045.00,A,A*69
$GNRMC,050046.00,A,0419.72570,S,05539.92691,E,0.023,,030625,,,A*73
$GNVTG,,T,,M,0.023,N,0.043,K,A*3B
$GNGGA,050046.00,0419.72570,S,05539.92691,E,1,12,0.57,11.0,M,-47.6,M,,*45
$GNGSA,A,3,05,12,24,18,15,20,25,13,29,23,,,1.13,0.57,0.98*1C
$GNGSA,A,3,78,79,82,67,66,81,83,,,,,,1.13,0.57,0.98*14
$GPGSV,5,1,17,05,61,073,36,11,04,027,36,12,53,019,29,13,15,134,40*7E
$GPGSV,5,2,17,15,32,167,30,18,32,256,43,20,31,043,37,22,05,134,37*74
$GPGSV,5,3,17,23,20,207,32,24,49,203,21,25,30,342,32,29,09,322,42*70
$GPGSV,5,4,17,36,52,277,38,40,86,350,39,41,58,082,,49,32,274,*7C
$GPGSV,5,5,17,50,10,089,40*4E
$GLGSV,3,1,09,66,16,096,37,67,26,152,33,68,08,199,18,77,20,152,27*6E
$GLGSV,3,2,09,78,80,123,31,79,41,340,40,81,15,351,34,82,25,303,34*67
$GLGSV,3,3,09,83,12,252,36*54
$GNGLL,0419.72570,S,05539.92691,E,050046.00,A,A*69
$GNRMC,050047.00,A,0419.72570,S,05539.92690,E,0.013,,030625,,,A*70
$GNVTG,,T,,M,0.013,N,0.025,K,A*38
$GNGGA,050047.00,0419.72570,S,05539.92690,E,1,12,0.57,11.0,M,-47.6,M,,*45
$GNGSA,A,3,05,12,24,18,15,20,25,13,29,23,,,1.13,0.57,0.98*1C
$GNGSA,A,3,78,79,82,67,66,81,83,,,,,,1.13,0.57,0.98*14
$GPGSV,5,1,17,05,61,073,36,11,04,027,37,12,53,019,28,13,15,134,40*7E
$GPGSV,5,2,17,15,32,167,30,18,32,256,42,20,31,043,37,22,05,134,36*74
$GPGSV,5,3,17,23,20,207,32,24,49,203,21,25,30,342,31,29,09,322,42*73
$GPGSV,5,4,17,36,52,277,38,40,86,350,39,41,58,082,,49,32,274,*7C
$GPGSV,5,5,17,50,10,089,40*4E
$GLGSV,3,1,09,66,16,096,36,67,26,152,32,68,08,199,16,77,20,152,26*61
$GLGSV,3,2,09,78,80,123,30,79,41,340,39,81,15,351,33,82,25,303,33*68
$GLGSV,3,3,09,83,12,252,35*57
$GNGLL,0419.72570,S,05539.92690,E,050047.00,A,A*69
$GNRMC,050048.00,A,0419.72570,S,05539.92689,E,0.017,,030625,,,A*73
$GNVTG,,T,,M,0.017,N,0.031,K,A*39
$GNGGA,050048.00,0419.72570,S,05539.92689,E,1,12,0.57,10.9,M,-47.6,M,,*4A
$GNGSA,A,3,05,12,24,18,15,20,25,13,29,23,,,1.13,0.57,0.98*1C
$GNGSA,A,3,78,79,82,67,66,81,83,,,,,,1.13,0.57,0.98*14
$GPGSV,5,1,17,05,61,073,36,11,04,027,37,12,53,019,29,13,15,134,40*7F
$GPGSV,5,2,17,15,32,167,29,18,32,256,43,20,31,043,38,22,05,134,36*72
$GPGSV,5,3,17,23,20,207,32,24,49,203,21,25,30,342,31,29,09,322,42*73
$GPGSV,5,4,17,36,52,277,38,40,86,350,39,41,58,082,,49,32,274,*7C
$GPGSV,5,5,17,50,10,089,40*4E
$GLGSV,3,1,09,66,16,096,36,67,26,152,32,68,08,199,,77,20,152,26*66
$GLGSV,3,2,09,78,80,123,31,79,41,340,39,81,15,351,33,82,25,303,33*69
$GLGSV,3,3,09,83,12,252,35*57
$GNGLL,0419.72570,S,05539.92689,E,050048.00,A,A*6E
$GNRMC,050049.00,A,0419.72570,S,05539.92689,E,0.010,,030625,,,A*75
$GNVTG,,T,,M,0.010,N,0.019,K,A*34
$GNGGA,050049.00,0419.72570,S,05539.92689,E,1,12,0.57,11.0,M,-47.6,M,,*43
$GNGSA,A,3,05,12,24,18,15,20,25,13,29,23,,,1.13,0.57,0.98*1C
$GNGSA,A,3,78,79,82,67,66,81,83,,,,,,1.13,0.57,0.98*14
$GPGSV,5,1,17,05,61,073,36,11,04,027,37,12,53,019,28,13,15,134,40*7E
$GPGSV,5,2,17,15,32,167,29,18,32,256,43,20,31,043,38,22,05,134,36*72
$GPGSV,5,3,17,23,20,207,32,24,49,203,21,25,30,342,32,29,09,322,42*70
$GPGSV,5,4,17,36,52,277,37,40,86,350,39,41,58,082,,49,32,274,*73
$GPGSV,5,5,17,50,10,089,40*4E
$GLGSV,3,1,09,66,16,096,36,67,26,152,32,68,08,199,,77,20,152,25*65
$GLGSV,3,2,09,78,80,123,31,79,41,340,38,81,15,351,33,82,25,303,33*68
$GLGSV,3,3,09,83,12,252,36*54
$GNGLL,0419.72570,S,05539.92689,E,050049.00,A,A*6F
$GNRMC,050050.00,A,0419.72569,S,05539.92688,E,0.019,,030625,,,A*7D
$GNVTG,,T,,M,0.019,N,0.035,K,A*33
$GNGGA,050050.00,0419.72569,S,05539.92688,E,1,12,0.57,11.0,M,-47.6,M,,*42
$GNGSA,A,3,05,12,24,18,15,20,25,13,29,23,,,1.13,0.57,0.98*1C
$GNGSA,A,3,78,79,82,67,66,81,83,,,,,,1.13,0.57,0.98*14
$GPGSV,5,1,17,05,61,073,36,11,04,027,37,12,53,019,28,13,15,134,40*7E
$GPGSV,5,2,17,15,32,167,29,18,32,256,43,20,31,043,38,22,05,134,37*73
$GPGSV,5,3,17,23,20,207,32,24,49,203,20,25,30,342,32,29,09,322,42*71
$GPGSV,5,4,17,36,52,277,37,40,86,350,39,41,58,082,,49,32,274,*73
$GPGSV,5,5,17,50,10,089,40*4E
$GLGSV,3,1,09,66,16,096,36,67,26,152,32,68,08,199,,77,20,152,25*65
$GLGSV,3,2,09,78,80,123,31,79,41,340,38,81,15,351,34,82,25,303,33*6F
$GLGSV,3,3,09,83,12,252,36*54
$GNGLL,0419.72569,S,05539.92688,E,050050.00,A,A*6E
$GNRMC,050051.00,A,0419.72569,S,05539.92686,E,0.041,,030625,,,A*7F
$GNVTG,,T,,M,0.041,N,0.076,K,A*39
$GNGGA,050051.00,0419.72569,S,05539.92686,E,1,12,0.57,11.0,M,-47.6,M,,*4D
$GNGSA,A,3,05,12,24,18,15,20,25,13,29,23,,,1.13,0.57,0.98*1C
$GNGSA,A,3,78,79,82,67,66,81,83,,,,,,1.13,0.57,0.98*14
$GPGSV,5,1,17,05,61,073,36,11,04,027,36,12,53,019,28,13,15,134,40*7F
$GPGSV,5,2,17,15,32,167,29,18,32,256,43,20,31,043,38,22,05,134,36*72
$GPGSV,5,3,17,23,20,207,33,24,49,203,21,25,30,342,31,29,09,322,42*72
$GPGSV,5,4,17,36,52,277,37,40,86,350,39,41,58,082,,49,32,274,*73
$GPGSV,5,5,17,50,10,089,40*4E
$GLGSV,3,1,09,66,16,096,36,67,26,152,32,68,08,199,,77,20,152,25*65
$GLGSV,3,2,09,78,80,123,31,79,41,340,38,81,15,351,34,82,25,303,34*68
$GLGSV,3,3,09,83,12,252,36*54
$GNGLL,0419.72569,S,05539.92686,E,050051.00,A,A*61
$GNRMC,050052.00,A,0419.72568,S,05539.92685,E,0.012,,030625,,,A*78
$GNVTG,,T,,M,0.012,N,0.023,K,A*3F
$GNGGA,050052.00,0419.72568,S,05539.92685,E,1,12,0.57,11.0,M,-47.6,M,,*4C
$GNGSA,A,3,05,12,24,18,15,20,25,13,29,23,,,1.13,0.57,0.98*1C
$GNGSA,A,3,78,79,82,67,66,81,83,,,,,,1.13,0.57,0.98*14
$GPGSV,5,1,17,05,61,073,35,11,04,027,37,12,53,019,28,13,15,134,38*72
$GPGSV,5,2,17,15,32,167,30,18,32,256,43,20,31,043,38,22,05,134,37*7B
$GPGSV,5,3,17,23,20,207,33,24,49,203,22,25,30,342,32,29,09,322,42*72
$GPGSV,5,4,17,36,52,277,38,40,86,350,38,41,58,082,,49,32,274,*7D
$GPGSV,5,5,17,50,10,089,40*4E
$GLGSV,3,1,09,66,16,096,35,67,26,152,31,68,08,199,,77,20,152,24*64
$GLGSV,3,2,09,78,80,123,31,79,41,340,38,81,15,351,33,82,25,303,34*6F
$GLGSV,3,3,09,83,12,252,36*54
$GNGLL,0419.72568,S,05539.92685,E,050052.00,A,A*60
$GNRMC,050053.00,A,0419.72567,S,05539.92685,E,0.008,,030625,,,A*7D
$GNVTG,,T,,M,0.008,N,0.015,K,A*31
$GNGGA,050053.00,0419.72567,S,05539.92685,E,1,12,0.57,10.9,M,-47.6,M,,*4A
$GNGSA,A,3,05,12,24,18,15,20,25,13,29,23,,,1.13,0.57,0.98*1C
$GNGSA,A,3,78,79,82,67,66,81,83,,,,,,1.13,0.57,0.98*14
$GPGSV,5,1,17,05,61,073,35,11,04,027,37,12,53,019,28,13,15,134,38*72
$GPGSV,5,2,17,15,32,167,29,18,32,256,42,20,31,043,38,22,05,134,36*73
$GPGSV,5,3,17,23,20,207,33,24,49,203,23,25,30,342,32,29,09,322,42*73
$GPGSV,5,4,17,36,52,277,38,40,86,350,38,41,58,082,,49,32,274,*7D
$GPGSV,5,5,17,50,10,089,40*4E
$GLGSV,3,1,09,66,16,096,35,67,26,152,31,68,08,199,,77,20,152,24*64
$GLGSV,3,2,09,78,80,123,31,79,41,340,39,81,15,351,34,82,25,303,34*69
$GLGSV,3,3,09,83,12,252,36*54
$GNGLL,0419.72567,S,05539.92685,E,050053.00,A,A*6E
$GNRMC,050054.00,A,0419.72566,S,05539.92685,E,0.010,,030625,,,A*72
$GNVTG,,T,,M,0.010,N,0.019,K,A*34
$GNGGA,050054.00,0419.72566,S,05539.92685,E,1,12,0.57,10.9,M,-47.6,M,,*4C
$GNGSA,A,3,05,12,24,18,15,20,25,13,29,23,,,1.13,0.57,0.98*1C
$GNGSA,A,3,78,79,82,67,66,81,83,,,,,,1.13,0.57,0.98*14
$GPGSV,5,1,17,05,61,073,35,11,04,027,38,12,53,019,27,13,15,134,39*73
$GPGSV,5,2,17,15,32,167,29,18,32,256,43,20,31,043,38,22,05,134,36*72
$GPGSV,5,3,17,23,20,207,32,24,49,203,23,25,30,342,31,29,09,322,42*71
$GPGSV,5,4,17,36,52,277,38,40,86,350,39,41,58,082,,49,32,274,*7C
$GPGSV,5,5,17,50,10,089,41*4F
$GLGSV,3,1,09,66,16,096,36,67,26,152,31,68,08,199,,77,20,152,24*67
$GLGSV,3,2,09,78,80,123,31,79,41,340,40,81,15,351,34,82,25,303,34*67
$GLGSV,3,3,09,83,12,252,37*55
$GNGLL,0419.72566,S,05539.92685,E,050054.00,A,A*68
$GNRMC,050055.00,A,0419.72565,S,05539.92684,E,0.006,,030625,,,A*76
$GNVTG,,T,,M,0.006,N,0.011,K,A*3B
$GNGGA,050055.00,0419.72565,S,05539.92684,E,1,12,0.57,10.9,M,-47.6,M,,*4F
$GNGSA,A,3,05,12,24,18,15,20,25,13,29,23,,,1.13,0.57,0.98*1C
$GNGSA,A,3,78,79,82,67,66,81,83,,,,,,1.13,0.57,0.98*14
$GPGSV,5,1,17,05,61,073,35,11,04,027,38,12,53,019,27,13,15,134,39*73
$GPGSV,5,2,17,15,32,167,29,18,32,256,43,20,31,043,39,22,05,134,36*73
$GPGSV,5,3,17,23,20,207,32,24,49,203,25,25,30,342,32,29,09,322,42*74
$GPGSV,5,4,17,36,52,277,38,40,86,350,39,41,58,082,,49,32,274,*7C
$GPGSV,5,5,17,50,10,089,40*4E
$GLGSV,3,1,09,66,16,096,37,67,26,152,31,68,08,199,,77,20,152,25*67
$GLGSV,3,2,09,78,80,123,32,79,41,340,40,81,15,351,35,82,25,303,35*64
$GLGSV,3,3,09,83,12,252,37*55
$GNGLL,0419.72565,S,05539.92684,E,050055.00,A,A*6B
$GNRMC,050056.00,A,0419.72564,S,05539.92684,E,0.013,,030625,,,A*70
$GNVTG,,T,,M,0.013,N,0.024,K,A*39
$GNGGA,050056.00,0419.72564,S,05539.92684,E,1,12,0.57,10.9,M,-47.6,M,,*4D
$GNGSA,A,3,05,12,24,18,15,20,25,13,29,23,,,1.13,0.57,0.98*1C
$GNGSA,A,3,78,79,82,67,66,81,83,,,,,,1.13,0.57,0.98*14
$GPGSV,5,1,17,05,61,073,35,11,04,027,38,12,53,019,28,13,15,134,39*7C
$GPGSV,5,2,17,15,32,167,30,18,32,256,43,20,31,043,39,22,05,134,37*7A
$GPGSV,5,3,17,23,20,207,33,24,49,203,25,25,30,342,32,29,09,322,42*75
$GPGSV,5,4,17,36,52,277,37,40,86,350,38,41,58,082,,49,32,274,*72
$GPGSV,5,5,17,50,10,089,40*4E
$GLGSV,3,1,09,66,16,096,37,67,26,152,32,68,08,199,21,77,20,152,25*67
$GLGSV,3,2,09,78,80,123,32,79,41,340,40,81,15,351,35,82,25,303,35*64
$GLGSV,3,3,09,83,12,252,37*55
$GNGLL,0419.72564,S,05539.92684,E,050056.00,A,A*69
$GNRMC,050057.00,A,0419.72564,S,05539.92684,E,0.028,,030625,,,A*79
$GNVTG,,T,,M,0.028,N,0.052,K,A*30
$GNGGA,050057.00,0419.72564,S,05539.92684,E,1,12,0.57,11.0,M,-47.6,M,,*44
$GNGSA,A,3,05,12,24,18,15,20,25,13,29,23,,,1.13,0.57,0.98*1C
$GNGSA,A,3,78,79,82,67,66,81,83,,,,,,1.13,0.57,0.98*14
$GPGSV,5,1,17,05,61,073,35,11,04,027,37,12,53,019,28,13,15,134,39*73
$GPGSV,5,2,17,15,32,167,29,18,32,256,43,20,31,043,39,22,05,134,37*72
$GPGSV,5,3,17,23,20,207,32,24,49,203,24,25,30,342,32,29,09,322,42*75
$GPGSV,5,4,17,36,52,277,37,40,86,350,39,41,58,082,,49,32,274,*73
$GPGSV,5,5,17,50,10,089,41*4F
$GLGSV,3,1,09,66,16,096,36,67,26,152,32,68,08,199,21,77,20,152,25*66
$GLGSV,3,2,09,78,80,123,32,79,41,340,40,81,15,351,35,82,25,303,35*64
$GLGSV,3,3,09,83,12,252,37*55
$GNGLL,0419.72564,S,05539.92684,E,050057.00,A,A*68
$GNRMC,050058.00,A,0419.72564,S,05539.92683,E,0.029,,030625,,,A*70
$GNVTG,,T,,M,0.029,N,0.053,K,A*30
$GNGGA,050058.00,0419.72564,S,05539.92683,E,1,12,0.57,11.0,M,-47.6,M,,*4C
$GNGSA,A,3,05,12,24,18,15,20,25,13,29,23,,,1.13,0.57,0.98*1C
$GNGSA,A,3,78,79,82,67,66,81,83,,,,,,1.13,0.57,0.98*14
$GPGSV,5,1,17,05,61,073,35,11,04,027,36,12,53,019,28,13,15,134,39*72
$GPGSV,5,2,17,15,32,167,29,18,32,256,43,20,31,043,39,22,05,134,37*72
$GPGSV,5,3,17,23,20,207,32,24,49,203,25,25,30,342,32,29,09,322,42*74
$GPGSV,5,4,17,36,52,277,37,40,86,350,38,41,58,082,,49,32,274,*72
$GPGSV,5,5,17,50,10,089,41*4F
$GLGSV,3,1,09,66,16,096,37,67,26,152,31,68,08,199,21,77,20,152,25*64
$GLGSV,3,2,09,78,80,123,32,79,41,340,40,81,15,351,35,82,25,303,35*64
$GLGSV,3,3,09,83,12,252,37*55
$GNGLL,0419.72564,S,05539.92683,E,050058.00,A,A*60
$GNRMC,050059.00,A,0419.72564,S,05539.92683,E,0.012,,030625,,,A*79
$GNVTG,,T,,M,0.012,N,0.023,K,A*3F
$GNGGA,050059.00,0419.72564,S,05539.92683,E,1,12,0.57,11.1,M,-47.6,M,,*4C
$GNGSA,A,3,05,12,24,18,15,20,25,13,29,23,,,1.13,0.57,0.98*1C
$GNGSA,A,3,78,79,82,67,66,81,83,,,,,,1.13,0.57,0.98*14
$GPGSV,5,1,17,05,61,073,35,11,04,027,37,12,53,019,28,13,15,134,39*73
$GPGSV,5,2,17,15,32,167,29,18,32,256,43,20,31,043,39,22,05,134,37*72
$GPGSV,5,3,17,23,20,207,32,24,49,203,25,25,30,342,32,29,09,322,42*74
$GPGSV,5,4,17,36,52,277,38,40,86,350,39,41,58,082,,49,32,274,*7C
$GPGSV,5,5,17,50,10,089,41*4F
$GLGSV,3,1,09,66,16,096,37,67,26,152,31,68,08,199,20,77,20,152,24*64
$GLGSV,3,2,09,78,80,123,32,79,41,340,40,81,15,351,35,82,25,303,34*65
$GLGSV,3,3,09,83,12,252,37*55
$GNGLL,0419.72564,S,05539.92683,E,050059.00,A,A*61
$GNRMC,050100.00,A,0419.72563,S,05539.92682,E,0.004,,030625,,,A*75
$GNVTG,,T,,M,0.004,N,0.006,K,A*3F
$GNGGA,050100.00,0419.72563,S,05539.92682,E,1,12,0.57,11.1,M,-47.6,M,,*47
$GNGSA,A,3,05,12,24,18,15,20,25,13,29,23,,,1.13,0.57,0.98*1C
$GNGSA,A,3,78,79,82,67,66,81,83,,,,,,1.13,0.57,0.98*14
$GPGSV,5,1,17,05,61,073,35,11,04,027,37,12,53,019,27,13,15,134,39*7C
$GPGSV,5,2,17,15,32,167,29,18,32,256,42,20,31,043,39,22,05,134,37*73
$GPGSV,5,3,17,23,20,207,32,24,49,203,26,25,30,342,32,29,09,322,41*74
$GPGSV,5,4,17,36,52,277,38,40,86,350,39,41,58,082,,49,32,274,*7C
$GPGSV,5,5,17,50,10,089,41*4F
$GLGSV,3,1,09,66,16,096,36,67,26,152,30,68,08,199,19,77,20,152,23*69
$GLGSV,3,2,09,78,80,123,32,79,41,340,39,81,15,351,36,82,25,303,34*68
$GLGSV,3,3,09,83,12,252,36*54
$GNGLL,0419.72563,S,05539.92682,E,050100.00,A,A*6A
$GNRMC,050101.00,A,0419.72563,S,05539.92682,E,0.011,,030625,,,A*70
$GNVTG,,T,,M,0.011,N,0.020,K,A*3F
$GNGGA,050101.00,0419.72563,S,05539.92682,E,1,12,0.57,11.1,M,-47.6,M,,*46
$GNGSA,A,3,05,12,24,18,15,20,25,13,29,23,,,1.13,0.57,0.98*1C
$GNGSA,A,3,78,79,82,67,66,81,83,,,,,,1.13,0.57,0.98*14
$GPGSV,5,1,17,05,61,073,35,11,04,027,38,12,53,019,27,13,15,134,39*73
$GPGSV,5,2,17,15,32,167,29,18,32,256,42,20,31,043,38,22,05,134,37*72
$GPGSV,5,3,17,23,20,207,32,24,49,203,26,25,30,342,31,29,09,322,41*77
$GPGSV,5,4,17,36,52,277,37,40,86,350,38,41,58,082,,49,32,274,*72
$GPGSV,5,5,17,50,10,089,41*4F
$GLGSV,3,1,09,66,16,096,36,67,26,152,30,68,08,199,18,77,20,152,23*68
$GLGSV,3,2,09,78,80,123,32,79,41,340,39,81,15,351,36,82,25,303,33*6F
$GLGSV,3,3,09,83,12,252,36*54
$GNGLL,0419.72563,S,05539.92682,E,050101.00,A,A*6B
$GNRMC,050102.00,A,0419.72562,S,05539.92682,E,0.018,,030625,,,A*7B
$GNVTG,,T,,M,0.018,N,0.033,K,A*34
$GNGGA,050102.00,0419.72562,S,05539.92682,E,1,12,0.57,11.1,M,-47.6,M,,*44
$GNGSA,A,3,05,12,24,18,15,20,25,13,29,23,,,1.13,0.57,0.98*1C
$GNGSA,A,3,78,79,82,67,66,81,83,,,,,,1.13,0.57,0.98*14
$GPGSV,5,1,17,05,61,073,35,11,04,027,39,12,53,019,26,13,15,134,39*73
$GPGSV,5,2,17,15,32,167,29,18,32,256,43,20,31,043,38,22,05,134,37*73
$GPGSV,5,3,17,23,20,207,32,24,49,203,27,25,30,342,32,29,09,322,41*75
$GPGSV,5,4,17,36,52,277,37,40,86,350,39,41,58,082,,49,32,274,*73
$GPGSV,5,5,17,50,10,089,41*4F
$GLGSV,3,1,09,66,16,096,36,67,26,152,30,68,08,199,19,77,20,152,23*69
$GLGSV,3,2,09,78,80,123,32,79,41,340,39,81,15,351,36,82,25,303,34*68
$GLGSV,3,3,09,83,12,252,36*54
$GNGLL,0419.72562,S,05539.92682,E,050102.00,A,A*69
$GNRMC,050103.00,A,0419.72560,S,05539.92683,E,0.031,,030625,,,A*72
$GNVTG,,T,,M,0.031,N,0.058,K,A*32
$GNGGA,050103.00,0419.72560,S,05539.92683,E,1,12,0.57,11.1,M,-47.6,M,,*46
$GNGSA,A,3,05,12,24,18,15,20,25,13,29,23,,,1.13,0.57,0.98*1C
$GNGSA,A,3,78,79,82,67,66,81,83,,,,,,1.13,0.57,0.98*14
$GPGSV,5,1,17,05,61,073,35,11,04,027,39,12,53,019,26,13,15,134,39*73
$GPGSV,5,2,17,15,32,167,29,18,32,256,43,20,31,043,39,22,05,134,37*72
$GPGSV,5,3,17,23,20,207,32,24,49,203,27,25,30,342,32,29,09,322,42*76
$GPGSV,5,4,17,36,52,277,37,40,86,350,39,41,58,082,,49,32,274,*73
$GPGSV,5,5,17,50,10,089,41*4F
$GLGSV,3,1,09,66,16,096,37,67,26,152,29,68,08,199,19,77,20,152,23*60
$GLGSV,3,2,09,78,80,123,32,79,41,340,39,81,15,351,36,82,25,303,34*68
$GLGSV,3,3,09,83,12,252,36*54
$GNGLL,0419.72560,S,05539.92683,E,050103.00,A,A*6B
$GNRMC,050104.00,A,0419.72558,S,05539.92683,E,0.018,,030625,,,A*75
$GNVTG,,T,,M,0.018,N,0.034,K,A*33
$GNGGA,050104.00,0419.72558,S,05539.92683,E,1,12,0.57,11.1,M,-47.6,M,,*4A
$GNGSA,A,3,05,12,24,18,15,20,25,13,29,23,,,1.13,0.57,0.98*1C
$GNGSA,A,3,78,79,82,67,66,81,83,,,,,,1.13,0.57,0.98*14
$GPGSV,5,1,17,05,61,073,35,11,04,027,38,12,53,019,27,13,15,134,38*72
$GPGSV,5,2,17,15,32,167,29,18,32,256,43,20,31,043,39,22,05,134,37*72
$GPGSV,5,3,17,23,20,207,32,24,49,203,27,25,30,342,32,29,09,322,41*75
$GPGSV,5,4,17,36,52,277,37,40,86,350,39,41,58,082,,49,32,274,*73
$GPGSV,5,5,17,50,10,089,41*4F
$GLGSV,3,1,09,66,16,096,36,67,26,152,30,68,08,199,19,77,20,152,23*69
$GLGSV,3,2,09,78,80,123,31,79,41,340,39,81,15,351,36,82,25,303,34*6B
$GLGSV,3,3,09,83,12,252,36*54
$GNGLL,0419.72558,S,05539.92683,E,050104.00,A,A*67
$GNRMC,050105.00,A,0419.72557,S,05539.92682,E,0.022,,030625,,,A*73
$GNVTG,,T,,M,0.022,N,0.042,K,A*3B
$GNGGA,050105.00,0419.72557,S,05539.92682,E,1,12,0.57,11.1,M,-47.6,M,,*45
$GNGSA,A,3,05,12,24,18,15,20,25,13,29,23,,,1.13,0.57,0.98*1C
$GNGSA,A,3,78,79,82,67,66,81,83,,,,,,1.13,0.57,0.98*14
$GPGSV,5,1,17,05,61,073,35,11,04,027,38,12,53,019,28,13,15,134,39*7C
$GPGSV,5,2,17,15,32,167,29,18,32,256,42,20,31,043,39,22,05,134,37*73
$GPGSV,5,3,17,23,20,207,32,24,49,203,28,25,30,342,32,29,09,322,41*7A
$GPGSV,5,4,17,36,52,277,37,40,86,350,39,41,58,082,,49,32,274,*73
$GPGSV,5,5,17,50,10,089,40*4E
$GLGSV,3,1,09,66,16,096,36,67,26,152,30,68,08,199,19,77,20,152,23*69
$GLGSV,3,2,09,78,80,123,32,79,41,340,40,81,15,351,36,82,25,303,34*66
$GLGSV,3,3,09,83,12,252,36*54
$GNGLL,0419.72557,S,05539.92682,E,050105.00,A,A*68
$GNRMC,050106.00,A,0419.72557,S,05539.92682,E,0.014,,030625,,,A*75
$GNVTG,,T,,M,0.014,N,0.025,K,A*3F
$GNGGA,050106.00,0419.72557,S,05539.92682,E,1,12,0.57,11.1,M,-47.6,M,,*46
$GNGSA,A,3,05,12,24,18,15,20,25,13,29,23,,,1.13,0.57,0.98*1C
$GNGSA,A,3,78,79,82,67,66,81,83,,,,,,1.13,0.57,0.98*14
$GPGSV,5,1,17,05,61,073,34,11,04,027,37,12,53,019,29,13,15,134,39*73
$GPGSV,5,2,17,15,32,167,30,18,32,256,42,20,31,043,39,22,05,134,37*7B
$GPGSV,5,3,17,23,20,207,32,24,49,203,28,25,30,342,31,29,09,322,42*7A
$GPGSV,5,4,17,36,52,277,38,40,86,350,39,41,58,082,,49,32,274,*7C
$GPGSV,5,5,17,50,10,089,40*4E
$GLGSV,3,1,09,66,16,096,37,67,26,152,30,68,08,199,17,77,20,152,23*66
$GLGSV,3,2,09,78,80,123,32,79,41,340,40,81,15,351,36,82,25,303,34*66
$GLGSV,3,3,09,83,12,252,36*54
$GNGLL,0419.72557,S,05539.92682,E,050106.00,A,A*6B
$GNRMC,050107.00,A,0419.72557,S,05539.92682,E,0.031,,030625,,,A*73
$GNVTG,,T,,M,0.031,N,0.057,K,A*3D
$GNGGA,050107.00,0419.72557,S,05539.92682,E,1,12,0.57,11.1,M,-47.6,M,,*47
$GNGSA,A,3,05,12,24,18,15,20,25,13,29,23,,,1.13,0.57,0.98*1C
$GNGSA,A,3,78,79,82,67,66,81,83,,,,,,1.13,0.57,0.98*14
$GPGSV,5,1,17,05,61,073,35,11,04,027,38,12,53,019,29,13,15,134,39*7D
$GPGSV,5,2,17,15,32,167,30,18,32,256,42,20,31,043,38,22,05,134,36*7B
$GPGSV,5,3,17,23,20,207,32,24,49,203,27,25,30,342,31,29,09,322,42*75
$GPGSV,5,4,17,36,52,277,37,40,86,350,39,41,58,082,,49,32,274,*73
$GPGSV,5,5,17,50,10,089,40*4E
$GLGSV,3,1,09,66,16,096,37,67,26,152,29,68,08,199,14,77,20,152,22*6C
$GLGSV,3,2,09,78,80,123,32,79,41,340,40,81,15,351,36,82,25,303,35*67
$GLGSV,3,3,09,83,12,252,36*54
$GNGLL,0419.72557,S,05539.92682,E,050107.00,A,A*6A
$GNRMC,050108.00,A,0419.72556,S,05539.92682,E,0.017,,030625,,,A*79
$GNVTG,,T,,M,0.017,N,0.031,K,A*39
$GNGGA,050108.00,0419.72556,S,05539.92682,E,1,12,0.57,11.1,M,-47.6,M,,*49
$GNGSA,A,3,05,12,24,18,15,20,25,13,29,23,,,1.13,0.57,0.98*1C
$GNGSA,A,3,78,79,82,67,66,81,83,,,,,,1.13,0.57,0.98*14
$GPGSV,5,1,17,05,61,073,35,11,04,027,38,12,53,019,30,13,15,134,39*75
$GPGSV,5,2,17,15,32,167,31,18,32,256,42,20,31,043,39,22,05,134,35*78
$GPGSV,5,3,17,23,20,207,32,24,49,203,28,25,30,342,31,29,09,322,42*7A
$GPGSV,5,4,17,36,52,277,38,40,86,350,39,41,58,082,,49,32,274,*7C
$GPGSV,5,5,17,50,10,089,40*4E
$GLGSV,3,1,09,66,16,096,37,67,26,152,29,68,08,199,15,77,20,152,22*6D
$GLGSV,3,2,09,78,80,123,32,79,41,340,40,81,15,351,36,82,25,303,35*67
$GLGSV,3,3,09,83,12,252,36*54
$GNGLL,0419.72556,S,05539.92682,E,050108.00,A,A*64
$GNRMC,050109.00,A,0419.72555,S,05539.92682,E,0.052,,030625,,,A*7A
$GNVTG,,T,,M,0.052,N,0.097,K,A*34
$GNGGA,050109.00,0419.72555,S,05539.92682,E,1,12,0.57,11.1,M,-47.6,M,,*4B
$GNGSA,A,3,05,12,24,18,15,20,25,13,29,23,,,1.13,0.57,0.98*1C
$GNGSA,A,3,78,79,82,67,66,81,83,,,,,,1.13,0.57,0.98*14
$GPGSV,5,1,17,05,61,073,36,11,04,027,38,12,53,019,29,13,15,134,39*7E
$GPGSV,5,2,17,15,32,167,30,18,32,256,40,20,31,043,38,22,05,134,34*7B
$GPGSV,5,3,17,23,20,207,31,24,49,203,26,25,30,342,36,29,09,322,42*70
$GPGSV,5,4,17,36,52,277,33,40,86,350,36,41,58,082,,49,32,274,*78
$GPGSV,5,5,17,50,10,089,39*40
$GLGSV,3,1,09,66,16,096,37,67,26,152,29,68,08,199,16,77,20,152,21*6D
$GLGSV,3,2,09,78,80,123,31,79,41,340,40,81,15,351,39,82,25,303,34*6A
$GLGSV,3,3,09,83,12,252,32*50
$GNGLL,0419.72555,S,05539.92682,E,050109.00,A,A*66
