b04xG;
P#!Z-.04b& "5{4&Ta:R 
Ym
AV?B+>?CLMV.)W0nX,WbxGZ*$GNRMC,122929.00,A,0419.79397,S,05539.76915,E,0.506,,220525,,,A*78
$GNVTG,,T,,M,0.506,N,0.938,K,A*3C
$GNGNS,122929.00,0419.79397,S,05539.76915,E,AA,15,0.72,21.7,-47.6,,*62
$GNGGA,122929.00,0419.79397,S,05539.76915,E,1,12,0.72,21.7,M,-47.6,M,,*4F
$GNGSA,A,3,32,28,27,18,26,31,16,10,08,,,,1.64,0.72,1.47*17
$GNGSA,A,3,66,87,65,88,67,86,,,,,,,1.64,0.72,1.47*1B
$GPGSV,4,1,16,08,11,315,14,10,15,007,20,16,25,236,25,18,33,090,20*73
$GPGSV,4,2,16,23,02,045,,26,28,205,19,27,46,304,21,28,52,144,25*73
$GPGSV,4,3,16,29,09,148,,31,38,183,26,32,53,000,34,36,52,277,*71
$GPGSV,4,4,16,40,84,353,38,41,58,082,,49,32,274,,50,10,089,*72
$GLGSV,2,1,08,65,14,005,09,66,43,318,17,67,30,248,17,76,13,136,*62
$GLGSV,2,2,08,77,16,181,,86,12,141,11,87,48,110,14,88,44,009,20*66
$GNGLL,0419.79397,S,05539.76915,E,122929.00,A,A*60
$GNGRS,122929.00,1,-1.1,1.0,9.9,-1.2,-5.4,7.4,-2.2,-9.4,9.4,,,*50
$GNGRS,122929.00,1,-22.4,12.4,162,-1.7,-5.3,105,,,,,,*7C
$GNGST,122929.00,76,,,,5.2,7.2,18*6E
$GNZDA,122929.00,22,05,2025,00,00*7B
$GNGBS,122929.00,5.2,7.2,17.6,,,,*6E
$GNTXT,01,01,01,More than 100 frame errors, UART RX was disabled*70
b04`G;
,!Z-.04& #5{4(Ta:R 
Ym,
AB+>CLMV&W0nkX,xFb`GB$GNRMC,122930.00,A,0419.79408,S,05539.76906,E,0.398,,220525,,,A*72
$GNVTG,,T,,M,0.398,N,0.737,K,A*3C
$GNGNS,122930.00,0419.79408,S,05539.76906,E,AA,13,0.76,22.2,-47.6,,*6D
$GNGGA,122930.00,0419.79408,S,05539.76906,E,1,12,0.76,22.2,M,-47.6,M,,*46
$GNGSA,A,3,32,28,27,18,31,16,10,08,,,,,1.69,0.76,1.51*1D
$GNGSA,A,3,66,87,65,88,67,,,,,,,,1.69,0.76,1.51*1B
$GPGSV,4,1,16,08,11,315,12,10,15,007,20,16,25,236,25,18,33,090,21*74
$GPGSV,4,2,16,23,02,045,,26,28,205,,27,46,304,23,28,52,144,25*79
$GPGSV,4,3,16,29,09,148,,31,38,183,26,32,53,000,35,36,52,277,*70
$GPGSV,4,4,16,40,84,353,40,41,58,082,,49,32,274,,50,10,089,*7D
$GLGSV,2,1,08,65,14,005,07,66,43,318,19,67,30,248,17,76,13,136,*62
$GLGSV,2,2,08,77,16,181,,86,12,141,07,87,48,110,14,88,44,009,18*6A
$GNGLL,0419.79408,S,05539.76906,E,122930.00,A,A*6B
$GNGRS,122930.00,1,-0.8,2.0,9.9,0.1,7.3,-2.1,-10.0,10.3,,,,*79
$GNGRS,122930.00,1,-20.7,3.6,14.5,-3.9,-4.9,,,,,,,*5F
$GNGST,122930.00,93185,,,,5.1,7.2,17*5D
$GNZDA,122930.00,22,05,2025,00,00*73
$GNGBS,122930.00,5.1,7.2,17.5,,,,*66
$GNTXT,01,01,01,More than 100 frame errors, UART RX was disabled*70
b04HG;c
l!Z-.0m4& "5{4&Ta:R 
Ym
AB+>{CLMVW0n@X,bHG*$GNRMC,122931.00,A,0419.79414,S,05539.76902,E,0.298,,220525,,,A*7B
$GNVTG,,T,,M,0.298,N,0.552,K,A*3C
$GNGNS,122931.00,0419.79414,S,05539.76902,E,AA,13,0.76,22.5,-47.6,,*62
$GNGGA,122931.00,0419.79414,S,05539.76902,E,1,12,0.76,22.5,M,-47.6,M,,*49
$GNGSA,A,3,32,28,27,18,31,16,10,08,,,,,1.69,0.76,1.51*1D
$GNGSA,A,3,66,87,65,88,67,,,,,,,,1.69,0.76,1.51*1B
$GPGSV,4,1,16,08,11,315,12,10,15,007,19,16,25,236,24,18,33,090,22*7C
$GPGSV,4,2,16,23,02,045,,26,28,205,20,27,46,304,25,28,52,144,26*7E
$GPGSV,4,3,16,29,09,148,,31,38,183,26,32,53,000,34,36,52,277,*71
$GPGSV,4,4,16,40,84,353,38,41,58,082,,49,32,274,,50,10,089,*72
$GLGSV,2,1,08,65,14,005,15,66,43,318,18,67,30,248,19,76,13,136,*6E
$GLGSV,2,2,08,77,16,181,,86,12,141,07,87,48,110,12,88,44,009,18*6C
$GNGLL,0419.79414,S,05539.76902,E,122931.00,A,A*63
$GNGRS,122931.00,1,-0.5,2.2,6.2,1.9,5.2,-1.5,-8.9,11.2,,,,*4E
$GNGRS,122931.00,1,-19.2,3.2,14.6,-1.1,-5.4,,,,,,,*50
$GNGST,122931.00,139777,,,,5.1,7.2,17*66
$GNZDA,122931.00,22,05,2025,00,00*72
$GNGBS,122931.00,5.1,7.2,17.3,,,,*61
$GNTXT,01,01,01,More than 100 frame errors, UART RX was disabled*70
b040G;3
!Z6-.04&< "5{4&Ta:R 
Ym
AB+>CLMVW0nX,>m[b0Gb$GNRMC,122932.00,A,0419.79424,S,05539.76902,E,0.157,,220525,,,A*7B
$GNVTG,,T,,M,0.157,N,0.290,K,A*35
$GNGNS,122932.00,0419.79424,S,05539.76902,E,AA,13,0.76,22.9,-47.6,,*6E
$GNGGA,122932.00,0419.79424,S,05539.76902,E,1,12,0.76,22.9,M,-47.6,M,,*45
$GNGSA,A,3,32,28,27,18,31,16,10,08,,,,,1.69,0.76,1.51*1D
$GNGSA,A,3,66,87,65,88,67,,,,,,,,1.69,0.76,1.51*1B
$GPGSV,4,1,16,08,11,315,13,10,15,007,19,16,25,236,22,18,33,090,22*7B
$GPGSV,4,2,16,23,02,045,,26,28,205,21,27,46,304,27,28,52,144,27*7C
$GPGSV,4,3,16,29,09,148,,31,38,183,27,32,53,000,34,36,52,277,*70
$GPGSV,4,4,16,40,84,353,38,41,58,082,,49,32,274,,50,10,089,*72
$GLGSV,2,1,08,65,14,005,14,66,43,318,17,67,30,248,19,76,13,136,*60
$GLGSV,2,2,08,77,16,181,,86,12,141,07,87,48,110,16,88,44,009,20*63
$GNGLL,0419.79424,S,05539.76902,E,122932.00,A,A*63
$GNGRS,122932.00,1,-0.1,1.6,2.2,3.1,5.7,1.3,-10.5,10.7,,,,*5F
$GNGRS,122932.00,1,-16.4,-5.9,2.2,-1.9,-6.3,,,,,,,*45
$GNGST,122932.00,60,,,,5.0,7.1,17*6D
$GNZDA,122932.00,22,05,2025,00,00*71
$GNGBS,122932.00,5.0,7.1,17.2,,,,*61
$GNTXT,01,01,01,More than 100 frame errors, UART RX was disabled*70
b04G;s
!Z-.04& !5{4&Ta:R 
Ym
AB+>{CwLMV2W0ncX,]hbGx$GNRMC,122933.00,A,0419.79431,S,05539.76917,E,0.223,,220525,,,A*7A
$GNVTG,,T,,M,0.223,N,0.413,K,A*38
$GNGNS,122933.00,0419.79431,S,05539.76917,E,AA,14,0.72,23.2,-47.6,,*66
$GNGGA,122933.00,0419.79431,S,05539.76917,E,1,12,0.72,23.2,M,-47.6,M,,*4A
$GNGSA,A,3,32,28,27,18,26,31,16,10,08,,,,1.64,0.72,1.47*17
$GNGSA,A,3,66,87,65,88,67,,,,,,,,1.64,0.72,1.47*15
$GPGSV,4,1,16,08,11,315,13,10,15,007,18,16,25,236,22,18,33,090,20*78
$GPGSV,4,2,16,23,02,045,,26,28,205,20,27,46,304,26,28,52,144,26*7D
$GPGSV,4,3,16,29,09,148,,31,38,183,27,32,53,000,33,36,52,277,*77
$GPGSV,4,4,16,40,84,353,38,41,58,082,,49,32,274,,50,10,089,*72
$GLGSV,2,1,08,65,14,005,12,66,43,318,14,67,30,248,18,76,13,136,*64
$GLGSV,2,2,08,77,16,181,,86,12,141,07,87,48,110,22,88,44,009,21*65
$GNGLL,0419.79431,S,05539.76917,E,122933.00,A,A*62
$GNGRS,122933.00,1,-0.1,1.9,-2.7,3.9,-5.3,6.6,1.9,-10.7,11.4,,,*7C
$GNGRS,122933.00,1,-16.7,3.5,14.4,-1.6,-6.5,,,,,,,*58
$GNGST,122933.00,170626,,,,5.0,7.0,17*6F
$GNZDA,122933.00,22,05,2025,00,00*70
$GNGBS,122933.00,5.0,7.0,17.0,,,,*63
$GNTXT,01,01,01,More than 100 frame errors, UART RX was disabled*70
b04G
;
 t!Z-.04<& "5{4'Ta:R 
Ym
AB+>C6LMV6W0nX,xtSbGP/$GNRMC,122934.00,A,0419.79440,S,05539.76923,E,0.068,,220525,,,A*71
$GNVTG,,T,,M,0.068,N,0.125,K,A*35
$GNGNS,122934.00,0419.79440,S,05539.76923,E,AA,14,0.72,23.6,-47.6,,*64
$GNGGA,122934.00,0419.79440,S,05539.76923,E,1,12,0.72,23.6,M,-47.6,M,,*48
$GNGSA,A,3,32,28,27,18,26,31,16,10,08,,,,1.64,0.72,1.47*17
$GNGSA,A,3,66,87,65,88,67,,,,,,,,1.64,0.72,1.47*15
$GPGSV,4,1,16,08,11,315,10,10,15,007,22,16,25,236,22,18,33,090,22*70
$GPGSV,4,2,16,23,02,045,,26,28,205,18,27,46,304,23,28,52,144,25*70
$GPGSV,4,3,16,29,09,148,,31,38,183,27,32,53,000,34,36,52,277,*70
$GPGSV,4,4,16,40,84,353,39,41,58,082,,49,32,274,,50,10,089,*73
$GLGSV,2,1,08,65,14,005,11,66,43,318,15,67,30,248,19,76,13,136,*67
$GLGSV,2,2,08,77,16,181,,86,12,141,07,87,48,110,20,88,44,009,20*66
$GNGLL,0419.79440,S,05539.76923,E,122934.00,A,A*64
$GNGRS,122934.00,1,0.2,0.6,-3.0,4.1,-10.1,6.8,1.2,-12.5,11.8,,,*6D
$GNGRS,122934.00,1,-20.2,2.8,14.4,-3.9,-7.1,,,,,,,*5B
$GNGST,122934.00,3179277,,,,4.9,7.0,17*5A
$GNZDA,122934.00,22,05,2025,00,00*77
$GNGBS,122934.00,4.9,7.0,16.9,,,,*64
$GNTXT,01,01,01,More than 100 frame errors, UART RX was disabled*70
b04G;
!Zj-%.04n& !5{4'Ta:R 
Ym
AB+>ClLMVW0nX,bG'$GNRMC,122935.00,A,0419.79448,S,05539.76938,E,0.177,,220525,,,A*7D
$GNVTG,,T,,M,0.177,N,0.328,K,A*35
$GNGNS,122935.00,0419.79448,S,05539.76938,E,AA,15,0.72,24.2,-47.6,,*65
$GNGGA,122935.00,0419.79448,S,05539.76938,E,1,12,0.72,24.2,M,-47.6,M,,*48
$GNGSA,A,3,32,28,27,18,26,31,16,10,08,,,,1.64,0.72,1.47*17
$GNGSA,A,3,66,87,65,88,67,86,,,,,,,1.64,0.72,1.47*1B
$GPGSV,4,1,16,08,11,315,11,10,15,007,23,16,25,236,24,18,33,090,23*77
$GPGSV,4,2,16,23,02,045,,26,28,205,19,27,46,304,20,28,52,144,24*73
$GPGSV,4,3,16,29,09,148,05,31,38,183,28,32,53,000,33,36,52,277,*7D
$GPGSV,4,4,16,40,84,353,39,41,58,082,,49,32,274,,50,10,089,*73
$GLGSV,2,1,08,65,14,005,08,66,43,318,18,67,30,248,21,76,13,136,*69
$GLGSV,2,2,08,77,16,181,,86,12,141,11,87,48,110,20,88,44,009,20*61
$GNGLL,0419.79448,S,05539.76938,E,122935.00,A,A*67
$GNGRS,122935.00,1,0.2,1.1,-0.9,6.2,-12.4,5.3,2.8,-12.5,9.1,,,*57
$GNGRS,122935.00,1,-21.1,4.0,1.7,-5.3,-9.2,76.9,,,,,,*76
$GNGST,122935.00,62,,,,4.8,7.0,17*60
$GNZDA,122935.00,22,05,2025,00,00*76
$GNGBS,122935.00,4.8,7.0,16.8,,,,*65
$GNTXT,01,01,01,More than 100 frame errors, UART RX was disabled*70
b04G;
!Z-.0W4& $5I{4(Ta:R 
Ym
A
B+>C{LMV#W0nX,<bG$GNRMC,122936.00,A,0419.79458,S,05539.76961,E,0.361,,220525,,,A*76
$GNVTG,,T,,M,0.361,N,0.668,K,A*31
$GNGNS,122936.00,0419.79458,S,05539.76961,E,AA,15,0.65,24.6,-47.6,,*69
$GNGGA,122936.00,0419.79458,S,05539.76961,E,1,12,0.65,24.6,M,-47.6,M,,*44
$GNGSA,A,3,32,28,27,18,26,31,16,10,08,,,,1.39,0.65,1.23*1B
$GNGSA,A,3,66,87,65,88,67,86,,,,,,,1.39,0.65,1.23*17
$GPGSV,4,1,16,08,11,315,08,10,15,007,23,16,25,236,26,18,33,090,25*7B
$GPGSV,4,2,16,23,02,045,,26,28,205,21,27,46,304,19,28,52,144,22*74
$GPGSV,4,3,16,29,09,148,06,31,38,183,29,32,53,000,36,36,52,277,*7A
$GPGSV,4,4,16,40,84,353,40,41,58,082,,49,32,274,,50,10,089,*7D
$GLGSV,2,1,08,65,14,005,10,66,43,318,17,67,30,248,23,76,13,136,*6D
$GLGSV,2,2,08,77,16,181,,86,12,141,11,87,48,110,19,88,44,009,18*60
$GNGLL,0419.79458,S,05539.76961,E,122936.00,A,A*69
$GNGRS,122936.00,1,0.7,0.2,-1.7,4.5,-10.0,7.6,2.5,-13.0,9.5,,,*55
$GNGRS,122936.00,1,-20.3,4.5,14.5,-4.5,-11.6,8.0,,,,,,*4F
$GNGST,122936.00,3075467,,,,4.8,7.0,17*53
$GNZDA,122936.00,22,05,2025,00,00*75
$GNGBS,122936.00,4.8,7.0,16.7,,,,*69
$GNTXT,01,01,01,More than 100 frame errors, UART RX was disabled*70
b04H;
B!Z^-.0%47&o "5x{4%Ta:R 
Ym
AB+>C1LMVW0nwX,>bHf$GNRMC,122937.00,A,0419.79466,S,05539.76980,E,0.339,,220525,,,A*78
$GNVTG,,T,,M,0.339,N,0.627,K,A*37
$GNGNS,122937.00,0419.79466,S,05539.76980,E,AA,15,0.65,25.0,-47.6,,*6D
$GNGGA,122937.00,0419.79466,S,05539.76980,E,1,12,0.65,25.0,M,-47.6,M,,*40
$GNGSA,A,3,32,28,27,18,26,31,16,10,08,,,,1.39,0.65,1.23*1B
$GNGSA,A,3,66,87,65,88,67,86,,,,,,,1.39,0.65,1.23*17
$GPGSV,4,1,16,08,11,315,09,10,15,007,22,16,25,236,26,18,33,090,24*7A
$GPGSV,4,2,16,23,02,045,,26,28,205,22,27,46,304,22,28,52,144,21*7C
$GPGSV,4,3,16,29,09,148,07,31,38,183,28,32,53,000,34,36,52,277,*78
$GPGSV,4,4,16,40,84,353,37,41,58,082,,49,32,274,,50,10,089,*7D
$GLGSV,2,1,08,65,14,005,11,66,43,318,16,67,30,248,21,76,13,136,*6F
$GLGSV,2,2,08,77,16,181,,86,12,141,12,87,48,110,18,88,44,009,18*62
$GNGLL,0419.79466,S,05539.76980,E,122937.00,A,A*6A
$GNGRS,122937.00,1,1.2,0.5,-2.2,3.5,-13.1,6.2,1.9,-12.1,9.6,,,*5D
$GNGRS,122937.00,1,-20.8,6.3,14.7,-3.7,-9.8,8.0,,,,,,*71
$GNGST,122937.00,4344409,,,,4.7,7.0,17*53
$GNZDA,122937.00,22,05,2025,00,00*74
$GNGBS,122937.00,4.7,7.0,16.6,,,,*66
$GNTXT,01,01,01,More than 100 frame errors, UART RX was disabled*70
b04H;
Q![-.04&A !5{4&Ta:R 
Ym
A[B+>CLMVtW0nX,OGbH$GNRMC,122938.00,A,0419.79470,S,05539.76990,E,0.219,,220525,,,A*72
$GNVTG,,T,,M,0.219,N,0.406,K,A*35
$GNGNS,122938.00,0419.79470,S,05539.76990,E,AA,15,0.70,25.6,-47.6,,*66
$GNGGA,122938.00,0419.79470,S,05539.76990,E,1,12,0.70,25.6,M,-47.6,M,,*4B
$GNGSA,A,3,32,28,27,18,26,31,16,10,08,,,,1.53,0.70,1.36*17
$GNGSA,A,3,66,87,65,88,67,86,,,,,,,1.53,0.70,1.36*1B
$GPGSV,4,1,16,08,11,315,11,10,15,007,22,16,25,236,26,18,33,091,23*75
$GPGSV,4,2,16,23,02,045,,26,28,205,20,27,46,304,25,28,52,144,23*7B
$GPGSV,4,3,16,29,09,148,07,31,38,183,27,32,53,000,33,36,52,277,*70
$GPGSV,4,4,16,40,84,353,38,41,58,082,,49,32,274,,50,10,089,*72
$GLGSV,2,1,08,65,14,005,12,66,43,318,16,67,30,248,20,76,13,136,*6D
$GLGSV,2,2,08,77,16,181,,86,12,141,12,87,48,110,17,88,44,009,18*6D
$GNGLL,0419.79470,S,05539.76990,E,122938.00,A,A*63
$GNGRS,122938.00,1,1.4,1.9,-5.3,4.5,-13.6,3.2,1.3,-12.0,-137,,,*68
$GNGRS,122938.00,1,-21.4,4.5,3.5,-6.0,-11.2,-14.2,,,,,,*60
$GNGST,122938.00,66,,,,4.7,7.0,16*67
$GNZDA,122938.00,22,05,2025,00,00*7B
$GNGBS,122938.00,4.7,7.0,16.5,,,,*6A
$GNTXT,01,01,01,More than 100 frame errors, UART RX was disabled*70
b04H;+

C![-.04&^ !5{4$Ta:R 
Ym
AB+>CcLMV4W0nX,CBbHj6$GNRMC,122939.00,A,0419.79476,S,05539.76999,E,0.051,,220525,,,A*72
$GNVTG,,T,,M,0.051,N,0.094,K,A*34
$GNGNS,122939.00,0419.79476,S,05539.76999,E,AA,15,0.70,26.0,-47.6,,*6D
$GNGGA,122939.00,0419.79476,S,05539.76999,E,1,12,0.70,26.0,M,-47.6,M,,*40
$GNGSA,A,3,32,28,27,18,26,31,16,29,10,08,,,1.53,0.70,1.36*1C
$GNGSA,A,3,87,65,88,67,86,,,,,,,,1.53,0.70,1.36*1B
$GPGSV,4,1,16,08,11,315,08,10,15,007,21,16,25,236,26,18,33,091,22*7F
$GPGSV,4,2,16,23,02,045,,26,28,205,18,27,46,304,25,28,52,144,23*70
$GPGSV,4,3,16,29,09,148,14,31,38,183,25,32,53,000,33,36,52,277,*70
$GPGSV,4,4,16,40,84,353,36,41,58,082,,49,32,274,,50,10,089,*7C
$GLGSV,2,1,08,65,14,005,09,66,43,318,,67,30,248,20,76,13,136,*60
$GLGSV,2,2,08,77,16,181,,86,12,141,12,87,48,110,21,88,44,009,18*68
$GNGLL,0419.79476,S,05539.76999,E,122939.00,A,A*6D
$GNGRS,122939.00,1,1.8,4.1,-5.1,6.9,-16.2,6.1,1.5,51.2,-12.1,26.0,,*7E
$GNGRS,122939.00,1,3.9,14.6,-6.1,-11.8,8.2,,,,,,,*70
$GNGST,122939.00,3301711,,,,4.7,7.0,16*50
$GNZDA,122939.00,22,05,2025,00,00*7A
$GNGBS,122939.00,4.7,7.0,16.4,,,,*6A
$GNTXT,01,01,01,More than 100 frame errors, UART RX was disabled*70
b04pH;T

93![-.0[41& !5{4%Ta:R 
Ym
AB+>C%LMV&W0nX,/bpHR`$GNRMC,122940.00,A,0419.79475,S,05539.77027,E,0.375,,220525,,,A*77
$GNVTG,,T,,M,0.375,N,0.694,K,A*37
$GNGNS,122940.00,0419.79475,S,05539.77027,E,AA,15,0.70,26.5,-47.6,,*68
$GNGGA,122940.00,0419.79475,S,05539.77027,E,1,12,0.70,26.5,M,-47.6,M,,*45
$GNGSA,A,3,32,28,27,18,26,31,16,29,10,08,,,1.53,0.70,1.36*1C
$GNGSA,A,3,87,65,88,67,86,,,,,,,,1.53,0.70,1.36*1B
$GPGSV,4,1,16,08,11,315,07,10,15,007,19,16,25,236,25,18,33,091,21*7B
$GPGSV,4,2,16,23,02,045,,26,28,205,18,27,46,304,24,28,52,144,23*71
$GPGSV,4,3,16,29,09,148,07,31,38,183,25,32,53,000,33,36,52,277,*72
$GPGSV,4,4,16,40,84,353,37,41,58,082,,49,32,274,,50,10,089,*7D
$GLGSV,2,1,08,65,14,005,08,66,43,318,,67,30,248,20,76,13,136,*61
$GLGSV,2,2,08,77,16,181,,86,12,141,12,87,48,110,23,88,44,009,16*64
$GNGLL,0419.79475,S,05539.77027,E,122940.00,A,A*6D
$GNGRS,122940.00,1,2.2,3.1,-4.2,7.5,-15.6,2.4,0.5,51.0,-12.2,26.4,,*73
$GNGRS,122940.00,1,2.7,14.8,-7.2,-12.4,8.1,,,,,,,*71
$GNGST,122940.00,3304926,,,,4.8,7.0,16*5E
$GNZDA,122940.00,22,05,2025,00,00*74
$GNGBS,122940.00,4.8,7.0,16.4,,,,*6B
$GNTXT,01,01,01,More than 100 frame errors, UART RX was disabled*70
b04XH
;&
!![-f.0e4A
& #5{4&Ta:R 
Ym
A
iB+>CELMVW0nzX,0xbXH:8$GNRMC,122941.00,A,0419.79469,S,05539.77050,E,0.435,,220525,,,A*78
$GNVTG,,T,,M,0.435,N,0.806,K,A*31
$GNGNS,122941.00,0419.79469,S,05539.77050,E,AA,15,0.67,26.9,-47.6,,*6E
$GNGGA,122941.00,0419.79469,S,05539.77050,E,1,12,0.67,26.9,M,-47.6,M,,*43
$GNGSA,A,3,32,28,27,18,26,31,16,29,10,08,,,1.40,0.67,1.23*1C
$GNGSA,A,3,87,65,88,67,86,,,,,,,,1.40,0.67,1.23*1B
$GPGSV,4,1,16,08,11,315,10,10,15,007,18,16,25,236,25,18,33,091,21*7C
$GPGSV,4,2,16,23,02,045,,26,28,205,17,27,46,304,24,28,52,144,23*7E
$GPGSV,4,3,16,29,09,148,10,31,38,183,26,32,53,000,35,36,52,277,*71
$GPGSV,4,4,16,40,84,353,38,41,58,082,,49,32,274,,50,10,089,*72
$GLGSV,2,1,08,65,14,005,10,66,43,318,,67,30,248,20,76,13,136,*68
$GLGSV,2,2,08,77,16,181,,86,12,141,13,87,48,110,23,88,44,009,14*67
$GNGLL,0419.79469,S,05539.77050,E,122941.00,A,A*61
$GNGRS,122941.00,1,2.2,3.2,-4.1,7.7,-14.3,4.0,0.3,-15.2,-13.0,99.2,,*5E
$GNGRS,122941.00,1,3.8,13.9,-2.1,-12.1,-13.1,,,,,,,*6C
$GNGST,122941.00,72,,,,4.8,7.0,16*63
$GNZDA,122941.00,22,05,2025,00,00*75
$GNGBS,122941.00,4.8,7.0,16.3,,,,*6D
$GNTXT,01,01,01,More than 100 frame errors, UART RX was disabled*70
b04@H;

s![:-.04d
& #5{4&Ta:R 
Ym
AB+>CLMVXW0nX,!"b@H"n$GNRMC,122942.00,A,0419.79464,S,05539.77053,E,0.219,,220525,,,A*7D
$GNVTG,,T,,M,0.219,N,0.406,K,A*35
$GNGNS,122942.00,0419.79464,S,05539.77053,E,AA,14,0.76,27.4,-47.6,,*6E
$GNGGA,122942.00,0419.79464,S,05539.77053,E,1,12,0.76,27.4,M,-47.6,M,,*42
$GNGSA,A,3,32,28,27,18,26,31,16,29,10,08,,,1.56,0.76,1.37*1E
$GNGSA,A,3,87,65,88,86,,,,,,,,,1.56,0.76,1.37*18
$GPGSV,4,1,16,08,11,315,08,10,15,007,19,16,25,236,26,18,33,091,22*74
$GPGSV,4,2,16,23,02,045,,26,28,205,17,27,46,304,25,28,52,144,24*78
$GPGSV,4,3,16,29,09,148,13,31,38,183,26,32,53,000,35,36,52,277,*72
$GPGSV,4,4,16,40,84,353,38,41,58,082,,49,32,274,,50,10,089,*72
$GLGSV,2,1,08,65,14,005,09,66,43,318,,67,30,248,,76,13,136,*62
$GLGSV,2,2,08,77,16,181,,86,12,141,11,87,48,110,23,88,44,009,11*60
$GNGLL,0419.79464,S,05539.77053,E,122942.00,A,A*6C
$GNGRS,122942.00,1,2.2,2.3,-5.3,8.3,-13.9,3.9,1.5,26.6,-11.6,25.8,,*71
$GNGRS,122942.00,1,3.8,14.5,-0.7,8.6,,,,,,,,*41
$GNGST,122942.00,3434018,,,,4.8,7.0,16*5C
$GNZDA,122942.00,22,05,2025,00,00*76
$GNGBS,122942.00,4.8,7.0,16.3,,,,*6E
$GNTXT,01,01,01,More than 100 frame errors, UART RX was disabled*70
b04(H
;

&![-5.04yP
&{ "5{4&Ta:R 
Ym
AB+>C[LMVSW0n'X,b(H
$GNRMC,122943.00,A,0419.79469,S,05539.77066,E,0.152,,220525,,,A*7B
$GNVTG,,T,,M,0.152,N,0.282,K,A*33
$GNGNS,122943.00,0419.79469,S,05539.77066,E,AA,13,0.78,27.8,-47.6,,*61
$GNGGA,122943.00,0419.79469,S,05539.77066,E,1,12,0.78,27.8,M,-47.6,M,,*4A
$GNGSA,A,3,32,28,27,18,26,31,16,29,10,08,,,1.61,0.78,1.41*15
$GNGSA,A,3,87,65,86,,,,,,,,,,1.61,0.78,1.41*13
$GPGSV,4,1,16,08,11,315,10,10,15,007,19,16,25,236,25,18,33,091,22*7E
$GPGSV,4,2,16,23,02,045,,26,28,205,16,27,46,304,25,28,52,144,25*78
$GPGSV,4,3,16,29,09,148,13,31,38,183,27,32,53,000,34,36,52,277,*72
$GPGSV,4,4,16,40,84,353,38,41,58,082,,49,32,274,,50,10,089,*72
$GLGSV,2,1,08,65,14,005,09,66,43,318,,67,30,248,20,76,13,136,*60
$GLGSV,2,2,08,77,16,181,,86,12,141,08,87,48,110,22,88,44,009,*69
$GNGLL,0419.79469,S,05539.77066,E,122943.00,A,A*66
$GNGRS,122943.00,1,2.6,1.2,-3.2,9.4,-12.3,3.8,0.4,26.4,-10.1,25.9,,*78
$GNGRS,122943.00,1,2.9,14.7,8.5,,,,,,,,,*45
$GNGST,122943.00,3586724,,,,4.8,7.0,16*5D
$GNZDA,122943.00,22,05,2025,00,00*77
$GNGBS,122943.00,4.8,7.0,16.2,,,,*6E
$GNTXT,01,01,01,More than 100 frame errors, UART RX was disabled*70
b04H
;tC
![-D.04&@ "5{4%Ta:R 
Ym
A
B+>CLMV
W0nX,1zbH=$GNRMC,122944.00,A,0419.79475,S,05539.77073,E,0.179,,220525,,,A*7C
$GNVTG,,T,,M,0.179,N,0.331,K,A*33
$GNGNS,122944.00,0419.79475,S,05539.77073,E,AA,13,0.78,28.6,-47.6,,*6E
$GNGGA,122944.00,0419.79475,S,05539.77073,E,1,12,0.78,28.6,M,-47.6,M,,*45
$GNGSA,A,3,32,28,27,18,26,31,16,29,10,08,,,1.61,0.78,1.41*15
$GNGSA,A,3,87,65,86,,,,,,,,,,1.61,0.78,1.41*13
$GPGSV,4,1,16,08,11,315,10,10,15,007,20,16,25,236,26,18,33,091,21*74
$GPGSV,4,2,16,23,02,045,,26,28,205,17,27,46,304,25,28,52,144,26*7A
$GPGSV,4,3,16,29,09,148,12,31,38,183,28,32,53,000,34,36,52,277,*7C
$GPGSV,4,4,16,40,84,353,37,41,58,082,,49,32,274,,50,10,089,*7D
$GLGSV,2,1,08,65,14,005,10,66,43,318,,67,30,248,20,76,13,136,*68
$GLGSV,2,2,08,77,16,181,,86,12,141,10,87,48,110,21,88,44,009,*63
$GNGLL,0419.79475,S,05539.77073,E,122944.00,A,A*68
$GNGRS,122944.00,1,2.7,-2.7,-2.3,10.4,-12.1,3.2,-0.1,-31.9,-10.4,173,,*4B
$GNGRS,122944.00,1,2.3,-51.8,-18.9,,,,,,,,,*7B
$GNGST,122944.00,70,,,,4.7,7.1,16*6A
$GNZDA,122944.00,22,05,2025,00,00*70
$GNGBS,122944.00,4.7,7.1,16.1,,,,*64
$GNTXT,01,01,01,More than 100 frame errors, UART RX was disabled*70
b04 H;!

k.![T-.04*
&^ #5
{4%Ta:R 
Ym
A
B+>CLMVW0nrX,b H
$GNRMC,122945.00,A,0419.79479,S,05539.77104,E,0.494,,220525,,,A*76
$GNVTG,,T,,M,0.494,N,0.915,K,A*39
$GNGNS,122945.00,0419.79479,S,05539.77104,E,AA,13,0.78,28.9,-47.6,,*6D
$GNGGA,122945.00,0419.79479,S,05539.77104,E,1,12,0.78,28.9,M,-47.6,M,,*46
$GNGSA,A,3,32,28,27,18,26,31,16,29,10,08,,,1.61,0.78,1.41*15
$GNGSA,A,3,87,65,86,,,,,,,,,,1.61,0.78,1.41*13
$GPGSV,4,1,16,08,11,315,08,10,15,007,19,16,25,236,26,18,33,091,21*77
$GPGSV,4,2,16,23,02,045,,26,28,205,17,27,46,304,25,28,52,144,26*7A
$GPGSV,4,3,16,29,09,148,12,31,38,183,29,32,53,000,35,36,52,277,*7C
$GPGSV,4,4,16,40,84,353,37,41,58,082,,49,32,274,,50,10,089,*7D
$GLGSV,2,1,08,65,14,005,10,66,43,318,,67,30,248,20,76,13,136,*68
$GLGSV,2,2,08,77,16,181,,86,12,141,14,87,48,110,20,88,44,009,*66
$GNGLL,0419.79479,S,05539.77104,E,122945.00,A,A*64
$GNGRS,122945.00,1,2.7,-2.6,-0.6,11.1,-11.1,3.5,-2.1,26.0,-11.7,25.9,,*4B
$GNGRS,122945.00,1,3.7,14.1,7.8,,,,,,,,,*48
$GNGST,122945.00,5072371,,,,4.7,7.1,16*59
$GNZDA,122945.00,22,05,2025,00,00*71
$GNGBS,122945.00,4.7,7.1,16.1,,,,*65
$GNTXT,01,01,01,More than 100 frame errors, UART RX was disabled*70
b04$H
;

![-r//u4
.
& #5{4&Ta:R 
Ym
AtB+>CoLMVW0n)X,b$Ho$GNRMC,122946.00,A,0419.79485,S,05539.77095,E,0.106,,220525,,,A*71
$GNVTG,,T,,M,0.106,N,0.196,K,A*34
$GNGNS,122946.00,0419.79485,S,05539.77095,E,AA,14,0.72,29.4,-47.6,,*65
$GNGGA,122946.00,0419.79485,S,05539.77095,E,1,12,0.72,29.4,M,-47.6,M,,*49
$GNGSA,A,3,32,28,27,18,26,31,16,29,10,08,,,1.58,0.72,1.41*15
$GNGSA,A,3,87,65,67,86,,,,,,,,,1.58,0.72,1.41*12
$GPGSV,4,1,16,08,11,315,10,10,15,007,18,16,25,236,26,18,33,091,20*7E
$GPGSV,4,2,16,23,02,045,,26,28,205,17,27,47,303,26,28,52,144,26*7F
$GPGSV,4,3,16,29,09,148,12,31,38,183,28,32,53,000,35,36,52,277,*7D
$GPGSV,4,4,16,40,84,353,38,41,58,082,28,49,32,274,,50,10,089,*78
$GLGSV,2,1,08,65,14,005,12,66,43,318,,67,30,248,20,76,13,136,*6A
$GLGSV,2,2,08,77,16,181,,86,12,141,12,87,48,110,20,88,44,009,*60
$GNGLL,0419.79485,S,05539.77095,E,122946.00,A,A*6D
$GNGRS,122946.00,1,2.6,-2.5,-1.4,10.4,-11.7,4.6,-1.0,26.1,-12.8,25.7,,*4E
$GNGRS,122946.00,1,3.0,14.0,11.3,7.8,,,,,,,,*50
$GNGST,122946.00,4856426,,,,4.7,7.1,16*50
$GNZDA,122946.00,22,05,2025,00,00*72
$GNGBS,122946.00,4.7,7.1,16.1,,,,*66
$GNTXT,01,01,01,More than 100 frame errors, UART RX was disabled*70
b04(H
;M#
![z-//4& #5{4&Ta:R 
Ym
AzB+>C(LMV
7W0nPX,b(HGf$GNRMC,122947.00,A,0419.79491,S,05539.77075,E,0.369,,220525,,,A*70
$GNVTG,,T,,M,0.369,N,0.684,K,A*3B
$GNGNS,122947.00,0419.79491,S,05539.77075,E,AA,13,0.86,29.8,-47.6,,*6F
$GNGGA,122947.00,0419.79491,S,05539.77075,E,1,12,0.86,29.8,M,-47.6,M,,*44
$GNGSA,A,3,32,28,27,18,31,16,29,10,08,,,,2.01,0.86,1.81*19
$GNGSA,A,3,87,65,67,86,,,,,,,,,2.01,0.86,1.81*1A
$GPGSV,4,1,16,08,11,315,10,10,15,007,18,16,25,236,26,18,33,091,20*7E
$GPGSV,4,2,16,23,02,045,,26,28,205,,27,47,303,27,28,52,143,26*7F
$GPGSV,4,3,16,29,09,148,12,31,38,183,27,32,53,000,35,36,52,277,*72
$GPGSV,4,4,16,40,84,353,38,41,58,082,28,49,32,274,,50,10,089,*78
$GLGSV,2,1,08,65,14,005,08,66,43,318,,67,30,248,20,76,13,136,*61
$GLGSV,2,2,08,77,16,181,,86,12,141,10,87,48,110,20,88,44,009,*62
$GNGLL,0419.79491,S,05539.77075,E,122947.00,A,A*67
$GNGRS,122947.00,1,2.7,-3.8,-0.9,11.5,4.2,-1.0,-41.1,-13.6,90.4,,,*50
$GNGRS,122947.00,1,3.4,-21.8,15.8,21.0,,,,,,,,*45
$GNGST,122947.00,60,,,,4.6,7.1,16*69
$GNZDA,122947.00,22,05,2025,00,00*73
$GNGBS,122947.00,4.6,7.1,16.1,,,,*66
$GNTXT,01,01,01,More than 100 frame errors, UART RX was disabled*70
b04,H;+

![-//4@M
& "5{4&Ta:R 
Ym
AB+>CLMV+W0nX,b,H$GNRMC,122948.00,A,0419.79497,S,05539.77075,E,0.187,,220525,,,A*7B
$GNVTG,,T,,M,0.187,N,0.346,K,A*32
$GNGNS,122948.00,0419.79497,S,05539.77075,E,AA,13,0.75,30.2,-47.6,,*68
$GNGGA,122948.00,0419.79497,S,05539.77075,E,1,12,0.75,30.2,M,-47.6,M,,*43
$GNGSA,A,3,32,28,27,18,31,16,29,10,08,,,,1.60,0.75,1.42*1E
$GNGSA,A,3,87,65,67,86,,,,,,,,,1.60,0.75,1.42*1D
$GPGSV,4,1,16,08,11,315,13,10,15,007,20,16,25,236,25,18,33,091,19*7F
$GPGSV,4,2,16,23,02,045,,26,28,205,,27,47,303,28,28,52,143,27*71
$GPGSV,4,3,16,29,09,148,12,31,38,183,27,32,53,000,34,36,52,277,*73
$GPGSV,4,4,16,40,84,353,38,41,58,082,27,49,32,274,,50,10,089,*77
$GLGSV,2,1,08,65,14,005,11,66,43,318,,67,30,248,19,76,13,136,*63
$GLGSV,2,2,08,77,16,181,,86,12,141,15,87,48,110,19,88,44,009,*6D
$GNGLL,0419.79497,S,05539.77075,E,122948.00,A,A*6E
$GNGRS,122948.00,1,2.5,-7.0,-2.8,11.9,1.8,-3.6,26.4,-16.2,26.0,,,*74
$GNGRS,122948.00,1,4.3,14.6,15.4,8.1,,,,,,,,*59
$GNGST,122948.00,3590562,,,,4.6,7.1,16*5E
$GNZDA,122948.00,22,05,2025,00,00*7C
$GNGBS,122948.00,4.6,7.1,16.0,,,,*68
$GNTXT,01,01,01,More than 100 frame errors, UART RX was disabled*70
b040H;J

h)![-//4@
& %5{4(Ta:R 
Ym
AB+>CLMVW0nX,b0Hz6$GNRMC,122949.00,A,0419.79498,S,05539.77079,E,0.102,,220525,,,A*74
$GNVTG,,T,,M,0.102,N,0.189,K,A*3E
$GNGNS,122949.00,0419.79498,S,05539.77079,E,AA,13,0.75,30.5,-47.6,,*6D
$GNGGA,122949.00,0419.79498,S,05539.77079,E,1,12,0.75,30.5,M,-47.6,M,,*46
$GNGSA,A,3,32,28,27,18,31,16,29,10,08,,,,1.60,0.75,1.42*1E
$GNGSA,A,3,87,65,67,86,,,,,,,,,1.60,0.75,1.42*1D
$GPGSV,4,1,16,08,11,315,12,10,15,007,19,16,25,236,26,18,33,091,20*7D
$GPGSV,4,2,16,23,02,045,,26,28,205,,27,47,303,29,28,52,143,28*7F
$GPGSV,4,3,16,29,09,148,12,31,38,183,27,32,53,000,37,36,52,277,*70
$GPGSV,4,4,16,40,84,353,40,41,58,082,27,49,32,274,,50,10,089,*78
$GLGSV,2,1,08,65,14,005,09,66,43,318,,67,30,248,19,76,13,136,*6A
$GLGSV,2,2,08,77,16,181,,86,12,141,14,87,48,110,20,88,44,009,*66
$GNGLL,0419.79498,S,05539.77079,E,122949.00,A,A*6C
$GNGRS,122949.00,1,2.3,-6.1,-6.0,11.7,2.1,-4.7,26.2,-14.3,26.3,,,*7B
$GNGRS,122949.00,1,6.6,14.8,12.8,7.8,,,,,,,,*5C
$GNGST,122949.00,5072371,,,,4.6,7.0,16*55
$GNZDA,122949.00,22,05,2025,00,00*7D
$GNGBS,122949.00,4.6,7.0,16.0,,,,*68
$GNTXT,01,01,01,More than 100 frame errors, UART RX was disabled*70
b044H;
a![-//4
& $5{4'Ta:R 
Ym
AB+>CeLMVW0nX,eb4Hb$GNRMC,122950.00,A,0419.79500,S,05539.77082,E,0.100,,220525,,,A*7A
$GNVTG,,T,,M,0.100,N,0.186,K,A*33
$GNGNS,122950.00,0419.79500,S,05539.77082,E,AA,13,0.75,30.9,-47.6,,*6D
$GNGGA,122950.00,0419.79500,S,05539.77082,E,1,12,0.75,30.9,M,-47.6,M,,*46
$GNGSA,A,3,32,28,27,18,31,16,29,10,08,,,,1.60,0.75,1.42*1E
$GNGSA,A,3,87,65,67,86,,,,,,,,,1.60,0.75,1.42*1D
$GPGSV,4,1,16,08,11,315,09,10,15,007,19,16,25,236,26,18,33,091,22*75
$GPGSV,4,2,16,23,02,045,,26,28,205,,27,47,303,29,28,52,143,28*7F
$GPGSV,4,3,16,29,09,148,10,31,38,182,27,32,53,000,36,36,52,277,*72
$GPGSV,4,4,16,40,84,353,39,41,58,082,27,49,32,274,,50,10,089,*76
$GLGSV,2,1,08,65,14,005,12,66,43,318,,67,30,248,19,76,13,136,*60
$GLGSV,2,2,08,77,16,181,,86,12,141,09,87,48,110,19,88,44,009,*60
$GNGLL,0419.79500,S,05539.77082,E,122950.00,A,A*60
$GNGRS,122950.00,1,1.9,-5.9,-0.5,10.4,1.6,-6.0,-75.2,-14.4,32.6,,,*5D
$GNGRS,122950.00,1,9.2,34.8,8.7,-0.8,,,,,,,,*43
$GNGST,122950.00,66,,,,4.5,6.9,16*63
$GNZDA,122950.00,22,05,2025,00,00*75
$GNGBS,122950.00,4.5,6.9,15.9,,,,*61
$GNTXT,01,01,01,More than 100 frame errors, UART RX was disabled*70
b04h8H;

![@-z//4N
Y
&r #4|{4&Ta:R 
Ym
AB+>C`LMV@W0nX,.bh8HJ"$GNRMC,122951.00,A,0419.79502,S,05539.77082,E,0.184,,220525,,,A*75
$GNVTG,,T,,M,0.184,N,0.342,K,A*35
$GNGNS,122951.00,0419.79502,S,05539.77082,E,AA,13,0.75,31.1,-47.6,,*67
$GNGGA,122951.00,0419.79502,S,05539.77082,E,1,12,0.75,31.1,M,-47.6,M,,*4C
$GNGSA,A,3,32,28,27,18,31,16,29,10,08,,,,1.60,0.75,1.42*1E
$GNGSA,A,3,87,65,67,86,,,,,,,,,1.60,0.75,1.42*1D
$GPGSV,4,1,16,08,11,315,08,10,15,007,18,16,25,236,26,18,33,091,23*74
$GPGSV,4,2,16,23,02,045,,26,28,205,17,27,47,303,30,28,52,143,28*71
$GPGSV,4,3,16,29,09,148,10,31,38,182,26,32,52,001,35,36,52,277,*70
$GPGSV,4,4,16,40,84,353,38,41,58,082,,49,32,274,,50,10,089,*72
$GLGSV,2,1,08,65,14,005,12,66,43,318,,67,30,248,20,76,13,136,*6A
$GLGSV,2,2,08,77,16,181,,86,12,141,11,87,48,110,19,88,44,009,20*6B
$GNGLL,0419.79502,S,05539.77082,E,122951.00,A,A*63
$GNGRS,122951.00,1,1.2,-6.9,-0.7,10.9,1.1,-7.5,26.5,-16.1,25.7,,,*74
$GNGRS,122951.00,1,10.0,14.5,8.6,8.3,,,,,,,,*58
$GNGST,122951.00,3588240,,,,4.5,6.8,16*53
$GNZDA,122951.00,22,05,2025,00,00*74
$GNGBS,122951.00,4.5,6.8,15.9,,,,*61
$GNTXT,01,01,01,More than 100 frame errors, UART RX was disabled*70
b04P<H;


m![-//4
M
& $4i{4&Ta:R 
Ym
AB+>CLMV9W0nX,bP<H2&n$GNRMC,122952.00,A,0419.79504,S,05539.77090,E,0.040,,220525,,,A*7A
$GNVTG,,T,,M,0.040,N,0.075,K,A*3B
$GNGNS,122952.00,0419.79504,S,05539.77090,E,AA,13,0.75,31.3,-47.6,,*63
$GNGGA,122952.00,0419.79504,S,05539.77090,E,1,12,0.75,31.3,M,-47.6,M,,*48
$GNGSA,A,3,32,28,27,18,31,16,29,10,08,,,,1.60,0.75,1.42*1E
$GNGSA,A,3,87,65,67,86,,,,,,,,,1.60,0.75,1.42*1D
$GPGSV,4,1,16,08,11,315,11,10,15,007,19,16,25,236,25,18,33,091,23*7E
$GPGSV,4,2,16,23,02,045,,26,28,205,18,27,47,303,31,28,52,143,28*7F
$GPGSV,4,3,16,29,09,148,10,31,38,182,27,32,52,001,36,36,52,277,*72
$GPGSV,4,4,16,40,84,353,38,41,58,082,,49,32,274,,50,10,089,*72
$GLGSV,2,1,08,65,14,005,11,66,43,318,,67,30,248,21,76,13,136,*68
$GLGSV,2,2,08,77,16,181,,86,12,141,12,87,48,110,18,88,44,009,20*69
$GNGLL,0419.79504,S,05539.77090,E,122952.00,A,A*65
$GNGRS,122952.00,1,1.1,-5.8,-5.1,6.5,1.4,-5.4,26.4,-14.3,25.7,,,*49
$GNGRS,122952.00,1,10.1,14.5,3.9,8.3,,,,,,,,*5E
$GNGST,122952.00,3589921,,,,4.5,6.7,16*52
$GNZDA,122952.00,22,05,2025,00,00*77
$GNGBS,122952.00,4.5,6.7,15.9,,,,*6D
$GNTXT,01,01,01,More than 100 frame errors, UART RX was disabled*70
b048@H;
W![E- //v4
M& $4B{4&Ta:R 
Ym}
A=B+>
C=LMV
W0nX,b8@H*W$GNRMC,122953.00,A,0419.79509,S,05539.77097,E,0.036,,220525,,,A*70
$GNVTG,,T,,M,0.036,N,0.066,K,A*38
$GNGNS,122953.00,0419.79509,S,05539.77097,E,AA,12,0.70,32.0,-47.6,,*6C
$GNGGA,122953.00,0419.79509,S,05539.77097,E,1,12,0.70,32.0,M,-47.6,M,,*46
$GNGSA,A,3,32,28,27,18,31,16,29,10,08,,,,1.36,0.70,1.17*18
$GNGSA,A,3,87,67,86,,,,,,,,,,1.36,0.70,1.17*18
$GPGSV,4,1,16,08,11,315,12,10,15,007,19,16,25,236,25,18,33,091,23*7D
$GPGSV,4,2,16,23,02,045,,26,28,205,20,27,47,303,32,28,52,143,28*77
$GPGSV,4,3,16,29,09,148,10,31,38,182,27,32,52,001,36,36,52,277,*72
$GPGSV,4,4,16,40,84,353,38,41,58,082,,49,32,274,,50,10,089,*72
$GLGSV,2,1,08,65,14,005,06,66,43,318,20,67,30,248,22,76,13,136,*6F
$GLGSV,2,2,08,77,16,181,,86,12,141,10,87,48,110,18,88,44,009,21*6A
$GNGLL,0419.79509,S,05539.77097,E,122953.00,A,A*6E
$GNGRS,122953.00,1,0.7,-3.8,-3.9,5.8,1.8,-4.8,23.8,-14.5,-0.6,,,*5C
$GNGRS,122953.00,1,13.0,0.6,-47.1,,,,,,,,,*5B
$GNGST,122953.00,74,,,,4.4,6.6,16*6D
$GNZDA,122953.00,22,05,2025,00,00*76
$GNGBS,122953.00,4.4,6.6,15.7,,,,*62
$GNTXT,01,01,01,More than 100 frame errors, UART RX was disabled*70
b04 DH
;

j![}-//^4`
P
& #47{4%Ta:R 
Ym
A
B+>JCLMV=W0nX,1Wb DH./>$GNRMC,122954.00,A,0419.79511,S,05539.77105,E,0.043,,220525,,,A*76
$GNVTG,,T,,M,0.043,N,0.080,K,A*32
$GNGNS,122954.00,0419.79511,S,05539.77105,E,AA,15,0.70,32.2,-47.6,,*6D
$GNGGA,122954.00,0419.79511,S,05539.77105,E,1,12,0.70,32.2,M,-47.6,M,,*40
$GNGSA,A,3,32,28,27,18,26,31,16,29,10,08,,,1.53,0.70,1.36*1C
$GNGSA,A,3,87,65,88,67,86,,,,,,,,1.53,0.70,1.36*1B
$GPGSV,4,1,16,08,11,315,10,10,15,007,17,16,25,236,24,18,33,091,23*70
$GPGSV,4,2,16,23,02,045,,26,28,205,21,27,47,303,31,28,52,143,28*75
$GPGSV,4,3,16,29,09,148,10,31,38,182,26,32,52,001,35,36,52,277,*70
$GPGSV,4,4,16,40,84,353,37,41,58,082,,49,32,274,,50,10,089,*7D
$GLGSV,2,1,08,65,14,005,10,66,43,318,21,67,30,248,21,76,13,136,*6A
$GLGSV,2,2,08,77,16,181,,86,12,141,11,87,48,110,18,88,44,009,20*6A
$GNGLL,0419.79511,S,05539.77105,E,122954.00,A,A*6A
$GNGRS,122954.00,1,0.5,-4.2,-1.6,3.8,2.4,-0.9,-3.6,26.4,-14.3,25.8,,*48
$GNGRS,122954.00,1,14.3,14.4,-7.2,-0.5,8.3,,,,,,,*7B
$GNGST,122954.00,4665903,,,,4.4,6.6,16*52
$GNZDA,122954.00,22,05,2025,00,00*71
$GNGBS,122954.00,4.4,6.6,15.7,,,,*65
$GNTXT,01,01,01,More than 100 frame errors, UART RX was disabled*70
b04HH;
![A- //d4
<
& #4{4&Ta:R 
Ym
AwB+>gCLMV9W0nX,SbHH1$GNRMC,122955.00,A,0419.79508,S,05539.77106,E,0.086,,220525,,,A*75
$GNVTG,,T,,M,0.086,N,0.158,K,A*3F
$GNGNS,122955.00,0419.79508,S,05539.77106,E,AA,15,0.70,32.2,-47.6,,*67
$GNGGA,122955.00,0419.79508,S,05539.77106,E,1,12,0.70,32.2,M,-47.6,M,,*4A
$GNGSA,A,3,32,28,27,18,26,31,16,29,10,08,,,1.53,0.70,1.36*1C
$GNGSA,A,3,87,65,88,67,86,,,,,,,,1.53,0.70,1.36*1B
$GPGSV,4,1,16,08,11,315,12,10,15,007,15,16,25,236,24,18,33,091,23*70
$GPGSV,4,2,16,23,02,045,,26,28,205,23,27,47,303,30,28,52,143,28*76
$GPGSV,4,3,16,29,09,148,10,31,38,182,26,32,52,001,35,36,52,277,*70
$GPGSV,4,4,16,40,84,353,38,41,58,082,,49,32,274,,50,10,089,*72
$GLGSV,2,1,08,65,14,005,11,66,43,318,22,67,30,248,22,76,13,136,*6B
$GLGSV,2,2,08,77,16,181,,86,12,141,18,87,48,110,17,88,44,009,20*6C
$GNGLL,0419.79508,S,05539.77106,E,122955.00,A,A*60
$GNGRS,122955.00,1,0.2,-5.1,1.0,0.7,0.3,-0.8,-3.1,26.2,-12.8,25.5,,*6E
$GNGRS,122955.00,1,14.3,14.0,5.1,0.1,8.2,,,,,,,*7A
$GNGST,122955.00,4665903,,,,4.4,6.5,16*50
$GNZDA,122955.00,22,05,2025,00,00*70
$GNGBS,122955.00,4.4,6.5,15.8,,,,*68
$GNTXT,01,01,01,More than 100 frame errors, UART RX was disabled*70
b04KH;v
S5![@-//4#& #4{4&Ta:R 
Ym
A
B+>OC!LMV
W0nX,qbKH5$GNRMC,122956.00,A,0419.79500,S,05539.77107,E,0.145,,220525,,,A*71
$GNVTG,,T,,M,0.145,N,0.269,K,A*30
$GNGNS,122956.00,0419.79500,S,05539.77107,E,AA,15,0.65,32.1,-47.6,,*6A
$GNGGA,122956.00,0419.79500,S,05539.77107,E,1,12,0.65,32.1,M,-47.6,M,,*47
$GNGSA,A,3,32,28,27,18,26,31,16,10,08,,,,1.39,0.65,1.23*1B
$GNGSA,A,3,66,87,65,88,67,86,,,,,,,1.39,0.65,1.23*17
$GPGSV,4,1,16,08,11,315,11,10,15,007,13,16,25,236,22,18,33,091,24*74
$GPGSV,4,2,16,23,02,045,,26,28,205,25,27,47,303,30,28,52,143,28*70
$GPGSV,4,3,16,29,09,148,09,31,38,182,26,32,52,001,35,36,52,277,*78
$GPGSV,4,4,16,40,84,353,38,41,58,082,,49,32,274,,50,10,089,*72
$GLGSV,2,1,08,65,14,005,10,66,43,318,23,67,30,248,22,76,13,136,*6B
$GLGSV,2,2,08,77,16,181,,86,12,141,10,87,48,110,16,88,44,009,22*67
$GNGLL,0419.79500,S,05539.77107,E,122956.00,A,A*6A
$GNGRS,122956.00,1,-0.1,-5.7,-0.9,-1.9,-0.8,-0.6,-2.0,-12.0,19.1,,,*71
$GNGRS,122956.00,1,-4.3,17.3,69.3,4.3,0.3,-6.1,,,,,,*56
$GNGST,122956.00,71,,,,4.4,6.4,16*6F
$GNZDA,122956.00,22,05,2025,00,00*73
$GNGBS,122956.00,4.4,6.4,15.7,,,,*65
$GNTXT,01,01,01,More than 100 frame errors, UART RX was disabled*70
b04OH;

$X![e-//}4n
& $4{4'Ta:R 
Ym
AB+>pCLMVEW0nX,ZbOH9d$GNRMC,122957.00,A,0419.79498,S,05539.77107,E,0.070,,220525,,,A*77
$GNVTG,,T,,M,0.070,N,0.129,K,A*30
$GNGNS,122957.00,0419.79498,S,05539.77107,E,AA,14,0.71,32.4,-47.6,,*6A
$GNGGA,122957.00,0419.79498,S,05539.77107,E,1,12,0.71,32.4,M,-47.6,M,,*46
$GNGSA,A,3,32,28,27,18,26,31,16,08,,,,,1.65,0.71,1.49*1A
$GNGSA,A,3,66,87,65,88,67,86,,,,,,,1.65,0.71,1.49*17
$GPGSV,4,1,16,08,11,315,11,10,15,007,09,16,25,236,22,18,33,091,25*7E
$GPGSV,4,2,16,23,02,045,,26,28,205,25,27,47,303,30,28,52,143,28*70
$GPGSV,4,3,16,29,09,148,09,31,38,182,27,32,52,001,36,36,52,277,*7A
$GPGSV,4,4,16,40,84,353,39,41,58,082,,49,32,274,,50,10,089,*73
$GLGSV,2,1,08,65,14,005,07,66,43,318,24,67,30,248,22,76,13,136,*6A
$GLGSV,2,2,08,77,16,181,,86,12,141,17,87,48,110,17,88,44,009,23*60
$GNGLL,0419.79498,S,05539.77107,E,122957.00,A,A*6B
$GNGRS,122957.00,1,-0.5,-3.6,3.8,-1.5,-7.5,-2.4,-1.7,25.9,,,,*69
$GNGRS,122957.00,1,-6.6,17.8,14.5,-3.4,-0.9,8.4,,,,,,*7B
$GNGST,122957.00,3303480,,,,4.4,6.4,16*57
$GNZDA,122957.00,22,05,2025,00,00*72
$GNGBS,122957.00,4.4,6.4,15.8,,,,*6B
$GNTXT,01,01,01,More than 100 frame errors, UART RX was disabled*70
b04SH;(

"![-//48o
& %4{4(Ta:R 
Ym
A
B+>sCILMVIW0n?X,%bSH=$GNRMC,122958.00,A,0419.79500,S,05539.77103,E,0.302,,220525,,,A*7A
$GNVTG,,T,,M,0.302,N,0.560,K,A*3F
$GNGNS,122958.00,0419.79500,S,05539.77103,E,AA,15,0.68,32.7,-47.6,,*6B
$GNGGA,122958.00,0419.79500,S,05539.77103,E,1,12,0.68,32.7,M,-47.6,M,,*46
$GNGSA,A,3,32,28,27,18,26,31,16,10,08,,,,1.50,0.68,1.34*1F
$GNGSA,A,3,66,87,65,88,67,86,,,,,,,1.50,0.68,1.34*13
$GPGSV,4,1,16,08,11,315,17,10,15,007,12,16,25,236,23,18,33,091,25*73
$GPGSV,4,2,16,23,02,045,,26,28,205,25,27,47,303,31,28,52,143,28*71
$GPGSV,4,3,16,29,09,148,09,31,38,182,27,32,52,001,37,36,52,277,*7B
$GPGSV,4,4,16,40,84,353,40,41,58,082,,49,32,274,,50,10,089,*7D
$GLGSV,2,1,08,65,14,005,10,66,43,318,24,67,30,248,22,76,13,136,08*64
$GLGSV,2,2,08,77,16,181,,86,12,141,14,87,48,110,19,88,44,009,22*6C
$GNGLL,0419.79500,S,05539.77103,E,122958.00,A,A*60
$GNGRS,122958.00,1,-1.0,-4.6,4.2,2.4,-8.2,-0.7,-1.2,-12.5,26.0,,,*74
$GNGRS,122958.00,1,-6.5,18.5,14.6,-2.2,-1.8,8.4,,,,,,*71
$GNGST,122958.00,4496890,,,,4.4,6.3,16*5E
$GNZDA,122958.00,22,05,2025,00,00*7D
$GNGBS,122958.00,4.4,6.3,15.9,,,,*62
$GNTXT,01,01,01,More than 100 frame errors, UART RX was disabled*70
b04WH;
![-;'_//4&t "4{4'Ta:R 
Ym
A>B+>EC<LMVW0n,X,+jbWHAe4$GNRMC,122959.00,A,0419.79497,S,05539.77108,E,0.224,,220525,,,A*7A
$GNVTG,,T,,M,0.224,N,0.415,K,A*39
$GNGNS,122959.00,0419.79497,S,05539.77108,E,AA,15,0.68,32.4,-47.6,,*6D
$GNGGA,122959.00,0419.79497,S,05539.77108,E,1,12,0.68,32.4,M,-47.6,M,,*40
$GNGSA,A,3,32,28,27,18,26,31,16,10,08,,,,1.47,0.68,1.31*1C
$GNGSA,A,3,66,87,65,88,67,86,,,,,,,1.47,0.68,1.31*10
$GPGSV,4,1,16,08,11,315,14,10,15,007,11,16,25,236,23,18,33,091,24*72
$GPGSV,4,2,16,23,02,045,14,26,28,205,25,27,47,303,30,28,52,143,28*75
$GPGSV,4,3,16,29,09,148,,31,38,182,27,32,52,001,34,36,52,277,*71
$GPGSV,4,4,16,40,84,353,39,41,58,082,,49,32,274,,50,10,089,*73
$GLGSV,2,1,08,65,14,005,11,66,43,318,23,67,30,248,22,76,13,136,13*68
$GLGSV,2,2,08,77,16,181,,86,12,141,15,87,48,110,20,88,44,009,22*67
$GNGLL,0419.79497,S,05539.77108,E,122959.00,A,A*65
$GNGRS,122959.00,1,-0.9,-6.3,0.0,2.1,-4.2,-1.4,-2.2,-49.0,-13.0,,,*54
$GNGRS,122959.00,1,-1.9,18.4,161,3.0,0.6,2.4,,,,,,*57
$GNGST,122959.00,78,,,,4.4,6.3,16*6E
$GNZDA,122959.00,22,05,2025,00,00*7C
$GNGBS,122959.00,4.4,6.3,15.9,,,,*63
$GNTXT,01,01,01,More than 100 frame errors, UART RX was disabled*70
b04[H;
Xy![-Y'_//45&5 $4{4'Ta:R 
YmM
AB+>)CLMVGW0nX,b[HrE=$GNRMC,123000.00,A,0419.79498,S,05539.77105,E,0.256,,220525,,,A*79
$GNVTG,,T,,M,0.256,N,0.474,K,A*3B
$GNGNS,123000.00,0419.79498,S,05539.77105,E,AA,15,0.71,32.4,-47.6,,*63
$GNGGA,123000.00,0419.79498,S,05539.77105,E,1,12,0.71,32.4,M,-47.6,M,,*4E
$GNGSA,A,3,32,28,27,18,26,31,16,10,08,,,,1.65,0.71,1.49*1B
$GNGSA,A,3,66,87,65,88,67,86,,,,,,,1.65,0.71,1.49*17
$GPGSV,4,1,16,08,11,315,13,10,15,007,19,16,25,236,23,18,33,091,25*7C
$GPGSV,4,2,16,23,02,045,12,26,28,205,26,27,47,303,31,28,52,143,28*71
$GPGSV,4,3,16,29,09,148,,31,38,182,27,32,52,001,36,36,52,277,*73
$GPGSV,4,4,16,40,84,353,39,41,58,082,,49,32,274,,50,10,089,*73
$GLGSV,2,1,08,65,14,005,12,66,43,318,23,67,30,248,22,76,13,136,16*6E
$GLGSV,2,2,08,77,16,181,,86,12,141,13,87,48,110,21,88,44,009,22*60
$GNGLL,0419.79498,S,05539.77105,E,123000.00,A,A*63
$GNGRS,123000.00,1,-1.2,-9.7,0.2,0.3,-4.2,0.5,-1.3,21.4,25.6,,,*75
$GNGRS,123000.00,1,-4.7,16.9,14.3,0.3,1.3,8.4,,,,,,*7B
$GNGST,123000.00,63280,,,,4.3,6.2,16*5C
$GNZDA,123000.00,22,05,2025,00,00*78
$GNGBS,123000.00,4.3,6.2,16.0,,,,*6B
$GNTXT,01,01,01,More than 100 frame errors, UART RX was disabled*70
b04x_H;
9![k-//4&! #4{4&Ta:R 
Y
m.
AB+>[C9L,MVIW0n~X,bx_HZI$GNRMC,123001.00,A,0419.79499,S,05539.77105,E,0.178,,220525,,,A*76
$GNVTG,,T,,M,0.178,N,0.330,K,A*33
$GNGNS,123001.00,0419.79499,S,05539.77105,E,AA,16,0.71,32.4,-47.6,,*60
$GNGGA,123001.00,0419.79499,S,05539.77105,E,1,12,0.71,32.4,M,-47.6,M,,*4E
$GNGSA,A,3,32,28,27,18,26,31,16,10,08,,,,1.65,0.71,1.49*1B
$GNGSA,A,3,66,87,65,88,67,86,76,,,,,,1.65,0.71,1.49*16
$GPGSV,4,1,16,08,11,315,11,10,15,007,18,16,25,236,23,18,33,091,25*7F
$GPGSV,4,2,16,23,02,045,,26,28,205,26,27,47,303,30,28,52,143,28*73
$GPGSV,4,3,16,29,09,148,,31,38,182,25,32,52,001,35,36,52,277,*72
$GPGSV,4,4,16,40,84,353,38,41,58,082,,49,32,274,,50,10,089,*72
$GLGSV,2,1,08,65,14,005,13,66,43,318,26,67,30,248,22,76,13,136,18*64
$GLGSV,2,2,08,77,16,181,,86,12,141,13,87,48,110,19,88,44,009,23*6A
$GNGLL,0419.79499,S,05539.77105,E,123001.00,A,A*63
$GNGRS,123001.00,1,-0.8,-11.3,-1.1,-1.5,-4.9,0.3,-1.2,21.0,25.5,,,*4C
$GNGRS,123001.00,1,-4.2,19.2,14.1,0.1,0.6,8.4,44.0,,,,,*61
$GNGST,123001.00,93259,,,,4.3,6.2,16*56
$GNZDA,123001.00,22,05,2025,00,00*79
$GNGBS,123001.00,4.3,6.2,16.1,,,,*6B
$GNTXT,01,01,01,More than 100 frame errors, UART RX was disabled*70
b04`cH;C
H![0-//4& #4{4&Ta:R 
Ym
AT-B+>+CLfMVW0nX,b`cHBMl$GNRMC,123002.00,A,0419.79493,S,05539.77104,E,0.081,,220525,,,A*79
$GNVTG,,T,,M,0.081,N,0.150,K,A*30
$GNGNS,123002.00,0419.79493,S,05539.77104,E,AA,16,0.70,32.1,-47.6,,*6C
$GNGGA,123002.00,0419.79493,S,05539.77104,E,1,12,0.70,32.1,M,-47.6,M,,*42
$GNGSA,A,3,32,28,27,18,26,31,16,10,08,,,,1.53,0.70,1.36*17
$GNGSA,A,3,66,87,65,88,67,86,76,,,,,,1.53,0.70,1.36*1A
$GPGSV,4,1,16,08,11,315,13,10,15,007,14,16,25,236,23,18,33,091,25*71
$GPGSV,4,2,16,23,02,045,,26,28,205,26,27,47,303,31,28,52,143,28*72
$GPGSV,4,3,16,29,09,148,,31,38,182,24,32,52,001,35,36,52,277,*73
$GPGSV,4,4,16,40,84,353,38,41,58,082,,49,32,274,,50,10,089,*72
$GLGSV,2,1,08,65,14,005,07,66,43,318,25,67,30,248,21,76,13,136,17*6E
$GLGSV,2,2,08,77,16,181,,86,12,141,13,87,48,110,17,88,44,009,23*64
$GNGLL,0419.79493,S,05539.77104,E,123002.00,A,A*6B
$GNGRS,123002.00,1,-0.4,-10.2,-1.0,-2.1,-5.8,-0.2,-1.8,18.2,16.0,,,*6E
$GNGRS,123002.00,1,-7.3,20.3,116,0.1,2.8,-0.6,34.3,,,,,*68
$GNGST,123002.00,63,,,,4.3,6.1,16*67
$GNZDA,123002.00,22,05,2025,00,00*7A
$GNGBS,123002.00,4.3,6.1,16.1,,,,*6B
$GNTXT,01,01,01,More than 100 frame errors, UART RX was disabled*70
b04HgH;
Y![-0//4& "4{4%Ta:R 
Ym
AB+>CLnMV8W0nX,bHgH*Q$GNRMC,123003.00,A,0419.79488,S,05539.77103,E,0.148,,220525,,,A*71
$GNVTG,,T,,M,0.148,N,0.273,K,A*36
$GNGNS,123003.00,0419.79488,S,05539.77103,E,AA,16,0.71,31.7,-47.6,,*64
$GNGGA,123003.00,0419.79488,S,05539.77103,E,1,12,0.71,31.7,M,-47.6,M,,*4A
$GNGSA,A,3,32,28,27,18,26,31,16,10,08,,,,1.58,0.71,1.40*1C
$GNGSA,A,3,66,87,65,88,67,86,76,,,,,,1.58,0.71,1.40*11
$GPGSV,4,1,16,08,11,315,12,10,15,007,15,16,25,236,22,18,33,091,23*76
$GPGSV,4,2,16,23,02,045,,26,28,205,25,27,47,303,31,28,52,143,28*71
$GPGSV,4,3,16,29,09,148,,31,38,182,25,32,52,001,34,36,52,277,*73
$GPGSV,4,4,16,40,84,353,37,41,58,082,,49,32,274,,50,10,089,*7D
$GLGSV,2,1,08,65,14,005,11,66,43,318,26,67,30,248,21,76,13,136,16*6B
$GLGSV,2,2,08,77,16,181,,86,12,141,13,87,48,110,14,88,44,009,22*66
$GNGLL,0419.79488,S,05539.77103,E,123003.00,A,A*67
$GNGRS,123003.00,1,-0.1,-10.3,2.1,-1.1,-4.6,-2.6,-3.2,13.7,25.4,,,*4C
$GNGRS,123003.00,1,-8.2,20.3,14.3,1.6,2.3,8.2,31.8,,,,,*6B
$GNGST,123003.00,3300902,,,,4.3,6.1,16*58
$GNZDA,123003.00,22,05,2025,00,00*7B
$GNGBS,123003.00,4.3,6.1,16.1,,,,*6A
$GNTXT,01,01,01,More than 100 frame errors, UART RX was disabled*70
b040kH;
_![I-6//4& "4{4%Ta:R 
Ym
AuB+>CpL
MVW
0nX,#b0kHU<$GNRMC,123004.00,A,0419.79485,S,05539.77104,E,0.104,,220525,,,A*74
$GNVTG,,T,,M,0.104,N,0.192,K,A*32
$GNGNS,123004.00,0419.79485,S,05539.77104,E,AA,16,0.71,31.5,-47.6,,*6B
$GNGGA,123004.00,0419.79485,S,05539.77104,E,1,12,0.71,31.5,M,-47.6,M,,*45
$GNGSA,A,3,32,28,27,18,26,31,16,10,08,,,,1.57,0.71,1.40*13
$GNGSA,A,3,66,87,65,88,67,86,76,,,,,,1.57,0.71,1.40*1E
$GPGSV,4,1,16,08,11,315,15,10,15,007,18,16,25,236,22,18,33,091,21*7E
$GPGSV,4,2,16,23,02,045,,26,28,205,24,27,47,303,30,28,52,143,27*7E
$GPGSV,4,3,16,29,09,148,,31,38,182,26,32,52,001,34,36,52,277,*70
$GPGSV,4,4,16,40,84,353,37,41,58,082,,49,32,274,,50,10,089,*7D
$GLGSV,2,1,08,65,14,005,08,66,43,318,25,67,30,248,22,76,13,136,16*63
$GLGSV,2,2,08,77,16,181,,86,12,141,13,87,48,110,10,88,44,009,21*61
$GNGLL,0419.79485,S,05539.77104,E,123004.00,A,A*6A
$GNGRS,123004.00,1,-0.1,-8.7,1.8,0.7,-2.0,1.3,-3.8,11.2,25.0,,,*74
$GNGRS,123004.00,1,-6.0,20.7,14.0,1.7,1.1,8.0,27.5,,,,,*6F
$GNGST,123004.00,3302837,,,,4.3,6.1,16*5A
$GNZDA,123004.00,22,05,2025,00,00*7C
$GNGBS,123004.00,4.3,6.1,16.1,,,,*6D
$GNTXT,01,01,01,More than 100 frame errors, UART RX was disabled*70
b04oH;
F![-//4Y& "4
{4%Ta:R 
Ym
A
B+>CLMVBW0nX,EFboHXt$GNRMC,123005.00,A,0419.79482,S,05539.77108,E,0.049,,220525,,,A*76
$GNVTG,,T,,M,0.049,N,0.090,K,A*39
$GNGNS,123005.00,0419.79482,S,05539.77108,E,AA,15,0.75,31.1,-47.6,,*62
$GNGGA,123005.00,0419.79482,S,05539.77108,E,1,12,0.75,31.1,M,-47.6,M,,*4F
$GNGSA,A,3,32,28,27,18,26,31,16,10,,,,,1.76,0.75,1.60*1E
$GNGSA,A,3,66,87,65,88,67,86,76,,,,,,1.76,0.75,1.60*1B
$GPGSV,4,1,16,08,11,315,08,10,15,007,19,16,25,236,23,18,33,091,21*72
$GPGSV,4,2,16,23,02,045,,26,28,205,23,27,47,303,31,28,52,143,27*78
$GPGSV,4,3,16,29,09,148,,31,38,182,27,32,52,001,34,36,52,277,*71
$GPGSV,4,4,16,40,84,353,37,41,58,082,,49,32,274,,50,10,089,*7D
$GLGSV,2,1,08,65,14,005,10,66,43,318,25,67,30,248,22,76,13,136,16*6A
$GLGSV,2,2,08,77,16,181,,86,12,141,17,87,48,110,13,88,44,009,22*65
$GNGLL,0419.79482,S,05539.77108,E,123005.00,A,A*60
$GNGRS,123005.00,1,0.1,-9.3,-0.5,-0.7,-3.8,1.8,-2.3,8.4,,,,*7E
$GNGRS,123005.00,1,-5.7,20.5,45.0,-1.9,1.7,16.0,21.8,,,,,*7D
$GNGST,123005.00,53,,,,4.2,6.0,16*63
$GNZDA,123005.00,22,05,2025,00,00*7D
$GNGBS,123005.00,4.2,6.0,16.0,,,,*6D
$GNTXT,01,01,01,More than 100 frame errors, UART RX was disabled*70
b04sH;
v![-X//4j&
 !4{4$Ta:R 
Ym
A
B+>CoLxMV>W0nX,fbsH\L$GNRMC,123006.00,A,0419.79480,S,05539.77107,E,0.157,,220525,,,A*76
$GNVTG,,T,,M,0.157,N,0.290,K,A*35
$GNGNS,123006.00,0419.79480,S,05539.77107,E,AA,15,0.68,30.8,-47.6,,*68
$GNGGA,123006.00,0419.79480,S,05539.77107,E,1,12,0.68,30.8,M,-47.6,M,,*45
$GNGSA,A,3,32,28,27,18,26,31,16,10,,,,,1.51,0.68,1.34*16
$GNGSA,A,3,66,87,65,88,67,86,76,,,,,,1.51,0.68,1.34*13
$GPGSV,4,1,16,08,11,315,08,10,15,007,19,16,25,236,23,18,33,091,22*71
$GPGSV,4,2,16,23,02,045,,26,28,205,23,27,47,303,30,28,52,143,27*79
$GPGSV,4,3,16,29,09,148,,31,38,182,27,32,52,001,33,36,52,277,*76
$GPGSV,4,4,16,40,84,353,36,41,58,082,,49,32,274,,50,10,089,*7C
$GLGSV,2,1,08,65,14,005,10,66,43,318,26,67,30,248,21,76,13,136,15*69
$GLGSV,2,2,08,77,16,181,,86,12,141,17,87,48,110,15,88,44,009,25*64
$GNGLL,0419.79480,S,05539.77107,E,123006.00,A,A*6E
$GNGRS,123006.00,1,0.2,-9.2,2.1,-0.1,-6.8,0.1,-1.4,6.9,,,,*58
$GNGRS,123006.00,1,-8.0,20.4,14.1,-4.1,1.1,8.3,16.6,,,,,*4D
$GNGST,123006.00,3180635,,,,4.2,6.0,16*5C
$GNZDA,123006.00,22,05,2025,00,00*7E
$GNGBS,123006.00,4.2,6.0,16.0,,,,*6E
$GNTXT,01,01,01,More than 100 frame errors, UART RX was disabled*70
b04vH;
![-6//c4&  4{4%Ta:R 
Ym
AYB+>C;LMV<W0n]X,UbvH`#b$GNRMC,123007.00,A,0419.79474,S,05539.77107,E,0.095,,220525,,,A*73
$GNVTG,,T,,M,0.095,N,0.177,K,A*30
$GNGNS,123007.00,0419.79474,S,05539.77107,E,AA,15,0.68,30.6,-47.6,,*6C
$GNGGA,123007.00,0419.79474,S,05539.77107,E,1,12,0.68,30.6,M,-47.6,M,,*41
$GNGSA,A,3,32,28,27,18,26,31,16,10,,,,,1.51,0.68,1.34*16
$GNGSA,A,3,66,87,65,88,67,86,76,,,,,,1.51,0.68,1.34*13
$GPGSV,4,1,16,08,11,315,09,10,15,007,18,16,25,236,22,18,33,091,24*76
$GPGSV,4,2,16,23,02,045,,26,28,205,22,27,47,303,30,28,52,143,27*78
$GPGSV,4,3,16,29,09,148,,31,38,182,26,32,52,001,32,36,52,277,*76
$GPGSV,4,4,16,40,84,353,37,41,58,082,,49,32,274,,50,10,089,*7D
$GLGSV,2,1,08,65,14,005,08,66,43,318,26,67,30,248,21,76,13,136,13*66
$GLGSV,2,2,08,77,16,181,,86,12,141,14,87,48,110,17,88,44,009,25*65
$GNGLL,0419.79474,S,05539.77107,E,123007.00,A,A*64
$GNGRS,123007.00,1,0.2,-10.6,3.5,-0.1,-7.1,0.1,2.1,4.4,,,,*4C
$GNGRS,123007.00,1,-9.0,21.4,13.7,-4.3,0.6,8.3,12.2,,,,,*49
$GNGST,123007.00,3182125,,,,4.2,5.9,16*53
$GNZDA,123007.00,22,05,2025,00,00*7F
$GNGBS,123007.00,4.2,5.9,15.9,,,,*6F
$GNTXT,01,01,01,More than 100 frame errors, UART RX was disabled*70
b04zH;*
s![-//4& 44{4%Ta:R 
Ym
A>B+>>CL
MV.W0nX,"bzHd$GNRMC,123008.00,A,0419.79475,S,05539.77103,E,0.099,,220525,,,A*75
$GNVTG,,T,,M,0.099,N,0.183,K,A*37
$GNGNS,123008.00,0419.79475,S,05539.77103,E,AA,15,0.71,30.7,-47.6,,*6F
$GNGGA,123008.00,0419.79475,S,05539.77103,E,1,12,0.71,30.7,M,-47.6,M,,*42
$GNGSA,A,3,32,28,27,18,26,31,16,10,08,,,,1.67,0.71,1.51*10
$GNGSA,A,3,66,87,65,88,67,86,,,,,,,1.67,0.71,1.51*1C
$GPGSV,4,1,16,08,11,315,09,10,15,007,19,16,25,236,22,18,33,091,25*76
$GPGSV,4,2,16,23,02,045,,26,28,205,22,27,47,303,29,28,52,143,27*70
$GPGSV,4,3,16,29,09,148,,31,38,182,26,32,52,001,31,36,52,277,*75
$GPGSV,4,4,16,40,84,353,37,41,58,082,,49,32,274,,50,10,089,*7D
$GLGSV,2,1,08,65,14,005,11,66,43,318,24,67,30,248,22,76,13,136,10*6C
$GLGSV,2,2,08,77,16,181,,86,12,141,14,87,48,110,20,88,44,009,25*61
$GNGLL,0419.79475,S,05539.77103,E,123008.00,A,A*6E
$GNGRS,123008.00,1,0.5,-10.4,9.2,0.0,-5.5,-0.6,3.7,1.9,23.5,,,*5E
$GNGRS,123008.00,1,-9.6,18.1,160,-6.1,0.2,-4.7,,,,,,*5D
$GNGST,123008.00,55,,,,4.2,5.9,16*62
$GNZDA,123008.00,22,05,2025,00,00*70
$GNGBS,123008.00,4.2,5.9,15.9,,,,*60
$GNTXT,01,01,01,More than 100 frame errors, UART RX was disabled*70
b04~H
;
s![-I//-4&U 4M{4&Ta:R 
Ym
AB+>CLMV<W0nX,-b~Hh2$GNRMC,123009.00,A,0419.79474,S,05539.77102,E,0.064,,220525,,,A*76
$GNVTG,,T,,M,0.064,N,0.118,K,A*37
$GNGNS,123009.00,0419.79474,S,05539.77102,E,AA,16,0.65,30.6,-47.6,,*69
$GNGGA,123009.00,0419.79474,S,05539.77102,E,1,12,0.65,30.6,M,-47.6,M,,*47
$GNGSA,A,3,32,28,27,18,26,31,16,10,08,,,,1.41,0.65,1.25*12
$GNGSA,A,3,66,87,65,88,67,86,76,,,,,,1.41,0.65,1.25*1F
$GPGSV,4,1,16,08,11,315,10,10,15,007,18,16,25,236,21,18,33,091,24*7D
$GPGSV,4,2,16,23,02,045,,26,28,205,22,27,47,303,29,28,52,143,27*70
$GPGSV,4,3,16,29,09,148,,31,38,182,26,32,52,001,30,36,52,277,*74
$GPGSV,4,4,16,40,84,353,38,41,58,082,,49,32,274,,50,10,089,*72
$GLGSV,2,1,08,65,14,005,08,66,43,318,25,67,30,248,22,76,13,136,12*67
$GLGSV,2,2,08,77,16,181,,86,12,141,14,87,48,110,22,88,44,009,25*63
$GNGLL,0419.79474,S,05539.77102,E,123009.00,A,A*6F
$GNGRS,123009.00,1,0.8,-11.3,8.1,0.2,-4.4,0.9,6.3,0.2,23.1,,,*79
$GNGRS,123009.00,1,-10.1,17.8,14.4,-8.7,-0.8,8.3,7.9,,,,,*67
$GNGST,123009.00,136270,,,,4.2,5.9,16*62
$GNZDA,123009.00,22,05,2025,00,00*71
$GNGBS,123009.00,4.2,5.9,15.9,,,,*61
$GNTXT,01,01,01,More than 100 frame errors, UART RX was disabled*70
b04H
;
,![;-// 4& 4H{4&Ta:R 
Ym
A
B+>]CL;MV#W0nX,cbHl$GNRMC,123010.00,A,0419.79477,S,05539.77102,E,0.119,,220525,,,A*76
$GNVTG,,T,,M,0.119,N,0.220,K,A*34
$GNGNS,123010.00,0419.79477,S,05539.77102,E,AA,16,0.65,30.5,-47.6,,*61
$GNGGA,123010.00,0419.79477,S,05539.77102,E,1,12,0.65,30.5,M,-47.6,M,,*4F
$GNGSA,A,3,32,28,27,18,26,31,16,10,08,,,,1.41,0.65,1.25*12
$GNGSA,A,3,66,87,65,88,67,86,76,,,,,,1.41,0.65,1.25*1F
$GPGSV,4,1,16,08,11,315,10,10,15,007,17,16,25,236,21,18,33,091,24*72
$GPGSV,4,2,16,23,02,045,,26,28,205,22,27,47,303,30,28,52,143,26*79
$GPGSV,4,3,16,29,09,148,,31,38,182,26,32,52,001,31,36,52,277,*75
$GPGSV,4,4,16,40,84,353,38,41,58,082,,49,32,274,,50,10,089,*72
$GLGSV,2,1,08,65,14,005,10,66,43,318,26,67,30,248,21,76,13,136,12*6E
$GLGSV,2,2,08,77,16,181,,86,12,141,14,87,48,110,21,88,44,009,26*63
$GNGLL,0419.79477,S,05539.77102,E,123010.00,A,A*64
$GNGRS,123010.00,1,0.7,-10.3,0.3,0.6,-5.6,1.9,8.1,1.3,22.8,,,*77
$GNGRS,123010.00,1,-9.3,15.5,14.4,-8.1,-0.3,8.0,5.7,,,,,*58
$GNGST,123010.00,3071477,,,,4.2,5.8,16*5B
$GNZDA,123010.00,22,05,2025,00,00*79
$GNGBS,123010.00,4.2,5.8,15.8,,,,*69
$GNTXT,01,01,01,More than 100 frame errors, UART RX was disabled*70
b04H;
`![&-.//4=& 4f{4&Ta:R 
Ym
A
B+>CLAMV%W0nX,'HbHjp$GNRMC,123011.00,A,0419.79478,S,05539.77101,E,0.087,,220525,,,A*7D
$GNVTG,,T,,M,0.087,N,0.160,K,A*35
$GNGNS,123011.00,0419.79478,S,05539.77101,E,AA,16,0.65,30.8,-47.6,,*61
$GNGGA,123011.00,0419.79478,S,05539.77101,E,1,12,0.65,30.8,M,-47.6,M,,*4F
$GNGSA,A,3,32,28,27,18,26,31,16,10,08,,,,1.41,0.65,1.25*12
$GNGSA,A,3,66,87,65,88,67,86,76,,,,,,1.41,0.65,1.25*1F
$GPGSV,4,1,16,08,11,315,12,10,15,007,15,16,25,236,22,18,33,091,22*77
$GPGSV,4,2,16,23,02,045,,26,28,205,23,27,47,303,30,28,52,143,26*78
$GPGSV,4,3,16,29,09,148,,31,38,182,27,32,52,001,31,36,52,277,*74
$GPGSV,4,4,16,40,84,353,38,41,58,082,27,49,32,274,,50,10,089,*77
$GLGSV,2,1,08,65,14,005,10,66,43,318,27,67,30,248,22,76,13,136,13*6D
$GLGSV,2,2,08,77,16,181,,86,12,141,15,87,48,110,21,88,44,009,26*62
$GNGLL,0419.79478,S,05539.77101,E,123011.00,A,A*69
$GNGRS,123011.00,1,1.0,-9.6,-0.5,0.4,-7.2,1.8,8.6,2.6,-124,,,*6E
$GNGRS,123011.00,1,-8.5,15.4,-10.3,-7.3,-2.6,-17.6,3.2,,,,,*6D
$GNGST,123011.00,66,,,,4.2,5.8,16*6B
$GNZDA,123011.00,22,05,2025,00,00*78
$GNGBS,123011.00,4.2,5.8,15.8,,,,*68
$GNTXT,01,01,01,More than 100 frame errors, UART RX was disabled*70
b04pH;
(![-//4& 4L{4%Ta:R 
Ym
A
B+>C^LMVOW0nX,'bpHRt[j$GNRMC,123012.00,A,0419.79479,S,05539.77100,E,0.119,,220525,,,A*78
$GNVTG,,T,,M,0.119,N,0.221,K,A*35
$GNGNS,123012.00,0419.79479,S,05539.77100,E,AA,16,0.65,30.8,-47.6,,*62
$GNGGA,123012.00,0419.79479,S,05539.77100,E,1,12,0.65,30.8,M,-47.6,M,,*4C
$GNGSA,A,3,32,28,27,18,26,31,16,10,08,,,,1.41,0.65,1.25*12
$GNGSA,A,3,66,87,65,88,67,86,76,,,,,,1.41,0.65,1.25*1F
$GPGSV,4,1,16,08,11,315,12,10,15,007,12,16,25,236,21,18,33,091,20*71
$GPGSV,4,2,16,23,02,045,,26,28,205,25,27,47,303,30,28,52,143,25*7D
$GPGSV,4,3,16,29,09,148,,31,38,182,27,32,52,001,30,36,52,277,*75
$GPGSV,4,4,16,40,84,353,37,41,58,082,29,49,32,274,,50,10,089,*76
$GLGSV,2,1,08,65,14,005,10,66,43,318,27,67,30,248,20,76,13,136,14*68
$GLGSV,2,2,08,77,16,181,,86,12,141,15,87,48,110,21,88,44,009,27*63
$GNGLL,0419.79479,S,05539.77100,E,123012.00,A,A*6A
$GNGRS,123012.00,1,3.3,-10.9,0.3,1.4,-5.6,1.7,9.6,3.0,25.4,,,*79
$GNGRS,123012.00,1,-7.8,12.7,14.4,-8.3,-1.6,8.5,2.4,,,,,*5D
$GNGST,123012.00,4343719,,,,4.2,5.7,16*58
$GNZDA,123012.00,22,05,2025,00,00*7B
$GNGBS,123012.00,4.2,5.7,15.8,,,,*64
$GNTXT,01,01,01,More than 100 frame errors, UART RX was disabled*70
b04XH
;
KL![-M//4& 4{4&Ta:R 
Ym
AB*>,CLMV9W0niX,bXH:x3$GNRMC,123013.00,A,0419.79479,S,05539.77112,E,0.150,,220525,,,A*77
$GNVTG,,T,,M,0.150,N,0.278,K,A*34
$GNGNS,123013.00,0419.79479,S,05539.77112,E,AA,16,0.65,30.7,-47.6,,*6F
$GNGGA,123013.00,0419.79479,S,05539.77112,E,1,12,0.65,30.7,M,-47.6,M,,*41
$GNGSA,A,3,32,28,27,18,26,31,16,10,08,,,,1.41,0.65,1.25*12
$GNGSA,A,3,66,87,65,88,67,86,76,,,,,,1.41,0.65,1.25*1F
$GPGSV,4,1,16,08,11,315,10,10,15,007,13,16,25,236,21,18,33,091,18*79
$GPGSV,4,2,16,23,02,045,,26,28,205,25,27,47,303,30,28,52,143,25*7D
$GPGSV,4,3,16,29,09,148,,31,38,182,26,32,52,001,31,36,52,277,*75
$GPGSV,4,4,16,40,84,353,38,41,58,082,28,49,32,274,,50,10,089,*78
$GLGSV,2,1,08,65,14,005,11,66,42,318,28,67,30,248,21,76,13,136,14*66
$GLGSV,2,2,08,77,16,181,,86,12,141,16,87,48,110,21,88,44,009,26*61
$GNGLL,0419.79479,S,05539.77112,E,123013.00,A,A*68
$GNGRS,123013.00,1,1.9,-10.7,-3.7,2.3,-4.3,4.1,8.4,3.3,25.3,,,*50
$GNGRS,123013.00,1,-9.8,11.3,14.1,-8.6,-2.6,8.3,1.7,,,,,*50
$GNGST,123013.00,4343719,,,,4.2,5.7,16*59
$GNZDA,123013.00,22,05,2025,00,00*7A
$GNGBS,123013.00,4.2,5.7,15.8,,,,*65
$GNTXT,01,01,01,More than 100 frame errors, UART RX was disabled*70
b04@H;N
d![&-a//4&O 4{4&Ta:R 
Ym
A>B*>CLMV9W0nX,5ob@H"|:$GNRMC,123014.00,A,0419.79477,S,05539.77128,E,0.248,,220525,,,A*7D
$GNVTG,,T,,M,0.248,N,0.459,K,A*3B
$GNGNS,123014.00,0419.79477,S,05539.77128,E,AA,16,0.69,30.5,-47.6,,*61
$GNGGA,123014.00,0419.79477,S,05539.77128,E,1,12,0.69,30.5,M,-47.6,M,,*4F
$GNGSA,A,3,32,28,27,18,26,31,16,10,08,,,,1.56,0.69,1.40*1B
$GNGSA,A,3,66,87,65,88,67,86,76,,,,,,1.56,0.69,1.40*16
$GPGSV,4,1,16,08,11,315,12,10,15,007,13,16,25,236,22,18,33,091,17*77
$GPGSV,4,2,16,23,02,045,,26,28,205,24,27,47,303,30,28,52,143,26*7F
$GPGSV,4,3,16,29,09,148,,31,38,182,26,32,52,001,31,36,52,277,*75
$GPGSV,4,4,16,40,84,353,38,41,58,082,28,49,32,274,,50,10,089,*78
$GLGSV,2,1,08,65,14,005,11,66,42,318,27,67,30,248,21,76,13,136,16*6B
$GLGSV,2,2,08,77,16,181,,86,12,141,12,87,48,110,22,88,44,009,25*65
$GNGLL,0419.79477,S,05539.77128,E,123014.00,A,A*68
$GNGRS,123014.00,1,6.9,-8.2,-5.0,2.9,-6.7,5.9,7.0,1.0,-22.3,,,*48
$GNGRS,123014.00,1,-10.0,9.9,160,-7.1,-3.3,-12.2,2.4,,,,,*62
$GNGST,123014.00,59,,,,4.2,5.7,16*6D
$GNZDA,123014.00,22,05,2025,00,00*7D
$GNGBS,123014.00,4.2,5.7,15.8,,,,*62
$GNTXT,01,01,01,More than 100 frame errors, UART RX was disabled*70
b04(H;
t![-//4& 4{4&Ta:R 
Ym
AB*>!CXLMVTW0n/X,Jb(H
$GNRMC,123015.00,A,0419.79479,S,05539.77131,E,0.070,,220525,,,A*73
$GNVTG,,T,,M,0.070,N,0.129,K,A*30
$GNGNS,123015.00,0419.79479,S,05539.77131,E,AA,16,0.65,30.7,-47.6,,*68
$GNGGA,123015.00,0419.79479,S,05539.77131,E,1,12,0.65,30.7,M,-47.6,M,,*46
$GNGSA,A,3,32,28,27,18,26,31,16,10,08,,,,1.41,0.65,1.25*12
$GNGSA,A,3,66,87,65,88,67,86,76,,,,,,1.41,0.65,1.25*1F
$GPGSV,4,1,16,08,11,315,12,10,15,007,13,16,25,236,22,18,33,091,14*74
$GPGSV,4,2,16,23,02,045,,26,28,205,23,27,47,303,29,28,52,143,26*70
$GPGSV,4,3,16,29,09,148,,31,38,182,26,32,52,001,30,36,52,277,*74
$GPGSV,4,4,16,40,84,353,38,41,58,082,28,49,32,274,,50,10,089,*78
$GLGSV,2,1,08,65,14,005,11,66,42,318,26,67,30,248,21,76,13,136,17*6B
$GLGSV,2,2,08,77,16,181,,86,12,141,18,87,48,110,23,88,44,009,25*6E
$GNGLL,0419.79479,S,05539.77131,E,123015.00,A,A*6F
$GNGRS,123015.00,1,6.9,-8.1,-1.1,2.8,-5.1,7.2,7.6,1.2,25.5,,,*6A
$GNGRS,123015.00,1,-9.9,8.1,14.6,-6.9,-1.7,8.5,2.7,,,,,*6C
$GNGST,123015.00,3071475,,,,4.2,5.7,16*53
$GNZDA,123015.00,22,05,2025,00,00*7C
$GNGBS,123015.00,4.2,5.7,15.8,,,,*63
$GNTXT,01,01,01,More than 100 frame errors, UART RX was disabled*70
b04H;
GQ![!-q//4& 4{4&Ta:R 
Ym
AB*>CLMVNW0ntX,.bH$GNRMC,123016.00,A,0419.79481,S,05539.77134,E,0.054,,220525,,,A*74
$GNVTG,,T,,M,0.054,N,0.100,K,A*3D
$GNGNS,123016.00,0419.79481,S,05539.77134,E,AA,16,0.65,30.9,-47.6,,*67
$GNGGA,123016.00,0419.79481,S,05539.77134,E,1,12,0.65,30.9,M,-47.6,M,,*49
$GNGSA,A,3,32,28,27,18,26,31,16,10,08,,,,1.41,0.65,1.25*12
$GNGSA,A,3,66,87,65,88,67,86,76,,,,,,1.41,0.65,1.25*1F
$GPGSV,4,1,16,08,11,315,11,10,15,007,12,16,25,236,22,18,33,091,15*77
$GPGSV,4,2,16,23,02,045,,26,28,205,23,27,47,303,29,28,52,143,25*73
$GPGSV,4,3,16,29,09,148,,31,38,182,26,32,52,001,29,36,52,277,*7C
$GPGSV,4,4,16,40,84,353,38,41,58,082,28,49,32,274,,50,10,089,*78
$GLGSV,2,1,08,65,14,005,11,66,42,318,26,67,30,248,20,76,13,136,17*6A
$GLGSV,2,2,08,77,16,181,,86,12,141,11,87,48,110,22,88,44,009,27*64
$GNGLL,0419.79481,S,05539.77134,E,123016.00,A,A*6E
$GNGRS,123016.00,1,7.5,-6.3,-0.4,2.9,-4.0,6.4,8.5,0.7,25.3,,,*64
$GNGRS,123016.00,1,-10.0,8.8,14.5,-7.2,-0.1,8.5,1.3,,,,,*5E
$GNGST,123016.00,3071477,,,,4.2,5.7,16*52
$GNZDA,123016.00,22,05,2025,00,00*7F
$GNGBS,123016.00,4.2,5.7,15.8,,,,*60
$GNTXT,01,01,01,More than 100 frame errors, UART RX was disabled*70
b04H
;
![-=//4L&h 4{4&Ta:R 
Y
mg
AH.B*>CLMVW0nX,,|bH`$GNRMC,123017.00,A,0419.79480,S,05539.77145,E,0.182,,220525,,,A*78
$GNVTG,,T,,M,0.182,N,0.337,K,A*31
$GNGNS,123017.00,0419.79480,S,05539.77145,E,AA,16,0.61,30.4,-47.6,,*68
$GNGGA,123017.00,0419.79480,S,05539.77145,E,1,12,0.61,30.4,M,-47.6,M,,*46
$GNGSA,A,3,32,28,27,18,26,31,16,10,08,,,,1.31,0.61,1.16*11
$GNGSA,A,3,66,87,65,88,67,86,76,,,,,,1.31,0.61,1.16*1C
$GPGSV,4,1,16,08,11,315,10,10,15,007,12,16,25,236,21,18,33,091,16*76
$GPGSV,4,2,16,23,02,045,,26,28,205,23,27,47,303,29,28,52,143,23*75
$GPGSV,4,3,16,29,09,148,,31,38,182,25,32,52,001,29,36,52,277,*7F
$GPGSV,4,4,16,40,84,353,38,41,58,082,27,49,32,274,,50,10,089,*77
$GLGSV,2,1,08,65,14,005,09,66,42,318,26,67,30,248,20,76,13,136,15*61
$GLGSV,2,2,08,77,16,181,,86,12,141,14,87,48,110,20,88,44,009,27*63
$GNGLL,0419.79480,S,05539.77145,E,123017.00,A,A*68
$GNGRS,123017.00,1,4.7,-6.9,-0.1,2.8,-2.0,6.2,9.0,-1.3,-13.3,,,*6E
$GNGRS,123017.00,1,-10.7,12.9,118,-5.8,-0.9,-21.4,2.2,,,,,*51
$GNGST,123017.00,74,,,,4.2,5.6,16*60
$GNZDA,123017.00,22,05,2025,00,00*7E
$GNGBS,123017.00,4.2,5.6,15.8,,,,*60
$GNTXT,01,01,01,More than 100 frame errors, UART RX was disabled*70
b04H;

![-Z//T4&/ 4f{4'Ta:R 
YmY
AB*>CyLQMVkW0nX,6DbHi$GNRMC,123018.00,A,0419.79484,S,05539.77144,E,0.062,,220525,,,A*7D
$GNVTG,,T,,M,0.062,N,0.115,K,A*3C
$GNGNS,123018.00,0419.79484,S,05539.77144,E,AA,16,0.63,30.8,-47.6,,*6C
$GNGGA,123018.00,0419.79484,S,05539.77144,E,1,12,0.63,30.8,M,-47.6,M,,*42
$GNGSA,A,3,32,28,27,18,26,31,16,10,08,,,,1.36,0.63,1.21*10
$GNGSA,A,3,66,87,65,88,67,86,76,,,,,,1.36,0.63,1.21*1D
$GPGSV,4,1,16,08,11,315,12,10,15,007,12,16,25,236,21,18,33,091,14*76
$GPGSV,4,2,16,23,02,045,,26,28,205,22,27,47,303,30,28,52,143,24*7B
$GPGSV,4,3,16,29,09,148,,31,38,182,26,32,52,001,29,36,52,277,*7C
$GPGSV,4,4,16,40,84,353,39,41,58,082,27,49,32,274,,50,10,089,*76
$GLGSV,2,1,08,65,14,005,07,66,42,318,26,67,30,248,18,76,13,136,11*60
$GLGSV,2,2,08,77,16,181,,86,12,141,12,87,48,110,17,88,44,009,26*60
$GNGLL,0419.79484,S,05539.77144,E,123018.00,A,A*62
$GNGRS,123018.00,1,8.7,-7.7,-1.7,2.8,-1.7,5.6,9.5,-3.1,25.7,,,*4F
$GNGRS,123018.00,1,-13.8,15.2,14.9,-4.6,-1.4,8.8,0.8,,,,,*65
$GNGST,123018.00,4206456,,,,4.2,5.6,16*5B
$GNZDA,123018.00,22,05,2025,00,00*71
