b040C
<

%B!X+
-22O$ 7h{4Ta:R 
Yl
A>B-;6CL
MVW1jX))3b0Cs$GNRMC,122444.00,A,0419.79516,S,05539.76667,E,0.453,,220525,,,A*7A
$GNVTG,,T,,M,0.453,N,0.839,K,A*3D
$GNGNS,122444.00,0419.79516,S,05539.76667,E,AA,13,0.77,34.4,-47.6,,*65
$GNGGA,122444.00,0419.79516,S,05539.76667,E,1,12,0.77,34.4,M,-47.6,M,,*4E
$GNGSA,A,3,32,28,27,18,26,31,16,10,,,,,1.83,0.77,1.66*10
$GNGSA,A,3,66,65,88,67,76,,,,,,,,1.83,0.77,1.66*14
$GPGSV,4,1,16,08,10,316,,10,15,005,10,16,25,238,24,18,33,088,18*78
$GPGSV,4,2,16,23,02,043,,26,28,208,10,27,45,306,17,28,50,147,15*77
$GPGSV,4,3,16,29,11,148,,31,36,184,14,32,55,360,15,36,52,277,*70
$GPGSV,4,4,16,40,84,353,,41,58,082,29,49,32,274,,50,10,089,*72
$GLGSV,2,1,08,65,16,004,09,66,45,315,19,67,29,244,25,76,13,138,10*6E
$GLGSV,2,2,08,77,16,184,,86,13,139,,87,49,106,14,88,41,008,15*69
$GNGLL,0419.79516,S,05539.76667,E,122444.00,A,A*63
$GNGRS,122444.00,1,-11.0,-4.3,-2.3,-3.1,42.8,17.2,0.1,169,,,,*7A
$GNGRS,122444.00,1,-4.6,161,5.5,1.9,-3.2,,,,,,,*68
$GNGST,122444.00,86,,,,8.9,7.4,23*6F
$GNZDA,122444.00,22,05,2025,00,00*7D
$GNGBS,122444.00,8.9,7.4,22.6,,,,*6E
$GNTXT,01,01,01,More than 100 frame errors, UART RX was disabled*70
b04C
<
L!X5+-22$U 7h|{4Ta:R 
Ylr
A
B-;CLMVW1jJX)bCvm$GNRMC,122445.00,A,0419.79545,S,05539.76717,E,1.019,,220525,,,A*70
$GNVTG,,T,,M,1.019,N,1.888,K,A*3D
$GNGNS,122445.00,0419.79545,S,05539.76717,E,AA,13,0.74,34.5,-47.6,,*66
$GNGGA,122445.00,0419.79545,S,05539.76717,E,1,12,0.74,34.5,M,-47.6,M,,*4D
$GNGSA,A,3,32,28,27,18,26,31,16,10,,,,,1.82,0.74,1.66*12
$GNGSA,A,3,66,65,88,67,76,,,,,,,,1.82,0.74,1.66*16
$GPGSV,4,1,16,08,10,316,,10,15,005,09,16,25,238,23,18,33,088,18*77
$GPGSV,4,2,16,23,02,043,,26,28,207,12,27,45,306,28,28,50,147,15*76
$GPGSV,4,3,16,29,11,148,,31,36,184,15,32,55,360,15,36,52,277,*71
$GPGSV,4,4,16,40,84,353,,41,58,082,30,49,32,274,,50,10,089,*7A
$GLGSV,2,1,08,65,16,004,10,66,45,315,17,67,29,244,24,76,13,138,12*6B
$GLGSV,2,2,08,77,16,184,,86,13,139,,87,49,106,14,88,41,008,16*6A
$GNGLL,0419.79545,S,05539.76717,E,122445.00,A,A*62
$GNGRS,122445.00,1,-14.1,-3.8,-0.7,-4.6,12.8,16.2,-2.7,21.2,,,,*79
$GNGRS,122445.00,1,-11.0,12.6,7.2,2.3,7.7,,,,,,,*56
$GNGST,122445.00,3436030,,,,9.0,7.5,23*58
$GNZDA,122445.00,22,05,2025,00,00*7C
$GNGBS,122445.00,9.0,7.5,22.7,,,,*67
$GNTXT,01,01,01,More than 100 frame errors, UART RX was disabled*70
b04C
<
=!Xp+
-2{2$ 7h<{4Ta:R 
Yl
A
B-;jC
LMVW1jX)RbCz~$GNRMC,122446.00,A,0419.79546,S,05539.76703,E,0.258,,220525,,,A*73
$GNVTG,,T,,M,0.258,N,0.479,K,A*38
$GNGNS,122446.00,0419.79546,S,05539.76703,E,AA,12,0.74,34.6,-47.6,,*61
$GNGGA,122446.00,0419.79546,S,05539.76703,E,1,12,0.74,34.6,M,-47.6,M,,*4B
$GNGSA,A,3,32,28,27,18,26,31,16,,,,,,1.82,0.74,1.66*13
$GNGSA,A,3,66,65,88,67,76,,,,,,,,1.82,0.74,1.66*16
$GPGSV,4,1,16,08,10,316,,10,15,005,07,16,25,238,22,18,33,088,18*78
$GPGSV,4,2,16,23,02,043,,26,28,207,10,27,45,306,28,28,50,147,17*76
$GPGSV,4,3,16,29,11,148,,31,36,184,15,32,55,360,23,36,52,277,*74
$GPGSV,4,4,16,40,84,353,,41,58,082,28,49,32,274,,50,10,089,*73
$GLGSV,2,1,08,65,16,004,10,66,45,315,18,67,29,244,25,76,13,138,14*63
$GLGSV,2,2,08,77,16,184,,86,13,139,,87,49,106,15,88,41,008,16*6B
$GNGLL,0419.79546,S,05539.76703,E,122446.00,A,A*67
$GNGRS,122446.00,1,-14.8,-3.4,1.2,-4.0,12.5,12.8,-1.0,,,,,*48
$GNGRS,122446.00,1,-11.7,12.4,7.7,2.7,7.9,,,,,,,*5F
$GNGST,122446.00,3438730,,,,8.9,7.6,23*59
$GNZDA,122446.00,22,05,2025,00,00*7F
$GNGBS,122446.00,8.9,7.6,22.8,,,,*60
$GNTXT,01,01,01,More than 100 frame errors, UART RX was disabled*70
b04C
<
e!Xk+-2K3$ 7h{4Ta:R 
Y
lj
AB-;hC SLMVW1jX)ebC~U.$GNRMC,122447.00,A,0419.79582,S,05539.76699,E,0.185,,220525,,,A*7B
$GNVTG,,T,,M,0.185,N,0.342,K,A*34
$GNGNS,122447.00,0419.79582,S,05539.76699,E,AA,14,0.82,35.2,-47.6,,*60
$GNGGA,122447.00,0419.79582,S,05539.76699,E,1,12,0.82,35.2,M,-47.6,M,,*4C
$GNGSA,A,3,32,28,27,18,26,31,16,10,,,,,2.11,0.82,1.94*1F
$GNGSA,A,3,66,87,65,88,67,76,,,,,,,2.11,0.82,1.94*14
$GPGSV,4,1,16,08,10,316,,10,15,005,08,16,25,238,26,18,33,088,17*7C
$GPGSV,4,2,16,23,02,043,,26,28,207,11,27,45,306,30,28,51,146,20*7A
$GPGSV,4,3,16,29,11,148,,31,36,184,14,32,55,360,30,36,52,277,*77
$GPGSV,4,4,16,40,84,353,,41,58,082,30,49,32,274,,50,10,089,*7A
$GLGSV,2,1,08,65,16,004,11,66,45,315,28,67,29,244,32,76,13,138,18*6B
$GLGSV,2,2,08,77,16,184,,86,13,139,,87,49,106,20,88,41,008,18*63
$GNGLL,0419.79582,S,05539.76699,E,122447.00,A,A*6C
$GNGRS,122447.00,1,-13.5,-4.9,3.3,-4.0,-0.9,10.5,1.0,-23.6,,,,*4E
$GNGRS,122447.00,1,-11.8,-20.7,-56.4,7.1,-1.7,29.9,,,,,,*5E
$GNGST,122447.00,64,,,,8.8,7.5,23*60
$GNZDA,122447.00,22,05,2025,00,00*7E
$GNGBS,122447.00,8.8,7.5,22.8,,,,*63
$GNTXT,01,01,01,More than 100 frame errors, UART RX was disabled*70
b04C
<
?a!X+7-273$ 7h{4Ta:R 
Yl
A
B-;C LMVW1jX)bC-$GNRMC,122448.00,A,0419.79587,S,05539.76695,E,0.142,,220525,,,A*76
$GNVTG,,T,,M,0.142,N,0.263,K,A*3D
$GNGNS,122448.00,0419.79587,S,05539.76695,E,AA,14,0.71,34.7,-47.6,,*6E
$GNGGA,122448.00,0419.79587,S,05539.76695,E,1,12,0.71,34.7,M,-47.6,M,,*42
$GNGSA,A,3,32,28,27,18,26,31,16,10,,,,,1.71,0.71,1.56*18
$GNGSA,A,3,66,87,65,88,67,76,,,,,,,1.71,0.71,1.56*13
$GPGSV,4,1,16,08,10,316,,10,15,005,11,16,25,238,27,18,33,088,16*74
$GPGSV,4,2,16,23,02,043,,26,28,207,14,27,45,306,31,28,51,146,20*7E
$GPGSV,4,3,16,29,11,148,,31,36,184,15,32,55,360,29,36,52,277,*7E
$GPGSV,4,4,16,40,84,353,,41,58,082,28,49,32,274,,50,10,089,*73
$GLGSV,2,1,08,65,16,004,10,66,45,315,28,67,29,244,32,76,13,138,15*67
$GLGSV,2,2,08,77,16,184,,86,13,139,,87,49,106,24,88,41,008,20*6C
$GNGLL,0419.79587,S,05539.76695,E,122448.00,A,A*6A
$GNGRS,122448.00,1,-10.1,-5.8,0.6,-3.6,13.3,10.1,3.5,21.1,,,,*7F
$GNGRS,122448.00,1,-10.8,-17.8,12.5,6.6,-2.6,7.9,,,,,,*4F
$GNGST,122448.00,3302535,,,,8.6,7.3,23*54
$GNZDA,122448.00,22,05,2025,00,00*71
$GNGBS,122448.00,8.6,7.3,22.8,,,,*64
$GNTXT,01,01,01,More than 100 frame errors, UART RX was disabled*70
b04C
<
[!X+[#-2a3$ 7hj{4Ta!:R 
Yl'
AB-;C!lL
MVW1jX)jbC$GNRMC,122449.00,A,0419.79571,S,05539.76675,E,0.105,,220525,,,A*73
$GNVTG,,T,,M,0.105,N,0.195,K,A*34
$GNGNS,122449.00,0419.79571,S,05539.76675,E,AA,14,0.71,34.2,-47.6,,*6D
$GNGGA,122449.00,0419.79571,S,05539.76675,E,1,12,0.71,34.2,M,-47.6,M,,*41
$GNGSA,A,3,32,28,27,18,26,31,16,10,,,,,1.71,0.71,1.56*18
$GNGSA,A,3,66,87,65,88,67,76,,,,,,,1.71,0.71,1.56*13
$GPGSV,4,1,16,08,10,316,,10,15,005,12,16,25,238,29,18,33,088,17*78
$GPGSV,4,2,16,23,02,043,,26,28,207,22,27,45,306,35,28,51,146,21*7E
$GPGSV,4,3,16,29,11,148,,31,36,184,17,32,55,360,29,36,52,277,*7C
$GPGSV,4,4,16,40,84,353,,41,58,082,33,49,32,274,,50,10,089,*79
$GLGSV,2,1,08,65,16,004,12,66,45,315,27,67,29,244,33,76,13,138,15*6B
$GLGSV,2,2,08,77,16,184,,86,13,139,,87,49,106,24,88,41,008,23*6F
$GNGLL,0419.79571,S,05539.76675,E,122449.00,A,A*6C
$GNGRS,122449.00,1,-4.1,-6.0,1.0,-1.2,13.7,5.4,3.5,20.7,,,,*73
$GNGRS,122449.00,1,-10.1,-17.8,12.3,7.8,-4.0,5.2,,,,,,*47
$GNGST,122449.00,4973869,,,,8.4,7.2,23*59
$GNZDA,122449.00,22,05,2025,00,00*70
$GNGBS,122449.00,8.4,7.2,22.7,,,,*69
$GNTXT,01,01,01,More than 100 frame errors, UART RX was disabled*70
b04C
<
 !XF+!-23m% 7hL{4Ta:R 
Yl
A=B-;aC!LMVW1jX)abCf$GNRMC,122450.00,A,0419.79571,S,05539.76694,E,0.244,,220525,,,A*72
$GNVTG,,T,,M,0.244,N,0.452,K,A*3C
$GNGNS,122450.00,0419.79571,S,05539.76694,E,AA,13,0.74,32.5,-47.6,,*69
$GNGGA,122450.00,0419.79571,S,05539.76694,E,1,12,0.74,32.5,M,-47.6,M,,*42
$GNGSA,A,3,32,28,27,18,26,31,16,,,,,,1.81,0.74,1.65*13
$GNGSA,A,3,66,87,65,88,67,76,,,,,,,1.81,0.74,1.65*19
$GPGSV,4,1,16,08,10,316,,10,15,005,06,16,25,238,28,18,33,088,18*73
$GPGSV,4,2,16,23,02,043,,26,28,207,18,27,45,306,33,28,51,146,20*70
$GPGSV,4,3,16,29,11,148,,31,37,184,15,32,55,360,28,36,52,277,*7E
$GPGSV,4,4,16,40,84,353,,41,58,082,28,49,32,274,,50,10,089,*73
$GLGSV,2,1,08,65,16,004,08,66,45,315,28,67,29,244,33,76,13,138,14*6E
$GLGSV,2,2,08,77,16,184,,86,13,139,,87,49,106,22,88,41,008,22*68
$GNGLL,0419.79571,S,05539.76694,E,122450.00,A,A*6B
$GNGRS,122450.00,1,-12.0,-6.6,2.0,-1.9,12.2,4.7,5.1,,,,,*5C
$GNGRS,122450.00,1,-9.3,-21.5,158,7.4,-0.8,5.0,,,,,,*5D
$GNGST,122450.00,74,,,,8.3,7.1,23*68
$GNZDA,122450.00,22,05,2025,00,00*78
$GNGBS,122450.00,8.3,7.1,22.7,,,,*65
$GNTXT,01,01,01,More than 100 frame errors, UART RX was disabled*70
b04C
<
*!X+P!-2`3
% 7h{4Ta:R 
Ylv
A
B-;C!LMVW1jX)bCj$GNRMC,122451.00,A,0419.79568,S,05539.76685,E,0.207,,220525,,,A*7C
$GNVTG,,T,,M,0.207,N,0.383,K,A*30
$GNGNS,122451.00,0419.79568,S,05539.76685,E,AA,14,0.71,31.8,-47.6,,*6C
$GNGGA,122451.00,0419.79568,S,05539.76685,E,1,12,0.71,31.8,M,-47.6,M,,*40
$GNGSA,A,3,32,28,27,18,26,31,16,10,,,,,1.71,0.71,1.56*18
$GNGSA,A,3,66,87,65,88,67,76,,,,,,,1.71,0.71,1.56*13
$GPGSV,4,1,16,08,10,316,,10,15,005,09,16,25,238,28,18,33,088,18*7C
$GPGSV,4,2,16,23,02,043,,26,28,207,19,27,45,306,33,28,51,146,19*7B
$GPGSV,4,3,16,29,11,148,,31,37,184,10,32,55,360,28,36,52,277,*7B
$GPGSV,4,4,16,40,84,353,,41,58,082,30,49,32,274,,50,10,089,*7A
$GLGSV,2,1,08,65,16,004,10,66,45,315,29,67,29,244,33,76,13,138,17*65
$GLGSV,2,2,08,77,16,184,,86,13,139,,87,49,106,22,88,41,008,21*6B
$GNGLL,0419.79568,S,05539.76685,E,122451.00,A,A*62
$GNGRS,122451.00,1,-8.6,-8.2,3.5,-2.3,11.0,4.5,7.2,20.9,,,,*70
$GNGRS,122451.00,1,-7.9,-16.4,12.5,9.7,-3.8,7.1,,,,,,*74
$GNGST,122451.00,83214,,,,8.2,6.9,23*5E
$GNZDA,122451.00,22,05,2025,00,00*79
$GNGBS,122451.00,8.2,6.9,22.6,,,,*6D
$GNTXT,01,01,01,More than 100 frame errors, UART RX was disabled*70
b04pC
<

'!X=+ -23+% 7h{4Ta:R 
Yl
AB-;C L)MVW1jX)'bpCR6$GNRMC,122452.00,A,0419.79573,S,05539.76688,E,0.340,,220525,,,A*7A
$GNVTG,,T,,M,0.340,N,0.630,K,A*3F
$GNGNS,122452.00,0419.79573,S,05539.76688,E,AA,14,0.71,30.9,-47.6,,*68
$GNGGA,122452.00,0419.79573,S,05539.76688,E,1,12,0.71,30.9,M,-47.6,M,,*44
$GNGSA,A,3,32,28,27,18,26,31,16,10,,,,,1.71,0.71,1.56*18
$GNGSA,A,3,66,87,65,88,67,76,,,,,,,1.71,0.71,1.56*13
$GPGSV,4,1,16,08,10,316,,10,15,005,10,16,25,238,28,18,33,088,19*75
$GPGSV,4,2,16,23,02,043,,26,28,207,20,27,45,306,32,28,51,146,17*7E
$GPGSV,4,3,16,29,11,148,,31,37,184,15,32,55,360,30,36,52,277,*77
$GPGSV,4,4,16,40,84,353,,41,58,082,27,49,32,274,,50,10,089,*7C
$GLGSV,2,1,08,65,16,004,08,66,45,315,29,67,29,244,32,76,13,138,19*63
$GLGSV,2,2,08,77,16,184,,86,13,139,,87,49,106,23,88,41,008,19*61
$GNGLL,0419.79573,S,05539.76688,E,122452.00,A,A*66
$GNGRS,122452.00,1,-8.9,-7.2,1.5,-2.0,9.7,4.2,8.1,20.5,,,,*4B
$GNGRS,122452.00,1,-8.0,-13.3,12.3,8.1,-5.0,8.1,,,,,,*73
$GNGST,122452.00,83297,,,,8.1,6.8,23*54
$GNZDA,122452.00,22,05,2025,00,00*7A
$GNGBS,122452.00,8.1,6.8,22.5,,,,*6F
$GNTXT,01,01,01,More than 100 frame errors, UART RX was disabled*70
b04XC
<
9!X+! -2p3%b 7h{4Ta:R 
Yl
A
B-;5C LMVW1jsX)TPbXC:e$GNRMC,122453.00,A,0419.79577,S,05539.76679,E,0.132,,220525,,,A*76
$GNVTG,,T,,M,0.132,N,0.245,K,A*3E
$GNGNS,122453.00,0419.79577,S,05539.76679,E,AA,14,0.71,30.5,-47.6,,*6F
$GNGGA,122453.00,0419.79577,S,05539.76679,E,1,12,0.71,30.5,M,-47.6,M,,*43
$GNGSA,A,3,32,28,27,18,26,31,16,10,,,,,1.71,0.71,1.56*18
$GNGSA,A,3,66,87,65,88,67,76,,,,,,,1.71,0.71,1.56*13
$GPGSV,4,1,16,08,10,316,,10,15,005,11,16,25,238,29,18,33,088,20*7F
$GPGSV,4,2,16,23,02,043,,26,28,207,20,27,45,306,32,28,51,146,14*7D
$GPGSV,4,3,16,29,11,148,,31,37,184,19,32,55,360,30,36,52,277,*7B
$GPGSV,4,4,16,40,84,353,,41,58,082,,49,32,274,,50,10,089,*79
$GLGSV,2,1,08,65,16,004,10,66,45,315,29,67,29,244,32,76,13,138,21*61
$GLGSV,2,2,08,77,16,184,,86,13,139,,87,49,106,24,88,41,008,21*6D
$GNGLL,0419.79577,S,05539.76679,E,122453.00,A,A*6D
$GNGRS,122453.00,1,-3.6,-7.4,3.7,-0.7,8.0,3.5,12.6,-94.2,,,,*52
$GNGRS,122453.00,1,-12.3,-14.2,-59.4,8.5,-7.9,9.4,,,,,,*62
$GNGST,122453.00,59,,,,7.9,6.6,22*66
$GNZDA,122453.00,22,05,2025,00,00*7B
$GNGBS,122453.00,7.9,6.6,22.3,,,,*61
$GNTXT,01,01,01,More than 100 frame errors, UART RX was disabled*70
b04@C
<
FY!X+s -2%3 %  7h{4Ta:R 
Yl
A
B-;
CXLxMVW1jX)b@C"=$GNRMC,122454.00,A,0419.79587,S,05539.76679,E,0.221,,220525,,,A*7F
$GNVTG,,T,,M,0.221,N,0.409,K,A*31
$GNGNS,122454.00,0419.79587,S,05539.76679,E,AA,14,0.71,30.0,-47.6,,*62
$GNGGA,122454.00,0419.79587,S,05539.76679,E,1,12,0.71,30.0,M,-47.6,M,,*4E
$GNGSA,A,3,32,28,27,18,26,31,16,10,,,,,1.71,0.71,1.56*18
$GNGSA,A,3,66,87,65,88,67,76,,,,,,,1.71,0.71,1.56*13
$GPGSV,4,1,16,08,10,316,,10,15,005,11,16,25,238,28,18,33,088,20*7E
$GPGSV,4,2,16,23,02,043,,26,28,207,19,27,45,306,32,28,51,146,17*74
$GPGSV,4,3,16,29,11,148,,31,37,184,20,32,55,360,32,36,52,277,*73
$GPGSV,4,4,16,40,84,353,,41,58,082,,49,32,274,,50,10,089,*79
$GLGSV,2,1,08,65,16,004,10,66,45,315,28,67,29,244,31,76,13,138,21*63
$GLGSV,2,2,08,77,16,184,,86,13,139,,87,49,106,26,88,41,008,22*6C
$GNGLL,0419.79587,S,05539.76679,E,122454.00,A,A*65
$GNGRS,122454.00,1,-5.0,-7.4,5.5,-0.4,6.3,5.4,6.0,21.2,,,,*48
$GNGRS,122454.00,1,-15.3,-13.0,12.6,7.4,-4.2,8.9,,,,,,*4D
$GNGST,122454.00,3300339,,,,7.9,6.5,22*57
$GNZDA,122454.00,22,05,2025,00,00*7C
$GNGBS,122454.00,7.9,6.5,22.3,,,,*65
$GNTXT,01,01,01,More than 100 frame errors, UART RX was disabled*70
b04(C
<
!XU+"-2N3V%k 7h{4Ta:R 
Yl
AB-;0C^LMVW1j,X)?b(C
n$GNRMC,122455.00,A,0419.79570,S,05539.76669,E,0.110,,220525,,,A*76
$GNVTG,,T,,M,0.110,N,0.203,K,A*3C
$GNGNS,122455.00,0419.79570,S,05539.76669,E,AA,14,0.71,28.6,-47.6,,*65
$GNGGA,122455.00,0419.79570,S,05539.76669,E,1,12,0.71,28.6,M,-47.6,M,,*49
$GNGSA,A,3,32,28,27,18,26,31,16,10,,,,,1.71,0.71,1.56*18
$GNGSA,A,3,66,87,65,88,67,76,,,,,,,1.71,0.71,1.56*13
$GPGSV,4,1,16,08,10,316,,10,15,005,09,16,25,238,28,18,33,088,20*77
$GPGSV,4,2,16,23,02,043,,26,28,207,20,27,45,306,34,28,51,146,15*7A
$GPGSV,4,3,16,29,11,148,,31,37,184,18,32,55,360,30,36,52,277,*7A
$GPGSV,4,4,16,40,84,353,,41,58,082,,49,32,274,,50,10,089,*79
$GLGSV,2,1,08,65,16,004,08,66,45,315,28,67,29,244,31,76,13,138,20*6B
$GLGSV,2,2,08,77,16,184,,86,13,139,,87,49,106,31,88,41,008,23*6B
$GNGLL,0419.79570,S,05539.76669,E,122455.00,A,A*6D
$GNGRS,122455.00,1,-6.0,-6.8,3.3,0.9,4.1,1.1,6.7,20.4,,,,*66
$GNGRS,122455.00,1,-12.3,-9.8,11.9,9.8,-6.7,10.0,,,,,,*41
$GNGST,122455.00,3300339,,,,7.8,6.3,22*51
$GNZDA,122455.00,22,05,2025,00,00*7D
$GNGBS,122455.00,7.8,6.3,22.2,,,,*62
$GNTXT,01,01,01,More than 100 frame errors, UART RX was disabled*70
b04C
<
m!X*+( -23% 7h{4Ta:R 
Yl
A5B-;WCLMVW1jX)(bC$GNRMC,122456.00,A,0419.79550,S,05539.76671,E,0.217,,220525,,,A*7A
$GNVTG,,T,,M,0.217,N,0.402,K,A*3F
$GNGNS,122456.00,0419.79550,S,05539.76671,E,AA,14,0.84,27.6,-47.6,,*68
$GNGGA,122456.00,0419.79550,S,05539.76671,E,1,12,0.84,27.6,M,-47.6,M,,*44
$GNGSA,A,3,32,28,27,18,26,31,16,10,,,,,2.30,0.84,2.14*11
$GNGSA,A,3,66,87,65,88,67,76,,,,,,,2.30,0.84,2.14*1A
$GPGSV,4,1,16,08,10,316,,10,15,005,08,16,25,238,28,18,33,088,20*76
$GPGSV,4,2,16,23,02,043,,26,28,207,22,27,45,306,32,28,51,146,26*7E
$GPGSV,4,3,16,29,11,148,,31,37,184,14,32,55,360,29,36,52,277,*7E
$GPGSV,4,4,16,40,84,353,,41,58,082,,49,32,274,,50,10,089,*79
$GLGSV,2,1,08,65,16,004,09,66,45,315,30,67,29,244,31,76,13,138,18*68
$GLGSV,2,2,08,77,16,184,,86,13,139,,87,49,106,29,88,41,008,23*62
$GNGLL,0419.79550,S,05539.76671,E,122456.00,A,A*65
$GNGRS,122456.00,1,-6.1,-8.3,2.4,3.0,3.0,-7.5,6.8,-127,,,,*4A
$GNGRS,122456.00,1,-6.8,-5.4,-58.3,10.4,-10.8,9.8,,,,,,*6A
$GNGST,122456.00,47,,,,7.7,6.2,22*66
$GNZDA,122456.00,22,05,2025,00,00*7E
$GNGBS,122456.00,7.7,6.2,22.1,,,,*6C
$GNTXT,01,01,01,More than 100 frame errors, UART RX was disabled*70
b04C
<
z!X+9-23 % 7h}{4Ta:R 
Yl
AB-;{C"LdMVW1j#X)w-bC,$GNRMC,122457.00,A,0419.79523,S,05539.76680,E,0.179,,220525,,,A*7A
$GNVTG,,T,,M,0.179,N,0.331,K,A*33
$GNGNS,122457.00,0419.79523,S,05539.76680,E,AA,14,0.71,26.5,-47.6,,*6B
$GNGGA,122457.00,0419.79523,S,05539.76680,E,1,12,0.71,26.5,M,-47.6,M,,*47
$GNGSA,A,3,32,28,27,18,26,31,16,10,,,,,1.71,0.71,1.56*18
$GNGSA,A,3,66,87,65,88,67,76,,,,,,,1.71,0.71,1.56*13
$GPGSV,4,1,16,08,10,316,,10,15,005,11,16,25,238,28,18,33,088,19*74
$GPGSV,4,2,16,23,02,043,,26,28,207,23,27,45,306,31,28,51,146,26*7C
$GPGSV,4,3,16,29,11,148,,31,37,184,11,32,55,360,28,36,52,277,*7A
$GPGSV,4,4,16,40,84,353,,41,58,082,,49,32,274,,50,10,089,*79
$GLGSV,2,1,08,65,16,004,13,66,45,315,31,67,29,244,34,76,13,138,20*6C
$GLGSV,2,2,08,77,16,184,,86,13,139,,87,49,106,28,88,41,008,25*65
$GNGLL,0419.79523,S,05539.76680,E,122457.00,A,A*6E
$GNGRS,122457.00,1,-3.9,-9.9,5.1,2.6,0.6,-7.5,6.3,20.4,,,,*47
$GNGRS,122457.00,1,-3.9,-4.8,11.8,8.9,-10.5,8.7,,,,,,*7E
$GNGST,122457.00,3299292,,,,7.6,6.0,22*5F
$GNZDA,122457.00,22,05,2025,00,00*7F
$GNGBS,122457.00,7.6,6.0,22.0,,,,*6F
$GNTXT,01,01,01,More than 100 frame errors, UART RX was disabled*70
b04C
<
!X1+ -2^3% 7h{4Ta:R 
Yl%
A>B-;,CL
MVW1jX)bC$GNRMC,122458.00,A,0419.79503,S,05539.76686,E,0.110,,220525,,,A*7E
$GNVTG,,T,,M,0.110,N,0.204,K,A*3B
$GNGNS,122458.00,0419.79503,S,05539.76686,E,AA,14,0.71,25.7,-47.6,,*61
$GNGGA,122458.00,0419.79503,S,05539.76686,E,1,12,0.71,25.7,M,-47.6,M,,*4D
$GNGSA,A,3,32,28,27,18,26,31,16,10,,,,,1.71,0.71,1.56*18
$GNGSA,A,3,66,87,65,88,67,76,,,,,,,1.71,0.71,1.56*13
$GPGSV,4,1,16,08,10,316,,10,15,005,09,16,25,238,28,18,33,088,18*7C
$GPGSV,4,2,16,23,02,043,,26,28,207,24,27,45,306,32,28,51,146,26*78
$GPGSV,4,3,16,29,11,148,,31,37,184,11,32,55,360,28,36,52,277,*7A
$GPGSV,4,4,16,40,84,353,,41,58,082,,49,32,274,,50,10,089,*79
$GLGSV,2,1,08,65,16,004,08,66,45,315,30,67,29,244,30,76,13,138,19*69
$GLGSV,2,2,08,77,16,184,,86,13,139,,87,49,106,28,88,41,008,25*65
$GNGLL,0419.79503,S,05539.76686,E,122458.00,A,A*65
$GNGRS,122458.00,1,-2.8,-11.3,3.5,3.0,-1.3,-5.8,4.1,19.5,,,,*53
$GNGRS,122458.00,1,3.0,2.3,10.9,9.1,-10.2,7.8,,,,,,*7B
$GNGST,122458.00,3299292,,,,7.4,5.9,22*58
$GNZDA,122458.00,22,05,2025,00,00*70
$GNGBS,122458.00,7.4,5.9,21.8,,,,*63
$GNTXT,01,01,01,More than 100 frame errors, UART RX was disabled*70
b04C
<

?!X+ -23%H 7h={4Ta:R 
Y
l
A
B-;{CRLMVW1jpX)ObCs$GNRMC,122459.00,A,0419.79481,S,05539.76698,E,0.074,,220525,,,A*78
$GNVTG,,T,,M,0.074,N,0.138,K,A*34
$GNGNS,122459.00,0419.79481,S,05539.76698,E,AA,14,0.84,24.8,-47.6,,*60
$GNGGA,122459.00,0419.79481,S,05539.76698,E,1,12,0.84,24.8,M,-47.6,M,,*4C
$GNGSA,A,3,32,28,27,18,26,31,16,10,,,,,2.30,0.84,2.14*11
$GNGSA,A,3,66,87,65,88,67,76,,,,,,,2.30,0.84,2.14*1A
$GPGSV,4,1,16,08,10,316,,10,15,005,10,16,25,238,28,18,33,088,19*75
$GPGSV,4,2,16,23,02,043,,26,28,207,25,27,45,306,32,28,51,146,26*79
$GPGSV,4,3,16,29,11,148,,31,37,184,14,32,55,360,27,36,52,277,*70
$GPGSV,4,4,16,40,84,353,,41,58,082,,49,32,274,,50,10,089,*79
$GLGSV,2,1,08,65,16,004,10,66,45,315,29,67,29,244,31,76,13,138,19*69
$GLGSV,2,2,08,77,16,184,,86,13,139,,87,49,106,27,88,41,008,25*6A
$GNGLL,0419.79481,S,05539.76698,E,122459.00,A,A*60
$GNGRS,122459.00,1,5.7,-10.7,2.2,4.5,-3.0,-7.0,5.7,-37.1,,,,*5F
$GNGRS,122459.00,1,-6.5,3.7,-137,7.9,-12.0,7.3,,,,,,*51
$GNGST,122459.00,45,,,,7.3,5.8,22*66
$GNZDA,122459.00,22,05,2025,00,00*71
$GNGBS,122459.00,7.3,5.8,21.7,,,,*6B
$GNTXT,01,01,01,More than 100 frame errors, UART RX was disabled*70
b04C
<
!X+ -23% 7hF{4Ta:R 
Yl
AB-;CLMVW1jX)bCKd$GNRMC,122500.00,A,0419.79461,S,05539.76711,E,0.062,,220525,,,A*7C
$GNVTG,,T,,M,0.062,N,0.115,K,A*3C
$GNGNS,122500.00,0419.79461,S,05539.76711,E,AA,14,0.71,23.7,-47.6,,*61
$GNGGA,122500.00,0419.79461,S,05539.76711,E,1,12,0.71,23.7,M,-47.6,M,,*4D
$GNGSA,A,3,32,28,27,18,26,31,16,10,,,,,1.71,0.71,1.56*18
$GNGSA,A,3,66,87,65,88,67,76,,,,,,,1.71,0.71,1.56*13
$GPGSV,4,1,16,08,10,316,18,10,15,005,13,16,25,238,27,18,33,088,20*7A
$GPGSV,4,2,16,23,02,043,,26,28,207,25,27,45,306,32,28,51,146,25*7A
$GPGSV,4,3,16,29,11,148,,31,37,184,15,32,55,360,27,36,52,277,*71
$GPGSV,4,4,16,40,84,353,,41,58,082,,49,32,274,,50,10,089,*79
$GLGSV,2,1,08,65,16,004,11,66,45,315,29,67,29,244,31,76,13,138,19*68
$GLGSV,2,2,08,77,16,184,,86,13,139,,87,49,106,28,88,41,008,26*66
$GNGLL,0419.79461,S,05539.76711,E,122500.00,A,A*63
$GNGRS,122500.00,1,3.3,-11.3,0.1,4.7,-2.3,-8.1,4.4,20.4,,,,*76
$GNGRS,122500.00,1,-10.6,1.5,11.9,7.3,-8.7,7.0,,,,,,*52
$GNGST,122500.00,3326,,,,7.2,5.7,21*63
$GNZDA,122500.00,22,05,2025,00,00*7C
$GNGBS,122500.00,7.2,5.7,21.5,,,,*6A
$GNTXT,01,01,01,More than 100 frame errors, UART RX was disabled*70
b04C
<

!X+ -23,% 7h{4Ta:R 
Yl
AGB-;5CHLMVxW1j7X)IbCz#$GNRMC,122501.00,A,0419.79438,S,05539.76721,E,0.073,,220525,,,A*72
$GNVTG,,T,,M,0.073,N,0.136,K,A*3D
$GNGNS,122501.00,0419.79438,S,05539.76721,E,AA,14,0.71,22.5,-47.6,,*6C
$GNGGA,122501.00,0419.79438,S,05539.76721,E,1,12,0.71,22.5,M,-47.6,M,,*40
$GNGSA,A,3,32,28,27,18,26,31,16,10,,,,,1.71,0.71,1.56*18
$GNGSA,A,3,66,87,65,88,67,76,,,,,,,1.71,0.71,1.56*13
$GPGSV,4,1,16,08,10,316,15,10,15,005,10,16,25,238,28,18,33,088,20*7B
$GPGSV,4,2,16,23,02,043,,26,28,207,25,27,45,306,32,28,51,146,25*7A
$GPGSV,4,3,16,29,11,148,,31,37,184,18,32,55,360,28,36,52,277,*73
$GPGSV,4,4,16,40,84,353,,41,58,082,,49,32,274,,50,10,089,*79
$GLGSV,2,1,08,65,16,004,09,66,45,315,29,67,29,244,31,76,13,138,21*6A
$GLGSV,2,2,08,77,16,184,,86,13,139,19,87,49,106,28,88,41,008,27*6F
$GNGLL,0419.79438,S,05539.76721,E,122501.00,A,A*6D
$GNGRS,122501.00,1,9.8,-9.8,1.9,4.5,-3.0,-8.0,5.1,19.3,,,,*45
$GNGRS,122501.00,1,-2.0,0.5,11.0,7.0,-1.8,7.3,,,,,,*68
$GNGST,122501.00,4989,,,,7.1,5.6,21*68
$GNZDA,122501.00,22,05,2025,00,00*7D
$GNGBS,122501.00,7.1,5.6,21.3,,,,*6F
$GNTXT,01,01,01,More than 100 frame errors, UART RX was disabled*70
b04C
<

aD!X:++ -2n36E%0 7h{4Ta:R 
Yl
A4B-;C~LLMVW1jX)htbCb4$GNRMC,122502.00,A,0419.79429,S,05539.76727,E,0.021,,220525,,,A*70
$GNVTG,,T,,M,0.021,N,0.039,K,A*34
$GNGNS,122502.00,0419.79429,S,05539.76727,E,AA,14,0.84,21.8,-47.6,,*6D
$GNGGA,122502.00,0419.79429,S,05539.76727,E,1,12,0.84,21.8,M,-47.6,M,,*41
$GNGSA,A,3,32,28,27,18,26,31,16,10,,,,,2.30,0.84,2.14*11
$GNGSA,A,3,66,87,65,88,67,76,,,,,,,2.30,0.84,2.14*1A
$GPGSV,4,1,16,08,10,316,12,10,15,005,10,16,25,238,28,18,33,088,20*7C
$GPGSV,4,2,16,23,02,043,,26,28,207,25,27,45,306,32,28,51,146,25*7A
$GPGSV,4,3,16,29,11,148,14,31,37,184,18,32,55,360,27,36,52,277,*79
$GPGSV,4,4,16,40,84,353,,41,58,082,,49,32,274,,50,10,089,*79
$GLGSV,2,1,08,65,16,004,09,66,45,315,29,67,29,244,31,76,13,138,21*6A
$GLGSV,2,2,08,77,16,184,,86,13,139,,87,49,106,28,88,41,008,27*67
$GNGLL,0419.79429,S,05539.76727,E,122502.00,A,A*68
$GNGRS,122502.00,1,4.7,-9.7,1.1,5.7,-2.1,-7.2,5.8,-34.9,,,,*6C
$GNGRS,122502.00,1,-5.7,2.3,-99.3,6.2,1.3,8.4,,,,,,*6C
$GNGST,122502.00,43,,,,7.0,5.5,21*62
$GNZDA,122502.00,22,05,2025,00,00*7E
$GNGBS,122502.00,7.0,5.5,21.1,,,,*6C
$GNTXT,01,01,01,More than 100 frame errors, UART RX was disabled*70
b04hC
<f

!X+)!-23,O% 7h{4Ta:R 
Y
l\
AB-;CLMVW1jX)hbhCJ$GNRMC,122503.00,A,0419.79416,S,05539.76734,E,0.052,,220525,,,A*7B
$GNVTG,,T,,M,0.052,N,0.096,K,A*35
$GNGNS,122503.00,0419.79416,S,05539.76734,E,AA,14,0.71,20.9,-47.6,,*68
$GNGGA,122503.00,0419.79416,S,05539.76734,E,1,12,0.71,20.9,M,-47.6,M,,*44
$GNGSA,A,3,32,28,27,18,26,31,16,10,,,,,1.71,0.71,1.56*18
$GNGSA,A,3,66,87,65,88,67,76,,,,,,,1.71,0.71,1.56*13
$GPGSV,4,1,16,08,10,316,13,10,15,005,13,16,25,238,29,18,33,088,20*7F
$GPGSV,4,2,16,23,02,043,,26,28,207,26,27,45,306,33,28,51,146,24*79
$GPGSV,4,3,16,29,11,148,13,31,37,184,18,32,55,360,28,36,52,277,*71
$GPGSV,4,4,16,40,84,353,,41,58,082,,49,32,274,,50,10,089,*79
$GLGSV,2,1,08,65,16,004,07,66,45,315,28,67,29,244,30,76,13,138,19*6F
$GLGSV,2,2,08,77,16,184,,86,13,139,,87,49,106,27,88,41,008,26*69
$GNGLL,0419.79416,S,05539.76734,E,122503.00,A,A*67
$GNGRS,122503.00,1,2.0,-9.8,1.9,6.7,-2.1,-5.1,4.0,20.6,,,,*47
$GNGRS,122503.00,1,-2.4,2.7,12.0,6.2,2.8,9.3,,,,,,*4E
$GNGST,122503.00,3299292,,,,6.9,5.4,21*55
$GNZDA,122503.00,22,05,2025,00,00*7F
$GNGBS,122503.00,6.9,5.4,21.0,,,,*65
$GNTXT,01,01,01,More than 100 frame errors, UART RX was disabled*70
b04PC
<
/!X+,"-23%S 7h{4Ta:R 
Yl
A
gB-;pC9LXMVW1jX)gbPC2$GNRMC,122504.00,A,0419.79404,S,05539.76747,E,0.037,,220525,,,A*78
$GNVTG,,T,,M,0.037,N,0.068,K,A*37
$GNGNS,122504.00,0419.79404,S,05539.76747,E,AA,15,0.71,20.1,-47.6,,*61
$GNGGA,122504.00,0419.79404,S,05539.76747,E,1,12,0.71,20.1,M,-47.6,M,,*4C
$GNGSA,A,3,32,28,27,18,26,31,16,10,08,,,,1.71,0.71,1.56*10
$GNGSA,A,3,66,87,65,88,67,76,,,,,,,1.71,0.71,1.56*13
$GPGSV,4,1,16,08,10,316,14,10,15,005,18,16,25,238,31,18,33,088,22*78
$GPGSV,4,2,16,23,02,043,,26,28,207,26,27,45,306,34,28,51,146,23*79
$GPGSV,4,3,16,29,11,148,14,31,37,184,21,32,55,360,29,36,52,277,*7D
$GPGSV,4,4,16,40,84,353,,41,58,082,,49,32,274,,50,10,089,*79
$GLGSV,2,1,08,65,16,004,10,66,45,315,27,67,29,244,29,76,13,138,19*6E
$GLGSV,2,2,08,77,16,184,,86,13,139,,87,49,106,26,88,41,008,25*6B
$GNGLL,0419.79404,S,05539.76747,E,122504.00,A,A*67
$GNGRS,122504.00,1,4.7,-8.7,-1.2,7.0,-2.1,-4.3,-2.1,19.9,-47.0,,,*73
$GNGRS,122504.00,1,-6.6,2.5,11.3,6.2,0.6,8.6,,,,,,*45
$GNGST,122504.00,3299292,,,,6.8,5.3,21*54
$GNZDA,122504.00,22,05,2025,00,00*78
$GNGBS,122504.00,6.8,5.3,20.9,,,,*6C
$GNTXT,01,01,01,More than 100 frame errors, UART RX was disabled*70
b048C
<
!X+-2M3j%P 7h{4Ta:R 
Yl
AB-;CL
MVW1jX)b8Cl$GNRMC,122505.00,A,0419.79397,S,05539.76760,E,0.049,,220525,,,A*78
$GNVTG,,T,,M,0.049,N,0.091,K,A*38
$GNGNS,122505.00,0419.79397,S,05539.76760,E,AA,15,0.71,19.8,-47.6,,*6B
$GNGGA,122505.00,0419.79397,S,05539.76760,E,1,12,0.71,19.8,M,-47.6,M,,*46
$GNGSA,A,3,32,28,27,18,26,31,16,10,08,,,,1.70,0.71,1.55*12
$GNGSA,A,3,66,87,65,88,67,76,,,,,,,1.70,0.71,1.55*11
$GPGSV,4,1,16,08,10,316,12,10,15,005,13,16,25,238,29,18,33,088,22*7C
$GPGSV,4,2,16,23,02,043,,26,28,207,26,27,45,306,31,28,51,146,21*7E
$GPGSV,4,3,16,29,11,148,11,31,37,184,22,32,55,360,28,36,52,277,*7A
$GPGSV,4,4,16,40,84,353,,41,58,082,,49,32,274,,50,10,089,*79
$GLGSV,2,1,08,65,16,004,08,66,45,315,28,67,29,244,30,76,13,138,20*6A
$GLGSV,2,2,08,77,16,184,,86,13,139,17,87,49,106,26,88,41,008,25*6D
$GNGLL,0419.79397,S,05539.76760,E,122505.00,A,A*6E
$GNGRS,122505.00,1,5.0,-6.6,0.8,7.7,-2.4,-4.3,-3.1,-12.9,-45.9,,,*73
$GNGRS,122505.00,1,-7.9,4.7,-49.8,6.6,-0.5,7.8,,,,,,*4E
$GNGST,122505.00,51,,,,6.7,5.2,21*67
$GNZDA,122505.00,22,05,2025,00,00*79
$GNGBS,122505.00,6.7,5.2,20.7,,,,*6D
$GNTXT,01,01,01,More than 100 frame errors, UART RX was disabled*70
b04 C
<
F)!X+-23% 7h{4Ta:R 
Ylu
AB-;CzL&MVW1jX)sb C[$GNRMC,122506.00,A,0419.79396,S,05539.76764,E,0.058,,220525,,,A*7E
$GNVTG,,T,,M,0.058,N,0.108,K,A*39
$GNGNS,122506.00,0419.79396,S,05539.76764,E,AA,15,0.71,19.8,-47.6,,*6D
$GNGGA,122506.00,0419.79396,S,05539.76764,E,1,12,0.71,19.8,M,-47.6,M,,*40
$GNGSA,A,3,32,28,27,18,26,31,16,10,08,,,,1.71,0.71,1.56*10
$GNGSA,A,3,66,87,65,88,67,76,,,,,,,1.71,0.71,1.56*13
$GPGSV,4,1,16,08,10,316,11,10,15,005,12,16,25,238,29,18,33,088,22*7E
$GPGSV,4,2,16,23,02,043,,26,28,207,27,27,45,306,31,28,51,146,20*7E
$GPGSV,4,3,16,29,11,148,09,31,37,184,22,32,55,360,28,36,52,277,*73
$GPGSV,4,4,16,40,84,353,,41,58,082,27,49,32,274,,50,10,089,*7C
$GLGSV,2,1,08,65,16,004,14,66,45,315,28,67,29,244,30,76,13,138,20*67
$GLGSV,2,2,08,77,16,184,,86,13,139,15,87,49,106,26,88,41,008,25*6F
$GNGLL,0419.79396,S,05539.76764,E,122506.00,A,A*68
$GNGRS,122506.00,1,-0.4,-6.0,1.5,4.8,-1.3,-6.0,3.0,21.2,-40.8,,,*51
$GNGRS,122506.00,1,-9.9,5.0,12.8,6.8,-3.9,5.5,,,,,,*68
$GNGST,122506.00,3299292,,,,6.6,5.2,21*59
$GNZDA,122506.00,22,05,2025,00,00*7A
$GNGBS,122506.00,6.6,5.2,20.6,,,,*6E
$GNTXT,01,01,01,More than 100 frame errors, UART RX was disabled*70
b04C
<
!X+ -23% 7h{4Ta:R 
Yl
AB-;CuLMV'W1j0X)(CbC29$GNRMC,122507.00,A,0419.79388,S,05539.76776,E,0.007,,220525,,,A*79
$GNVTG,,T,,M,0.007,N,0.013,K,A*38
$GNGNS,122507.00,0419.79388,S,05539.76776,E,AA,15,0.71,19.2,-47.6,,*6A
$GNGGA,122507.00,0419.79388,S,05539.76776,E,1,12,0.71,19.2,M,-47.6,M,,*47
$GNGSA,A,3,32,28,27,18,26,31,16,10,08,,,,1.71,0.71,1.56*10
$GNGSA,A,3,66,87,65,88,67,76,,,,,,,1.71,0.71,1.56*13
$GPGSV,4,1,16,08,10,316,11,10,15,005,12,16,25,238,29,18,33,088,22*7E
$GPGSV,4,2,16,23,02,043,,26,28,207,27,27,45,306,32,28,51,146,18*76
$GPGSV,4,3,16,29,11,148,09,31,37,184,22,32,55,360,28,36,52,277,*73
$GPGSV,4,4,16,40,84,353,,41,58,082,28,49,32,274,,50,10,089,*73
$GLGSV,2,1,08,65,16,004,11,66,45,315,29,67,29,244,30,76,13,138,21*62
$GLGSV,2,2,08,77,16,184,,86,13,139,15,87,49,106,26,88,41,008,25*6F
$GNGLL,0419.79388,S,05539.76776,E,122507.00,A,A*65
$GNGRS,122507.00,1,4.4,-5.3,1.3,5.3,-0.3,-6.0,-2.7,20.6,-36.6,,,*55
$GNGRS,122507.00,1,-10.5,5.6,12.3,5.4,-1.4,7.4,,,,,,*53
$GNGST,122507.00,3299292,,,,6.6,5.1,20*5A
$GNZDA,122507.00,22,05,2025,00,00*7B
$GNGBS,122507.00,6.6,5.1,20.5,,,,*6F
$GNTXT,01,01,01,More than 100 frame errors, UART RX was disabled*70
b04C
<
Y(!X(+ -23
%? 7h{4Ta:R 
Yl
A
B-;CWLsMV%W1jX)&@bC$GNRMC,122508.00,A,0419.79386,S,05539.76789,E,0.047,,220525,,,A*7C
$GNVTG,,T,,M,0.047,N,0.087,K,A*31
$GNGNS,122508.00,0419.79386,S,05539.76789,E,AA,15,0.84,18.8,-47.6,,*6A
$GNGGA,122508.00,0419.79386,S,05539.76789,E,1,12,0.84,18.8,M,-47.6,M,,*47
$GNGSA,A,3,32,28,27,18,26,31,16,10,08,,,,2.30,0.84,2.14*19
$GNGSA,A,3,66,87,65,88,67,76,,,,,,,2.30,0.84,2.14*1A
$GPGSV,4,1,16,08,10,316,11,10,15,005,07,16,25,238,29,18,33,088,23*7B
$GPGSV,4,2,16,23,02,043,,26,28,207,26,27,45,306,32,28,51,146,18*77
$GPGSV,4,3,16,29,11,148,09,31,37,184,21,32,55,360,28,36,52,277,*70
$GPGSV,4,4,16,40,84,353,,41,58,082,28,49,32,274,,50,10,089,*73
$GLGSV,2,1,08,65,16,004,09,66,45,315,28,67,29,244,30,76,13,138,20*6B
$GLGSV,2,2,08,77,16,184,,86,13,139,15,87,49,106,26,88,41,008,24*6E
$GNGLL,0419.79386,S,05539.76789,E,122508.00,A,A*64
$GNGRS,122508.00,1,2.2,-6.2,-1.1,5.5,-0.3,-4.5,0.4,-70.8,-37.1,,,*7A
$GNGRS,122508.00,1,-10.1,6.9,27.8,5.5,-1.7,6.3,,,,,,*5D
$GNGST,122508.00,44,,,,6.5,5.0,20*6F
$GNZDA,122508.00,22,05,2025,00,00*74
$GNGBS,122508.00,6.5,5.0,20.4,,,,*63
$GNTXT,01,01,01,More than 100 frame errors, UART RX was disabled*70
b04C
<
&!X-+q#-2h3{F%= 7h{4Ta:R 
Yl
A
B-;OCLgMVSW1j-X)^bC$GNRMC,122509.00,A,0419.79378,S,05539.76797,E,0.086,,220525,,,A*7E
$GNVTG,,T,,M,0.086,N,0.159,K,A*3E
$GNGNS,122509.00,0419.79378,S,05539.76797,E,AA,16,0.71,18.4,-47.6,,*60
$GNGGA,122509.00,0419.79378,S,05539.76797,E,1,12,0.71,18.4,M,-47.6,M,,*4E
$GNGSA,A,3,32,28,27,18,26,31,16,10,08,,,,1.71,0.71,1.56*10
$GNGSA,A,3,66,87,65,88,67,86,76,,,,,,1.71,0.71,1.56*1D
$GPGSV,4,1,16,08,10,316,11,10,15,005,09,16,25,238,29,18,33,088,23*75
$GPGSV,4,2,16,23,02,043,,26,28,207,26,27,45,306,35,28,51,146,19*71
$GPGSV,4,3,16,29,11,148,08,31,37,184,20,32,55,360,28,36,52,277,*70
$GPGSV,4,4,16,40,84,353,,41,58,082,28,49,32,274,,50,10,089,*73
$GLGSV,2,1,08,65,16,004,10,66,45,315,26,67,29,244,29,76,13,138,19*6F
$GLGSV,2,2,08,77,16,184,,86,13,139,17,87,49,106,26,88,41,008,24*6C
$GNGLL,0419.79378,S,05539.76797,E,122509.00,A,A*6B
$GNGRS,122509.00,1,7.7,-6.4,-1.5,3.0,-1.4,-4.5,4.9,20.9,-35.7,,,*58
$GNGRS,122509.00,1,-6.9,8.1,12.4,5.4,-5.7,-52.9,6.1,,,,,*55
$GNGST,122509.00,179599,,,,6.4,5.0,20*65
$GNZDA,122509.00,22,05,2025,00,00*75
$GNGBS,122509.00,6.4,5.0,20.4,,,,*63
$GNTXT,01,01,01,More than 100 frame errors, UART RX was disabled*70
b04C
<
K!Xd+}!-2/3_y%= 7h{4Ta:R 
Yl
AB-;CLKMV'W1jwX)<bCb$GNRMC,122510.00,A,0419.79369,S,05539.76803,E,0.030,,220525,,,A*79
$GNVTG,,T,,M,0.030,N,0.056,K,A*3D
$GNGNS,122510.00,0419.79369,S,05539.76803,E,AA,15,0.71,17.9,-47.6,,*6B
$GNGGA,122510.00,0419.79369,S,05539.76803,E,1,12,0.71,17.9,M,-47.6,M,,*46
$GNGSA,A,3,32,28,27,18,26,31,16,10,,,,,1.71,0.71,1.56*18
$GNGSA,A,3,66,87,65,88,67,86,76,,,,,,1.71,0.71,1.56*1D
$GPGSV,4,1,16,08,10,316,08,10,15,005,09,16,25,238,28,18,33,088,22*7D
$GPGSV,4,2,16,23,02,043,,26,28,207,26,27,45,306,33,28,51,146,20*7D
$GPGSV,4,3,16,29,11,148,08,31,37,184,23,32,55,360,27,36,52,277,*7C
$GPGSV,4,4,16,40,84,353,,41,58,082,28,49,32,274,,50,10,089,*73
$GLGSV,2,1,08,65,16,004,08,66,45,315,25,67,29,244,31,76,13,138,18*6D
$GLGSV,2,2,08,77,16,184,,86,13,139,16,87,49,106,27,88,41,008,23*6B
$GNGLL,0419.79369,S,05539.76803,E,122510.00,A,A*61
$GNGRS,122510.00,1,4.9,-6.7,0.5,1.0,-1.3,-4.5,3.3,20.3,,,,*42
$GNGRS,122510.00,1,-2.9,6.3,11.8,5.2,-3.2,-48.2,8.4,,,,,*54
$GNGST,122510.00,3299292,,,,6.4,5.0,20*5F
$GNZDA,122510.00,22,05,2025,00,00*7D
$GNGBS,122510.00,6.4,5.0,20.3,,,,*6C
$GNTXT,01,01,01,More than 100 frame errors, UART RX was disabled*70
b04C
<C
@S!X+G"-231#% 7h>{4Ta:R 
Yl
AVB-;:CLMVW1j9X)KbC$GNRMC,122511.00,A,0419.79355,S,05539.76811,E,0.069,,220525,,,A*78
$GNVTG,,T,,M,0.069,N,0.127,K,A*36
$GNGNS,122511.00,0419.79355,S,05539.76811,E,AA,15,0.71,17.2,-47.6,,*6D
$GNGGA,122511.00,0419.79355,S,05539.76811,E,1,12,0.71,17.2,M,-47.6,M,,*40
$GNGSA,A,3,32,28,27,18,26,31,16,10,,,,,1.71,0.71,1.56*18
$GNGSA,A,3,66,87,65,88,67,86,76,,,,,,1.71,0.71,1.56*1D
$GPGSV,4,1,16,08,10,316,08,10,15,005,09,16,25,238,28,18,33,088,23*7C
$GPGSV,4,2,16,23,02,043,,26,28,207,26,27,45,306,34,28,51,146,18*71
$GPGSV,4,3,16,29,11,148,08,31,37,184,24,32,55,360,27,36,52,277,*7B
$GPGSV,4,4,16,40,84,353,,41,58,082,28,49,32,274,,50,10,089,*73
$GLGSV,2,1,08,65,16,004,08,66,45,315,23,67,29,244,31,76,13,138,16*65
$GLGSV,2,2,08,77,16,184,,86,13,139,15,87,49,106,27,88,41,008,22*69
$GNGLL,0419.79355,S,05539.76811,E,122511.00,A,A*6C
$GNGRS,122511.00,1,5.7,-7.2,2.6,1.8,-1.8,-5.8,3.4,166,,,,*6F
$GNGRS,122511.00,1,-4.5,5.7,0.9,6.7,-3.6,-46.2,9.9,,,,,*69
$GNGST,122511.00,56,,,,6.3,4.9,20*6A
$GNZDA,122511.00,22,05,2025,00,00*7C
$GNGBS,122511.00,6.3,4.9,20.2,,,,*63
$GNTXT,01,01,01,More than 100 frame errors, UART RX was disabled*70
b04C
<
0!X+""-23j-%J 7h{4Ta:R 
Yl
AB-;`C LMV@W1jEX)j2bCri2$GNRMC,122512.00,A,0419.79347,S,05539.76821,E,0.183,,220525,,,A*7E
$GNVTG,,T,,M,0.183,N,0.339,K,A*3E
$GNGNS,122512.00,0419.79347,S,05539.76821,E,AA,15,0.71,16.6,-47.6,,*6B
$GNGGA,122512.00,0419.79347,S,05539.76821,E,1,12,0.71,16.6,M,-47.6,M,,*46
$GNGSA,A,3,32,28,27,18,26,31,16,10,,,,,1.71,0.71,1.56*18
$GNGSA,A,3,66,87,65,88,67,86,76,,,,,,1.71,0.71,1.56*1D
$GPGSV,4,1,16,08,10,316,08,10,15,005,08,16,25,238,28,18,33,088,24*7A
$GPGSV,4,2,16,23,02,043,,26,28,207,26,27,45,306,34,28,51,146,19*70
$GPGSV,4,3,16,29,11,148,08,31,37,184,23,32,55,360,26,36,52,277,*7D
$GPGSV,4,4,16,40,84,353,,41,58,082,28,49,32,274,,50,10,089,*73
$GLGSV,2,1,08,65,16,004,12,66,45,315,25,67,29,244,32,76,13,138,16*6B
$GLGSV,2,2,08,77,16,184,,86,13,139,16,87,49,106,27,88,41,008,23*6B
$GNGLL,0419.79347,S,05539.76821,E,122512.00,A,A*6F
$GNGRS,122512.00,1,6.8,-6.6,2.6,2.1,-2.2,-4.4,3.0,20.7,,,,*45
$GNGRS,122512.00,1,-4.2,3.2,12.3,5.3,-1.0,-35.2,10.4,,,,,*65
$GNGST,122512.00,113081,,,,6.3,4.9,20*60
$GNZDA,122512.00,22,05,2025,00,00*7F
$GNGBS,122512.00,6.3,4.9,20.2,,,,*60
$GNTXT,01,01,01,More than 100 frame errors, UART RX was disabled*70
b04xC
<

@!X&+0!-23-% 7h{4Ta:R 
Yl
A
B,;CLMVW1joX)AbxCZA$GNRMC,122513.00,A,0419.79340,S,05539.76829,E,0.100,,220525,,,A*7B
$GNVTG,,T,,M,0.100,N,0.185,K,A*30
$GNGNS,122513.00,0419.79340,S,05539.76829,E,AA,16,0.71,16.1,-47.6,,*61
$GNGGA,122513.00,0419.79340,S,05539.76829,E,1,12,0.71,16.1,M,-47.6,M,,*4F
$GNGSA,A,3,32,28,27,18,26,31,16,10,08,,,,1.71,0.71,1.56*10
$GNGSA,A,3,66,87,65,88,67,86,76,,,,,,1.71,0.71,1.56*1D
$GPGSV,4,1,16,08,10,316,08,10,15,005,10,16,25,238,27,18,33,088,24*7C
$GPGSV,4,2,16,23,02,043,,26,28,207,26,27,45,306,33,28,51,146,20*7D
$GPGSV,4,3,16,29,11,148,08,31,37,184,22,32,55,360,24,36,52,277,*7E
$GPGSV,4,4,16,40,84,353,,41,58,082,27,49,32,274,,50,10,089,*7C
$GLGSV,2,1,08,65,16,004,10,66,44,315,26,67,29,244,31,76,13,138,17*69
$GLGSV,2,2,08,77,16,184,,86,13,139,18,87,49,106,28,88,41,008,23*6A
$GNGLL,0419.79340,S,05539.76829,E,122513.00,A,A*61
$GNGRS,122513.00,1,6.9,-4.7,1.4,2.9,-2.1,-3.2,3.2,20.3,-33.5,,,*7D
$GNGRS,122513.00,1,-3.4,1.1,12.0,5.8,-5.9,-33.5,9.0,,,,,*5C
$GNGST,122513.00,172947,,,,6.2,4.8,20*65
$GNZDA,122513.00,22,05,2025,00,00*7E
$GNGBS,122513.00,6.2,4.8,20.1,,,,*62
$GNTXT,01,01,01,More than 100 frame errors, UART RX was disabled*70
b04`C
<
!X+!-23C% 7h_{4Ta:R 
Yl
A.B,;CLMVW1jX)bb`CB$GNRMC,122514.00,A,0419.79336,S,05539.76834,E,0.009,,220525,,,A*79
$GNVTG,,T,,M,0.009,N,0.016,K,A*33
$GNGNS,122514.00,0419.79336,S,05539.76834,E,AA,15,0.71,15.9,-47.6,,*63
$GNGGA,122514.00,0419.79336,S,05539.76834,E,1,12,0.71,15.9,M,-47.6,M,,*4E
$GNGSA,A,3,32,28,27,18,26,31,16,10,,,,,1.71,0.71,1.56*18
$GNGSA,A,3,66,87,65,88,67,86,76,,,,,,1.71,0.71,1.56*1D
$GPGSV,4,1,16,08,10,316,11,10,15,005,11,16,25,238,27,18,33,088,24*75
$GPGSV,4,2,16,23,02,043,,26,28,207,26,27,45,306,33,28,51,146,19*77
$GPGSV,4,3,16,29,11,148,,31,37,184,22,32,55,360,25,36,52,277,*77
$GPGSV,4,4,16,40,84,353,,41,58,082,,49,32,274,,50,10,089,*79
$GLGSV,2,1,08,65,16,004,07,66,44,315,26,67,29,245,30,76,13,138,16*6E
$GLGSV,2,2,08,77,16,184,,86,13,139,18,87,49,106,27,88,41,008,23*65
$GNGLL,0419.79336,S,05539.76834,E,122514.00,A,A*6B
$GNGRS,122514.00,1,6.1,-4.5,-0.1,1.6,-2.5,-3.3,4.6,63.7,,,,*66
$GNGRS,122514.00,1,-3.4,2.6,-17.5,6.1,-5.8,-28.7,7.7,,,,,*78
$GNGST,122514.00,57,,,,6.2,4.8,20*6E
$GNZDA,122514.00,22,05,2025,00,00*79
$GNGBS,122514.00,6.2,4.8,20.1,,,,*65
$GNTXT,01,01,01,More than 100 frame errors, UART RX was disabled*70
b04HD
<
=g!X+"-23% 7h{4Ta:R 
Yl
AB,;SCOLLMVW1j~X)[bHD*x$GNRMC,122515.00,A,0419.79330,S,05539.76841,E,0.062,,220525,,,A*71
$GNVTG,,T,,M,0.062,N,0.114,K,A*3D
$GNGNS,122515.00,0419.79330,S,05539.76841,E,AA,15,0.71,15.8,-47.6,,*67
$GNGGA,122515.00,0419.79330,S,05539.76841,E,1,12,0.71,15.8,M,-47.6,M,,*4A
$GNGSA,A,3,32,28,27,18,26,31,16,10,,,,,1.71,0.71,1.56*18
$GNGSA,A,3,66,87,65,88,67,86,76,,,,,,1.71,0.71,1.56*1D
$GPGSV,4,1,16,08,10,316,05,10,15,005,12,16,25,238,27,18,33,088,23*74
$GPGSV,4,2,16,23,02,043,,26,28,207,26,27,45,306,34,28,51,146,17*7E
$GPGSV,4,3,16,29,11,148,,31,37,184,22,32,55,360,24,36,52,277,*76
$GPGSV,4,4,16,40,84,353,,41,58,082,,49,32,274,,50,10,089,*79
$GLGSV,2,1,08,65,16,004,14,66,44,315,26,67,29,245,31,76,13,138,15*6E
$GLGSV,2,2,08,77,16,184,,86,13,139,18,87,49,106,27,88,41,008,23*65
$GNGLL,0419.79330,S,05539.76841,E,122515.00,A,A*6E
$GNGRS,122515.00,1,4.8,-3.6,0.2,-1.2,-2.6,-1.3,1.0,21.1,,,,*6D
$GNGRS,122515.00,1,-1.7,3.8,12.5,6.6,-6.9,-28.0,5.9,,,,,*51
$GNGST,122515.00,3299292,,,,6.2,4.8,20*55
$GNZDA,122515.00,22,05,2025,00,00*78
$GNGBS,122515.00,6.2,4.8,20.0,,,,*65
$GNTXT,01,01,01,More than 100 frame errors, UART RX was disabled*70
b040D
<

M!X0+"-23%t 7h{4Ta:R 
Yl
AB,;C JLMVW1jX)0ub0D$GNRMC,122516.00,A,0419.79325,S,05539.76849,E,0.092,,220525,,,A*71
$GNVTG,,T,,M,0.092,N,0.171,K,A*31
$GNGNS,122516.00,0419.79325,S,05539.76849,E,AA,15,0.71,15.6,-47.6,,*66
$GNGGA,122516.00,0419.79325,S,05539.76849,E,1,12,0.71,15.6,M,-47.6,M,,*4B
$GNGSA,A,3,32,28,27,18,26,31,16,10,,,,,1.71,0.71,1.56*18
$GNGSA,A,3,66,87,65,88,67,86,76,,,,,,1.71,0.71,1.56*1D
$GPGSV,4,1,16,08,10,316,11,10,15,005,14,16,25,238,27,18,33,088,22*76
$GPGSV,4,2,16,23,02,043,,26,28,207,26,27,45,306,34,28,51,146,16*7F
$GPGSV,4,3,16,29,11,148,,31,37,184,23,32,55,360,24,36,52,277,*77
$GPGSV,4,4,16,40,84,353,,41,58,082,,49,32,274,,50,10,089,*79
$GLGSV,2,1,08,65,16,004,09,66,44,315,25,67,29,245,32,76,13,138,16*61
$GLGSV,2,2,08,77,16,184,,86,13,139,19,87,49,106,26,88,41,008,24*62
$GNGLL,0419.79325,S,05539.76849,E,122516.00,A,A*61
$GNGRS,122516.00,1,3.9,-3.0,0.1,-2.1,-2.5,-1.4,3.3,20.8,,,,*60
$GNGRS,122516.00,1,1.6,3.8,12.2,8.2,-6.9,-29.3,4.3,,,,,*7A
$GNGST,122516.00,3299292,,,,6.1,4.7,20*5A
$GNZDA,122516.00,22,05,2025,00,00*7B
$GNGBS,122516.00,6.1,4.7,20.0,,,,*6A
$GNTXT,01,01,01,More than 100 frame errors, UART RX was disabled*70
b04
D
<
g!X?+!-23% 7h_{4Ta:R 
Yl
A4B,;C!LMVW1jX)^P7b
DE$GNRMC,122517.00,A,0419.79319,S,05539.76855,E,0.098,,220525,,,A*78
$GNVTG,,T,,M,0.098,N,0.182,K,A*37
$GNGNS,122517.00,0419.79319,S,05539.76855,E,AA,16,0.84,15.3,-47.6,,*69
$GNGGA,122517.00,0419.79319,S,05539.76855,E,1,12,0.84,15.3,M,-47.6,M,,*47
$GNGSA,A,3,32,28,27,18,26,31,16,10,08,,,,2.30,0.84,2.14*19
$GNGSA,A,3,66,87,65,88,67,86,76,,,,,,2.30,0.84,2.14*14
$GPGSV,4,1,16,08,10,316,11,10,15,005,09,16,25,238,28,18,33,088,22*75
$GPGSV,4,2,16,23,02,043,,26,28,207,26,27,45,306,33,28,51,146,19*77
$GPGSV,4,3,16,29,11,148,,31,37,184,22,32,55,360,23,36,52,277,*71
$GPGSV,4,4,16,40,84,353,,41,58,082,,49,32,274,,50,10,089,*79
$GLGSV,2,1,08,65,16,004,12,66,44,315,26,67,29,245,33,76,13,138,16*69
$GLGSV,2,2,08,77,16,184,,86,13,139,19,87,49,106,26,88,41,008,25*63
$GNGLL,0419.79319,S,05539.76855,E,122517.00,A,A*62
$GNGRS,122517.00,1,3.5,-5.7,0.0,-1.9,-2.4,0.2,1.0,-126,-119,,,*54
$GNGRS,122517.00,1,-0.7,2.8,135,8.6,-5.2,-29.1,2.6,,,,,*72
$GNGST,122517.00,45,,,,6.1,4.7,20*62
$GNZDA,122517.00,22,05,2025,00,00*7A
$GNGBS,122517.00,6.1,4.7,20.0,,,,*6B
$GNTXT,01,01,01,More than 100 frame errors, UART RX was disabled*70
b04D
<
?!X+ -23X% 7h{4Ta:R 
Yl
AB,;C LjMVW1jX)bDy$GNRMC,122518.00,A,0419.79313,S,05539.76859,E,0.030,,220525,,,A*73
$GNVTG,,T,,M,0.030,N,0.055,K,A*3E
$GNGNS,122518.00,0419.79313,S,05539.76859,E,AA,14,0.71,15.0,-47.6,,*6B
$GNGGA,122518.00,0419.79313,S,05539.76859,E,1,12,0.71,15.0,M,-47.6,M,,*47
$GNGSA,A,3,32,28,27,18,26,31,16,,,,,,1.71,0.71,1.56*19
$GNGSA,A,3,66,87,65,88,67,86,76,,,,,,1.71,0.71,1.56*1D
$GPGSV,4,1,16,08,10,316,,10,15,005,06,16,25,238,28,18,33,088,21*79
$GPGSV,4,2,16,23,02,043,,26,28,207,25,27,45,306,32,28,51,146,19*75
$GPGSV,4,3,16,29,11,148,,31,37,184,21,32,55,360,23,36,52,277,*72
$GPGSV,4,4,16,40,84,353,,41,58,082,,49,32,274,,50,10,089,*79
$GLGSV,2,1,08,65,16,004,11,66,44,315,25,67,29,245,32,76,13,138,15*6B
$GLGSV,2,2,08,77,16,184,,86,13,139,18,87,49,106,25,88,41,008,25*61
$GNGLL,0419.79313,S,05539.76859,E,122518.00,A,A*6B
$GNGRS,122518.00,1,2.7,-4.2,-0.2,-1.0,-2.3,-1.2,1.9,,,,,*54
$GNGRS,122518.00,1,-3.7,4.7,12.4,7.7,-3.4,-28.9,3.6,,,,,*5F
$GNGST,122518.00,3299292,,,,6.1,4.7,20*54
$GNZDA,122518.00,22,05,2025,00,00*75
$GNGBS,122518.00,6.1,4.7,20.0,,,,*64
$GNTXT,01,01,01,More than 100 frame errors, UART RX was disabled*70
b04D
<
!X+ -23% 7h*{4Ta:R 
Yl
AB,;C2LyMVW1jX)rTdbDP$GNRMC,122519.00,A,0419.79305,S,05539.76867,E,0.030,,220525,,,A*78
$GNVTG,,T,,M,0.030,N,0.055,K,A*3E
$GNGNS,122519.00,0419.79305,S,05539.76867,E,AA,15,0.71,14.6,-47.6,,*66
$GNGGA,122519.00,0419.79305,S,05539.76867,E,1,12,0.71,14.6,M,-47.6,M,,*4B
$GNGSA,A,3,32,28,27,18,26,31,16,10,,,,,1.71,0.71,1.56*18
$GNGSA,A,3,66,87,65,88,67,86,76,,,,,,1.71,0.71,1.56*1D
$GPGSV,4,1,16,08,10,316,,10,15,005,08,16,25,238,28,18,33,088,20*76
$GPGSV,4,2,16,23,02,043,,26,28,207,24,27,45,306,32,28,51,146,18*75
$GPGSV,4,3,16,29,11,148,,31,37,184,21,32,55,360,22,36,52,277,*73
$GPGSV,4,4,16,40,84,353,,41,58,082,29,49,32,274,,50,10,089,*72
$GLGSV,2,1,08,65,16,004,13,66,44,315,22,67,29,245,31,76,13,138,12*6A
$GLGSV,2,2,08,77,16,184,,86,13,139,17,87,49,106,24,88,41,008,25*6F
$GNGLL,0419.79305,S,05539.76867,E,122519.00,A,A*60
$GNGRS,122519.00,1,5.5,-5.2,-0.1,-1.0,-2.3,-1.1,1.6,20.7,,,,*45
$GNGRS,122519.00,1,-3.6,4.6,11.9,6.3,-4.6,-28.0,6.3,,,,,*59
$GNGST,122519.00,3299292,,,,6.1,4.7,20*55
$GNZDA,122519.00,22,05,2025,00,00*74
$GNGBS,122519.00,6.1,4.7,20.0,,,,*65
$GNTXT,01,01,01,More than 100 frame errors, UART RX was disabled*70
b04D
<
_1U!X+A -23Z%D 7hU{4Ta:R 
Yl%
A.B,;CLMV7W1j"X)y6bD(n$GNRMC,122520.00,A,0419.79297,S,05539.76870,E,0.067,,220525,,,A*7C
$GNVTG,,T,,M,0.067,N,0.125,K,A*3A
$GNGNS,122520.00,0419.79297,S,05539.76870,E,AA,15,0.71,14.2,-47.6,,*64
$GNGGA,122520.00,0419.79297,S,05539.76870,E,1,12,0.71,14.2,M,-47.6,M,,*49
$GNGSA,A,3,32,28,27,18,26,31,16,10,,,,,1.71,0.71,1.56*18
$GNGSA,A,3,66,87,65,88,67,86,76,,,,,,1.71,0.71,1.56*1D
$GPGSV,4,1,16,08,10,316,,10,15,005,11,16,25,238,28,18,33,088,20*7E
$GPGSV,4,2,16,23,02,043,,26,28,207,24,27,45,306,32,28,51,146,16*7B
$GPGSV,4,3,16,29,11,148,,31,37,184,19,32,55,360,23,36,52,277,*79
$GPGSV,4,4,16,40,84,353,,41,58,082,28,49,32,274,,50,10,089,*73
$GLGSV,2,1,08,65,16,004,07,66,44,315,20,67,29,245,31,76,13,138,08*66
$GLGSV,2,2,08,77,16,184,,86,13,139,15,87,49,106,23,88,41,008,25*6A
$GNGLL,0419.79297,S,05539.76870,E,122520.00,A,A*66
$GNGRS,122520.00,1,6.0,-6.8,0.1,-2.3,-1.9,-1.9,3.4,126,,,,*42
$GNGRS,122520.00,1,-2.4,5.5,20.9,3.8,-8.5,-27.6,10.0,,,,,*6C
$GNGST,122520.00,62,,,,6.1,4.7,20*63
$GNZDA,122520.00,22,05,2025,00,00*7E
$GNGBS,122520.00,6.1,4.7,20.0,,,,*6F
$GNTXT,01,01,01,More than 100 frame errors, UART RX was disabled*70
b04D
<
S!X+ -23% 7h{4Ta:R 
Yl
AB,;CLMVW1jX)_TbD$GNRMC,122521.00,A,0419.79299,S,05539.76877,E,0.174,,220525,,,A*77
$GNVTG,,T,,M,0.174,N,0.322,K,A*3C
$GNGNS,122521.00,0419.79299,S,05539.76877,E,AA,15,0.71,14.3,-47.6,,*6D
$GNGGA,122521.00,0419.79299,S,05539.76877,E,1,12,0.71,14.3,M,-47.6,M,,*40
$GNGSA,A,3,32,28,27,18,26,31,16,10,,,,,1.71,0.71,1.56*18
$GNGSA,A,3,66,87,65,88,67,86,76,,,,,,1.71,0.71,1.56*1D
$GPGSV,4,1,16,08,10,316,,10,15,005,09,16,25,238,28,18,33,088,18*7C
$GPGSV,4,2,16,23,02,043,,26,28,207,23,27,45,306,32,28,51,146,15*7F
$GPGSV,4,3,16,29,11,148,,31,37,184,19,32,55,360,22,36,52,277,*78
$GPGSV,4,4,16,40,84,353,,41,58,082,28,49,32,274,,50,10,089,*73
$GLGSV,2,1,08,65,16,004,08,66,44,315,21,67,29,245,31,76,13,138,09*69
$GLGSV,2,2,08,77,16,184,,86,13,139,13,87,49,106,23,88,41,008,25*6C
$GNGLL,0419.79299,S,05539.76877,E,122521.00,A,A*6E
$GNGRS,122521.00,1,6.5,-5.6,0.0,-3.0,-1.2,-2.9,2.4,21.3,,,,*6A
$GNGRS,122521.00,1,-3.5,5.3,12.8,3.5,-5.1,-26.1,10.0,,,,,*69
$GNGST,122521.00,135058,,,,6.1,4.7,20*6C
$GNZDA,122521.00,22,05,2025,00,00*7F
$GNGBS,122521.00,6.1,4.7,20.0,,,,*6E
$GNTXT,01,01,01,More than 100 frame errors, UART RX was disabled*70
b04D
<

S!Xe+ -23% 7h1{4Ta:R 
Yl=
AB,;CmL
MVhW1jX)<bD@$GNRMC,122522.00,A,0419.79296,S,05539.76878,E,0.113,,220525,,,A*75
$GNVTG,,T,,M,0.113,N,0.210,K,A*3D
$GNGNS,122522.00,0419.79296,S,05539.76878,E,AA,15,0.68,14.6,-47.6,,*63
$GNGGA,122522.00,0419.79296,S,05539.76878,E,1,12,0.68,14.6,M,-47.6,M,,*4E
$GNGSA,A,3,32,28,27,18,26,31,16,10,,,,,1.57,0.68,1.41*12
$GNGSA,A,3,66,87,65,88,67,86,76,,,,,,1.57,0.68,1.41*17
$GPGSV,4,1,16,08,10,316,,10,15,005,10,16,25,238,27,18,33,088,17*74
$GPGSV,4,2,16,23,02,043,,26,28,207,22,27,45,306,32,28,51,146,14*7F
$GPGSV,4,3,16,29,11,148,,31,37,184,19,32,55,360,20,36,52,277,*7A
$GPGSV,4,4,16,40,84,353,,41,58,082,27,49,32,274,,50,10,089,*7C
$GLGSV,2,1,08,65,16,004,09,66,44,315,19,67,29,245,31,76,13,138,10*6B
$GLGSV,2,2,08,77,16,184,,86,13,139,12,87,49,106,23,88,41,008,25*6D
$GNGLL,0419.79296,S,05539.76878,E,122522.00,A,A*6D
$GNGRS,122522.00,1,8.2,-3.3,-0.3,-1.6,-2.3,-2.5,1.5,21.3,,,,*45
$GNGRS,122522.00,1,0.2,3.9,12.8,2.8,-4.0,-24.6,10.3,,,,,*45
$GNGST,122522.00,173451,,,,6.1,4.7,20*60
$GNZDA,122522.00,22,05,2025,00,00*7C
$GNGBS,122522.00,6.1,4.7,20.0,,,,*6D
$GNTXT,01,01,01,More than 100 frame errors, UART RX was disabled*70
b04!D
<

"G!X+` -23%e 7hx{4Ta:R 
Y
l
AB,;"CL1MVW1jX) jHb!Dj$GNRMC,122523.00,A,0419.79293,S,05539.76874,E,0.062,,220525,,,A*7A
$GNVTG,,T,,M,0.062,N,0.115,K,A*3C
$GNGNS,122523.00,0419.79293,S,05539.76874,E,AA,15,0.80,14.8,-47.6,,*63
$GNGGA,122523.00,0419.79293,S,05539.76874,E,1,12,0.80,14.8,M,-47.6,M,,*4E
$GNGSA,A,3,32,28,27,18,26,31,16,10,,,,,2.09,0.80,1.93*13
$GNGSA,A,3,66,87,65,88,67,86,76,,,,,,2.09,0.80,1.93*16
$GPGSV,4,1,16,08,10,316,,10,15,005,10,16,25,238,27,18,33,088,16*75
$GPGSV,4,2,16,23,02,043,,26,28,207,24,27,45,306,32,28,51,146,14*79
$GPGSV,4,3,16,29,11,148,,31,37,184,20,32,55,360,21,36,52,277,*71
$GPGSV,4,4,16,40,84,353,,41,58,082,,49,32,274,,50,10,089,*79
$GLGSV,2,1,08,65,16,004,09,66,44,315,18,67,29,245,30,76,13,137,08*6D
$GLGSV,2,2,08,77,16,184,,86,13,139,14,87,49,106,23,88,41,008,25*6B
$GNGLL,0419.79293,S,05539.76874,E,122523.00,A,A*65
$GNGRS,122523.00,1,8.9,-2.9,-0.5,-0.1,-1.6,-1.6,3.3,89.1,,,,*46
$GNGRS,122523.00,1,0.3,2.2,-61.7,2.9,-5.5,-21.8,41.4,,,,,*64
$GNGST,122523.00,52,,,,6.1,4.8,20*6C
$GNZDA,122523.00,22,05,2025,00,00*7D
$GNGBS,122523.00,6.1,4.8,20.0,,,,*63
$GNTXT,01,01,01,More than 100 frame errors, UART RX was disabled*70
b04p%D
<
I!X+`!-23%( 7h{4Ta:R 
YlZ
AB,;|CLNMV@W1jX)3bp%DR$GNRMC,122524.00,A,0419.79298,S,05539.76888,E,0.276,,220525,,,A*72
$GNVTG,,T,,M,0.276,N,0.511,K,A*3B
$GNGNS,122524.00,0419.79298,S,05539.76888,E,AA,15,0.71,14.7,-47.6,,*6D
$GNGGA,122524.00,0419.79298,S,05539.76888,E,1,12,0.71,14.7,M,-47.6,M,,*40
$GNGSA,A,3,32,28,27,18,26,31,16,10,,,,,1.71,0.71,1.56*18
$GNGSA,A,3,66,87,65,88,67,86,76,,,,,,1.71,0.71,1.56*1D
$GPGSV,4,1,16,08,10,316,,10,15,005,09,16,25,238,27,18,33,088,18*73
$GPGSV,4,2,16,23,02,043,,26,28,207,25,27,45,306,33,28,51,146,16*7B
$GPGSV,4,3,16,29,11,148,,31,37,184,21,32,55,360,24,36,52,277,*75
$GPGSV,4,4,16,40,84,353,,41,58,082,,49,32,274,,50,10,089,*79
$GLGSV,2,1,08,65,16,004,11,66,44,315,18,67,29,245,31,76,13,137,12*6E
$GLGSV,2,2,08,77,16,183,,86,13,139,16,87,49,106,24,88,41,008,24*68
$GNGLL,0419.79298,S,05539.76888,E,122524.00,A,A*6A
$GNGRS,122524.00,1,10.0,-2.7,-0.7,1.9,-1.6,-2.2,5.4,21.2,,,,*5E
$GNGRS,122524.00,1,-1.3,-0.1,12.6,0.5,-0.2,-22.4,8.5,,,,,*74
$GNGST,122524.00,3299333,,,,6.1,4.9,20*5F
$GNZDA,122524.00,22,05,2025,00,00*7A
$GNGBS,122524.00,6.1,4.9,20.1,,,,*64
$GNTXT,01,01,01,More than 100 frame errors, UART RX was disabled*70
b04X)D
<
O!X+"-23% 7h{4Ta:R 
Yl
A
B,;C_L,MVW1jX)=bX)D:ax$GNRMC,122525.00,A,0419.79302,S,05539.76893,E,0.259,,220525,,,A*76
$GNVTG,,T,,M,0.259,N,0.479,K,A*39
$GNGNS,122525.00,0419.79302,S,05539.76893,E,AA,15,0.68,14.9,-47.6,,*62
$GNGGA,122525.00,0419.79302,S,05539.76893,E,1,12,0.68,14.9,M,-47.6,M,,*4F
$GNGSA,A,3,32,28,27,18,26,31,16,10,,,,,1.57,0.68,1.41*12
$GNGSA,A,3,66,87,65,88,67,86,76,,,,,,1.57,0.68,1.41*17
$GPGSV,4,1,16,08,10,316,,10,15,005,12,16,25,238,26,18,33,088,18*78
$GPGSV,4,2,16,23,02,043,,26,28,207,25,27,45,306,34,28,51,146,17*7D
$GPGSV,4,3,16,29,11,148,,31,37,184,21,32,55,360,26,36,52,277,*77
$GPGSV,4,4,16,40,84,353,,41,58,082,,49,32,274,,50,10,089,*79
$GLGSV,2,1,08,65,16,004,10,66,44,315,19,67,29,245,31,76,13,137,13*6F
$GLGSV,2,2,08,77,16,183,,86,13,139,18,87,49,106,24,88,41,008,26*64
$GNGLL,0419.79302,S,05539.76893,E,122525.00,A,A*63
$GNGRS,122525.00,1,10.1,-2.8,-0.6,1.8,-2.9,-3.8,7.4,21.3,,,,*55
$GNGRS,122525.00,1,-0.6,-0.5,12.5,-0.7,-1.6,-21.4,8.1,,,,,*5B
$GNGST,122525.00,3179368,,,,6.1,4.9,20*5D
$GNZDA,122525.00,22,05,2025,00,00*7B
$GNGBS,122525.00,6.1,4.9,20.1,,,,*65
$GNTXT,01,01,01,More than 100 frame errors, UART RX was disabled*70
b04@-D
<
^!X+"-23w%  7h={4Ta:R 
Yl
AFB,;NC 6LMVW1j6X)b@-D"9$GNRMC,122526.00,A,0419.79305,S,05539.76902,E,0.296,,220525,,,A*78
$GNVTG,,T,,M,0.296,N,0.548,K,A*39
$GNGNS,122526.00,0419.79305,S,05539.76902,E,AA,15,0.79,15.3,-47.6,,*64
$GNGGA,122526.00,0419.79305,S,05539.76902,E,1,12,0.79,15.3,M,-47.6,M,,*49
$GNGSA,A,3,32,28,27,18,26,31,16,10,,,,,1.93,0.79,1.76*1E
$GNGSA,A,3,66,87,65,88,67,86,76,,,,,,1.93,0.79,1.76*1B
$GPGSV,4,1,16,08,10,316,,10,15,005,13,16,25,238,26,18,33,088,18*79
$GPGSV,4,2,16,23,02,043,,26,28,207,25,27,45,306,34,28,51,146,16*7C
$GPGSV,4,3,16,29,11,148,,31,37,184,22,32,55,360,32,36,52,277,*71
$GPGSV,4,4,16,40,84,353,,41,58,082,,49,32,274,,50,10,089,*79
$GLGSV,2,1,08,65,16,004,08,66,44,315,21,67,29,245,32,76,13,137,12*6F
$GLGSV,2,2,08,77,16,183,,86,13,139,19,87,49,106,24,88,41,008,26*65
$GNGLL,0419.79305,S,05539.76902,E,122526.00,A,A*6E
$GNGRS,122526.00,1,8.3,-1.4,-1.0,1.8,-2.4,-5.4,6.1,-24.1,,,,*4C
$GNGRS,122526.00,1,0.8,0.5,-37.7,-3.6,-2.0,-21.1,7.7,,,,,*75
$GNGST,122526.00,51,,,,6.1,4.9,20*6B
$GNZDA,122526.00,22,05,2025,00,00*78
$GNGBS,122526.00,6.1,4.9,20.0,,,,*67
$GNTXT,01,01,01,More than 100 frame errors, UART RX was disabled*70
b04(1D
<
X;!X'+#-23x%H 7h`{4Ta:R 
Yl
A
B,;HC L
MVW1jX)/`b(1D
H$GNRMC,122527.00,A,0419.79307,S,05539.76911,E,0.357,,220525,,,A*75
$GNVTG,,T,,M,0.357,N,0.661,K,A*3D
$GNGNS,122527.00,0419.79307,S,05539.76911,E,AA,15,0.68,15.4,-47.6,,*62
$GNGGA,122527.00,0419.79307,S,05539.76911,E,1,12,0.68,15.4,M,-47.6,M,,*4F
$GNGSA,A,3,32,28,27,18,26,31,16,10,,,,,1.57,0.68,1.41*12
$GNGSA,A,3,66,87,65,88,67,86,76,,,,,,1.57,0.68,1.41*17
$GPGSV,4,1,16,08,10,316,,10,15,005,09,16,25,238,26,18,33,088,17*7D
$GPGSV,4,2,16,23,02,043,,26,28,207,26,27,45,306,35,28,51,146,15*7D
$GPGSV,4,3,16,29,11,148,,31,37,184,22,32,55,360,30,36,52,277,*73
$GPGSV,4,4,16,40,84,353,,41,58,082,,49,32,274,,50,10,089,*79
$GLGSV,2,1,08,65,16,004,10,66,44,315,20,67,29,245,32,76,13,137,10*65
$GLGSV,2,2,08,77,16,183,,86,13,139,18,87,49,106,23,88,41,008,27*62
$GNGLL,0419.79307,S,05539.76911,E,122527.00,A,A*6F
$GNGRS,122527.00,1,3.5,-1.4,-1.0,3.0,-3.5,-7.0,5.7,21.4,,,,*64
$GNGRS,122527.00,1,3.3,0.2,12.8,-4.6,-6.3,-21.7,9.1,,,,,*50
$GNGST,122527.00,3179277,,,,6.1,4.9,20*50
$GNZDA,122527.00,22,05,2025,00,00*79
$GNGBS,122527.00,6.1,4.9,20.0,,,,*66
$GNTXT,01,01,01,More than 100 frame errors, UART RX was disabled*70
b045D
<
[!X+#-23% 7h{4Ta:R 
Yl
AB,;C /L~MVW1jX)?b5D$GNRMC,122528.00,A,0419.79313,S,05539.76923,E,0.350,,220525,,,A*79
$GNVTG,,T,,M,0.350,N,0.649,K,A*30
$GNGNS,122528.00,0419.79313,S,05539.76923,E,AA,14,0.71,15.6,-47.6,,*62
$GNGGA,122528.00,0419.79313,S,05539.76923,E,1,12,0.71,15.6,M,-47.6,M,,*4E
$GNGSA,A,3,32,27,18,26,31,16,10,,,,,,1.72,0.71,1.57*10
$GNGSA,A,3,66,87,65,88,67,86,76,,,,,,1.72,0.71,1.57*1F
$GPGSV,4,1,16,08,10,316,15,10,15,005,11,16,25,238,27,18,33,088,16*70
$GPGSV,4,2,16,23,02,043,,26,28,207,27,27,45,306,35,28,51,146,*78
$GPGSV,4,3,16,29,11,148,,31,37,184,22,32,55,360,30,36,52,277,*73
$GPGSV,4,4,16,40,84,353,,41,58,082,,49,32,274,,50,10,089,*79
$GLGSV,2,1,08,65,16,004,09,66,44,315,21,67,29,245,32,76,13,137,12*6E
$GLGSV,2,2,08,77,16,183,,86,13,139,18,87,49,106,23,88,41,008,27*62
$GNGLL,0419.79313,S,05539.76923,E,122528.00,A,A*64
$GNGRS,122528.00,1,1.8,-1.1,4.6,-0.5,-8.7,5.3,21.4,,,,,*6D
$GNGRS,122528.00,1,2.6,-0.8,12.9,-6.3,-7.2,-23.0,8.9,,,,,*76
$GNGST,122528.00,3299292,,,,6.0,4.9,20*58
$GNZDA,122528.00,22,05,2025,00,00*76
$GNGBS,122528.00,6.0,4.9,19.9,,,,*6B
$GNTXT,01,01,01,More than 100 frame errors, UART RX was disabled*70
b048D
<7
o5!X+}"-2|3b% 7h{4Ta:R 
Yl)
AcB,;COLMVW1jX))b8D"$GNRMC,122529.00,A,0419.79313,S,05539.76911,E,0.034,,220525,,,A*78
$GNVTG,,T,,M,0.034,N,0.064,K,A*38
$GNGNS,122529.00,0419.79313,S,05539.76911,E,AA,14,0.73,15.8,-47.6,,*6E
$GNGGA,122529.00,0419.79313,S,05539.76911,E,1,12,0.73,15.8,M,-47.6,M,,*42
$GNGSA,A,3,32,27,18,26,31,16,10,,,,,,1.81,0.73,1.66*1C
$GNGSA,A,3,66,87,65,88,67,86,76,,,,,,1.81,0.73,1.66*13
$GPGSV,4,1,16,08,10,316,13,10,15,005,08,16,25,238,27,18,33,088,15*7D
$GPGSV,4,2,16,23,02,043,,26,28,207,26,27,45,306,34,28,51,146,16*7F
$GPGSV,4,3,16,29,11,148,,31,37,184,22,32,55,360,29,36,52,277,*7B
$GPGSV,4,4,16,40,84,353,,41,58,082,,49,32,274,,50,10,089,*79
$GLGSV,2,1,08,65,16,004,11,66,44,315,20,67,29,245,31,76,13,137,09*6F
$GLGSV,2,2,08,77,16,183,,86,13,139,18,87,49,106,22,88,41,008,27*63
$GNGLL,0419.79313,S,05539.76911,E,122529.00,A,A*64
$GNGRS,122529.00,1,4.3,-1.3,4.3,-1.3,-7.6,7.6,137,,,,,*47
$GNGRS,122529.00,1,4.8,-3.1,-9.2,-7.5,-4.3,-21.2,36.1,,,,,*59
$GNGST,122529.00,57,,,,6.0,4.9,20*63
$GNZDA,122529.00,22,05,2025,00,00*77
$GNGBS,122529.00,6.0,4.9,19.8,,,,*6B
$GNTXT,01,01,01,More than 100 frame errors, UART RX was disabled*70
b04<D

<
x!X+"-2{3%s 7h{4Ta:R 
Yl
A=B,;RC aLMVpW1jX)+b<D&n$GNRMC,122530.00,A,0419.79314,S,05539.76901,E,0.031,,220525,,,A*73
$GNVTG,,T,,M,0.031,N,0.057,K,A*3D
$GNGNS,122530.00,0419.79314,S,05539.76901,E,AA,14,0.70,16.5,-47.6,,*6D
$GNGGA,122530.00,0419.79314,S,05539.76901,E,1,12,0.70,16.5,M,-47.6,M,,*41
$GNGSA,A,3,32,27,18,26,31,16,10,,,,,,1.68,0.70,1.53*1E
$GNGSA,A,3,66,87,65,88,67,86,76,,,,,,1.68,0.70,1.53*11
$GPGSV,4,1,16,08,10,316,10,10,15,005,09,16,25,238,26,18,33,088,17*7C
$GPGSV,4,2,16,23,02,043,,26,28,207,27,27,45,306,34,28,51,146,16*7E
$GPGSV,4,3,16,29,11,148,,31,37,184,21,32,55,360,29,36,52,277,*78
$GPGSV,4,4,16,40,84,353,,41,58,082,,49,32,274,,50,10,089,*79
$GLGSV,2,1,08,65,16,004,11,66,44,315,20,67,29,245,32,76,13,137,09*6C
$GLGSV,2,2,08,77,16,183,,86,13,139,16,87,49,106,23,88,41,008,27*6C
$GNGLL,0419.79314,S,05539.76901,E,122530.00,A,A*6A
$GNGRS,122530.00,1,5.0,-1.3,5.0,-0.8,-6.5,9.3,21.7,,,,,*63
$GNGRS,122530.00,1,3.4,-2.5,13.4,-8.8,-6.7,-19.4,9.5,,,,,*7E
$GNGST,122530.00,4496177,,,,6.0,4.9,20*57
$GNZDA,122530.00,22,05,2025,00,00*7F
$GNGBS,122530.00,6.0,4.9,19.8,,,,*63
$GNTXT,01,01,01,More than 100 frame errors, UART RX was disabled*70
b04@D
<
/!X>+S"-2p3-% 7hs{4Ta:R 
Yl
A
mB,;CLMVW1jdX)&db@D*o$GNRMC,122531.00,A,0419.79319,S,05539.76892,E,0.060,,220525,,,A*70
$GNVTG,,T,,M,0.060,N,0.112,K,A*39
$GNGNS,122531.00,0419.79319,S,05539.76892,E,AA,14,0.70,17.2,-47.6,,*6C
$GNGGA,122531.00,0419.79319,S,05539.76892,E,1,12,0.70,17.2,M,-47.6,M,,*40
$GNGSA,A,3,32,27,18,26,31,16,10,,,,,,1.68,0.70,1.53*1E
$GNGSA,A,3,66,87,65,88,67,86,76,,,,,,1.68,0.70,1.53*11
$GPGSV,4,1,16,08,10,316,09,10,15,005,12,16,25,238,26,18,33,088,16*7F
$GPGSV,4,2,16,23,02,043,,26,28,207,27,27,45,306,34,28,51,146,15*7D
$GPGSV,4,3,16,29,11,148,,31,37,184,19,32,55,360,28,36,52,277,*72
$GPGSV,4,4,16,40,84,353,,41,58,082,,49,32,274,,50,10,089,*79
$GLGSV,2,1,08,65,16,004,10,66,44,315,21,67,29,245,31,76,13,137,09*6F
$GLGSV,2,2,08,77,16,183,,86,13,139,17,87,49,106,23,88,41,008,26*6C
$GNGLL,0419.79319,S,05539.76892,E,122531.00,A,A*6D
$GNGRS,122531.00,1,3.7,-1.4,5.7,-1.7,-5.4,13.3,22.1,,,,,*51
$GNGRS,122531.00,1,4.0,-1.6,13.9,-10.5,-6.0,-18.0,9.8,,,,,*4A
$GNGST,122531.00,4496177,,,,6.0,4.8,20*57
$GNZDA,122531.00,22,05,2025,00,00*7E
$GNGBS,122531.00,6.0,4.8,19.7,,,,*6C
$GNTXT,01,01,01,More than 100 frame errors, UART RX was disabled*70
b04DD

<
!X4+"-2L3:%] 7h{4Ta:R 
Yl
A-B,;4CLnMVyW1jX)bDD.G>$GNRMC,122532.00,A,0419.79316,S,05539.76876,E,0.132,,220525,,,A*70
$GNVTG,,T,,M,0.132,N,0.244,K,A*3F
$GNGNS,122532.00,0419.79316,S,05539.76876,E,AA,14,0.70,17.6,-47.6,,*6E
$GNGGA,122532.00,0419.79316,S,05539.76876,E,1,12,0.70,17.6,M,-47.6,M,,*42
$GNGSA,A,3,32,27,18,26,31,16,10,,,,,,1.68,0.70,1.53*1E
$GNGSA,A,3,66,87,65,88,67,86,76,,,,,,1.68,0.70,1.53*11
$GPGSV,4,1,16,08,10,316,10,10,15,005,11,16,25,238,25,18,33,088,16*77
$GPGSV,4,2,16,23,02,043,,26,28,207,27,27,45,306,34,28,51,146,16*7E
$GPGSV,4,3,16,29,11,148,,31,37,184,22,32,55,360,27,36,52,277,*75
$GPGSV,4,4,16,40,84,353,,41,58,082,,49,32,274,,50,10,089,*79
$GLGSV,2,1,08,65,16,004,13,66,44,315,22,67,29,245,31,76,13,137,09*6F
$GLGSV,2,2,08,77,16,183,,86,13,139,17,87,49,106,24,88,41,008,26*6B
$GNGLL,0419.79316,S,05539.76876,E,122532.00,A,A*6B
$GNGRS,122532.00,1,6.5,-1.8,5.6,-2.3,-4.2,14.7,-46.3,,,,,*76
$GNGRS,122532.00,1,3.1,-0.7,5.6,-11.5,-3.0,-16.7,6.2,,,,,*7F
$GNGST,122532.00,60,,,,6.0,4.8,19*66
$GNZDA,122532.00,22,05,2025,00,00*7D
$GNGBS,122532.00,6.0,4.8,19.5,,,,*6D
$GNTXT,01,01,01,More than 100 frame errors, UART RX was disabled*70
b04HD
<
 !X+J"-2+3% 7h{4Ta:R 
YlU
AB,;qCLMVjW1jX)Q:bHDz2$GNRMC,122533.00,A,0419.79327,S,05539.76867,E,0.008,,220525,,,A*7B
$GNVTG,,T,,M,0.008,N,0.014,K,A*30
$GNGNS,122533.00,0419.79327,S,05539.76867,E,AA,14,0.79,18.7,-47.6,,*6A
$GNGGA,122533.00,0419.79327,S,05539.76867,E,1,12,0.79,18.7,M,-47.6,M,,*46
$GNGSA,A,3,32,28,27,18,26,31,16,10,,,,,1.86,0.79,1.68*15
$GNGSA,A,3,66,87,88,67,86,76,,,,,,,1.86,0.79,1.68*13
$GPGSV,4,1,16,08,10,316,08,10,15,005,07,16,25,238,24,18,33,088,15*7B
$GPGSV,4,2,16,23,02,043,,26,28,207,28,27,45,306,34,28,51,146,18*7F
$GPGSV,4,3,16,29,11,148,,31,37,184,23,32,55,360,27,36,52,277,*74
$GPGSV,4,4,16,40,84,353,,41,58,082,,49,32,274,,50,10,089,*79
$GLGSV,2,1,08,65,16,004,05,66,44,315,21,67,29,245,31,76,13,137,09*6B
$GLGSV,2,2,08,77,16,183,,86,13,140,16,87,49,106,23,88,41,008,25*60
$GNGLL,0419.79327,S,05539.76867,E,122533.00,A,A*68
$GNGRS,122533.00,1,7.1,2.5,-2.1,5.1,-1.8,-2.8,13.1,22.1,,,,*7E
$GNGRS,122533.00,1,3.7,1.6,-11.4,-3.6,-16.9,9.4,,,,,,*78
$GNGST,122533.00,41664,,,,5.9,4.8,19*5A
$GNZDA,122533.00,22,05,2025,00,00*7C
$GNGBS,122533.00,5.9,4.8,19.4,,,,*67
$GNTXT,01,01,01,More than 100 frame errors, UART RX was disabled*70
b04LD
<
!XX+"-23%
 7h3{4Ta:R 
Yl
