$GNRMC,072418.00,A,0419.80393,S,05539.90448,E,0.055,,280525,,,A*75
$GNVTG,,T,,M,0.055,N,0.103,K,A*3F
$GNGGA,072418.00,0419.80393,S,05539.90448,E,1,11,1.11,26.4,M,-47.6,M,,*48
$GNGSA,A,3,25,23,12,15,24,29,05,13,,,,,1.77,1.11,1.37*12
$GNGSA,A,3,73,69,80,,,,,,,,,,1.77,1.11,1.37*1A
$GPGSV,5,1,17,05,15,028,31,10,27,220,20,12,56,146,22,13,10,081,22*7D
$GPGSV,5,2,17,15,44,101,22,18,24,320,,23,68,248,25,24,22,155,15*77
$GPGSV,5,3,17,25,83,265,24,28,11,267,,29,25,008,26,32,01,219,*71
$GPGSV,5,4,17,36,52,277,,40,85,352,,41,58,082,28,49,32,274,*76
$GPGSV,5,5,17,50,10,089,*4A
$GLGSV,3,1,09,69,35,067,36,70,47,163,,71,10,197,,73,57,218,23*67
$GLGSV,3,2,09,74,42,297,,75,00,324,,80,17,165,21,84,06,359,*69
$GLGSV,3,3,09,85,02,313,*52
$GNGLL,0419.80393,S,05539.90448,E,072418.00,A,A*64
$GNRMC,072419.00,A,0419.80394,S,05539.90460,E,0.310,,280525,,,A*7B
$GNVTG,,T,,M,0.310,N,0.575,K,A*38
$GNGGA,072419.00,0419.80394,S,05539.90460,E,1,10,1.13,26.1,M,-47.6,M,,*42
$GNGSA,A,3,25,23,15,24,29,05,13,,,,,,1.85,1.13,1.47*19
$GNGSA,A,3,73,69,80,,,,,,,,,,1.85,1.13,1.47*12
$GPGSV,5,1,17,05,15,028,25,10,27,220,19,12,56,146,,13,10,081,21*71
$GPGSV,5,2,17,15,44,101,20,18,24,320,,23,68,248,22,24,22,155,09*7F
$GPGSV,5,3,17,25,83,265,21,28,11,267,,29,25,008,23,32,01,219,*71
$GPGSV,5,4,17,36,52,277,,40,85,352,,41,58,082,27,49,32,274,*79
$GPGSV,5,5,17,50,10,089,*4A
$GLGSV,3,1,09,69,35,067,27,70,47,163,,71,10,197,,73,57,218,21*65
$GLGSV,3,2,09,74,42,297,,75,00,324,,80,17,165,19,84,06,359,*62
$GLGSV,3,3,09,85,02,313,*52
$GNGLL,0419.80394,S,05539.90460,E,072419.00,A,A*68
$GNRMC,072420.00,A,0419.80377,S,05539.90458,E,0.450,,280525,,,A*74
$GNVTG,,T,,M,0.450,N,0.833,K,A*34
$GNGGA,072420.00,0419.80377,S,05539.90458,E,1,10,1.15,26.4,M,-47.6,M,,*4D
$GNGSA,A,3,25,23,15,24,29,05,13,,,,,,1.91,1.15,1.53*1F
$GNGSA,A,3,73,69,80,,,,,,,,,,1.91,1.15,1.53*14
$GPGSV,5,1,17,05,15,028,31,10,27,220,19,12,56,146,,13,10,081,20*75
$GPGSV,5,2,17,15,44,101,21,18,24,320,,23,68,248,23,24,22,155,09*7F
$GPGSV,5,3,17,25,83,265,20,28,11,267,,29,25,008,25,32,01,219,*76
$GPGSV,5,4,17,36,52,277,,40,85,352,,41,58,082,,49,32,274,*7C
$GPGSV,5,5,17,50,10,089,*4A
$GLGSV,3,1,09,69,35,067,28,70,47,163,,71,10,197,,73,57,218,20*6B
$GLGSV,3,2,09,74,42,297,,75,00,324,,80,17,165,16,84,06,359,*6D
$GLGSV,3,3,09,85,02,313,*52
$GNGLL,0419.80377,S,05539.90458,E,072420.00,A,A*64
$GNRMC,072421.00,A,0419.80373,S,05539.90459,E,0.147,,280525,,,A*73
$GNVTG,,T,,M,0.147,N,0.273,K,A*39
$GNGGA,072421.00,0419.80373,S,05539.90459,E,1,10,1.15,26.5,M,-47.6,M,,*48
$GNGSA,A,3,25,23,15,24,29,05,13,,,,,,1.91,1.15,1.53*1F
$GNGSA,A,3,73,69,80,,,,,,,,,,1.91,1.15,1.53*14
$GPGSV,5,1,17,05,15,028,35,10,27,220,22,12,56,146,11,13,10,081,18*72
$GPGSV,5,2,17,15,44,101,21,18,24,320,,23,68,248,30,24,22,155,09*7D
$GPGSV,5,3,17,25,83,265,23,28,11,267,,29,25,008,25,32,01,219,*75
$GPGSV,5,4,17,36,52,277,,40,85,352,,41,58,082,,49,32,274,*7C
$GPGSV,5,5,17,50,10,089,*4A
$GLGSV,3,1,09,69,35,067,37,70,47,163,,71,10,197,,73,57,218,23*66
$GLGSV,3,2,09,74,42,297,,75,00,324,,80,17,165,17,84,06,359,*6C
$GLGSV,3,3,09,85,02,313,*52
$GNGLL,0419.80373,S,05539.90459,E,072421.00,A,A*60
$GNRMC,072422.00,A,0419.80374,S,05539.90457,E,0.093,,280525,,,A*71
$GNVTG,,T,,M,0.093,N,0.173,K,A*32
$GNGGA,072422.00,0419.80374,S,05539.90457,E,1,10,1.15,26.3,M,-47.6,M,,*44
$GNGSA,A,3,25,23,15,24,29,05,13,,,,,,1.91,1.15,1.53*1F
$GNGSA,A,3,73,69,80,,,,,,,,,,1.91,1.15,1.53*14
$GPGSV,5,1,17,05,15,028,32,10,27,220,24,12,56,146,18,13,10,081,20*71
$GPGSV,5,2,17,15,44,101,22,18,24,320,,23,68,248,30,24,22,155,09*7E
$GPGSV,5,3,17,25,83,265,25,28,11,267,,29,25,008,27,32,01,219,*71
$GPGSV,5,4,17,36,52,277,,40,85,352,,41,58,082,,49,32,274,*7C
$GPGSV,5,5,17,50,10,089,*4A
$GLGSV,3,1,09,69,35,067,36,70,47,163,,71,10,197,,73,57,218,25*61
$GLGSV,3,2,09,74,42,297,,75,00,324,,80,17,165,20,84,06,359,*68
$GLGSV,3,3,09,85,02,313,*52
$GNGLL,0419.80374,S,05539.90457,E,072422.00,A,A*6A
$GNRMC,072423.00,A,0419.80367,S,05539.90457,E,0.054,,280525,,,A*79
$GNVTG,,T,,M,0.054,N,0.100,K,A*3D
$GNGGA,072423.00,0419.80367,S,05539.90457,E,1,09,1.16,26.5,M,-47.6,M,,*4A
$GNGSA,A,3,25,23,15,29,05,13,,,,,,,1.88,1.16,1.48*18
$GNGSA,A,3,73,69,80,,,,,,,,,,1.88,1.16,1.48*15
$GPGSV,5,1,17,05,15,028,34,10,27,220,24,12,56,146,21,13,10,081,19*77
$GPGSV,5,2,17,15,44,101,24,18,24,320,08,23,68,248,30,24,22,155,*79
$GPGSV,5,3,17,25,83,265,23,28,11,267,,29,25,008,26,32,01,219,*76
$GPGSV,5,4,17,36,52,277,,40,85,352,,41,58,082,31,49,32,274,*7E
$GPGSV,5,5,17,50,10,089,*4A
$GLGSV,3,1,09,69,35,067,36,70,47,163,,71,10,197,,73,57,218,26*62
$GLGSV,3,2,09,74,42,297,,75,00,324,,80,17,165,21,84,06,359,*69
$GLGSV,3,3,09,85,02,313,*52
$GNGLL,0419.80367,S,05539.90457,E,072423.00,A,A*69
$GNRMC,072424.00,A,0419.80362,S,05539.90458,E,0.084,,280525,,,A*79
$GNVTG,,T,,M,0.084,N,0.155,K,A*30
$GNGGA,072424.00,0419.80362,S,05539.90458,E,1,10,1.11,26.8,M,-47.6,M,,*45
$GNGSA,A,3,25,23,12,15,29,05,13,,,,,,1.76,1.11,1.37*15
$GNGSA,A,3,73,69,80,,,,,,,,,,1.76,1.11,1.37*1B
$GPGSV,5,1,17,05,15,028,34,10,27,220,25,12,56,146,20,13,10,081,18*76
$GPGSV,5,2,17,15,44,101,24,18,24,320,08,23,68,248,29,24,22,155,17*77
$GPGSV,5,3,17,25,83,265,23,28,11,267,,29,25,008,25,32,01,219,*75
$GPGSV,5,4,17,36,52,277,,40,85,352,,41,58,082,29,49,32,274,*77
$GPGSV,5,5,17,50,10,089,*4A
$GLGSV,3,1,09,69,35,067,35,70,47,163,,71,10,197,,73,57,218,27*60
$GLGSV,3,2,09,74,42,297,,75,00,324,,80,17,165,22,84,06,359,*6A
$GLGSV,3,3,09,85,02,313,*52
$GNGLL,0419.80362,S,05539.90458,E,072424.00,A,A*64
$GNRMC,072425.00,A,0419.80367,S,05539.90452,E,0.187,,280525,,,A*75
$GNVTG,,T,,M,0.187,N,0.347,K,A*33
$GNGGA,072425.00,0419.80367,S,05539.90452,E,1,10,1.11,26.5,M,-47.6,M,,*46
$GNGSA,A,3,25,23,12,15,29,05,13,,,,,,1.76,1.11,1.37*15
$GNGSA,A,3,73,69,80,,,,,,,,,,1.76,1.11,1.37*1B
$GPGSV,5,1,17,05,15,028,34,10,27,220,24,12,56,146,19,13,10,081,18*7D
$GPGSV,5,2,17,15,44,101,24,18,24,320,15,23,68,248,28,24,22,155,16*7B
$GPGSV,5,3,17,25,83,265,22,28,11,267,,29,25,008,25,32,01,219,*74
$GPGSV,5,4,17,36,52,277,,40,85,352,,41,58,082,30,49,32,274,*7F
$GPGSV,5,5,17,50,10,089,*4A
$GLGSV,3,1,09,69,35,067,36,70,47,163,,71,10,197,,73,57,218,27*63
$GLGSV,3,2,09,74,42,297,,75,00,324,,80,17,165,22,84,06,359,*6A
$GLGSV,3,3,09,85,02,313,*52
$GNGLL,0419.80367,S,05539.90452,E,072425.00,A,A*6A
$GNRMC,072426.00,A,0419.80352,S,05539.90459,E,0.075,,280525,,,A*77
$GNVTG,,T,,M,0.075,N,0.139,K,A*34
$GNGGA,072426.00,0419.80352,S,05539.90459,E,1,11,0.89,27.1,M,-47.6,M,,*4C
$GNGSA,A,3,25,23,12,15,18,29,05,13,,,,,1.48,0.89,1.18*1C
$GNGSA,A,3,73,69,80,,,,,,,,,,1.48,0.89,1.18*1B
$GPGSV,5,1,17,05,15,028,34,10,27,220,25,12,56,146,21,13,10,081,20*7C
$GPGSV,5,2,17,15,44,101,24,18,24,320,19,23,68,248,28,24,22,155,15*74
$GPGSV,5,3,17,25,83,265,22,28,11,267,,29,25,008,26,32,01,219,*77
$GPGSV,5,4,17,36,52,277,,40,85,352,,41,58,082,31,49,32,274,*7E
$GPGSV,5,5,17,50,10,089,*4A
$GLGSV,3,1,09,69,35,067,36,70,47,163,,71,10,197,,73,57,218,26*62
$GLGSV,3,2,09,74,42,297,,75,00,324,,80,17,165,23,84,06,359,*6B
$GLGSV,3,3,09,85,02,313,*52
$GNGLL,0419.80352,S,05539.90459,E,072426.00,A,A*64
$GNRMC,072427.00,A,0419.80349,S,05539.90459,E,0.087,,280525,,,A*71
$GNVTG,,T,,M,0.087,N,0.160,K,A*35
$GNGGA,072427.00,0419.80349,S,05539.90459,E,1,11,0.89,27.1,M,-47.6,M,,*47
$GNGSA,A,3,25,23,12,15,18,29,05,13,,,,,1.48,0.89,1.18*1C
$GNGSA,A,3,73,69,80,,,,,,,,,,1.48,0.89,1.18*1B
$GPGSV,5,1,17,05,15,028,34,10,27,220,25,12,56,146,23,13,10,081,21*7F
$GPGSV,5,2,17,15,44,101,25,18,24,320,18,23,68,248,29,24,22,155,15*75
$GPGSV,5,3,17,25,83,265,23,28,11,267,,29,25,008,26,32,01,219,*76
$GPGSV,5,4,17,36,52,277,,40,85,352,,41,58,082,29,49,32,274,*77
$GPGSV,5,5,17,50,10,089,*4A
$GLGSV,3,1,09,69,35,067,38,70,47,163,,71,10,197,,73,57,218,27*6D
$GLGSV,3,2,09,74,42,297,,75,00,324,,80,17,165,24,84,06,359,*6C
$GLGSV,3,3,09,85,02,313,*52
$GNGLL,0419.80349,S,05539.90459,E,072427.00,A,A*6F
$GNRMC,072428.00,A,0419.80360,S,05539.90456,E,0.115,,280525,,,A*70
$GNVTG,,T,,M,0.115,N,0.214,K,A*3F
$GNGGA,072428.00,0419.80360,S,05539.90456,E,1,12,0.86,26.6,M,-47.6,M,,*46
$GNGSA,A,3,25,23,12,15,18,24,29,05,13,,,,1.43,0.86,1.15*13
$GNGSA,A,3,73,69,80,,,,,,,,,,1.43,0.86,1.15*12
$GPGSV,5,1,17,05,15,028,35,10,27,220,24,12,56,146,26,13,10,081,21*7A
$GPGSV,5,2,17,15,44,101,26,18,24,320,18,23,68,248,30,24,22,155,17*7C
$GPGSV,5,3,17,25,83,265,23,28,11,267,,29,25,008,27,32,01,219,*77
$GPGSV,5,4,17,36,52,277,,40,85,352,,41,58,082,28,49,32,274,*76
$GPGSV,5,5,17,50,10,089,*4A
$GLGSV,3,1,09,69,35,067,38,70,47,163,,71,10,197,,73,57,218,27*6D
$GLGSV,3,2,09,74,42,297,,75,00,324,,80,17,165,23,84,06,359,*6B
$GLGSV,3,3,09,85,02,313,*52
$GNGLL,0419.80360,S,05539.90456,E,072428.00,A,A*64
$GNRMC,072429.00,A,0419.80371,S,05539.90457,E,0.242,,280525,,,A*71
$GNVTG,,T,,M,0.242,N,0.448,K,A*31
$GNGGA,072429.00,0419.80371,S,05539.90457,E,1,12,0.86,26.2,M,-47.6,M,,*42
$GNGSA,A,3,25,23,12,15,18,24,29,05,13,,,,1.43,0.86,1.15*13
$GNGSA,A,3,73,69,80,,,,,,,,,,1.43,0.86,1.15*12
$GPGSV,5,1,17,05,15,028,33,10,27,220,23,12,56,146,25,13,10,081,18*72
$GPGSV,5,2,17,15,44,101,25,18,24,320,17,23,68,248,29,24,22,155,18*77
$GPGSV,5,3,17,25,83,265,22,28,11,267,,29,25,008,27,32,01,219,*76
$GPGSV,5,4,17,36,52,277,,40,85,352,,41,58,082,28,49,32,274,*76
$GPGSV,5,5,17,50,10,089,*4A
$GLGSV,3,1,09,69,35,067,38,70,47,163,,71,10,197,,73,57,218,27*6D
$GLGSV,3,2,09,74,42,297,,75,00,324,,80,17,165,23,84,06,359,*6B
$GLGSV,3,3,09,85,02,313,*52
$GNGLL,0419.80371,S,05539.90457,E,072429.00,A,A*64
$GNRMC,072430.00,A,0419.80367,S,05539.90461,E,0.053,,280525,,,A*79
$GNVTG,,T,,M,0.053,N,0.099,K,A*3B
$GNGGA,072430.00,0419.80367,S,05539.90461,E,1,12,0.86,26.2,M,-47.6,M,,*48
$GNGSA,A,3,25,23,12,15,18,24,29,05,13,,,,1.43,0.86,1.15*13
$GNGSA,A,3,73,69,80,,,,,,,,,,1.43,0.86,1.15*12
$GPGSV,5,1,17,05,15,028,34,10,27,220,23,12,56,146,24,13,10,081,18*74
$GPGSV,5,2,17,15,44,101,24,18,24,320,18,23,68,248,30,24,22,155,20*7A
$GPGSV,5,3,17,25,83,265,20,28,11,267,,29,25,008,26,32,01,219,*75
$GPGSV,5,4,17,36,52,277,,40,85,352,,41,58,082,29,49,32,274,*77
$GPGSV,5,5,17,50,10,089,*4A
$GLGSV,3,1,09,69,35,066,38,70,47,163,,71,10,197,,73,57,218,27*6C
$GLGSV,3,2,09,74,42,297,,75,00,324,,80,17,165,23,84,06,359,*6B
$GLGSV,3,3,09,85,02,313,*52
$GNGLL,0419.80367,S,05539.90461,E,072430.00,A,A*6E
$GNRMC,072431.00,A,0419.80368,S,05539.90463,E,0.193,,280525,,,A*78
$GNVTG,,T,,M,0.193,N,0.357,K,A*37
$GNGGA,072431.00,0419.80368,S,05539.90463,E,1,12,0.86,26.0,M,-47.6,M,,*46
$GNGSA,A,3,25,23,12,15,18,24,29,05,13,,,,1.43,0.86,1.15*13
$GNGSA,A,3,73,69,80,,,,,,,,,,1.43,0.86,1.15*12
$GPGSV,5,1,17,05,15,028,34,10,27,220,23,12,56,146,23,13,10,081,18*73
$GPGSV,5,2,17,15,44,101,26,18,24,320,19,23,68,248,30,24,22,155,18*72
$GPGSV,5,3,17,25,83,265,18,28,11,267,,29,26,008,25,32,01,219,*7E
$GPGSV,5,4,17,36,52,277,,40,85,352,,41,58,082,29,49,32,274,*77
$GPGSV,5,5,17,50,10,089,*4A
$GLGSV,3,1,09,69,35,066,37,70,47,163,,71,10,197,,73,57,218,28*6C
$GLGSV,3,2,09,74,42,297,,75,00,324,,80,17,165,23,84,06,359,*6B
$GLGSV,3,3,09,85,02,313,*52
$GNGLL,0419.80368,S,05539.90463,E,072431.00,A,A*62
$GNRMC,072432.00,A,0419.80362,S,05539.90460,E,0.183,,280525,,,A*73
$GNVTG,,T,,M,0.183,N,0.340,K,A*30
$GNGGA,072432.00,0419.80362,S,05539.90460,E,1,12,0.86,26.0,M,-47.6,M,,*4C
$GNGSA,A,3,25,23,12,15,18,24,29,05,13,,,,1.43,0.86,1.15*13
$GNGSA,A,3,73,69,80,,,,,,,,,,1.43,0.86,1.15*12
$GPGSV,5,1,17,05,15,028,33,10,27,220,24,12,56,146,22,13,10,081,17*7D
$GPGSV,5,2,17,15,44,101,26,18,24,320,18,23,68,248,29,24,22,155,17*74
$GPGSV,5,3,17,25,83,265,17,28,11,267,,29,26,008,25,32,01,219,*71
$GPGSV,5,4,17,36,52,277,,40,85,352,,41,58,082,29,49,32,274,*77
$GPGSV,5,5,17,50,10,089,*4A
$GLGSV,3,1,09,69,35,066,37,70,47,163,,71,11,197,,73,57,218,29*6C
$GLGSV,3,2,09,74,42,297,,75,00,324,,80,17,165,22,84,06,359,*6A
$GLGSV,3,3,09,85,02,313,*52
$GNGLL,0419.80362,S,05539.90460,E,072432.00,A,A*68
$GNRMC,072433.00,A,0419.80369,S,05539.90453,E,0.192,,280525,,,A*79
$GNVTG,,T,,M,0.192,N,0.356,K,A*37
$GNGGA,072433.00,0419.80369,S,05539.90453,E,1,12,0.86,25.4,M,-47.6,M,,*41
$GNGSA,A,3,25,23,12,15,18,24,29,05,13,,,,1.43,0.86,1.15*13
$GNGSA,A,3,73,69,80,,,,,,,,,,1.43,0.86,1.15*12
$GPGSV,5,1,17,05,15,028,33,10,27,220,24,12,56,146,23,13,10,081,20*78
$GPGSV,5,2,17,15,44,101,26,18,24,320,20,23,68,248,28,24,22,155,18*71
$GPGSV,5,3,17,25,83,265,18,28,11,267,,29,26,008,25,32,01,219,*7E
$GPGSV,5,4,17,36,52,277,,40,85,352,,41,58,082,30,49,32,274,*7F
$GPGSV,5,5,17,50,10,089,*4A
$GLGSV,3,1,09,69,35,066,38,70,47,163,,71,11,197,,73,57,218,29*63
$GLGSV,3,2,09,74,42,297,,75,00,324,,80,17,165,23,84,06,359,*6B
$GLGSV,3,3,09,85,02,313,*52
$GNGLL,0419.80369,S,05539.90453,E,072433.00,A,A*62
$GNRMC,072434.00,A,0419.80361,S,05539.90452,E,0.118,,280525,,,A*75
$GNVTG,,T,,M,0.118,N,0.218,K,A*3E
$GNGGA,072434.00,0419.80361,S,05539.90452,E,1,12,0.86,25.5,M,-47.6,M,,*4E
$GNGSA,A,3,25,23,12,15,18,24,29,05,13,,,,1.43,0.86,1.15*13
$GNGSA,A,3,73,69,80,,,,,,,,,,1.43,0.86,1.15*12
$GPGSV,5,1,17,05,15,028,33,10,27,220,22,12,56,146,23,13,10,081,21*7F
$GPGSV,5,2,17,15,44,101,26,18,24,320,20,23,68,248,29,24,22,155,19*71
$GPGSV,5,3,17,25,83,265,19,28,11,267,,29,26,008,24,32,01,219,*7E
$GPGSV,5,4,17,36,52,277,,40,85,352,,41,58,082,30,49,32,274,*7F
$GPGSV,5,5,17,50,10,089,*4A
$GLGSV,3,1,09,69,35,066,36,70,47,163,,71,11,197,,73,57,217,27*6C
$GLGSV,3,2,09,74,42,297,,75,00,324,,80,17,165,24,84,06,359,*6C
$GLGSV,3,3,09,85,02,313,*52
$GNGLL,0419.80361,S,05539.90452,E,072434.00,A,A*6C
$GNRMC,072435.00,A,0419.80359,S,05539.90449,E,0.100,,280525,,,A*7C
$GNVTG,,T,,M,0.100,N,0.186,K,A*33
$GNGGA,072435.00,0419.80359,S,05539.90449,E,1,12,0.86,25.4,M,-47.6,M,,*4F
$GNGSA,A,3,25,23,12,15,18,24,29,05,13,,,,1.43,0.86,1.15*13
$GNGSA,A,3,73,69,80,,,,,,,,,,1.43,0.86,1.15*12
$GPGSV,5,1,17,05,15,028,32,10,27,220,22,12,56,146,23,13,10,081,21*7E
$GPGSV,5,2,17,15,44,101,26,18,24,320,18,23,68,248,29,24,22,155,19*7A
$GPGSV,5,3,17,25,83,265,18,28,11,267,,29,26,008,24,32,01,219,*7F
$GPGSV,5,4,17,36,52,277,,40,85,352,,41,58,082,30,49,32,274,*7F
$GPGSV,5,5,17,50,10,089,*4A
$GLGSV,3,1,09,69,35,066,36,70,47,163,,71,11,197,,73,57,217,27*6C
$GLGSV,3,2,09,74,42,296,,75,00,324,,80,17,165,23,84,06,359,*6A
$GLGSV,3,3,09,85,02,313,*52
$GNGLL,0419.80359,S,05539.90449,E,072435.00,A,A*6C
$GNRMC,072436.00,A,0419.80358,S,05539.90449,E,0.102,,280525,,,A*7C
$GNVTG,,T,,M,0.102,N,0.189,K,A*3E
$GNGGA,072436.00,0419.80358,S,05539.90449,E,1,12,0.86,25.2,M,-47.6,M,,*4B
$GNGSA,A,3,25,23,12,15,18,24,29,05,13,,,,1.43,0.86,1.15*13
$GNGSA,A,3,73,69,80,,,,,,,,,,1.43,0.86,1.15*12
$GPGSV,5,1,17,05,15,028,32,10,27,220,22,12,56,146,24,13,10,081,20*78
$GPGSV,5,2,17,15,44,101,25,18,24,320,20,23,68,248,28,24,22,155,20*79
$GPGSV,5,3,17,25,83,265,17,28,11,267,,29,26,008,25,32,01,219,*71
$GPGSV,5,4,17,36,52,277,,40,85,352,,41,58,082,32,49,32,274,*7D
$GPGSV,5,5,17,50,10,089,*4A
$GLGSV,3,1,09,69,35,066,36,70,47,163,,71,11,197,,73,57,217,28*63
$GLGSV,3,2,09,74,42,296,,75,00,324,,80,17,165,22,84,06,359,*6B
$GLGSV,3,3,09,85,02,313,*52
$GNGLL,0419.80358,S,05539.90449,E,072436.00,A,A*6E
$GNRMC,072437.00,A,0419.80359,S,05539.90447,E,0.154,,280525,,,A*71
$GNVTG,,T,,M,0.154,N,0.286,K,A*31
$GNGGA,072437.00,0419.80359,S,05539.90447,E,1,12,0.86,24.9,M,-47.6,M,,*4F
$GNGSA,A,3,25,23,12,15,18,24,29,05,13,,,,1.43,0.86,1.15*13
$GNGSA,A,3,73,69,80,,,,,,,,,,1.43,0.86,1.15*12
$GPGSV,5,1,17,05,15,028,33,10,27,220,21,12,56,146,24,13,10,081,18*71
$GPGSV,5,2,17,15,44,101,23,18,24,320,19,23,68,248,28,24,22,155,21*74
$GPGSV,5,3,17,25,83,265,19,28,11,267,,29,26,008,25,32,01,219,*7F
$GPGSV,5,4,17,36,52,277,,40,85,352,,41,58,082,30,49,32,274,*7F
$GPGSV,5,5,17,50,10,089,*4A
$GLGSV,3,1,09,69,35,066,36,70,47,163,,71,11,197,,73,57,217,27*6C
$GLGSV,3,2,09,74,42,296,,75,00,324,,80,17,165,22,84,06,359,*6B
$GLGSV,3,3,09,85,02,313,*52
$GNGLL,0419.80359,S,05539.90447,E,072437.00,A,A*60
$GNRMC,072438.00,A,0419.80356,S,05539.90454,E,0.156,,280525,,,A*71
$GNVTG,,T,,M,0.156,N,0.288,K,A*3D
$GNGGA,072438.00,0419.80356,S,05539.90454,E,1,12,0.86,25.0,M,-47.6,M,,*45
$GNGSA,A,3,25,23,12,15,18,24,29,05,13,,,,1.43,0.86,1.15*13
$GNGSA,A,3,73,69,80,,,,,,,,,,1.43,0.86,1.15*12
$GPGSV,5,1,17,05,15,028,32,10,27,220,22,12,56,146,23,13,10,081,17*7B
$GPGSV,5,2,17,15,44,101,21,18,24,320,18,23,68,248,28,24,22,155,22*74
$GPGSV,5,3,17,25,83,265,18,28,11,267,,29,26,008,23,32,01,219,*78
$GPGSV,5,4,17,36,52,277,,40,85,352,,41,58,082,29,49,32,274,*77
$GPGSV,5,5,17,50,10,089,*4A
$GLGSV,3,1,09,69,35,066,36,70,47,163,,71,11,197,,73,57,217,26*6D
$GLGSV,3,2,09,74,42,296,,75,00,324,,80,17,165,22,84,06,359,*6B
$GLGSV,3,3,09,85,02,313,*52
$GNGLL,0419.80356,S,05539.90454,E,072438.00,A,A*62
$GNRMC,072439.00,A,0419.80346,S,05539.90458,E,0.170,,280525,,,A*79
$GNVTG,,T,,M,0.170,N,0.315,K,A*3C
$GNGGA,072439.00,0419.80346,S,05539.90458,E,1,12,0.86,25.3,M,-47.6,M,,*4A
$GNGSA,A,3,25,23,12,15,18,24,29,05,13,,,,1.43,0.86,1.15*13
$GNGSA,A,3,73,69,80,,,,,,,,,,1.43,0.86,1.15*12
$GPGSV,5,1,17,05,15,028,31,10,27,220,22,12,56,146,24,13,10,081,17*7F
$GPGSV,5,2,17,15,44,101,22,18,24,320,18,23,68,248,28,24,22,155,21*74
$GPGSV,5,3,17,25,83,265,16,28,11,267,,29,26,008,23,32,01,219,*76
$GPGSV,5,4,17,36,52,277,,40,85,352,,41,58,082,29,49,32,274,*77
$GPGSV,5,5,17,50,10,089,*4A
$GLGSV,3,1,09,69,35,066,37,70,47,163,,71,11,197,,73,57,217,25*6F
$GLGSV,3,2,09,74,42,296,,75,00,324,,80,17,165,23,84,06,359,*6A
$GLGSV,3,3,09,85,02,313,*52
$GNGLL,0419.80346,S,05539.90458,E,072439.00,A,A*6E
$GNRMC,072440.00,A,0419.80343,S,05539.90460,E,0.071,,280525,,,A*79
$GNVTG,,T,,M,0.071,N,0.131,K,A*38
$GNGGA,072440.00,0419.80343,S,05539.90460,E,1,12,0.86,25.3,M,-47.6,M,,*4A
$GNGSA,A,3,25,23,12,15,18,24,29,05,13,,,,1.43,0.86,1.15*13
$GNGSA,A,3,73,69,80,,,,,,,,,,1.43,0.86,1.15*12
$GPGSV,5,1,17,05,15,028,31,10,27,220,23,12,56,146,25,13,10,081,19*71
$GPGSV,5,2,17,15,44,101,21,18,24,320,20,23,68,248,28,24,22,155,21*7C
$GPGSV,5,3,17,25,83,265,15,28,11,267,,29,26,008,23,32,01,219,*75
$GPGSV,5,4,17,36,52,277,,40,85,352,,41,58,082,31,49,32,274,*7E
$GPGSV,5,5,17,50,10,089,*4A
$GLGSV,3,1,09,69,35,066,32,70,47,163,,71,11,197,,73,57,217,25*6A
$GLGSV,3,2,09,74,42,296,,75,00,324,,80,17,165,24,84,06,359,*6D
$GLGSV,3,3,09,85,02,313,*52
$GNGLL,0419.80343,S,05539.90460,E,072440.00,A,A*6E
$GNRMC,072441.00,A,0419.80347,S,05539.90459,E,0.185,,280525,,,A*7C
$GNVTG,,T,,M,0.185,N,0.344,K,A*32
$GNGGA,072441.00,0419.80347,S,05539.90459,E,1,12,0.86,25.2,M,-47.6,M,,*44
$GNGSA,A,3,25,23,12,15,18,24,29,05,13,,,,1.43,0.86,1.15*13
$GNGSA,A,3,73,69,80,,,,,,,,,,1.43,0.86,1.15*12
$GPGSV,5,1,17,05,15,028,31,10,27,220,23,12,56,146,25,13,10,081,20*7B
$GPGSV,5,2,17,15,44,101,21,18,24,320,21,23,68,248,29,24,22,155,21*7C
$GPGSV,5,3,17,25,83,265,13,28,11,267,,29,26,008,23,32,01,219,*73
$GPGSV,5,4,17,36,52,277,,40,85,352,,41,58,082,32,49,32,274,*7D
$GPGSV,5,5,17,50,10,089,*4A
$GLGSV,3,1,09,69,35,066,36,70,47,163,,71,11,197,,73,57,217,25*6E
$GLGSV,3,2,09,74,42,296,,75,00,324,,80,17,165,23,84,06,359,*6A
$GLGSV,3,3,09,85,02,313,*52
$GNGLL,0419.80347,S,05539.90459,E,072441.00,A,A*61
$GNRMC,072442.00,A,0419.80353,S,05539.90462,E,0.323,,280525,,,A*7C
$GNVTG,,T,,M,0.323,N,0.598,K,A*3B
$GNGGA,072442.00,0419.80353,S,05539.90462,E,1,12,0.86,25.1,M,-47.6,M,,*49
$GNGSA,A,3,25,23,12,15,18,24,29,05,13,,,,1.43,0.86,1.15*13
$GNGSA,A,3,73,69,80,,,,,,,,,,1.43,0.86,1.15*12
$GPGSV,5,1,17,05,15,028,32,10,27,220,22,12,56,146,25,13,10,081,19*73
$GPGSV,5,2,17,15,44,101,22,18,24,320,21,23,68,248,29,24,22,155,21*7F
$GPGSV,5,3,17,25,83,265,15,28,11,267,,29,26,008,22,32,01,219,*74
$GPGSV,5,4,17,36,52,277,,40,85,352,,41,58,082,31,49,32,274,*7E
$GPGSV,5,5,17,50,10,089,*4A
$GLGSV,3,1,09,69,35,066,36,70,47,163,,71,11,197,,73,57,217,25*6E
$GLGSV,3,2,09,74,42,296,,75,00,324,,80,17,165,21,84,06,359,*68
$GLGSV,3,3,09,85,02,313,*52
$GNGLL,0419.80353,S,05539.90462,E,072442.00,A,A*6F
$GNRMC,072443.00,A,0419.80346,S,05539.90461,E,0.173,,280525,,,A*7D
$GNVTG,,T,,M,0.173,N,0.320,K,A*39
$GNGGA,072443.00,0419.80346,S,05539.90461,E,1,12,0.86,25.3,M,-47.6,M,,*4D
$GNGSA,A,3,25,23,12,15,18,24,29,05,13,,,,1.43,0.86,1.15*13
$GNGSA,A,3,73,69,80,,,,,,,,,,1.43,0.86,1.15*12
$GPGSV,5,1,17,05,15,028,32,10,27,220,23,12,56,146,25,13,10,081,18*73
$GPGSV,5,2,17,15,44,101,21,18,24,320,22,23,68,248,29,24,22,155,22*7C
$GPGSV,5,3,17,25,83,265,13,28,11,267,,29,26,008,24,32,01,219,*74
$GPGSV,5,4,17,36,52,277,,40,85,352,,41,58,082,31,49,32,274,*7E
$GPGSV,5,5,17,50,10,089,*4A
$GLGSV,3,1,09,69,35,066,39,70,47,163,,71,11,197,,73,57,217,26*62
$GLGSV,3,2,09,74,42,296,,75,00,324,,80,17,165,23,84,06,359,*6A
$GLGSV,3,3,09,85,02,313,*52
$GNGLL,0419.80346,S,05539.90461,E,072443.00,A,A*69
$GNRMC,072444.00,A,0419.80345,S,05539.90458,E,0.232,,280525,,,A*75
$GNVTG,,T,,M,0.232,N,0.429,K,A*31
$GNGGA,072444.00,0419.80345,S,05539.90458,E,1,11,0.86,25.3,M,-47.6,M,,*40
$GNGSA,A,3,23,12,15,18,24,29,05,13,,,,,1.53,0.86,1.26*15
$GNGSA,A,3,73,69,80,,,,,,,,,,1.53,0.86,1.26*13
$GPGSV,5,1,17,05,15,028,31,10,27,220,23,12,56,146,26,13,10,081,15*7E
$GPGSV,5,2,17,15,44,101,20,18,24,320,22,23,68,248,28,24,22,155,21*7F
$GPGSV,5,3,17,25,83,265,,28,11,267,,29,26,008,22,32,01,219,*70
$GPGSV,5,4,17,36,52,277,,40,85,352,,41,58,082,31,49,32,274,*7E
$GPGSV,5,5,17,50,10,089,*4A
$GLGSV,3,1,09,69,35,066,37,70,47,163,,71,11,197,,73,57,217,26*6C
$GLGSV,3,2,09,74,42,296,,75,00,324,,80,17,165,22,84,06,359,*6B
$GLGSV,3,3,09,85,02,313,*52
$GNGLL,0419.80345,S,05539.90458,E,072444.00,A,A*67
$GNRMC,072445.00,A,0419.80346,S,05539.90460,E,0.231,,280525,,,A*7F
$GNVTG,,T,,M,0.231,N,0.428,K,A*33
$GNGGA,072445.00,0419.80346,S,05539.90460,E,1,11,0.86,25.3,M,-47.6,M,,*49
$GNGSA,A,3,23,12,15,18,24,29,05,13,,,,,1.53,0.86,1.26*15
$GNGSA,A,3,73,69,80,,,,,,,,,,1.53,0.86,1.26*13
$GPGSV,5,1,17,05,15,028,31,10,27,220,25,12,56,146,27,13,10,081,15*79
$GPGSV,5,2,17,15,44,101,20,18,24,320,22,23,68,248,28,24,22,155,21*7F
$GPGSV,5,3,17,25,83,265,,28,11,267,,29,26,008,21,32,01,219,*73
$GPGSV,5,4,17,36,52,277,,40,85,352,,41,58,082,31,49,32,274,*7E
$GPGSV,5,5,17,50,10,089,*4A
$GLGSV,3,1,09,69,35,066,38,70,47,163,,71,11,197,,73,57,217,25*60
$GLGSV,3,2,09,74,42,296,,75,00,324,,80,17,165,22,84,06,360,*61
$GLGSV,3,3,09,85,02,313,*52
$GNGLL,0419.80346,S,05539.90460,E,072445.00,A,A*6E
$GNRMC,072446.00,A,0419.80348,S,05539.90447,E,0.019,,280525,,,A*7F
$GNVTG,,T,,M,0.019,N,0.035,K,A*33
$GNGGA,072446.00,0419.80348,S,05539.90447,E,1,11,0.86,24.9,M,-47.6,M,,*4A
$GNGSA,A,3,23,12,15,18,24,29,05,13,,,,,1.53,0.86,1.26*15
$GNGSA,A,3,73,69,80,,,,,,,,,,1.53,0.86,1.26*13
$GPGSV,5,1,17,05,15,028,32,10,27,220,25,12,56,146,26,13,10,081,14*7A
$GPGSV,5,2,17,15,44,101,18,18,24,320,23,23,68,248,27,24,22,155,22*79
$GPGSV,5,3,17,25,83,265,,28,11,267,,29,26,008,22,32,01,219,*70
$GPGSV,5,4,17,36,52,277,,40,85,352,,41,58,082,29,49,32,274,*77
$GPGSV,5,5,17,50,10,089,*4A
$GLGSV,3,1,09,69,35,066,38,70,47,163,,71,11,197,,73,57,217,26*63
$GLGSV,3,2,09,74,42,296,,75,00,324,,80,17,165,21,84,06,360,*62
$GLGSV,3,3,09,85,02,314,*55
$GNGLL,0419.80348,S,05539.90447,E,072446.00,A,A*66
$GNRMC,072447.00,A,0419.80343,S,05539.90443,E,0.143,,280525,,,A*7F
$GNVTG,,T,,M,0.143,N,0.264,K,A*3B
$GNGGA,072447.00,0419.80343,S,05539.90443,E,1,11,0.86,24.9,M,-47.6,M,,*44
$GNGSA,A,3,23,12,15,18,24,29,05,13,,,,,1.53,0.86,1.26*15
$GNGSA,A,3,73,69,80,,,,,,,,,,1.53,0.86,1.26*13
$GPGSV,5,1,17,05,15,028,33,10,27,220,25,12,56,146,25,13,10,081,15*79
$GPGSV,5,2,17,15,44,101,18,18,24,320,25,23,68,248,28,24,22,155,23*71
$GPGSV,5,3,17,25,83,265,09,28,11,267,,29,26,008,22,32,01,219,*79
$GPGSV,5,4,17,36,52,277,,40,85,352,,41,58,082,29,49,32,274,*77
$GPGSV,5,5,17,50,10,089,*4A
$GLGSV,3,1,09,69,35,066,34,70,47,163,,71,11,197,,73,57,217,27*6E
$GLGSV,3,2,09,74,42,296,,75,00,324,,80,17,165,21,84,06,360,*62
$GLGSV,3,3,09,85,02,314,*55
$GNGLL,0419.80343,S,05539.90443,E,072447.00,A,A*68
$GNRMC,072448.00,A,0419.80338,S,05539.90438,E,0.209,,280525,,,A*7D
$GNVTG,,T,,M,0.209,N,0.387,K,A*3A
$GNGGA,072448.00,0419.80338,S,05539.90438,E,1,11,0.86,24.9,M,-47.6,M,,*4B
$GNGSA,A,3,23,12,15,18,24,29,05,13,,,,,1.53,0.86,1.26*15
$GNGSA,A,3,73,69,80,,,,,,,,,,1.53,0.86,1.26*13
$GPGSV,5,1,17,05,15,028,35,10,27,220,25,12,56,146,25,13,10,081,18*72
$GPGSV,5,2,17,15,44,101,19,18,24,320,26,23,68,248,28,24,22,155,23*73
$GPGSV,5,3,17,25,83,265,12,28,11,267,,29,26,008,25,32,01,219,*74
$GPGSV,5,4,17,36,52,277,,40,85,352,,41,58,082,28,49,32,274,*76
$GPGSV,5,5,17,50,10,089,*4A
$GLGSV,3,1,09,69,35,066,35,70,47,163,,71,11,197,,73,57,217,27*6F
$GLGSV,3,2,09,74,42,296,,75,00,324,,80,17,165,19,84,06,360,*69
$GLGSV,3,3,09,85,02,314,*55
$GNGLL,0419.80338,S,05539.90438,E,072448.00,A,A*67
$GNRMC,072449.00,A,0419.80340,S,05539.90436,E,0.086,,280525,,,A*78
$GNVTG,,T,,M,0.086,N,0.159,K,A*3E
$GNGGA,072449.00,0419.80340,S,05539.90436,E,1,11,0.86,24.8,M,-47.6,M,,*4A
$GNGSA,A,3,23,12,15,18,24,29,05,13,,,,,1.53,0.86,1.26*15
$GNGSA,A,3,73,69,80,,,,,,,,,,1.53,0.86,1.26*13
$GPGSV,5,1,17,05,15,028,32,10,27,220,25,12,56,146,24,13,10,081,18*74
$GPGSV,5,2,17,15,44,101,18,18,24,320,26,23,68,248,28,24,22,155,23*72
$GPGSV,5,3,17,25,83,265,17,28,11,267,,29,26,008,26,32,01,219,*72
$GPGSV,5,4,17,36,52,277,,40,85,352,,41,58,082,30,49,32,274,*7F
$GPGSV,5,5,17,50,10,089,*4A
$GLGSV,3,1,09,69,35,066,35,70,47,163,,71,11,197,,73,57,217,25*6D
$GLGSV,3,2,09,74,42,296,,75,00,324,,80,17,165,18,84,06,360,*68
$GLGSV,3,3,09,85,02,314,*55
$GNGLL,0419.80340,S,05539.90436,E,072449.00,A,A*67
$GNRMC,072450.00,A,0419.80330,S,05539.90437,E,0.160,,280525,,,A*7F
$GNVTG,,T,,M,0.160,N,0.296,K,A*37
$GNGGA,072450.00,0419.80330,S,05539.90437,E,1,11,0.92,25.0,M,-47.6,M,,*48
$GNGSA,A,3,25,23,12,18,24,29,05,13,,,,,1.55,0.92,1.24*17
$GNGSA,A,3,73,69,80,,,,,,,,,,1.55,0.92,1.24*12
$GPGSV,5,1,17,05,15,028,33,10,27,220,25,12,56,146,24,13,10,081,18*75
$GPGSV,5,2,17,15,44,101,,18,24,320,27,23,68,248,27,24,22,155,21*77
$GPGSV,5,3,17,25,83,265,17,28,11,267,,29,26,008,26,32,01,219,*72
$GPGSV,5,4,17,36,52,277,,40,85,352,,41,58,082,29,49,32,274,*77
$GPGSV,5,5,17,50,10,089,*4A
$GLGSV,3,1,09,69,35,066,35,70,47,163,,71,11,197,,73,57,217,24*6C
$GLGSV,3,2,09,74,42,296,,75,00,324,,80,17,165,18,84,06,360,*68
$GLGSV,3,3,09,85,02,314,*55
$GNGLL,0419.80330,S,05539.90437,E,072450.00,A,A*69
$GNRMC,072451.00,A,0419.80322,S,05539.90439,E,0.119,,280525,,,A*7D
$GNVTG,,T,,M,0.119,N,0.220,K,A*34
$GNGGA,072451.00,0419.80322,S,05539.90439,E,1,11,0.92,25.2,M,-47.6,M,,*46
$GNGSA,A,3,25,23,12,18,24,29,05,13,,,,,1.55,0.92,1.24*17
$GNGSA,A,3,73,69,80,,,,,,,,,,1.55,0.92,1.24*12
$GPGSV,5,1,17,05,15,028,34,10,27,220,26,12,56,146,27,13,10,081,16*7C
$GPGSV,5,2,17,15,44,101,23,18,24,320,27,23,68,248,28,24,22,155,21*79
$GPGSV,5,3,17,25,83,265,18,28,11,267,,29,26,008,28,32,01,219,*73
$GPGSV,5,4,17,36,52,277,,40,85,352,,41,58,082,29,49,32,274,*77
$GPGSV,5,5,17,50,10,089,*4A
$GLGSV,3,1,09,69,35,066,36,70,47,163,,71,11,197,,73,57,217,24*6F
$GLGSV,3,2,09,74,42,296,,75,00,324,,80,17,165,19,84,06,360,*69
$GLGSV,3,3,09,85,02,314,*55
$GNGLL,0419.80322,S,05539.90439,E,072451.00,A,A*65
$GNRMC,072452.00,A,0419.80322,S,05539.90438,E,0.038,,280525,,,A*7D
$GNVTG,,T,,M,0.038,N,0.070,K,A*31
$GNGGA,072452.00,0419.80322,S,05539.90438,E,1,11,0.92,25.1,M,-47.6,M,,*47
$GNGSA,A,3,25,23,12,18,24,29,05,13,,,,,1.55,0.92,1.24*17
$GNGSA,A,3,73,69,80,,,,,,,,,,1.55,0.92,1.24*12
$GPGSV,5,1,17,05,15,028,31,10,27,220,24,12,56,146,27,13,10,081,16*7B
$GPGSV,5,2,17,15,44,101,22,18,24,320,27,23,68,248,27,24,22,155,21*77
$GPGSV,5,3,17,25,83,265,20,28,11,267,,29,26,008,27,32,01,219,*77
$GPGSV,5,4,17,36,52,277,,40,85,352,,41,58,082,29,49,32,274,*77
$GPGSV,5,5,17,50,10,089,*4A
$GLGSV,3,1,09,69,35,066,37,70,47,163,,71,11,197,,73,57,217,24*6E
$GLGSV,3,2,09,74,42,296,,75,00,324,,80,17,165,21,84,06,360,*62
$GLGSV,3,3,09,85,02,314,*55
$GNGLL,0419.80322,S,05539.90438,E,072452.00,A,A*67
$GNRMC,072453.00,A,0419.80321,S,05539.90435,E,0.106,,280525,,,A*7E
$GNVTG,,T,,M,0.106,N,0.197,K,A*35
$GNGGA,072453.00,0419.80321,S,05539.90435,E,1,12,0.86,24.9,M,-47.6,M,,*47
$GNGSA,A,3,25,23,12,15,18,24,29,05,13,,,,1.43,0.86,1.15*13
$GNGSA,A,3,73,69,80,,,,,,,,,,1.43,0.86,1.15*12
$GPGSV,5,1,17,05,15,028,32,10,27,220,23,12,56,146,28,13,10,081,15*73
$GPGSV,5,2,17,15,44,101,22,18,24,320,27,23,68,248,27,24,22,155,21*77
$GPGSV,5,3,17,25,83,265,20,28,11,267,,29,26,008,26,32,01,219,*76
$GPGSV,5,4,17,36,52,277,,40,85,352,,41,58,082,29,49,32,274,*77
$GPGSV,5,5,17,50,10,089,*4A
$GLGSV,3,1,09,69,35,066,36,70,47,163,,71,11,197,,73,57,217,24*6F
$GLGSV,3,2,09,74,42,296,,75,00,324,,80,17,165,21,84,06,360,*62
$GLGSV,3,3,09,85,02,314,*55
$GNGLL,0419.80321,S,05539.90435,E,072453.00,A,A*68
$GNRMC,072454.00,A,0419.80331,S,05539.90433,E,0.206,,280525,,,A*7D
$GNVTG,,T,,M,0.206,N,0.382,K,A*30
$GNGGA,072454.00,0419.80331,S,05539.90433,E,1,12,0.86,24.3,M,-47.6,M,,*4D
$GNGSA,A,3,25,23,12,15,18,24,29,05,13,,,,1.43,0.86,1.15*13
$GNGSA,A,3,73,69,80,,,,,,,,,,1.43,0.86,1.15*12
$GPGSV,5,1,17,05,15,028,33,10,27,220,21,12,56,146,27,13,10,081,15*7F
$GPGSV,5,2,17,15,44,101,22,18,24,320,27,23,68,248,28,24,22,155,23*7A
$GPGSV,5,3,17,25,83,265,17,28,11,267,,29,26,008,25,32,01,219,*71
$GPGSV,5,4,17,36,52,277,,40,85,352,,41,58,082,29,49,32,274,*77
$GPGSV,5,5,17,50,10,089,*4A
$GLGSV,3,1,09,69,35,066,35,70,47,163,,71,11,197,,73,57,217,22*6A
$GLGSV,3,2,09,74,42,296,,75,00,324,,80,17,165,19,84,06,360,*69
$GLGSV,3,3,09,85,02,314,*55
$GNGLL,0419.80331,S,05539.90433,E,072454.00,A,A*68
$GNRMC,072455.00,A,0419.80333,S,05539.90432,E,0.081,,280525,,,A*72
$GNVTG,,T,,M,0.081,N,0.149,K,A*38
$GNGGA,072455.00,0419.80333,S,05539.90432,E,1,12,0.86,24.3,M,-47.6,M,,*4F
$GNGSA,A,3,25,23,12,15,18,24,29,05,13,,,,1.43,0.86,1.15*13
$GNGSA,A,3,73,69,80,,,,,,,,,,1.43,0.86,1.15*12
$GPGSV,5,1,17,05,15,028,32,10,27,220,20,12,56,146,26,13,10,081,14*7F
$GPGSV,5,2,17,15,44,101,23,18,24,320,26,23,68,248,28,24,22,155,22*7B
$GPGSV,5,3,17,25,83,265,12,28,11,267,,29,26,008,26,32,01,219,*77
$GPGSV,5,4,17,36,52,277,,40,85,352,,41,58,082,27,49,32,274,*79
$GPGSV,5,5,17,50,10,089,*4A
$GLGSV,3,1,09,69,35,066,35,70,47,163,,71,11,197,,73,57,217,23*6B
$GLGSV,3,2,09,74,42,296,,75,00,324,,80,17,165,20,84,06,360,*63
$GLGSV,3,3,09,85,02,314,*55
$GNGLL,0419.80333,S,05539.90432,E,072455.00,A,A*6A
$GNRMC,072456.00,A,0419.80350,S,05539.90426,E,0.106,,280525,,,A*7F
$GNVTG,,T,,M,0.106,N,0.197,K,A*35
$GNGGA,072456.00,0419.80350,S,05539.90426,E,1,12,0.86,23.6,M,-47.6,M,,*4E
$GNGSA,A,3,25,23,12,15,18,24,29,05,13,,,,1.43,0.86,1.15*13
$GNGSA,A,3,73,69,80,,,,,,,,,,1.43,0.86,1.15*12
$GPGSV,5,1,17,05,15,028,34,10,27,220,29,12,56,146,25,13,10,081,13*74
$GPGSV,5,2,17,15,44,101,24,18,24,320,27,23,68,248,27,24,22,155,22*72
$GPGSV,5,3,17,25,83,265,16,28,11,267,,29,26,008,27,32,01,219,*72
$GPGSV,5,4,17,36,52,277,,40,85,352,,41,58,082,27,49,32,274,*79
$GPGSV,5,5,17,50,10,089,*4A
$GLGSV,3,1,09,69,35,066,35,70,47,163,,71,11,197,,73,57,217,20*68
$GLGSV,3,2,09,74,42,296,,75,00,324,,80,17,165,18,84,06,360,*68
$GLGSV,3,3,09,85,02,314,*55
$GNGLL,0419.80350,S,05539.90426,E,072456.00,A,A*69
$GNRMC,072457.00,A,0419.80373,S,05539.90419,E,0.373,,280525,,,A*73
$GNVTG,,T,,M,0.373,N,0.692,K,A*37
$GNGGA,072457.00,0419.80373,S,05539.90419,E,1,12,0.86,22.7,M,-47.6,M,,*42
$GNGSA,A,3,25,23,12,15,18,24,29,05,13,,,,1.43,0.86,1.15*13
$GNGSA,A,3,73,69,80,,,,,,,,,,1.43,0.86,1.15*12
$GPGSV,5,1,17,05,15,028,31,10,27,220,27,12,56,146,26,13,10,081,16*79
$GPGSV,5,2,17,15,44,101,24,18,24,320,27,23,68,248,27,24,22,155,23*73
$GPGSV,5,3,17,25,83,265,20,28,11,267,,29,26,008,28,32,01,219,*78
$GPGSV,5,4,17,36,52,277,,40,85,352,,41,58,082,28,49,32,274,*76
$GPGSV,5,5,17,50,10,089,*4A
$GLGSV,3,1,09,69,35,066,33,70,47,163,,71,11,197,,73,57,217,21*6F
$GLGSV,3,2,09,74,42,296,,75,00,324,,80,17,165,17,84,06,360,*67
$GLGSV,3,3,09,85,02,314,*55
$GNGLL,0419.80373,S,05539.90419,E,072457.00,A,A*65
$GNRMC,072458.00,A,0419.80383,S,05539.90418,E,0.100,,280525,,,A*74
$GNVTG,,T,,M,0.100,N,0.186,K,A*33
$GNGGA,072458.00,0419.80383,S,05539.90418,E,1,12,0.86,22.5,M,-47.6,M,,*41
$GNGSA,A,3,25,23,12,15,18,24,29,05,13,,,,1.43,0.86,1.15*13
$GNGSA,A,3,73,69,80,,,,,,,,,,1.43,0.86,1.15*12
$GPGSV,5,1,17,05,15,028,31,10,27,220,26,12,56,146,25,13,10,081,17*7A
$GPGSV,5,2,17,15,44,101,25,18,24,320,27,23,68,248,25,24,22,155,22*71
$GPGSV,5,3,17,25,83,265,22,28,11,267,,29,26,008,27,32,01,219,*75
$GPGSV,5,4,17,36,52,277,,40,85,352,,41,58,082,27,49,32,274,*79
$GPGSV,5,5,17,50,10,089,*4A
$GLGSV,3,1,09,69,35,066,36,70,47,163,,71,11,197,,73,57,217,21*6A
$GLGSV,3,2,09,74,42,296,,75,00,324,,80,17,165,18,84,06,360,*68
$GLGSV,3,3,09,85,02,314,*55
$GNGLL,0419.80383,S,05539.90418,E,072458.00,A,A*64
$GNRMC,072459.00,A,0419.80368,S,05539.90423,E,0.219,,280525,,,A*73
$GNVTG,,T,,M,0.219,N,0.405,K,A*36
$GNGGA,072459.00,0419.80368,S,05539.90423,E,1,12,0.86,23.4,M,-47.6,M,,*4D
$GNGSA,A,3,25,23,12,15,18,24,29,05,13,,,,1.43,0.86,1.15*13
$GNGSA,A,3,73,69,80,,,,,,,,,,1.43,0.86,1.15*12
$GPGSV,5,1,17,05,15,028,30,10,28,220,25,12,56,146,26,13,10,081,16*75
$GPGSV,5,2,17,15,44,101,24,18,24,320,26,23,68,248,26,24,22,155,22*72
$GPGSV,5,3,17,25,83,265,21,28,11,267,,29,26,008,26,32,01,219,*77
$GPGSV,5,4,17,36,52,277,,40,85,352,,41,58,082,27,49,32,274,*79
$GPGSV,5,5,17,50,10,089,*4A
$GLGSV,3,1,09,69,35,066,34,70,47,163,,71,11,197,,73,57,217,20*69
$GLGSV,3,2,09,74,42,296,,75,00,324,,80,17,165,19,84,06,360,*69
$GLGSV,3,3,09,85,02,314,*55
$GNGLL,0419.80368,S,05539.90423,E,072459.00,A,A*68
$GNRMC,072500.00,A,0419.80370,S,05539.90422,E,0.147,,280525,,,A*7E
$GNVTG,,T,,M,0.147,N,0.272,K,A*38
$GNGGA,072500.00,0419.80370,S,05539.90422,E,1,12,0.86,23.3,M,-47.6,M,,*4F
$GNGSA,A,3,25,23,12,15,18,24,29,05,13,,,,1.43,0.86,1.15*13
$GNGSA,A,3,73,69,80,,,,,,,,,,1.43,0.86,1.15*12
$GPGSV,5,1,17,05,15,028,29,10,28,220,25,12,56,146,26,13,10,081,16*7D
$GPGSV,5,2,17,15,44,101,25,18,24,320,25,23,68,248,27,24,22,155,22*71
$GPGSV,5,3,17,25,83,265,19,28,11,267,,29,26,008,26,32,01,219,*7C
$GPGSV,5,4,17,36,52,277,,40,85,352,,41,58,082,27,49,32,274,*79
$GPGSV,5,5,17,50,10,089,*4A
$GLGSV,3,1,09,69,35,066,35,70,47,163,,71,11,197,,73,57,217,19*62
$GLGSV,3,2,09,74,42,296,,75,00,324,,80,17,165,21,84,06,360,*62
$GLGSV,3,3,09,85,02,314,*55
$GNGLL,0419.80370,S,05539.90422,E,072500.00,A,A*6D
$GNRMC,072501.00,A,0419.80368,S,05539.90423,E,0.155,,280525,,,A*74
$GNVTG,,T,,M,0.155,N,0.286,K,A*30
$GNGGA,072501.00,0419.80368,S,05539.90423,E,1,12,0.86,23.4,M,-47.6,M,,*41
$GNGSA,A,3,25,23,12,15,18,24,29,05,13,,,,1.43,0.86,1.15*13
$GNGSA,A,3,73,69,80,,,,,,,,,,1.43,0.86,1.15*12
$GPGSV,5,1,17,05,15,028,30,10,28,220,26,12,56,146,26,13,10,081,16*76
$GPGSV,5,2,17,15,44,101,26,18,24,320,24,23,68,248,27,24,22,155,22*73
$GPGSV,5,3,17,25,83,265,17,28,11,267,,29,26,008,26,32,01,219,*72
$GPGSV,5,4,17,36,52,277,,40,85,352,,41,58,082,27,49,32,274,*79
$GPGSV,5,5,17,50,10,089,*4A
$GLGSV,3,1,09,69,35,066,35,70,47,163,,71,11,197,,73,57,217,16*6D
$GLGSV,3,2,09,74,42,296,,75,00,324,,80,17,165,23,84,06,360,*60
$GLGSV,3,3,09,85,02,314,*55
$GNGLL,0419.80368,S,05539.90423,E,072501.00,A,A*64
$GNRMC,072502.00,A,0419.80374,S,05539.90421,E,0.080,,280525,,,A*71
$GNVTG,,T,,M,0.080,N,0.147,K,A*37
$GNGGA,072502.00,0419.80374,S,05539.90421,E,1,12,0.86,23.1,M,-47.6,M,,*48
$GNGSA,A,3,25,23,12,15,18,24,29,05,13,,,,1.43,0.86,1.15*13
$GNGSA,A,3,73,69,80,,,,,,,,,,1.43,0.86,1.15*12
$GPGSV,5,1,17,05,15,028,31,10,28,220,25,12,56,146,27,13,10,080,19*7B
$GPGSV,5,2,17,15,44,101,26,18,24,320,25,23,68,248,28,24,22,155,22*7D
$GPGSV,5,3,17,25,83,265,17,28,11,267,,29,26,008,26,32,01,219,*72
$GPGSV,5,4,17,36,52,277,,40,85,352,,41,58,082,27,49,32,274,*79
$GPGSV,5,5,17,50,10,089,*4A
$GLGSV,3,1,09,69,35,066,35,70,47,163,,71,11,197,,73,57,217,14*6F
$GLGSV,3,2,09,74,42,296,,75,00,324,,80,17,165,22,84,06,360,*61
$GLGSV,3,3,09,85,02,314,*55
$GNGLL,0419.80374,S,05539.90421,E,072502.00,A,A*68
$GNRMC,072503.00,A,0419.80380,S,05539.90418,E,0.057,,280525,,,A*7B
$GNVTG,,T,,M,0.057,N,0.105,K,A*3B
$GNGGA,072503.00,0419.80380,S,05539.90418,E,1,12,0.86,22.8,M,-47.6,M,,*40
$GNGSA,A,3,25,23,12,15,18,24,29,05,13,,,,1.43,0.86,1.15*13
$GNGSA,A,3,73,69,80,,,,,,,,,,1.43,0.86,1.15*12
$GPGSV,5,1,17,05,15,028,31,10,28,220,25,12,56,146,26,13,10,080,20*70
$GPGSV,5,2,17,15,44,101,26,18,24,320,25,23,68,248,28,24,22,155,22*7D
$GPGSV,5,3,17,25,83,265,20,28,11,267,,29,26,008,27,32,01,219,*77
$GPGSV,5,4,17,36,52,277,,40,85,352,,41,58,082,28,49,32,274,*76
$GPGSV,5,5,17,50,10,089,*4A
$GLGSV,3,1,09,69,35,066,35,70,47,163,,71,11,197,,73,57,217,16*6D
$GLGSV,3,2,09,74,42,296,,75,00,324,,80,17,165,22,84,06,360,*61
$GLGSV,3,3,09,85,02,314,*55
$GNGLL,0419.80380,S,05539.90418,E,072503.00,A,A*68
$GNRMC,072504.00,A,0419.80386,S,05539.90418,E,0.039,,280525,,,A*72
$GNVTG,,T,,M,0.039,N,0.073,K,A*33
$GNGGA,072504.00,0419.80386,S,05539.90418,E,1,12,0.86,22.7,M,-47.6,M,,*4E
$GNGSA,A,3,25,23,12,15,18,24,29,05,13,,,,1.43,0.86,1.15*13
$GNGSA,A,3,73,69,80,,,,,,,,,,1.43,0.86,1.15*12
$GPGSV,5,1,17,05,15,028,31,10,28,220,24,12,56,146,26,13,10,080,19*7B
$GPGSV,5,2,17,15,44,100,24,18,24,320,25,23,68,248,27,24,22,155,22*71
$GPGSV,5,3,17,25,83,265,20,28,11,267,,29,26,008,27,32,01,219,*77
$GPGSV,5,4,17,36,52,277,,40,85,352,,41,58,082,27,49,32,274,*79
$GPGSV,5,5,17,50,10,089,*4A
$GLGSV,3,1,09,69,35,066,33,70,47,163,,71,11,197,,73,57,217,17*6A
$GLGSV,3,2,09,74,42,296,,75,00,324,,80,17,165,19,84,06,360,*69
$GLGSV,3,3,09,85,02,314,*55
$GNGLL,0419.80386,S,05539.90418,E,072504.00,A,A*69
$GNRMC,072505.00,A,0419.80394,S,05539.90414,E,0.144,,280525,,,A*77
$GNVTG,,T,,M,0.144,N,0.267,K,A*3F
$GNGGA,072505.00,0419.80394,S,05539.90414,E,1,12,0.86,22.3,M,-47.6,M,,*44
$GNGSA,A,3,25,23,12,15,18,24,29,05,13,,,,1.43,0.86,1.15*13
$GNGSA,A,3,73,69,80,,,,,,,,,,1.43,0.86,1.15*12
$GPGSV,5,1,17,05,15,028,35,10,28,220,25,12,56,146,25,13,10,080,20*77
$GPGSV,5,2,17,15,44,100,30,18,24,320,25,23,68,248,28,24,22,155,22*7B
$GPGSV,5,3,17,25,83,265,21,28,11,267,,29,26,008,27,32,01,219,*76
$GPGSV,5,4,17,36,52,277,,40,85,352,,41,58,082,28,49,32,274,*76
$GPGSV,5,5,17,50,10,089,*4A
$GLGSV,3,1,09,69,35,066,34,70,47,163,,71,11,197,,73,57,217,15*6F
$GLGSV,3,2,09,74,42,296,,75,00,324,,80,17,165,18,84,06,360,*68
$GLGSV,3,3,09,85,02,314,*55
$GNGLL,0419.80394,S,05539.90414,E,072505.00,A,A*67
$GNRMC,072506.00,A,0419.80402,S,05539.90417,E,0.266,,280525,,,A*7C
$GNVTG,,T,,M,0.266,N,0.493,K,A*31
$GNGGA,072506.00,0419.80402,S,05539.90417,E,1,12,0.86,21.8,M,-47.6,M,,*44
$GNGSA,A,3,25,23,12,15,18,24,29,05,13,,,,1.43,0.86,1.15*13
$GNGSA,A,3,73,69,80,,,,,,,,,,1.43,0.86,1.15*12
$GPGSV,5,1,17,05,15,028,31,10,28,220,25,12,56,146,25,13,10,080,18*78
$GPGSV,5,2,17,15,44,100,23,18,24,320,25,23,68,248,26,24,22,155,20*75
$GPGSV,5,3,17,25,83,265,19,28,11,267,,29,26,008,27,32,01,219,*7D
$GPGSV,5,4,17,36,52,277,,40,85,352,,41,58,082,27,49,32,274,*79
$GPGSV,5,5,17,50,10,089,*4A
$GLGSV,3,1,09,69,35,066,35,70,47,163,,71,11,197,,73,57,217,17*6C
$GLGSV,3,2,09,74,42,296,,75,00,324,,80,17,165,19,84,06,360,*69
$GLGSV,3,3,09,85,02,314,*55
$GNGLL,0419.80402,S,05539.90417,E,072506.00,A,A*6F
$GNRMC,072507.00,A,0419.80427,S,05539.90422,E,0.725,,280525,,,A*7E
$GNVTG,,T,,M,0.725,N,1.343,K,A*38
$GNGGA,072507.00,0419.80427,S,05539.90422,E,1,12,0.86,20.8,M,-47.6,M,,*45
$GNGSA,A,3,25,23,12,15,18,24,29,05,13,,,,1.43,0.86,1.15*13
$GNGSA,A,3,73,69,80,,,,,,,,,,1.43,0.86,1.15*12
$GPGSV,5,1,17,05,15,028,31,10,28,220,25,12,56,146,26,13,10,080,16*75
$GPGSV,5,2,17,15,44,100,25,18,24,321,24,23,68,248,25,24,22,155,20*70
$GPGSV,5,3,17,25,83,265,19,28,11,267,,29,26,008,25,32,01,219,*7F
$GPGSV,5,4,17,36,52,277,,40,85,352,,41,58,082,27,49,32,274,*79
$GPGSV,5,5,17,50,10,089,*4A
$GLGSV,3,1,09,69,35,066,37,70,47,163,,71,11,197,,73,57,217,21*6B
$GLGSV,3,2,09,74,42,296,,75,00,324,,80,17,165,20,84,06,360,*63
$GLGSV,3,3,09,85,02,314,*55
$GNGLL,0419.80427,S,05539.90422,E,072507.00,A,A*6F
$GNRMC,072508.00,A,0419.80444,S,05539.90429,E,0.575,,280525,,,A*78
$GNVTG,,T,,M,0.575,N,1.066,K,A*3B
$GNGGA,072508.00,0419.80444,S,05539.90429,E,1,12,0.86,20.3,M,-47.6,M,,*4F
$GNGSA,A,3,25,23,12,15,18,24,29,05,13,,,,1.43,0.86,1.15*13
$GNGSA,A,3,73,69,80,,,,,,,,,,1.43,0.86,1.15*12
$GPGSV,5,1,17,05,15,028,30,10,28,220,24,12,56,146,26,13,10,080,17*74
$GPGSV,5,2,17,15,44,100,24,18,24,321,23,23,68,248,23,24,22,155,20*70
$GPGSV,5,3,17,25,83,265,18,28,11,267,,29,26,008,25,32,01,219,*7E
$GPGSV,5,4,17,36,52,277,,40,85,352,,41,58,082,27,49,32,274,*79
$GPGSV,5,5,17,50,10,089,*4A
$GLGSV,3,1,09,69,35,066,36,70,47,163,,71,11,197,,73,57,217,22*69
$GLGSV,3,2,09,74,42,296,,75,00,324,,80,17,165,21,84,06,360,*62
$GLGSV,3,3,09,85,02,314,*55
$GNGLL,0419.80444,S,05539.90429,E,072508.00,A,A*6E
$GNRMC,072509.00,A,0419.80427,S,05539.90434,E,0.395,,280525,,,A*78
$GNVTG,,T,,M,0.395,N,0.732,K,A*34
$GNGGA,072509.00,0419.80427,S,05539.90434,E,1,12,0.86,20.7,M,-47.6,M,,*43
$GNGSA,A,3,25,23,12,15,18,24,29,05,13,,,,1.43,0.86,1.15*13
$GNGSA,A,3,73,69,80,,,,,,,,,,1.43,0.86,1.15*12
$GPGSV,5,1,17,05,15,028,30,10,28,220,25,12,56,146,24,13,10,080,20*73
$GPGSV,5,2,17,15,44,100,24,18,24,321,21,23,68,248,23,24,22,155,22*70
$GPGSV,5,3,17,25,83,265,17,28,11,267,,29,26,008,23,32,01,219,*77
$GPGSV,5,4,17,36,52,277,,40,85,352,,41,58,082,26,49,32,274,*78
$GPGSV,5,5,17,50,10,089,*4A
$GLGSV,3,1,09,69,35,066,36,70,47,163,,71,11,197,,73,57,217,21*6A
$GLGSV,3,2,09,74,42,296,,75,00,324,,80,17,165,21,84,06,360,*62
$GLGSV,3,3,09,85,02,314,*55
$GNGLL,0419.80427,S,05539.90434,E,072509.00,A,A*66
$GNRMC,072510.00,A,0419.80429,S,05539.90417,E,0.163,,280525,,,A*74
$GNVTG,,T,,M,0.163,N,0.302,K,A*38
$GNGGA,072510.00,0419.80429,S,05539.90417,E,1,12,0.86,20.3,M,-47.6,M,,*40
$GNGSA,A,3,25,23,12,15,18,24,29,05,13,,,,1.43,0.86,1.15*13
$GNGSA,A,3,73,69,80,,,,,,,,,,1.43,0.86,1.15*12
$GPGSV,5,1,17,05,15,028,30,10,28,220,25,12,56,146,25,13,10,080,21*73
$GPGSV,5,2,17,15,44,100,26,18,24,321,19,23,68,248,22,24,22,155,22*78
$GPGSV,5,3,17,25,83,265,16,28,11,267,,29,26,008,22,32,01,219,*77
$GPGSV,5,4,17,36,52,277,,40,85,352,,41,58,082,27,49,32,274,*79
$GPGSV,5,5,17,50,10,089,*4A
$GLGSV,3,1,09,69,35,066,34,70,47,163,,71,11,197,,73,57,217,20*69
$GLGSV,3,2,09,74,42,296,,75,00,324,,80,17,165,19,84,06,360,*69
$GLGSV,3,3,09,85,02,314,*55
$GNGLL,0419.80429,S,05539.90417,E,072510.00,A,A*61
$GNRMC,072511.00,A,0419.80428,S,05539.90401,E,0.288,,280525,,,A*75
$GNVTG,,T,,M,0.288,N,0.533,K,A*3A
$GNGGA,072511.00,0419.80428,S,05539.90401,E,1,12,0.86,20.1,M,-47.6,M,,*45
$GNGSA,A,3,25,23,12,15,18,24,29,05,13,,,,1.43,0.86,1.15*13
$GNGSA,A,3,73,69,80,,,,,,,,,,1.43,0.86,1.15*12
$GPGSV,5,1,17,05,15,028,29,10,28,220,25,12,56,146,23,13,10,080,21*7D
$GPGSV,5,2,17,15,44,100,25,18,24,321,22,23,68,250,22,24,22,155,21*79
$GPGSV,5,3,17,25,83,265,18,28,11,267,,29,26,008,21,32,01,219,*7A
$GPGSV,5,4,17,36,52,277,,40,85,352,,41,58,082,,49,32,274,*7C
$GPGSV,5,5,17,50,10,089,*4A
$GLGSV,3,1,09,69,35,066,34,70,47,163,,71,11,197,,73,57,217,22*6B
$GLGSV,3,2,09,74,42,296,,75,00,324,,80,17,165,19,84,06,360,*69
$GLGSV,3,3,09,85,02,314,*55
$GNGLL,0419.80428,S,05539.90401,E,072511.00,A,A*66
$GNRMC,072512.00,A,0419.80425,S,05539.90406,E,0.129,,280525,,,A*74
$GNVTG,,T,,M,0.129,N,0.238,K,A*3E
$GNGGA,072512.00,0419.80425,S,05539.90406,E,1,12,0.86,19.9,M,-47.6,M,,*4E
$GNGSA,A,3,25,23,12,15,18,24,29,05,13,,,,1.43,0.86,1.15*13
$GNGSA,A,3,73,69,80,,,,,,,,,,1.43,0.86,1.15*12
$GPGSV,5,1,17,05,15,028,29,10,28,220,24,12,56,146,22,13,10,080,20*7C
$GPGSV,5,2,17,15,44,100,24,18,24,321,22,23,68,250,23,24,21,154,22*78
$GPGSV,5,3,17,25,83,265,21,28,11,267,,29,26,008,20,32,01,219,*71
$GPGSV,5,4,17,36,52,277,,40,85,352,,41,58,082,,49,32,274,*7C
$GPGSV,5,5,17,50,10,089,*4A
$GLGSV,3,1,09,69,35,066,35,70,47,163,,71,11,197,,73,57,217,20*68
$GLGSV,3,2,09,74,42,296,,75,00,324,,80,17,165,20,84,06,360,*63
$GLGSV,3,3,09,85,02,314,*55
$GNGLL,0419.80425,S,05539.90406,E,072512.00,A,A*6F
$GNRMC,072513.00,A,0419.80412,S,05539.90400,E,0.354,,280525,,,A*7F
$GNVTG,,T,,M,0.354,N,0.656,K,A*3A
$GNGGA,072513.00,0419.80412,S,05539.90400,E,1,12,0.86,20.2,M,-47.6,M,,*4C
$GNGSA,A,3,25,23,12,15,18,24,29,05,13,,,,1.43,0.86,1.15*13
$GNGSA,A,3,73,69,80,,,,,,,,,,1.43,0.86,1.15*12
$GPGSV,5,1,17,05,15,028,29,10,28,220,25,12,56,146,25,13,10,080,22*78
$GPGSV,5,2,17,15,44,100,25,18,24,321,22,23,68,250,23,24,21,154,20*7B
$GPGSV,5,3,17,25,83,260,20,28,11,267,,29,26,008,22,32,01,219,*77
$GPGSV,5,4,17,36,52,277,,40,85,352,,41,58,082,,49,32,274,*7C
$GPGSV,5,5,17,50,10,089,*4A
$GLGSV,3,1,09,69,35,066,34,70,47,163,,71,11,197,,73,57,217,21*68
$GLGSV,3,2,09,74,42,296,,75,00,324,,80,17,165,19,84,06,360,*69
$GLGSV,3,3,09,85,02,314,*55
$GNGLL,0419.80412,S,05539.90400,E,072513.00,A,A*6C
$GNRMC,072514.00,A,0419.80414,S,05539.90385,E,0.098,,280525,,,A*77
$GNVTG,,T,,M,0.098,N,0.182,K,A*37
$GNGGA,072514.00,0419.80414,S,05539.90385,E,1,12,0.86,19.9,M,-47.6,M,,*46
$GNGSA,A,3,25,23,12,15,18,24,29,05,13,,,,1.43,0.86,1.15*13
$GNGSA,A,3,73,69,80,,,,,,,,,,1.43,0.86,1.15*12
$GPGSV,5,1,17,05,15,028,33,10,28,220,25,12,56,146,26,13,10,080,21*73
$GPGSV,5,2,17,15,44,100,25,18,24,321,23,23,68,250,24,24,21,154,21*7C
$GPGSV,5,3,17,25,83,260,18,28,11,267,,29,26,008,20,32,01,219,*7E
$GPGSV,5,4,17,36,52,277,,40,85,352,,41,58,082,,49,32,274,*7C
$GPGSV,5,5,17,50,10,089,*4A
$GLGSV,3,1,09,69,35,066,34,70,47,163,,71,11,197,,73,57,217,19*63
$GLGSV,3,2,09,74,42,296,,75,00,324,,80,17,165,19,84,06,360,*69
$GLGSV,3,3,09,85,02,314,*55
$GNGLL,0419.80414,S,05539.90385,E,072514.00,A,A*67
$GNRMC,072515.00,A,0419.80408,S,05539.90366,E,0.465,,280525,,,A*70
$GNVTG,,T,,M,0.465,N,0.862,K,A*36
$GNGGA,072515.00,0419.80408,S,05539.90366,E,1,12,0.86,20.4,M,-47.6,M,,*40
$GNGSA,A,3,25,23,12,15,18,24,29,05,13,,,,1.43,0.86,1.15*13
$GNGSA,A,3,73,69,80,,,,,,,,,,1.43,0.86,1.15*12
$GPGSV,5,1,17,05,15,028,31,10,28,220,25,12,56,146,26,13,10,080,20*70
$GPGSV,5,2,17,15,44,100,23,18,24,321,22,23,68,250,25,24,21,154,21*7A
$GPGSV,5,3,17,25,83,260,20,28,11,267,,29,26,008,19,32,01,219,*7F
$GPGSV,5,4,17,36,52,277,,40,85,352,,41,58,082,,49,32,274,*7C
$GPGSV,5,5,17,50,10,089,*4A
$GLGSV,3,1,09,69,35,066,35,70,47,163,,71,11,197,,73,57,217,19*62
$GLGSV,3,2,09,74,42,296,,75,00,324,,80,17,165,20,84,06,360,*63
$GLGSV,3,3,09,85,02,314,*55
$GNGLL,0419.80408,S,05539.90366,E,072515.00,A,A*66
$GNRMC,072516.00,A,0419.80410,S,05539.90365,E,0.141,,280525,,,A*7A
$GNVTG,,T,,M,0.141,N,0.262,K,A*3F
$GNGGA,072516.00,0419.80410,S,05539.90365,E,1,12,0.86,20.4,M,-47.6,M,,*49
$GNGSA,A,3,25,23,12,15,18,24,29,05,13,,,,1.43,0.86,1.15*13
$GNGSA,A,3,73,69,80,,,,,,,,,,1.43,0.86,1.15*12
$GPGSV,5,1,17,05,15,028,30,10,28,220,26,12,56,146,25,13,10,080,20*71
$GPGSV,5,2,17,15,44,100,23,18,24,321,22,23,68,250,24,24,21,154,20*7A
$GPGSV,5,3,17,25,83,260,19,28,11,266,,29,26,008,20,32,01,219,*7E
$GPGSV,5,4,17,36,52,277,,40,85,352,,41,58,082,,49,32,274,*7C
$GPGSV,5,5,17,50,10,089,*4A
$GLGSV,3,1,09,69,35,066,36,70,47,163,,71,11,197,,73,57,217,17*6F
$GLGSV,3,2,09,74,42,296,,75,00,324,,80,17,165,20,84,06,360,*63
$GLGSV,3,3,09,85,02,314,*55
$GNGLL,0419.80410,S,05539.90365,E,072516.00,A,A*6F
$GNRMC,072517.00,A,0419.80407,S,05539.90364,E,0.310,,280525,,,A*7A
$GNVTG,,T,,M,0.310,N,0.573,K,A*3E
$GNGGA,072517.00,0419.80407,S,05539.90364,E,1,12,0.86,20.4,M,-47.6,M,,*4F
$GNGSA,A,3,25,23,12,15,18,24,29,05,13,,,,1.43,0.86,1.15*13
$GNGSA,A,3,73,69,80,,,,,,,,,,1.43,0.86,1.15*12
$GPGSV,5,1,17,05,15,028,30,10,28,220,25,12,56,146,24,13,10,080,18*78
$GPGSV,5,2,17,15,44,100,22,18,24,321,22,23,68,250,25,24,21,154,20*7A
$GPGSV,5,3,17,25,83,260,19,28,11,266,,29,26,008,21,32,01,219,*7F
$GPGSV,5,4,17,36,52,277,,40,85,352,,41,58,082,,49,32,274,*7C
$GPGSV,5,5,17,50,10,089,*4A
$GLGSV,3,1,09,69,35,066,35,70,47,163,,71,11,197,,73,57,217,16*6D
$GLGSV,3,2,09,74,42,296,,75,00,324,,80,17,165,18,84,06,360,*68
$GLGSV,3,3,09,85,02,314,*55
$GNGLL,0419.80407,S,05539.90364,E,072517.00,A,A*69
$GNRMC,072518.00,A,0419.80405,S,05539.90360,E,0.248,,280525,,,A*7F
$GNVTG,,T,,M,0.248,N,0.460,K,A*31
$GNGGA,072518.00,0419.80405,S,05539.90360,E,1,12,0.86,20.7,M,-47.6,M,,*45
$GNGSA,A,3,25,23,12,15,18,24,29,05,13,,,,1.43,0.86,1.15*13
$GNGSA,A,3,73,69,80,,,,,,,,,,1.43,0.86,1.15*12
$GPGSV,5,1,17,05,15,028,30,10,28,220,25,12,56,146,25,13,10,080,17*76
$GPGSV,5,2,17,15,44,100,23,18,24,321,24,23,68,250,32,24,21,154,20*7B
$GPGSV,5,3,17,25,83,260,17,28,11,266,,29,26,008,22,32,01,219,*72
$GPGSV,5,4,17,36,52,277,,40,85,352,,41,58,082,,49,32,274,*7C
$GPGSV,5,5,17,50,10,089,*4A
$GLGSV,3,1,09,69,35,066,35,70,47,163,,71,11,197,,73,57,217,17*6C
$GLGSV,3,2,09,74,42,296,,75,00,324,,80,17,165,14,84,06,360,*64
$GLGSV,3,3,09,85,02,314,*55
$GNGLL,0419.80405,S,05539.90360,E,072518.00,A,A*60
$GNRMC,072519.00,A,0419.80406,S,05539.90358,E,0.145,,280525,,,A*78
$GNVTG,,T,,M,0.145,N,0.269,K,A*30
$GNGGA,072519.00,0419.80406,S,05539.90358,E,1,12,0.86,20.9,M,-47.6,M,,*42
$GNGSA,A,3,25,23,12,15,18,24,29,05,13,,,,1.43,0.86,1.15*13
$GNGSA,A,3,73,69,80,,,,,,,,,,1.43,0.86,1.15*12
$GPGSV,5,1,17,05,15,028,32,10,28,220,25,12,56,146,27,13,10,080,15*74
$GPGSV,5,2,17,15,44,100,26,18,24,321,25,23,68,250,31,24,21,154,21*7D
$GPGSV,5,3,17,25,83,260,19,28,11,266,,29,26,008,23,32,01,219,*7D
$GPGSV,5,4,17,36,52,277,,40,85,352,,41,58,082,,49,32,274,*7C
$GPGSV,5,5,17,50,10,089,*4A
$GLGSV,3,1,09,69,35,066,35,70,47,163,,71,11,197,,73,57,217,16*6D
$GLGSV,3,2,09,74,42,296,,75,00,324,,80,17,165,20,84,06,360,*63
$GLGSV,3,3,09,85,02,314,*55
$GNGLL,0419.80406,S,05539.90358,E,072519.00,A,A*69
$GNRMC,072520.00,A,0419.80415,S,05539.90355,E,0.138,,280525,,,A*77
$GNVTG,,T,,M,0.138,N,0.256,K,A*36
$GNGGA,072520.00,0419.80415,S,05539.90355,E,1,12,0.86,21.0,M,-47.6,M,,*4F
$GNGSA,A,3,25,23,12,15,18,24,29,05,13,,,,1.43,0.86,1.15*13
$GNGSA,A,3,73,69,80,,,,,,,,,,1.43,0.86,1.15*12
$GPGSV,5,1,17,05,15,028,32,10,28,220,24,12,56,146,27,13,10,080,14*74
$GPGSV,5,2,17,15,44,100,26,18,24,321,24,23,68,250,29,24,21,154,22*76
$GPGSV,5,3,17,25,83,260,20,28,11,266,,29,26,008,23,32,02,218,*75
$GPGSV,5,4,17,36,52,277,,40,85,352,,41,58,082,,49,32,274,*7C
$GPGSV,5,5,17,50,10,089,*4A
$GLGSV,3,1,09,69,35,066,35,70,47,163,,71,11,197,,73,57,217,15*6E
$GLGSV,3,2,09,74,42,296,,75,00,324,,80,17,165,18,84,06,360,*68
$GLGSV,3,3,09,85,02,314,*55
$GNGLL,0419.80415,S,05539.90355,E,072520.00,A,A*6C
$GNRMC,072521.00,A,0419.80425,S,05539.90350,E,0.114,,280525,,,A*7E
$GNVTG,,T,,M,0.114,N,0.211,K,A*3B
$GNGGA,072521.00,0419.80425,S,05539.90350,E,1,12,0.86,20.8,M,-47.6,M,,*41
$GNGSA,A,3,25,23,12,15,18,24,29,05,13,,,,1.43,0.86,1.15*13
$GNGSA,A,3,73,69,80,,,,,,,,,,1.43,0.86,1.15*12
$GPGSV,5,1,17,05,15,028,32,10,28,220,25,12,56,146,27,13,10,080,13*72
$GPGSV,5,2,17,15,44,100,25,18,24,321,24,23,68,250,29,24,21,154,22*75
$GPGSV,5,3,17,25,83,260,21,28,11,266,,29,26,008,22,32,02,218,*75
$GPGSV,5,4,17,36,52,277,,40,85,352,,41,58,082,,49,32,274,*7C
$GPGSV,5,5,17,50,10,089,*4A
$GLGSV,3,1,09,69,35,066,38,70,47,163,,71,11,197,,73,57,217,11*67
$GLGSV,3,2,09,74,42,296,,75,00,324,,80,17,165,19,84,06,360,*69
$GLGSV,3,3,09,85,02,314,*55
$GNGLL,0419.80425,S,05539.90350,E,072521.00,A,A*6B
$GNRMC,072522.00,A,0419.80418,S,05539.90345,E,0.242,,280525,,,A*77
$GNVTG,,T,,M,0.242,N,0.448,K,A*31
$GNGGA,072522.00,0419.80418,S,05539.90345,E,1,12,0.86,21.1,M,-47.6,M,,*40
$GNGSA,A,3,25,23,12,15,18,24,29,05,13,,,,1.43,0.86,1.15*13
$GNGSA,A,3,73,69,80,,,,,,,,,,1.43,0.86,1.15*12
$GPGSV,5,1,17,05,15,028,32,10,28,220,26,12,56,146,28,13,10,080,11*7C
$GPGSV,5,2,17,15,44,100,25,18,24,321,24,23,68,250,28,24,21,154,22*74
$GPGSV,5,3,17,25,83,260,24,28,11,266,,29,26,008,20,32,02,218,*72
$GPGSV,5,4,17,36,52,277,,40,85,352,,41,58,082,,49,32,274,*7C
$GPGSV,5,5,17,50,10,089,*4A
$GLGSV,3,1,09,69,35,066,36,70,47,163,,71,11,197,,73,57,217,09*60
$GLGSV,3,2,09,74,42,296,,75,00,324,,80,17,165,20,84,06,360,*63
$GLGSV,3,3,09,85,02,314,*55
$GNGLL,0419.80418,S,05539.90345,E,072522.00,A,A*62
$GNRMC,072523.00,A,0419.80426,S,05539.90333,E,0.082,,280525,,,A*74
$GNVTG,,T,,M,0.082,N,0.152,K,A*31
$GNGGA,072523.00,0419.80426,S,05539.90333,E,1,12,0.86,20.8,M,-47.6,M,,*45
$GNGSA,A,3,25,23,12,15,18,24,29,05,13,,,,1.43,0.86,1.15*13
$GNGSA,A,3,73,69,80,,,,,,,,,,1.43,0.86,1.15*12
$GPGSV,5,1,17,05,15,028,31,10,28,220,25,12,56,146,30,13,10,080,16*72
$GPGSV,5,2,17,15,44,100,25,18,24,321,24,23,68,250,27,24,21,154,22*7B
$GPGSV,5,3,17,25,83,260,23,28,11,266,,29,26,008,21,32,02,218,*74
$GPGSV,5,4,17,36,52,277,,40,85,352,,41,58,082,,49,32,274,*7C
$GPGSV,5,5,17,50,10,089,*4A
$GLGSV,3,1,09,69,35,066,38,70,47,163,,71,11,197,,73,57,217,11*67
$GLGSV,3,2,09,74,42,296,,75,00,324,,80,17,165,19,84,06,360,*69
$GLGSV,3,3,09,85,02,314,*55
$GNGLL,0419.80426,S,05539.90333,E,072523.00,A,A*6F
$GNRMC,072524.00,A,0419.80427,S,05539.90338,E,0.405,,280525,,,A*72
$GNVTG,,T,,M,0.405,N,0.750,K,A*3E
$GNGGA,072524.00,0419.80427,S,05539.90338,E,1,12,0.86,21.0,M,-47.6,M,,*41
$GNGSA,A,3,25,23,12,15,18,24,29,05,13,,,,1.43,0.86,1.15*13
$GNGSA,A,3,73,69,80,,,,,,,,,,1.43,0.86,1.15*12
$GPGSV,5,1,17,05,15,028,31,10,28,220,24,12,56,146,29,13,10,080,17*7A
$GPGSV,5,2,17,15,44,100,25,18,24,321,22,23,68,250,26,24,21,154,22*7C
$GPGSV,5,3,17,25,83,260,22,28,11,266,,29,26,008,21,32,02,218,*75
$GPGSV,5,4,17,36,52,277,,40,85,352,,41,58,082,,49,32,274,*7C
$GPGSV,5,5,17,50,10,089,*4A
$GLGSV,3,1,09,69,35,066,35,70,47,163,,71,11,197,,73,57,217,14*6F
$GLGSV,3,2,09,74,42,296,,75,00,324,,80,17,165,19,84,06,360,*69
$GLGSV,3,3,09,85,02,314,*55
$GNGLL,0419.80427,S,05539.90338,E,072524.00,A,A*62
$GNRMC,072525.00,A,0419.80429,S,05539.90337,E,0.165,,280525,,,A*71
$GNVTG,,T,,M,0.165,N,0.306,K,A*3A
$GNGGA,072525.00,0419.80429,S,05539.90337,E,1,12,0.86,21.1,M,-47.6,M,,*40
$GNGSA,A,3,25,23,12,15,18,24,29,05,13,,,,1.43,0.86,1.15*13
$GNGSA,A,3,73,69,80,,,,,,,,,,1.43,0.86,1.15*12
$GPGSV,5,1,17,05,15,028,31,10,28,220,23,12,56,146,28,13,10,080,14*7F
$GPGSV,5,2,17,15,44,100,25,18,24,321,20,23,68,250,24,24,21,154,22*7C
$GPGSV,5,3,17,25,83,260,22,28,11,266,,29,26,008,21,32,02,218,*75
$GPGSV,5,4,17,36,52,277,,40,85,352,,41,58,082,,49,32,274,*7C
$GPGSV,5,5,17,50,10,089,*4A
$GLGSV,3,1,09,69,35,066,34,70,47,163,,71,11,197,,73,57,217,16*6C
$GLGSV,3,2,09,74,42,296,,75,00,324,,80,17,165,18,84,06,360,*68
$GLGSV,3,3,09,85,02,314,*55
$GNGLL,0419.80429,S,05539.90337,E,072525.00,A,A*62
$GNRMC,072526.00,A,0419.80428,S,05539.90328,E,0.175,,280525,,,A*7C
$GNVTG,,T,,M,0.175,N,0.324,K,A*3B
$GNGGA,072526.00,0419.80428,S,05539.90328,E,1,12,0.86,21.3,M,-47.6,M,,*4E
$GNGSA,A,3,25,23,12,15,18,24,29,05,13,,,,1.43,0.86,1.15*13
$GNGSA,A,3,73,69,80,,,,,,,,,,1.43,0.86,1.15*12
$GPGSV,5,1,17,05,15,028,32,10,28,220,23,12,56,146,28,13,10,080,16*7E
$GPGSV,5,2,17,15,44,100,26,18,24,321,21,23,68,250,25,24,21,154,23*7E
$GPGSV,5,3,17,25,83,260,25,28,11,266,,29,26,008,22,32,02,218,*71
$GPGSV,5,4,17,36,52,277,,40,85,352,,41,58,082,,49,32,274,*7C
$GPGSV,5,5,17,50,10,089,*4A
$GLGSV,3,1,09,69,35,066,37,70,47,163,,71,11,197,,73,57,217,16*6F
$GLGSV,3,2,09,74,42,296,,75,00,324,,80,17,165,17,84,06,360,*67
$GLGSV,3,3,09,85,02,314,*55
$GNGLL,0419.80428,S,05539.90328,E,072526.00,A,A*6E
$GNRMC,072527.00,A,0419.80435,S,05539.90323,E,0.185,,280525,,,A*75
$GNVTG,,T,,M,0.185,N,0.343,K,A*35
$GNGGA,072527.00,0419.80435,S,05539.90323,E,1,12,0.86,21.0,M,-47.6,M,,*4B
$GNGSA,A,3,25,23,12,15,18,24,29,05,13,,,,1.43,0.86,1.15*13
$GNGSA,A,3,73,69,80,,,,,,,,,,1.43,0.86,1.15*12
$GPGSV,5,1,17,05,15,028,32,10,28,220,24,12,56,146,27,13,10,080,14*74
$GPGSV,5,2,17,15,44,100,27,18,24,321,22,23,68,250,26,24,21,154,23*7F
$GPGSV,5,3,17,25,83,260,24,28,11,266,,29,26,008,22,32,02,218,*70
$GPGSV,5,4,17,36,52,277,,40,85,352,,41,58,082,,49,32,274,*7C
$GPGSV,5,5,17,50,10,089,*4A
$GLGSV,3,1,09,69,35,066,35,70,47,163,,71,11,197,,73,57,217,07*6D
$GLGSV,3,2,09,74,42,296,,75,00,324,,80,17,165,18,84,06,360,*68
$GLGSV,3,3,09,85,02,314,*55
$GNGLL,0419.80435,S,05539.90323,E,072527.00,A,A*68
$GNRMC,072528.00,A,0419.80449,S,05539.90315,E,0.266,,280525,,,A*7A
$GNVTG,,T,,M,0.266,N,0.493,K,A*31
$GNGGA,072528.00,0419.80449,S,05539.90315,E,1,12,0.86,20.4,M,-47.6,M,,*4F
$GNGSA,A,3,25,23,12,15,18,24,29,05,13,,,,1.43,0.86,1.15*13
$GNGSA,A,3,73,69,80,,,,,,,,,,1.43,0.86,1.15*12
$GPGSV,5,1,17,05,15,028,33,10,28,220,25,12,56,146,28,13,10,080,08*76
$GPGSV,5,2,17,15,44,100,28,18,24,321,23,23,68,250,26,24,21,154,22*70
$GPGSV,5,3,17,25,83,260,24,28,11,266,,29,26,008,22,32,02,218,*70
$GPGSV,5,4,17,36,52,277,,40,85,352,,41,58,082,,49,32,274,*7C
$GPGSV,5,5,17,50,10,089,*4A
$GLGSV,3,1,09,69,35,066,35,70,47,163,,71,11,197,,73,57,217,12*69
$GLGSV,3,2,09,74,42,296,,75,00,324,,80,17,165,18,84,06,360,*68
$GLGSV,3,3,09,85,02,314,*55
$GNGLL,0419.80449,S,05539.90315,E,072528.00,A,A*69
$GNRMC,072529.00,A,0419.80433,S,05539.90322,E,0.209,,280525,,,A*7B
$GNVTG,,T,,M,0.209,N,0.387,K,A*3A
$GNGGA,072529.00,0419.80433,S,05539.90322,E,1,12,0.90,21.2,M,-47.6,M,,*47
$GNGSA,A,3,25,23,12,15,18,24,29,05,13,,,,1.46,0.90,1.16*12
$GNGSA,A,3,73,69,80,,,,,,,,,,1.46,0.90,1.16*13
$GPGSV,5,1,17,05,15,028,32,10,28,220,25,12,56,146,28,13,10,080,13*7D
$GPGSV,5,2,17,15,44,100,29,18,24,321,25,23,68,250,27,24,21,154,21*75
$GPGSV,5,3,17,25,83,260,25,28,11,266,15,29,26,008,22,32,02,218,19*7D
$GPGSV,5,4,17,36,52,277,,40,85,352,,41,58,082,,49,32,274,*7C
$GPGSV,5,5,17,50,10,089,*4A
$GLGSV,3,1,09,69,35,066,35,70,47,163,,71,11,197,,73,57,217,13*68
$GLGSV,3,2,09,74,42,296,,75,00,324,,80,17,165,18,84,06,360,*68
$GLGSV,3,3,09,85,02,314,*55
$GNGLL,0419.80433,S,05539.90322,E,072529.00,A,A*61
$GNRMC,072530.00,A,0419.80438,S,05539.90323,E,0.157,,280525,,,A*71
$GNVTG,,T,,M,0.157,N,0.291,K,A*34
$GNGGA,072530.00,0419.80438,S,05539.90323,E,1,12,0.90,21.0,M,-47.6,M,,*47
$GNGSA,A,3,25,23,12,15,18,24,29,05,13,,,,1.46,0.90,1.16*12
$GNGSA,A,3,73,69,80,,,,,,,,,,1.46,0.90,1.16*13
$GPGSV,5,1,17,05,15,028,33,10,28,220,26,12,56,146,29,13,10,080,21*7F
$GPGSV,5,2,17,15,44,100,29,18,24,321,25,23,68,250,27,24,21,154,23*77
$GPGSV,5,3,17,25,83,260,27,28,11,266,14,29,26,008,22,32,02,218,17*70
$GPGSV,5,4,17,36,52,277,,40,85,352,,41,58,082,,49,32,274,*7C
$GPGSV,5,5,17,50,10,089,*4A
$GLGSV,3,1,09,69,35,066,35,70,47,163,,71,11,197,,73,57,217,12*69
$GLGSV,3,2,09,74,42,296,,75,00,324,,80,17,165,18,84,06,360,*68
$GLGSV,3,3,09,85,02,314,*55
$GNGLL,0419.80438,S,05539.90323,E,072530.00,A,A*63
$GNRMC,072531.00,A,0419.80442,S,05539.90321,E,0.097,,280525,,,A*72
$GNVTG,,T,,M,0.097,N,0.179,K,A*3C
$GNGGA,072531.00,0419.80442,S,05539.90321,E,1,12,0.90,20.7,M,-47.6,M,,*4F
$GNGSA,A,3,25,23,12,15,18,24,29,05,13,,,,1.46,0.90,1.16*12
$GNGSA,A,3,73,69,80,,,,,,,,,,1.46,0.90,1.16*13
$GPGSV,5,1,17,05,15,028,32,10,28,220,27,12,56,146,28,13,10,080,20*7F
$GPGSV,5,2,17,15,44,100,29,18,24,321,25,23,68,250,27,24,21,154,22*76
$GPGSV,5,3,17,25,83,260,27,28,11,266,11,29,26,008,22,32,02,218,12*70
$GPGSV,5,4,17,36,52,277,,40,85,352,,41,58,082,,49,32,274,*7C
$GPGSV,5,5,17,50,10,089,*4A
$GLGSV,3,1,09,69,35,066,34,70,47,163,,71,11,197,,73,57,217,12*68
$GLGSV,3,2,09,74,42,296,,75,00,324,,80,17,165,16,84,06,360,*66
$GLGSV,3,3,09,85,02,314,*55
$GNGLL,0419.80442,S,05539.90321,E,072531.00,A,A*6D
$GNRMC,072532.00,A,0419.80442,S,05539.90319,E,0.135,,280525,,,A*73
$GNVTG,,T,,M,0.135,N,0.250,K,A*3D
$GNGGA,072532.00,0419.80442,S,05539.90319,E,1,12,0.90,20.6,M,-47.6,M,,*46
$GNGSA,A,3,25,23,12,15,18,24,29,05,13,,,,1.46,0.90,1.16*12
$GNGSA,A,3,73,69,80,,,,,,,,,,1.46,0.90,1.16*13
$GPGSV,5,1,17,05,15,028,34,10,28,220,27,12,56,146,28,13,10,080,18*72
$GPGSV,5,2,17,15,44,100,29,18,24,321,24,23,68,250,27,24,21,154,21*74
$GPGSV,5,3,17,25,83,260,27,28,11,266,09,29,26,008,22,32,02,218,10*7B
$GPGSV,5,4,17,36,52,277,,40,85,352,,41,58,082,,49,32,274,*7C
$GPGSV,5,5,17,50,10,089,*4A
$GLGSV,3,1,09,69,35,066,34,70,47,163,,71,11,197,,73,57,217,12*68
$GLGSV,3,2,09,74,42,296,,75,00,324,,80,17,165,13,84,06,360,*63
$GLGSV,3,3,09,85,02,314,*55
$GNGLL,0419.80442,S,05539.90319,E,072532.00,A,A*65
$GNRMC,072533.00,A,0419.80431,S,05539.90320,E,0.287,,280525,,,A*76
$GNVTG,,T,,M,0.287,N,0.532,K,A*34
$GNGGA,072533.00,0419.80431,S,05539.90320,E,1,12,0.86,20.7,M,-47.6,M,,*4F
$GNGSA,A,3,25,23,12,15,18,24,29,05,13,,,,1.43,0.86,1.15*13
$GNGSA,A,3,73,69,80,,,,,,,,,,1.43,0.86,1.15*12
$GPGSV,5,1,17,05,15,028,33,10,28,220,26,12,56,146,28,13,10,080,18*74
