$GNRMC,071840.00,A,0419.81060,S,05539.89989,E,0.815,,280525,,,A*7D
$GNVTG,,T,,M,0.815,N,1.510,K,A*34
$GNGGA,071840.00,0419.81060,S,05539.89989,E,1,11,0.93,18.7,M,-47.6,M,,*49
$GNGSA,A,3,25,23,12,15,18,24,29,05,13,,,,1.56,0.93,1.26*13
$GNGSA,A,3,73,69,,,,,,,,,,,1.56,0.93,1.26*1A
$GPGSV,5,1,17,05,17,028,21,10,25,218,18,12,59,143,26,13,10,083,21*73
$GPGSV,5,2,17,15,44,105,23,18,25,317,20,23,67,241,21,24,22,157,22*71
$GPGSV,5,3,17,25,82,291,20,28,10,270,,29,24,005,25,32,00,220,*7C
$GPGSV,5,4,17,36,52,277,,40,86,352,,41,58,082,,49,32,274,*7F
$GPGSV,5,5,17,50,10,089,*4A
$GLGSV,3,1,09,69,36,070,23,70,44,165,18,71,08,198,,73,59,223,24*6D
$GLGSV,3,2,09,74,41,300,,80,20,165,08,84,06,357,,85,03,311,*6E
$GLGSV,3,3,09,,,,17*6A
$GNGLL,0419.81060,S,05539.89989,E,071840.00,A,A*60
$GNRMC,071841.00,A,0419.81076,S,05539.90003,E,0.506,,280525,,,A*77
$GNVTG,,T,,M,0.506,N,0.937,K,A*33
$GNGGA,071841.00,0419.81076,S,05539.90003,E,1,12,0.86,18.5,M,-47.6,M,,*49
$GNGSA,A,3,25,23,12,15,18,24,29,05,13,,,,1.44,0.86,1.16*17
$GNGSA,A,3,73,69,80,,,,,,,,,,1.44,0.86,1.16*16
$GPGSV,5,1,17,05,17,028,23,10,25,218,16,12,59,143,25,13,10,083,23*7E
$GPGSV,5,2,17,15,44,105,30,18,25,317,19,23,67,241,22,24,22,157,21*79
$GPGSV,5,3,17,25,82,291,17,28,10,270,,29,24,005,24,32,00,220,*79
$GPGSV,5,4,17,36,52,277,,40,86,352,,41,58,082,,49,32,274,*7F
$GPGSV,5,5,17,50,10,089,*4A
$GLGSV,3,1,09,69,36,070,26,70,44,165,14,71,08,198,,73,59,223,22*62
$GLGSV,3,2,09,74,41,300,,80,20,165,10,84,06,357,,85,03,311,*67
$GLGSV,3,3,09,,,,18*65
$GNGLL,0419.81076,S,05539.90003,E,071841.00,A,A*65
$GNRMC,071842.00,A,0419.81077,S,05539.90004,E,0.057,,280525,,,A*73
$GNVTG,,T,,M,0.057,N,0.105,K,A*3B
$GNGGA,071842.00,0419.81077,S,05539.90004,E,1,12,0.86,18.6,M,-47.6,M,,*4F
$GNGSA,A,3,25,23,12,15,18,24,29,05,13,,,,1.44,0.86,1.16*17
$GNGSA,A,3,73,69,80,,,,,,,,,,1.44,0.86,1.16*16
$GPGSV,5,1,17,05,17,028,30,10,25,218,16,12,59,143,24,13,10,083,28*76
$GPGSV,5,2,17,15,44,105,34,18,25,317,22,23,67,241,21,24,22,157,23*74
$GPGSV,5,3,17,25,82,291,15,28,10,270,,29,24,005,30,32,00,220,*7E
$GPGSV,5,4,17,36,52,277,,40,86,352,,41,58,082,,49,32,274,*7F
$GPGSV,5,5,17,50,10,089,*4A
$GLGSV,3,1,09,69,36,070,27,70,44,165,11,71,08,198,,73,59,223,23*67
$GLGSV,3,2,09,74,41,300,,80,20,165,10,84,06,357,,85,03,311,*67
$GLGSV,3,3,09,,,,19*64
$GNGLL,0419.81077,S,05539.90004,E,071842.00,A,A*60
$GNRMC,071843.00,A,0419.81080,S,05539.89992,E,0.043,,280525,,,A*71
$GNVTG,,T,,M,0.043,N,0.080,K,A*32
$GNGGA,071843.00,0419.81080,S,05539.89992,E,1,12,0.86,18.8,M,-47.6,M,,*46
$GNGSA,A,3,25,23,12,15,18,24,29,05,13,,,,1.44,0.86,1.16*17
$GNGSA,A,3,73,69,80,,,,,,,,,,1.44,0.86,1.16*16
$GPGSV,5,1,17,05,17,028,29,10,25,218,16,12,59,143,25,13,10,083,32*74
$GPGSV,5,2,17,15,44,105,30,18,25,317,23,23,67,241,22,24,22,157,23*72
$GPGSV,5,3,17,25,82,291,16,28,10,270,,29,24,005,29,32,00,220,*75
$GPGSV,5,4,17,36,52,277,,40,86,352,,41,58,082,,49,32,274,*7F
$GPGSV,5,5,17,50,10,089,*4A
$GLGSV,3,1,09,69,36,070,32,70,44,165,14,71,08,198,,73,59,223,25*60
$GLGSV,3,2,09,74,41,300,,80,20,165,11,84,06,357,,85,03,311,*66
$GLGSV,3,3,09,,,,23*6D
$GNGLL,0419.81080,S,05539.89992,E,071843.00,A,A*67
$GNRMC,071844.00,A,0419.81088,S,05539.89980,E,0.038,,280525,,,A*71
$GNVTG,,T,,M,0.038,N,0.070,K,A*31
$GNGGA,071844.00,0419.81088,S,05539.89980,E,1,12,0.86,18.9,M,-47.6,M,,*4B
$GNGSA,A,3,25,23,12,15,18,24,29,05,13,,,,1.44,0.86,1.16*17
$GNGSA,A,3,73,69,80,,,,,,,,,,1.44,0.86,1.16*16
$GPGSV,5,1,17,05,17,028,29,10,26,219,14,12,59,143,26,13,10,083,32*77
$GPGSV,5,2,17,15,44,105,34,18,25,317,22,23,67,241,21,24,22,157,24*73
$GPGSV,5,3,17,25,82,291,18,28,10,270,,29,24,005,29,32,00,220,*7B
$GPGSV,5,4,17,36,52,277,,40,86,352,,41,58,082,,49,32,274,*7F
$GPGSV,5,5,17,50,10,089,*4A
$GLGSV,3,1,09,69,36,070,34,70,44,165,15,71,08,198,,73,59,223,26*64
$GLGSV,3,2,09,74,41,300,,80,20,165,10,84,06,357,,85,03,311,*67
$GLGSV,3,3,09,,,,24*6A
$GNGLL,0419.81088,S,05539.89980,E,071844.00,A,A*6B
$GNRMC,071845.00,A,0419.81074,S,05539.90003,E,0.613,,280525,,,A*76
$GNVTG,,T,,M,0.613,N,1.135,K,A*3F
$GNGGA,071845.00,0419.81074,S,05539.90003,E,1,12,0.86,19.8,M,-47.6,M,,*43
$GNGSA,A,3,25,23,12,15,18,24,29,05,13,,,,1.44,0.86,1.16*17
$GNGSA,A,3,73,69,80,,,,,,,,,,1.44,0.86,1.16*16
$GPGSV,5,1,17,05,17,028,28,10,26,219,16,12,59,143,26,13,10,083,31*77
$GPGSV,5,2,17,15,44,105,32,18,25,317,22,23,67,241,20,24,22,157,23*73
$GPGSV,5,3,17,25,82,291,17,28,10,270,,29,24,005,28,32,00,220,*75
$GPGSV,5,4,17,36,52,277,,40,86,352,,41,58,082,,49,32,274,*7F
$GPGSV,5,5,17,50,10,089,*4A
$GLGSV,3,1,09,69,36,070,29,70,44,165,15,71,08,198,,73,59,223,26*68
$GLGSV,3,2,09,74,41,300,,80,20,165,10,84,06,357,,85,03,311,*67
$GLGSV,3,3,09,,,,22*6C
$GNGLL,0419.81074,S,05539.90003,E,071845.00,A,A*63
$GNRMC,071846.00,A,0419.81069,S,05539.90013,E,0.080,,280525,,,A*74
$GNVTG,,T,,M,0.080,N,0.147,K,A*37
$GNGGA,071846.00,0419.81069,S,05539.90013,E,1,12,0.86,20.1,M,-47.6,M,,*4E
$GNGSA,A,3,25,23,12,15,18,24,29,05,13,,,,1.44,0.86,1.16*17
$GNGSA,A,3,73,69,80,,,,,,,,,,1.44,0.86,1.16*16
$GPGSV,5,1,17,05,17,028,27,10,26,219,18,12,58,143,24,13,10,083,31*75
$GPGSV,5,2,17,15,44,105,32,18,25,317,25,23,67,241,21,24,22,157,23*75
$GPGSV,5,3,17,25,82,291,15,28,10,270,,29,24,005,27,32,00,220,*78
$GPGSV,5,4,17,36,52,277,,40,86,352,,41,58,082,,49,32,274,*7F
$GPGSV,5,5,17,50,10,089,*4A
$GLGSV,3,1,09,69,36,070,31,70,44,165,17,71,08,198,,73,59,223,28*6D
$GLGSV,3,2,09,74,41,300,,80,20,165,10,84,06,357,,85,03,311,*67
$GLGSV,3,3,09,,,,23*6D
$GNGLL,0419.81069,S,05539.90013,E,071846.00,A,A*6D
$GNRMC,071847.00,A,0419.81061,S,05539.90023,E,0.121,,280525,,,A*74
$GNVTG,,T,,M,0.121,N,0.224,K,A*3B
$GNGGA,071847.00,0419.81061,S,05539.90023,E,1,12,0.86,20.6,M,-47.6,M,,*43
$GNGSA,A,3,25,23,12,15,18,24,29,05,13,,,,1.44,0.86,1.16*17
$GNGSA,A,3,73,69,80,,,,,,,,,,1.44,0.86,1.16*16
$GPGSV,5,1,17,05,17,028,30,10,26,219,20,12,58,143,24,13,10,083,31*78
$GPGSV,5,2,17,15,44,105,32,18,25,317,24,23,67,241,20,24,22,157,26*70
$GPGSV,5,3,17,25,82,291,21,28,10,270,,29,24,005,27,32,00,220,*7F
$GPGSV,5,4,17,36,52,277,,40,86,352,,41,58,082,,49,32,274,*7F
$GPGSV,5,5,17,50,10,089,*4A
$GLGSV,3,1,09,69,36,070,31,70,44,165,20,71,08,198,,73,59,223,28*69
$GLGSV,3,2,09,74,41,300,,80,20,165,17,84,06,357,,85,03,311,*60
$GLGSV,3,3,09,,,,22*6C
$GNGLL,0419.81061,S,05539.90023,E,071847.00,A,A*67
$GNRMC,071848.00,A,0419.81058,S,05539.90038,E,0.028,,280525,,,A*73
$GNVTG,,T,,M,0.028,N,0.051,K,A*33
$GNGGA,071848.00,0419.81058,S,05539.90038,E,1,12,0.86,21.2,M,-47.6,M,,*49
$GNGSA,A,3,25,23,12,15,18,24,29,05,13,,,,1.44,0.86,1.16*17
$GNGSA,A,3,73,69,80,,,,,,,,,,1.44,0.86,1.16*16
$GPGSV,5,1,17,05,17,028,29,10,26,219,22,12,58,143,24,13,10,083,31*72
$GPGSV,5,2,17,15,44,105,36,18,25,317,25,23,67,241,20,24,22,157,25*76
$GPGSV,5,3,17,25,82,291,21,28,10,270,,29,24,005,28,32,00,220,*70
$GPGSV,5,4,17,36,52,277,,40,86,352,,41,58,082,,49,32,274,*7F
$GPGSV,5,5,17,50,10,089,*4A
$GLGSV,3,1,09,69,36,070,31,70,44,165,20,71,08,198,,73,59,223,29*68
$GLGSV,3,2,09,74,41,300,,80,20,165,17,84,06,357,,85,03,311,*60
$GLGSV,3,3,09,,,,21*6F
$GNGLL,0419.81058,S,05539.90038,E,071848.00,A,A*68
$GNRMC,071849.00,A,0419.81058,S,05539.90039,E,0.093,,280525,,,A*73
$GNVTG,,T,,M,0.093,N,0.173,K,A*32
$GNGGA,071849.00,0419.81058,S,05539.90039,E,1,12,0.86,21.5,M,-47.6,M,,*4E
$GNGSA,A,3,25,23,12,15,18,24,29,05,13,,,,1.44,0.86,1.16*17
$GNGSA,A,3,73,69,80,,,,,,,,,,1.44,0.86,1.16*16
$GPGSV,5,1,17,05,17,028,33,10,26,219,20,12,58,143,23,13,10,083,31*7C
$GPGSV,5,2,17,15,44,104,33,18,25,317,26,23,67,241,22,24,22,157,25*73
$GPGSV,5,3,17,25,82,291,21,28,10,270,,29,24,005,28,32,00,220,*70
$GPGSV,5,4,17,36,52,277,,40,86,352,,41,58,082,,49,32,274,*7F
$GPGSV,5,5,17,50,10,089,*4A
$GLGSV,3,1,09,69,36,070,33,70,44,165,21,71,08,198,,73,59,223,28*6A
$GLGSV,3,2,09,74,41,300,,80,20,165,17,84,06,357,,85,03,311,*60
$GLGSV,3,3,09,,,,25*6B
$GNGLL,0419.81058,S,05539.90039,E,071849.00,A,A*68
$GNRMC,071850.00,A,0419.81055,S,05539.90051,E,0.117,,280525,,,A*75
$GNVTG,,T,,M,0.117,N,0.217,K,A*3E
$GNGGA,071850.00,0419.81055,S,05539.90051,E,1,12,0.86,21.7,M,-47.6,M,,*47
$GNGSA,A,3,25,23,12,15,18,24,29,05,13,,,,1.44,0.86,1.16*17
$GNGSA,A,3,73,69,80,,,,,,,,,,1.44,0.86,1.16*16
$GPGSV,5,1,17,05,17,028,33,10,26,219,18,12,58,143,26,13,10,083,30*73
$GPGSV,5,2,17,15,44,104,33,18,25,317,26,23,67,241,21,24,22,157,25*70
$GPGSV,5,3,17,25,82,291,21,28,10,270,,29,24,005,27,32,00,220,*7F
$GPGSV,5,4,17,36,52,277,,40,86,352,,41,58,082,,49,32,274,*7F
$GPGSV,5,5,17,50,10,089,*4A
$GLGSV,3,1,09,69,36,070,32,70,44,165,20,71,08,198,,73,59,223,27*65
$GLGSV,3,2,09,74,41,300,,80,20,165,17,84,06,357,,85,03,311,*60
$GLGSV,3,3,09,,,,22*6C
$GNGLL,0419.81055,S,05539.90051,E,071850.00,A,A*63
$GNRMC,071851.00,A,0419.81048,S,05539.90062,E,0.133,,280525,,,A*7E
$GNVTG,,T,,M,0.133,N,0.246,K,A*3C
$GNGGA,071851.00,0419.81048,S,05539.90062,E,1,12,0.86,22.0,M,-47.6,M,,*4E
$GNGSA,A,3,25,23,12,15,18,24,29,05,13,,,,1.44,0.86,1.16*17
$GNGSA,A,3,73,69,80,,,,,,,,,,1.44,0.86,1.16*16
$GPGSV,5,1,17,05,17,028,29,10,26,219,18,12,58,143,26,13,10,083,30*78
$GPGSV,5,2,17,15,44,104,33,18,25,317,24,23,67,241,21,24,22,157,25*72
$GPGSV,5,3,17,25,82,291,20,28,10,270,,29,24,005,25,32,00,220,*7C
$GPGSV,5,4,17,36,52,277,,40,86,352,,41,58,082,,49,32,274,*7F
$GPGSV,5,5,17,50,10,089,*4A
$GLGSV,3,1,09,69,36,070,32,70,44,165,20,71,08,198,,73,59,223,27*65
$GLGSV,3,2,09,74,41,300,,80,20,165,17,84,06,357,,85,03,311,*60
$GLGSV,3,3,09,,,,22*6C
$GNGLL,0419.81048,S,05539.90062,E,071851.00,A,A*6E
$GNRMC,071852.00,A,0419.81043,S,05539.90065,E,0.103,,280525,,,A*72
$GNVTG,,T,,M,0.103,N,0.192,K,A*35
$GNGGA,071852.00,0419.81043,S,05539.90065,E,1,12,0.86,22.2,M,-47.6,M,,*43
$GNGSA,A,3,25,23,12,15,18,24,29,05,13,,,,1.44,0.86,1.16*17
$GNGSA,A,3,73,69,80,,,,,,,,,,1.44,0.86,1.16*16
$GPGSV,5,1,17,05,17,028,34,10,26,219,19,12,58,143,26,13,10,083,30*75
$GPGSV,5,2,17,15,44,104,33,18,25,318,24,23,67,241,20,24,22,157,24*7D
$GPGSV,5,3,17,25,82,291,20,28,10,270,,29,24,005,26,32,00,220,*7F
$GPGSV,5,4,17,36,52,277,,40,86,352,,41,58,082,,49,32,274,*7F
$GPGSV,5,5,17,50,10,089,*4A
$GLGSV,3,1,09,69,36,070,32,70,44,165,20,71,08,198,,73,59,223,26*64
$GLGSV,3,2,09,74,41,300,,80,20,165,17,84,06,357,,85,03,311,*60
$GLGSV,3,3,09,,,,29*67
$GNGLL,0419.81043,S,05539.90065,E,071852.00,A,A*61
$GNRMC,071853.00,A,0419.81037,S,05539.90072,E,0.063,,280525,,,A*71
$GNVTG,,T,,M,0.063,N,0.116,K,A*3E
$GNGGA,071853.00,0419.81037,S,05539.90072,E,1,12,0.86,22.6,M,-47.6,M,,*43
$GNGSA,A,3,25,23,12,15,18,24,29,05,13,,,,1.44,0.86,1.16*17
$GNGSA,A,3,73,69,80,,,,,,,,,,1.44,0.86,1.16*16
$GPGSV,5,1,17,05,17,028,35,10,26,219,20,12,58,143,24,13,10,083,31*7D
$GPGSV,5,2,17,15,44,104,32,18,25,318,24,23,67,241,21,24,22,157,26*7F
$GPGSV,5,3,17,25,82,291,20,28,10,270,,29,24,005,28,32,00,220,*71
$GPGSV,5,4,17,36,52,277,,40,86,352,,41,58,082,,49,32,274,*7F
$GPGSV,5,5,17,50,10,089,*4A
$GLGSV,3,1,09,69,36,070,32,70,44,165,20,71,08,198,,73,59,223,26*64
$GLGSV,3,2,09,74,41,300,,80,20,165,16,84,06,357,,85,03,311,*61
$GLGSV,3,3,09,,,,21*6F
$GNGLL,0419.81037,S,05539.90072,E,071853.00,A,A*65
$GNRMC,071854.00,A,0419.81027,S,05539.90085,E,0.104,,280525,,,A*7F
$GNVTG,,T,,M,0.104,N,0.193,K,A*33
$GNGGA,071854.00,0419.81027,S,05539.90085,E,1,12,0.86,23.0,M,-47.6,M,,*4A
$GNGSA,A,3,25,23,12,15,18,24,29,05,13,,,,1.44,0.86,1.16*17
$GNGSA,A,3,73,69,80,,,,,,,,,,1.44,0.86,1.16*16
$GPGSV,5,1,17,05,17,028,33,10,26,219,22,12,58,143,25,13,10,083,31*78
$GPGSV,5,2,17,15,44,104,33,18,25,318,25,23,67,241,19,24,22,157,26*74
$GPGSV,5,3,17,25,82,291,21,28,10,270,,29,24,005,28,32,00,220,*70
$GPGSV,5,4,17,36,52,277,,40,86,352,,41,58,082,,49,32,274,*7F
$GPGSV,5,5,17,50,10,089,*4A
$GLGSV,3,1,09,69,36,070,36,70,44,165,20,71,08,198,,73,59,223,25*63
$GLGSV,3,2,09,74,41,300,,80,20,165,16,84,06,357,,85,03,311,*61
$GLGSV,3,3,09,,,,20*6E
$GNGLL,0419.81027,S,05539.90085,E,071854.00,A,A*6B
$GNRMC,071855.00,A,0419.81020,S,05539.90098,E,0.145,,280525,,,A*70
$GNVTG,,T,,M,0.145,N,0.268,K,A*31
$GNGGA,071855.00,0419.81020,S,05539.90098,E,1,12,0.86,23.4,M,-47.6,M,,*44
$GNGSA,A,3,25,23,12,15,18,24,29,05,13,,,,1.44,0.86,1.16*17
$GNGSA,A,3,73,69,80,,,,,,,,,,1.44,0.86,1.16*16
$GPGSV,5,1,17,05,17,028,33,10,26,219,30,12,58,143,31,13,10,083,35*7A
$GPGSV,5,2,17,15,44,104,36,18,25,318,24,23,67,241,20,24,22,157,25*79
$GPGSV,5,3,17,25,82,291,25,28,10,270,,29,24,005,28,32,00,220,*74
$GPGSV,5,4,17,36,52,277,,40,86,352,,41,58,082,,49,32,274,*7F
$GPGSV,5,5,17,50,10,089,*4A
$GLGSV,3,1,09,69,36,070,33,70,44,165,21,71,08,198,,73,59,223,25*67
$GLGSV,3,2,09,74,41,300,,80,20,165,10,84,06,357,,85,03,311,*67
$GLGSV,3,3,09,,,,21*6F
$GNGLL,0419.81020,S,05539.90098,E,071855.00,A,A*61
$GNRMC,071856.00,A,0419.81012,S,05539.90109,E,0.173,,280525,,,A*7E
$GNVTG,,T,,M,0.173,N,0.321,K,A*38
$GNGGA,071856.00,0419.81012,S,05539.90109,E,1,11,0.93,23.7,M,-47.6,M,,*4B
$GNGSA,A,3,25,23,12,15,18,24,29,05,13,,,,1.56,0.93,1.26*13
$GNGSA,A,3,73,69,,,,,,,,,,,1.56,0.93,1.26*1A
$GPGSV,5,1,17,05,17,028,33,10,26,219,21,12,58,143,29,13,10,083,31*77
$GPGSV,5,2,17,15,44,104,34,18,25,318,21,23,67,242,21,24,22,157,25*7C
$GPGSV,5,3,17,25,82,291,24,28,10,270,,29,24,005,28,32,00,220,*75
$GPGSV,5,4,17,36,52,277,,40,86,352,,41,58,082,,49,32,274,*7F
$GPGSV,5,5,17,50,10,089,*4A
$GLGSV,3,1,09,69,36,070,33,70,44,165,21,71,08,198,,73,59,223,24*66
$GLGSV,3,2,09,74,41,300,,80,20,165,,84,06,357,,85,03,311,*66
$GLGSV,3,3,09,,,,20*6E
$GNGLL,0419.81012,S,05539.90109,E,071856.00,A,A*6A
$GNRMC,071857.00,A,0419.81002,S,05539.90124,E,0.029,,280525,,,A*7F
$GNVTG,,T,,M,0.029,N,0.054,K,A*37
$GNGGA,071857.00,0419.81002,S,05539.90124,E,1,11,0.93,24.1,M,-47.6,M,,*45
$GNGSA,A,3,25,23,12,15,18,24,29,05,13,,,,1.56,0.93,1.26*13
$GNGSA,A,3,73,69,,,,,,,,,,,1.56,0.93,1.26*1A
$GPGSV,5,1,17,05,17,028,33,10,26,219,23,12,58,143,27,13,10,083,31*7B
$GPGSV,5,2,17,15,44,104,35,18,25,318,23,23,67,242,21,24,22,157,25*7F
$GPGSV,5,3,17,25,82,291,22,28,10,270,,29,24,005,32,32,00,220,*78
$GPGSV,5,4,17,36,52,277,,40,86,352,,41,58,082,,49,32,274,*7F
$GPGSV,5,5,17,50,10,089,*4A
$GLGSV,3,1,09,69,36,070,33,70,44,165,21,71,08,198,,73,59,223,24*66
$GLGSV,3,2,09,74,41,300,,80,20,165,,84,06,357,,85,03,311,*66
$GLGSV,3,3,09,,,,22*6C
$GNGLL,0419.81002,S,05539.90124,E,071857.00,A,A*65
$GNRMC,071858.00,A,0419.81000,S,05539.90122,E,0.193,,280525,,,A*74
$GNVTG,,T,,M,0.193,N,0.358,K,A*38
$GNGGA,071858.00,0419.81000,S,05539.90122,E,1,11,0.93,24.3,M,-47.6,M,,*4C
$GNGSA,A,3,25,23,12,15,18,24,29,05,13,,,,1.56,0.93,1.26*13
$GNGSA,A,3,73,69,,,,,,,,,,,1.56,0.93,1.26*1A
$GPGSV,5,1,17,05,17,028,35,10,26,219,26,12,58,143,27,13,10,083,33*7A
$GPGSV,5,2,17,15,44,104,32,18,25,318,23,23,67,242,20,24,22,157,25*79
$GPGSV,5,3,17,25,83,286,21,28,10,270,,29,24,005,27,32,00,220,*78
$GPGSV,5,4,17,36,52,277,,40,86,352,,41,58,082,,49,32,274,*7F
$GPGSV,5,5,17,50,10,089,*4A
$GLGSV,3,1,09,69,36,070,34,70,44,165,21,71,08,198,,73,59,223,23*66
$GLGSV,3,2,09,74,41,300,,80,20,165,,84,06,357,,85,03,311,*66
$GLGSV,3,3,09,,,,22*6C
$GNGLL,0419.81000,S,05539.90122,E,071858.00,A,A*6E
$GNRMC,071859.00,A,0419.80998,S,05539.90128,E,0.178,,280525,,,A*73
$GNVTG,,T,,M,0.178,N,0.329,K,A*3B
$GNGGA,071859.00,0419.80998,S,05539.90128,E,1,11,0.93,24.6,M,-47.6,M,,*4B
$GNGSA,A,3,25,23,12,15,18,24,29,05,13,,,,1.56,0.93,1.26*13
$GNGSA,A,3,73,69,,,,,,,,,,,1.56,0.93,1.26*1A
$GPGSV,5,1,17,05,17,028,30,10,26,219,23,12,58,143,26,13,10,083,28*71
$GPGSV,5,2,17,15,44,104,32,18,25,318,22,23,67,242,19,24,22,157,24*73
$GPGSV,5,3,17,25,83,286,18,28,10,270,,29,24,005,26,32,00,220,*73
$GPGSV,5,4,17,36,52,277,,40,86,352,,41,58,082,,49,32,274,*7F
$GPGSV,5,5,17,50,10,089,*4A
$GLGSV,3,1,09,69,36,070,34,70,44,165,21,71,08,198,,73,59,223,24*61
$GLGSV,3,2,09,74,41,300,,80,20,165,,84,06,357,,85,03,311,*66
$GLGSV,3,3,09,,,,25*6B
$GNGLL,0419.80998,S,05539.90128,E,071859.00,A,A*6C
$GNRMC,071900.00,A,0419.80998,S,05539.90125,E,0.263,,280525,,,A*7A
$GNVTG,,T,,M,0.263,N,0.486,K,A*30
$GNGGA,071900.00,0419.80998,S,05539.90125,E,1,11,0.93,24.7,M,-47.6,M,,*4A
$GNGSA,A,3,25,23,12,15,18,24,29,05,13,,,,1.56,0.93,1.26*13
$GNGSA,A,3,73,69,,,,,,,,,,,1.56,0.93,1.26*1A
$GPGSV,5,1,17,05,17,028,30,10,26,219,25,12,58,143,27,13,10,083,30*7F
$GPGSV,5,2,17,15,44,104,32,18,25,318,20,23,67,242,16,24,22,157,23*79
$GPGSV,5,3,17,25,83,286,21,28,10,270,,29,24,005,27,32,00,220,*78
$GPGSV,5,4,17,36,52,277,,40,86,352,,41,58,082,,49,32,274,*7F
$GPGSV,5,5,17,50,10,089,*4A
$GLGSV,3,1,09,69,36,070,30,70,44,165,22,71,08,198,,73,59,223,23*61
$GLGSV,3,2,09,74,41,300,,80,20,165,,84,06,357,,85,03,311,*66
$GLGSV,3,3,09,,,,31*6E
$GNGLL,0419.80998,S,05539.90125,E,071900.00,A,A*6C
$GNRMC,071901.00,A,0419.80992,S,05539.90134,E,0.125,,280525,,,A*70
$GNVTG,,T,,M,0.125,N,0.231,K,A*3B
$GNGGA,071901.00,0419.80992,S,05539.90134,E,1,11,0.93,24.9,M,-47.6,M,,*4F
$GNGSA,A,3,25,23,12,15,18,24,29,05,13,,,,1.56,0.93,1.26*13
$GNGSA,A,3,73,69,,,,,,,,,,,1.56,0.93,1.26*1A
$GPGSV,5,1,17,05,17,028,34,10,26,219,25,12,58,143,28,13,10,083,34*70
$GPGSV,5,2,17,15,44,104,33,18,25,318,18,23,67,242,14,24,22,157,24*76
$GPGSV,5,3,17,25,83,286,24,28,10,269,,29,24,005,26,32,00,220,*74
$GPGSV,5,4,17,36,52,277,,40,86,352,,41,58,082,,49,32,274,*7F
$GPGSV,5,5,17,50,10,089,*4A
$GLGSV,3,1,09,69,36,070,30,70,44,165,22,71,08,198,,73,59,223,25*67
$GLGSV,3,2,09,74,41,300,,80,20,165,,84,06,357,,85,03,311,*66
$GLGSV,3,3,09,,,,24*6A
$GNGLL,0419.80992,S,05539.90134,E,071901.00,A,A*67
$GNRMC,071902.00,A,0419.81004,S,05539.90113,E,0.450,,280525,,,A*76
$GNVTG,,T,,M,0.450,N,0.833,K,A*34
$GNGGA,071902.00,0419.81004,S,05539.90113,E,1,10,1.15,24.7,M,-47.6,M,,*4E
$GNGSA,A,3,25,23,12,15,24,29,05,13,,,,,1.87,1.15,1.48*11
$GNGSA,A,3,73,69,,,,,,,,,,,1.87,1.15,1.48*11
$GPGSV,5,1,17,05,17,028,34,10,26,219,25,12,58,143,26,13,10,083,30*7A
$GPGSV,5,2,17,15,44,104,32,18,25,318,,23,67,242,18,24,22,157,24*72
$GPGSV,5,3,17,25,83,286,23,28,10,269,,29,24,006,27,32,00,220,*71
$GPGSV,5,4,17,36,52,277,,40,86,352,,41,58,082,,49,32,274,*7F
$GPGSV,5,5,17,50,10,089,*4A
$GLGSV,3,1,09,69,36,070,32,70,44,165,21,71,08,198,,73,59,223,23*60
$GLGSV,3,2,09,74,41,300,,80,20,165,,84,06,357,,85,03,311,*66
$GLGSV,3,3,09,,,,23*6D
$GNGLL,0419.81004,S,05539.90113,E,071902.00,A,A*66
$GNRMC,071903.00,A,0419.81019,S,05539.90088,E,0.608,,280525,,,A*77
$GNVTG,,T,,M,0.608,N,1.127,K,A*36
$GNGGA,071903.00,0419.81019,S,05539.90088,E,1,10,1.15,24.5,M,-47.6,M,,*42
$GNGSA,A,3,25,23,12,15,24,29,05,13,,,,,1.87,1.15,1.48*11
$GNGSA,A,3,73,69,,,,,,,,,,,1.87,1.15,1.48*11
$GPGSV,5,1,17,05,17,028,34,10,26,219,25,12,58,143,26,13,10,083,30*7A
$GPGSV,5,2,17,15,44,104,34,18,25,318,23,23,67,242,18,24,22,157,25*74
$GPGSV,5,3,17,25,83,286,23,28,10,269,,29,24,006,28,32,00,220,*7E
$GPGSV,5,4,17,36,52,277,,40,86,352,,41,58,082,,49,32,274,*7F
$GPGSV,5,5,17,50,10,089,*4A
$GLGSV,3,1,09,69,36,070,31,70,44,165,21,71,08,198,,73,59,223,19*6A
$GLGSV,3,2,09,74,41,300,,80,20,165,18,84,06,357,,85,03,311,*6F
$GLGSV,3,3,09,,,,20*6E
$GNGLL,0419.81019,S,05539.90088,E,071903.00,A,A*68
$GNRMC,071904.00,A,0419.81017,S,05539.90099,E,0.120,,280525,,,A*73
$GNVTG,,T,,M,0.120,N,0.222,K,A*3C
$GNGGA,071904.00,0419.81017,S,05539.90099,E,1,10,1.15,24.3,M,-47.6,M,,*4D
$GNGSA,A,3,25,23,12,15,24,29,05,13,,,,,1.87,1.15,1.48*11
$GNGSA,A,3,73,69,,,,,,,,,,,1.87,1.15,1.48*11
$GPGSV,5,1,17,05,17,028,31,10,26,219,22,12,58,143,25,13,10,083,29*73
$GPGSV,5,2,17,15,44,104,33,18,25,318,21,23,67,242,18,24,22,157,25*71
$GPGSV,5,3,17,25,83,286,21,28,10,269,,29,24,006,27,32,00,220,*73
$GPGSV,5,4,17,36,52,277,,40,86,352,,41,58,082,,49,32,274,*7F
$GPGSV,5,5,17,50,10,089,*4A
$GLGSV,3,1,09,69,36,070,30,70,44,165,20,71,08,198,,73,59,223,16*65
$GLGSV,3,2,09,74,41,300,,80,20,165,16,84,06,357,,85,03,311,*61
$GLGSV,3,3,09,,,,20*6E
$GNGLL,0419.81017,S,05539.90099,E,071904.00,A,A*61
$GNRMC,071905.00,A,0419.81015,S,05539.90101,E,0.129,,280525,,,A*79
$GNVTG,,T,,M,0.129,N,0.238,K,A*3E
$GNGGA,071905.00,0419.81015,S,05539.90101,E,1,10,1.15,24.3,M,-47.6,M,,*4E
$GNGSA,A,3,25,23,12,15,24,29,05,13,,,,,1.87,1.15,1.48*11
$GNGSA,A,3,73,69,,,,,,,,,,,1.87,1.15,1.48*11
$GPGSV,5,1,17,05,17,028,32,10,26,219,20,12,58,143,22,13,10,083,29*75
$GPGSV,5,2,17,15,44,104,34,18,25,318,19,23,67,242,18,24,22,157,24*7C
$GPGSV,5,3,17,25,83,286,18,28,10,269,,29,24,006,28,32,00,220,*76
$GPGSV,5,4,17,36,52,277,,40,86,352,,41,58,082,,49,32,274,*7F
$GPGSV,5,5,17,50,10,089,*4A
$GLGSV,3,1,09,69,36,070,34,70,44,165,19,71,08,198,,73,59,223,17*6A
$GLGSV,3,2,09,74,41,300,,80,20,165,15,84,06,357,,85,03,311,*62
$GLGSV,3,3,09,,,,22*6C
$GNGLL,0419.81015,S,05539.90101,E,071905.00,A,A*62
$GNRMC,071906.00,A,0419.81022,S,05539.90073,E,0.643,,280525,,,A*71
$GNVTG,,T,,M,0.643,N,1.191,K,A*34
$GNGGA,071906.00,0419.81022,S,05539.90073,E,1,11,0.93,24.2,M,-47.6,M,,*42
$GNGSA,A,3,25,23,12,15,18,24,29,05,13,,,,1.56,0.93,1.26*13
$GNGSA,A,3,73,69,,,,,,,,,,,1.56,0.93,1.26*1A
$GPGSV,5,1,17,05,17,028,30,10,26,219,19,12,58,143,30,13,10,083,28*7F
$GPGSV,5,2,17,15,44,104,34,18,25,318,19,23,67,242,18,24,22,157,25*7D
$GPGSV,5,3,17,25,83,286,15,28,10,269,,29,24,006,26,32,00,220,*75
$GPGSV,5,4,17,36,52,277,,40,86,352,,41,58,082,,49,32,274,*7F
$GPGSV,5,5,17,50,10,089,*4A
$GLGSV,3,1,09,69,36,070,32,70,44,165,18,71,08,198,,73,59,223,17*6D
$GLGSV,3,2,09,74,41,300,,80,20,165,11,84,06,357,,85,03,311,*66
$GLGSV,3,3,09,,,,22*6C
$GNGLL,0419.81022,S,05539.90073,E,071906.00,A,A*61
$GNRMC,071907.00,A,0419.81013,S,05539.90075,E,0.490,,280525,,,A*78
$GNVTG,,T,,M,0.490,N,0.907,K,A*3E
$GNGGA,071907.00,0419.81013,S,05539.90075,E,1,11,0.93,24.4,M,-47.6,M,,*41
$GNGSA,A,3,25,23,12,15,18,24,29,05,13,,,,1.56,0.93,1.26*13
$GNGSA,A,3,73,69,,,,,,,,,,,1.56,0.93,1.26*1A
$GPGSV,5,1,17,05,17,028,34,10,26,219,23,12,58,143,30,13,10,083,32*79
$GPGSV,5,2,17,15,44,104,35,18,25,318,19,23,67,242,18,24,22,157,26*7F
$GPGSV,5,3,17,25,83,286,17,28,10,269,,29,24,006,25,32,00,220,*74
$GPGSV,5,4,17,36,52,277,,40,86,352,,41,58,082,,49,32,274,*7F
$GPGSV,5,5,17,50,10,089,*4A
$GLGSV,3,1,09,69,36,070,32,70,44,165,20,71,08,198,,73,59,223,21*63
$GLGSV,3,2,09,74,41,300,,80,20,165,09,84,06,357,,85,03,311,*6F
$GLGSV,3,3,09,,,,24*6A
$GNGLL,0419.81013,S,05539.90075,E,071907.00,A,A*64
$GNRMC,071908.00,A,0419.81003,S,05539.90082,E,0.302,,280525,,,A*72
$GNVTG,,T,,M,0.302,N,0.559,K,A*35
$GNGGA,071908.00,0419.81003,S,05539.90082,E,1,11,0.93,24.6,M,-47.6,M,,*45
$GNGSA,A,3,25,23,12,15,18,24,29,05,13,,,,1.56,0.93,1.26*13
$GNGSA,A,3,73,69,,,,,,,,,,,1.56,0.93,1.26*1A
$GPGSV,5,1,17,05,17,028,32,10,26,219,26,12,58,143,29,13,10,083,31*71
$GPGSV,5,2,17,15,44,104,33,18,25,318,19,23,67,242,25,24,22,157,25*74
$GPGSV,5,3,17,25,83,286,18,28,10,269,,29,24,006,30,32,00,220,*7F
$GPGSV,5,4,17,36,52,277,,40,86,352,,41,58,082,,49,32,274,*7F
$GPGSV,5,5,17,50,10,089,*4A
$GLGSV,3,1,09,69,36,070,32,70,44,165,22,71,08,198,,73,59,223,20*60
$GLGSV,3,2,09,74,41,300,,80,20,165,08,84,06,357,,85,03,311,*6E
$GLGSV,3,3,09,,,,23*6D
$GNGLL,0419.81003,S,05539.90082,E,071908.00,A,A*62
$GNRMC,071909.00,A,0419.81001,S,05539.90088,E,0.168,,280525,,,A*75
$GNVTG,,T,,M,0.168,N,0.312,K,A*32
$GNGGA,071909.00,0419.81001,S,05539.90088,E,1,11,0.93,24.7,M,-47.6,M,,*4D
$GNGSA,A,3,25,23,12,15,18,24,29,05,13,,,,1.56,0.93,1.26*13
$GNGSA,A,3,73,69,,,,,,,,,,,1.56,0.93,1.26*1A
$GPGSV,5,1,17,05,17,028,33,10,26,219,25,12,58,143,28,13,10,083,30*73
$GPGSV,5,2,17,15,44,104,34,18,25,318,18,23,67,242,25,24,22,157,26*71
$GPGSV,5,3,17,25,83,286,21,28,10,269,,29,24,006,30,32,00,220,*75
$GPGSV,5,4,17,36,52,277,,40,86,352,,41,58,082,,49,32,274,*7F
$GPGSV,5,5,17,50,10,089,*4A
$GLGSV,3,1,09,69,36,070,32,70,44,165,21,71,08,198,,73,59,223,20*63
$GLGSV,3,2,09,74,41,300,,80,20,165,08,84,06,357,,85,03,311,*6E
$GLGSV,3,3,09,,,,24*6A
$GNGLL,0419.81001,S,05539.90088,E,071909.00,A,A*6B
$GNRMC,071910.00,A,0419.80994,S,05539.90096,E,0.019,,280525,,,A*71
$GNVTG,,T,,M,0.019,N,0.036,K,A*30
$GNGGA,071910.00,0419.80994,S,05539.90096,E,1,11,1.15,24.8,M,-47.6,M,,*4E
$GNGSA,A,3,25,23,12,15,18,24,29,05,13,,,,1.87,1.15,1.48*18
$GNGSA,A,3,73,69,,,,,,,,,,,1.87,1.15,1.48*11
$GPGSV,5,1,17,05,17,028,32,10,26,219,24,12,58,143,27,13,10,083,30*7C
$GPGSV,5,2,17,15,44,104,33,18,25,318,18,23,67,242,25,24,22,157,26*76
$GPGSV,5,3,17,25,83,286,24,28,10,269,,29,24,006,29,32,00,220,*78
$GPGSV,5,4,17,36,52,277,,40,86,352,,41,58,082,,49,32,274,*7F
$GPGSV,5,5,17,50,10,089,*4A
$GLGSV,3,1,09,69,36,070,31,70,44,165,21,71,08,198,,73,59,223,21*61
$GLGSV,3,2,09,74,41,300,,80,20,165,08,84,06,357,,85,03,311,*6E
$GLGSV,3,3,09,,,,24*6A
$GNGLL,0419.80994,S,05539.90096,E,071910.00,A,A*68
$GNRMC,071911.00,A,0419.80993,S,05539.90096,E,0.041,,280525,,,A*7A
$GNVTG,,T,,M,0.041,N,0.076,K,A*39
$GNGGA,071911.00,0419.80993,S,05539.90096,E,1,11,1.15,24.9,M,-47.6,M,,*49
$GNGSA,A,3,25,23,12,15,18,24,29,05,13,,,,1.87,1.15,1.48*18
$GNGSA,A,3,73,69,,,,,,,,,,,1.87,1.15,1.48*11
$GPGSV,5,1,17,05,17,028,34,10,26,219,26,12,58,143,28,13,10,083,30*77
$GPGSV,5,2,17,15,44,104,31,18,25,318,19,23,67,242,24,24,22,157,27*75
$GPGSV,5,3,17,25,83,286,23,28,10,269,,29,24,006,28,32,00,220,*7E
$GPGSV,5,4,17,36,52,277,,40,86,352,,41,58,082,,49,32,274,*7F
$GPGSV,5,5,17,50,10,089,*4A
$GLGSV,3,1,09,69,36,070,33,70,44,165,20,71,08,198,,73,59,223,19*69
$GLGSV,3,2,09,74,41,300,,80,20,165,08,84,06,357,,85,03,311,*6E
$GLGSV,3,3,09,,,,23*6D
$GNGLL,0419.80993,S,05539.90096,E,071911.00,A,A*6E
$GNRMC,071912.00,A,0419.80992,S,05539.90091,E,0.093,,280525,,,A*70
$GNVTG,,T,,M,0.093,N,0.173,K,A*32
$GNGGA,071912.00,0419.80992,S,05539.90091,E,1,12,1.15,24.7,M,-47.6,M,,*41
$GNGSA,A,3,25,23,12,15,18,24,29,05,13,,,,1.87,1.15,1.48*18
$GNGSA,A,3,73,69,80,,,,,,,,,,1.87,1.15,1.48*19
$GPGSV,5,1,17,05,17,028,32,10,26,219,24,12,58,143,33,13,10,083,30*79
$GPGSV,5,2,17,15,44,104,32,18,25,318,19,23,67,242,22,24,22,157,27*70
$GPGSV,5,3,17,25,83,286,22,28,10,269,,29,24,006,27,32,00,220,*70
$GPGSV,5,4,17,36,52,277,,40,86,352,,41,58,082,,49,32,274,*7F
$GPGSV,5,5,17,50,10,089,*4A
$GLGSV,3,1,09,69,36,070,33,70,44,165,21,71,08,198,,73,59,223,19*68
$GLGSV,3,2,09,74,41,300,,80,20,165,11,84,06,357,,85,03,311,*66
$GLGSV,3,3,09,,,,25*6B
$GNGLL,0419.80992,S,05539.90091,E,071912.00,A,A*6B
$GNRMC,071913.00,A,0419.80993,S,05539.90086,E,0.211,,280525,,,A*7E
$GNVTG,,T,,M,0.211,N,0.391,K,A*34
$GNGGA,071913.00,0419.80993,S,05539.90086,E,1,12,1.15,24.8,M,-47.6,M,,*48
$GNGSA,A,3,25,23,12,15,18,24,29,05,13,,,,1.87,1.15,1.48*18
$GNGSA,A,3,73,69,80,,,,,,,,,,1.87,1.15,1.48*19
$GPGSV,5,1,17,05,17,028,32,10,26,219,24,12,58,143,27,13,10,083,30*7C
$GPGSV,5,2,17,15,44,104,31,18,25,318,17,23,67,242,22,24,22,157,27*7D
$GPGSV,5,3,17,25,83,286,20,28,10,269,,29,24,006,29,32,00,220,*7C
$GPGSV,5,4,17,36,52,277,,40,86,352,,41,58,082,,49,32,274,*7F
$GPGSV,5,5,17,50,10,089,*4A
$GLGSV,3,1,09,69,36,070,32,70,44,165,21,71,08,198,,73,59,223,18*68
$GLGSV,3,2,09,74,41,300,,80,20,165,13,84,06,357,,85,03,311,*64
$GLGSV,3,3,09,,,,25*6B
$GNGLL,0419.80993,S,05539.90086,E,071913.00,A,A*6D
$GNRMC,071914.00,A,0419.80991,S,05539.90086,E,0.062,,280525,,,A*7D
$GNVTG,,T,,M,0.062,N,0.115,K,A*3C
$GNGGA,071914.00,0419.80991,S,05539.90086,E,1,12,1.15,24.9,M,-47.6,M,,*4C
$GNGSA,A,3,25,23,12,15,18,24,29,05,13,,,,1.87,1.15,1.48*18
$GNGSA,A,3,73,69,80,,,,,,,,,,1.87,1.15,1.48*19
$GPGSV,5,1,17,05,17,028,31,10,26,219,24,12,58,143,29,13,10,083,31*70
$GPGSV,5,2,17,15,44,104,33,18,25,318,19,23,67,242,19,24,22,157,27*79
$GPGSV,5,3,17,25,83,286,20,28,10,269,,29,24,006,29,32,00,220,*7C
$GPGSV,5,4,17,36,52,277,,40,86,352,,41,58,082,,49,32,274,*7F
$GPGSV,5,5,17,50,10,089,*4A
$GLGSV,3,1,09,69,36,070,32,70,44,165,22,71,08,198,,73,59,223,28*68
$GLGSV,3,2,09,74,41,300,,80,20,165,15,84,06,357,,85,03,311,*62
$GLGSV,3,3,09,,,,26*68
$GNGLL,0419.80991,S,05539.90086,E,071914.00,A,A*68
$GNRMC,071915.00,A,0419.80984,S,05539.90089,E,0.090,,280525,,,A*7A
$GNVTG,,T,,M,0.090,N,0.166,K,A*35
$GNGGA,071915.00,0419.80984,S,05539.90089,E,1,12,1.15,25.0,M,-47.6,M,,*4E
$GNGSA,A,3,25,23,12,15,18,24,29,05,13,,,,1.87,1.15,1.48*18
$GNGSA,A,3,73,69,80,,,,,,,,,,1.87,1.15,1.48*19
$GPGSV,5,1,17,05,17,028,26,10,26,219,22,12,58,143,28,13,10,083,32*72
$GPGSV,5,2,17,15,44,104,33,18,25,318,18,23,67,242,18,24,22,157,26*78
$GPGSV,5,3,17,25,83,286,19,28,10,269,,29,24,006,28,32,00,220,*77
$GPGSV,5,4,17,36,52,277,,40,86,352,,41,58,082,,49,32,274,*7F
$GPGSV,5,5,17,50,10,089,*4A
$GLGSV,3,1,09,69,36,070,32,70,44,165,22,71,08,198,,73,59,223,28*68
$GLGSV,3,2,09,74,41,300,,80,20,165,17,84,06,357,,85,03,311,*60
$GLGSV,3,3,09,,,,24*6A
$GNGLL,0419.80984,S,05539.90089,E,071915.00,A,A*62
$GNRMC,071916.00,A,0419.80982,S,05539.90091,E,0.010,,280525,,,A*7E
$GNVTG,,T,,M,0.010,N,0.019,K,A*34
$GNGGA,071916.00,0419.80982,S,05539.90091,E,1,11,1.15,25.1,M,-47.6,M,,*40
$GNGSA,A,3,25,23,12,15,18,24,29,05,13,,,,1.87,1.15,1.48*18
$GNGSA,A,3,73,69,,,,,,,,,,,1.87,1.15,1.48*11
$GPGSV,5,1,17,05,17,028,31,10,26,219,21,12,58,143,28,13,10,083,32*77
$GPGSV,5,2,17,15,44,104,33,18,25,318,17,23,67,242,19,24,22,157,26*76
$GPGSV,5,3,17,25,83,286,20,28,10,269,,29,24,006,27,32,00,220,*72
$GPGSV,5,4,17,36,52,277,,40,86,352,,41,58,082,,49,32,274,*7F
$GPGSV,5,5,17,50,10,089,*4A
$GLGSV,3,1,09,69,36,070,31,70,44,165,21,71,08,198,,73,59,223,26*66
$GLGSV,3,2,09,74,41,300,,80,20,165,,84,06,357,,85,03,311,*66
$GLGSV,3,3,09,,,,22*6C
$GNGLL,0419.80982,S,05539.90091,E,071916.00,A,A*6E
$GNRMC,071917.00,A,0419.80979,S,05539.90096,E,0.317,,280525,,,A*78
$GNVTG,,T,,M,0.317,N,0.587,K,A*32
$GNGGA,071917.00,0419.80979,S,05539.90096,E,1,11,1.15,25.4,M,-47.6,M,,*47
$GNGSA,A,3,25,23,12,15,18,24,29,05,13,,,,1.87,1.15,1.48*18
$GNGSA,A,3,73,69,,,,,,,,,,,1.87,1.15,1.48*11
$GPGSV,5,1,17,05,17,028,31,10,26,219,21,12,58,143,27,13,10,083,31*7B
$GPGSV,5,2,17,15,44,104,35,18,25,318,17,23,67,242,26,24,22,157,25*7F
$GPGSV,5,3,17,25,83,286,21,28,10,269,,29,24,006,29,32,00,220,*7D
$GPGSV,5,4,17,36,52,277,,40,86,352,,41,58,082,,49,32,274,*7F
$GPGSV,5,5,17,50,10,089,*4A
$GLGSV,3,1,09,69,36,070,30,70,44,165,20,71,08,198,,73,59,223,25*65
$GLGSV,3,2,09,74,41,300,,80,20,165,23,84,06,357,,85,03,311,*67
$GLGSV,3,3,09,,,,19*64
$GNGLL,0419.80979,S,05539.90096,E,071917.00,A,A*6C
$GNRMC,071918.00,A,0419.80978,S,05539.90102,E,0.083,,280525,,,A*74
$GNVTG,,T,,M,0.083,N,0.154,K,A*36
$GNGGA,071918.00,0419.80978,S,05539.90102,E,1,11,1.15,25.6,M,-47.6,M,,*47
$GNGSA,A,3,25,23,12,15,18,24,29,05,13,,,,1.87,1.15,1.48*18
$GNGSA,A,3,73,69,,,,,,,,,,,1.87,1.15,1.48*11
$GPGSV,5,1,17,05,17,028,31,10,26,219,22,12,58,143,27,13,10,083,30*79
$GPGSV,5,2,17,15,44,104,34,18,25,318,18,23,67,242,26,24,22,157,23*77
$GPGSV,5,3,17,25,83,286,21,28,10,269,,29,24,006,29,32,00,220,*7D
$GPGSV,5,4,17,36,52,277,,40,86,352,,41,58,082,,49,32,274,*7F
$GPGSV,5,5,17,50,10,089,*4A
$GLGSV,3,1,09,69,36,070,26,70,44,165,21,71,08,198,,73,59,223,25*63
$GLGSV,3,2,09,74,41,300,,80,20,165,20,84,06,357,,85,03,311,*64
$GLGSV,3,3,09,,,,20*6E
$GNGLL,0419.80978,S,05539.90102,E,071918.00,A,A*6E
$GNRMC,071919.00,A,0419.80976,S,05539.90103,E,0.253,,280525,,,A*75
$GNVTG,,T,,M,0.253,N,0.468,K,A*33
$GNGGA,071919.00,0419.80976,S,05539.90103,E,1,11,1.15,25.7,M,-47.6,M,,*48
$GNGSA,A,3,25,23,12,15,18,24,29,05,13,,,,1.87,1.15,1.48*18
$GNGSA,A,3,73,69,,,,,,,,,,,1.87,1.15,1.48*11
$GPGSV,5,1,17,05,17,028,30,10,26,219,23,12,58,143,26,13,10,083,31*79
$GPGSV,5,2,17,15,44,104,34,18,25,318,18,23,67,242,23,24,22,157,24*75
$GPGSV,5,3,17,25,83,286,20,28,10,269,,29,24,006,29,32,00,220,*7C
$GPGSV,5,4,17,36,52,277,,40,86,352,,41,58,082,,49,32,274,*7F
$GPGSV,5,5,17,50,10,089,*4A
$GLGSV,3,1,09,69,36,070,35,70,44,165,21,71,08,198,,73,59,223,25*61
$GLGSV,3,2,09,74,41,300,,80,20,165,20,84,06,357,,85,03,311,*64
$GLGSV,3,3,09,,,,24*6A
$GNGLL,0419.80976,S,05539.90103,E,071919.00,A,A*60
$GNRMC,071920.00,A,0419.80974,S,05539.90114,E,0.014,,280525,,,A*7A
$GNVTG,,T,,M,0.014,N,0.027,K,A*3D
$GNGGA,071920.00,0419.80974,S,05539.90114,E,1,12,1.07,25.9,M,-47.6,M,,*48
$GNGSA,A,3,25,23,12,15,18,24,29,05,13,,,,1.72,1.07,1.35*1B
$GNGSA,A,3,73,69,80,,,,,,,,,,1.72,1.07,1.35*1A
$GPGSV,5,1,17,05,17,028,29,10,26,219,22,12,58,143,32,13,10,083,30*74
$GPGSV,5,2,17,15,44,104,34,18,25,318,19,23,67,242,22,24,22,157,24*75
$GPGSV,5,3,17,25,83,286,20,28,10,269,,29,24,006,28,32,00,220,*7D
$GPGSV,5,4,17,36,52,277,,40,86,352,,41,58,082,,49,32,274,*7F
$GPGSV,5,5,17,50,10,089,*4A
$GLGSV,3,1,09,69,36,070,32,70,44,165,20,71,08,198,,73,59,223,26*64
$GLGSV,3,2,09,74,41,300,,80,20,165,20,84,06,357,,85,03,311,*64
$GLGSV,3,3,09,,,,23*6D
$GNGLL,0419.80974,S,05539.90114,E,071920.00,A,A*6E
$GNRMC,071921.00,A,0419.81026,S,05539.90148,E,3.131,116.19,280525,,,A*68
$GNVTG,116.19,T,,M,3.131,N,5.799,K,A*2F
$GNGGA,071921.00,0419.81026,S,05539.90148,E,1,12,1.07,26.0,M,-47.6,M,,*45
$GNGSA,A,3,25,23,12,15,18,24,29,05,13,,,,1.72,1.07,1.35*1B
$GNGSA,A,3,73,69,80,,,,,,,,,,1.72,1.07,1.35*1A
$GPGSV,5,1,17,05,17,028,24,10,26,219,20,12,58,143,24,13,10,083,23*7E
$GPGSV,5,2,17,15,44,104,25,18,25,318,18,23,67,242,18,24,22,157,22*7B
$GPGSV,5,3,17,25,83,286,18,28,10,269,,29,24,006,18,32,00,220,*75
$GPGSV,5,4,17,36,52,277,,40,86,352,,41,58,082,,49,32,274,*7F
$GPGSV,5,5,17,50,10,089,*4A
$GLGSV,3,1,09,69,36,070,26,70,44,165,19,71,08,198,,73,59,223,25*68
$GLGSV,3,2,09,74,41,300,,80,20,165,18,84,06,357,,85,03,311,*6F
$GLGSV,3,3,09,,,,22*6C
$GNGLL,0419.81026,S,05539.90148,E,071921.00,A,A*69
$GNRMC,071922.00,A,0419.81064,S,05539.90176,E,1.418,,280525,,,A*7C
$GNVTG,,T,,M,1.418,N,2.625,K,A*32
$GNGGA,071922.00,0419.81064,S,05539.90176,E,1,12,0.86,25.9,M,-47.6,M,,*4F
$GNGSA,A,3,25,23,12,15,18,24,29,05,13,,,,1.44,0.86,1.16*17
$GNGSA,A,3,73,69,80,,,,,,,,,,1.44,0.86,1.16*16
$GPGSV,5,1,17,05,17,028,28,10,26,219,17,12,58,143,24,13,10,083,25*70
$GPGSV,5,2,17,15,44,104,25,18,25,318,16,23,67,242,18,24,22,157,22*75
$GPGSV,5,3,17,25,83,286,16,28,10,269,,29,24,006,19,32,00,220,*7A
$GPGSV,5,4,17,36,52,277,,40,86,352,,41,58,082,,49,32,274,*7F
$GPGSV,5,5,17,50,10,089,*4A
$GLGSV,3,1,09,69,36,070,25,70,44,165,17,71,08,198,,73,59,223,21*61
$GLGSV,3,2,09,74,41,300,,80,20,165,16,84,06,357,,85,03,311,*61
$GLGSV,3,3,09,,,,20*6E
$GNGLL,0419.81064,S,05539.90176,E,071922.00,A,A*61
$GNRMC,071923.00,A,0419.81070,S,05539.90187,E,0.088,,280525,,,A*7A
$GNVTG,,T,,M,0.088,N,0.164,K,A*3E
$GNGGA,071923.00,0419.81070,S,05539.90187,E,1,12,0.86,26.0,M,-47.6,M,,*4F
$GNGSA,A,3,25,23,12,15,18,24,29,05,13,,,,1.44,0.86,1.16*17
$GNGSA,A,3,73,69,80,,,,,,,,,,1.44,0.86,1.16*16
$GPGSV,5,1,17,05,17,028,30,10,26,219,17,12,58,143,23,13,10,083,25*7E
$GPGSV,5,2,17,15,44,104,31,18,25,318,17,23,67,242,20,24,22,157,21*79
$GPGSV,5,3,17,25,83,286,15,28,10,269,,29,24,006,21,32,00,220,*72
$GPGSV,5,4,17,36,52,277,,40,86,352,,41,58,082,,49,32,274,*7F
$GPGSV,5,5,17,50,10,089,*4A
$GLGSV,3,1,09,69,36,070,31,70,44,165,16,71,08,198,,73,59,223,21*65
$GLGSV,3,2,09,74,41,300,,80,20,165,13,84,06,357,,85,03,311,*64
$GLGSV,3,3,09,,,,21*6F
$GNGLL,0419.81070,S,05539.90187,E,071923.00,A,A*6B
$GNRMC,071924.00,A,0419.81069,S,05539.90202,E,0.003,,280525,,,A*78
$GNVTG,,T,,M,0.003,N,0.005,K,A*3B
$GNGGA,071924.00,0419.81069,S,05539.90202,E,1,11,0.93,26.3,M,-47.6,M,,*4A
$GNGSA,A,3,25,23,12,15,18,24,29,05,13,,,,1.56,0.93,1.26*13
$GNGSA,A,3,73,69,,,,,,,,,,,1.56,0.93,1.26*1A
$GPGSV,5,1,17,05,17,028,31,10,26,219,18,12,58,143,26,13,10,083,31*70
$GPGSV,5,2,17,15,44,104,33,18,25,318,18,23,67,242,22,24,22,157,22*75
$GPGSV,5,3,17,25,83,286,20,28,10,269,,29,24,006,23,32,00,220,*76
$GPGSV,5,4,17,36,52,277,,40,86,352,,41,58,082,,49,32,274,*7F
$GPGSV,5,5,17,50,10,089,*4A
$GLGSV,3,1,09,69,36,070,32,70,44,165,18,71,08,198,,73,59,223,25*6C
$GLGSV,3,2,09,74,41,300,,80,20,165,,84,06,357,,85,03,311,*66
$GLGSV,3,3,09,,,,22*6C
$GNGLL,0419.81069,S,05539.90202,E,071924.00,A,A*6A
$GNRMC,071925.00,A,0419.81069,S,05539.90213,E,0.132,,280525,,,A*7A
$GNVTG,,T,,M,0.132,N,0.244,K,A*3F
$GNGGA,071925.00,0419.81069,S,05539.90213,E,1,11,0.93,26.3,M,-47.6,M,,*4B
$GNGSA,A,3,25,23,12,15,18,24,29,05,13,,,,1.56,0.93,1.26*13
$GNGSA,A,3,73,69,,,,,,,,,,,1.56,0.93,1.26*1A
$GPGSV,5,1,17,05,17,028,32,10,26,219,22,12,58,143,32,13,10,083,31*7F
$GPGSV,5,2,17,15,44,104,29,18,25,318,19,23,67,242,24,24,22,157,25*7E
$GPGSV,5,3,17,25,83,286,23,28,10,269,,29,24,006,25,32,00,220,*73
$GPGSV,5,4,17,36,52,277,,40,86,352,,41,58,082,,49,32,274,*7F
$GPGSV,5,5,17,50,10,089,*4A
$GLGSV,3,1,09,69,36,070,33,70,44,165,20,71,08,198,,73,59,223,26*65
$GLGSV,3,2,09,74,41,300,,80,20,165,,84,06,357,,85,03,311,*66
$GLGSV,3,3,09,,,,21*6F
$GNGLL,0419.81069,S,05539.90213,E,071925.00,A,A*6B
$GNRMC,071926.00,A,0419.81067,S,05539.90228,E,0.088,,280525,,,A*7F
$GNVTG,,T,,M,0.088,N,0.163,K,A*39
$GNGGA,071926.00,0419.81067,S,05539.90228,E,1,11,0.93,26.5,M,-47.6,M,,*48
$GNGSA,A,3,25,23,12,15,18,24,29,05,13,,,,1.56,0.93,1.26*13
$GNGSA,A,3,73,69,,,,,,,,,,,1.56,0.93,1.26*1A
$GPGSV,5,1,17,05,17,028,31,10,26,219,25,12,58,143,31,13,10,083,30*79
$GPGSV,5,2,17,15,44,104,30,18,25,318,21,23,67,242,25,24,22,157,23*7A
$GPGSV,5,3,17,25,83,286,21,28,10,269,,29,24,006,25,32,00,220,*71
$GPGSV,5,4,17,36,52,277,31,40,86,352,,41,58,082,,49,32,274,*7D
$GPGSV,5,5,17,50,10,089,*4A
$GLGSV,3,1,09,69,36,070,32,70,44,165,19,71,08,198,,73,59,223,26*6E
$GLGSV,3,2,09,74,41,300,,80,20,165,19,84,06,357,,85,03,311,*6E
$GLGSV,3,3,09,,,,22*6C
$GNGLL,0419.81067,S,05539.90228,E,071926.00,A,A*6E
$GNRMC,071927.00,A,0419.81066,S,05539.90240,E,0.018,,280525,,,A*78
$GNVTG,,T,,M,0.018,N,0.033,K,A*34
$GNGGA,071927.00,0419.81066,S,05539.90240,E,1,11,0.93,26.5,M,-47.6,M,,*46
$GNGSA,A,3,25,23,12,15,18,24,29,05,13,,,,1.56,0.93,1.26*13
$GNGSA,A,3,73,69,,,,,,,,,,,1.56,0.93,1.26*1A
$GPGSV,5,1,17,05,17,028,31,10,26,219,24,12,58,143,29,13,10,083,29*79
$GPGSV,5,2,17,15,44,104,30,18,25,318,20,23,67,242,26,24,22,157,22*79
$GPGSV,5,3,17,25,83,286,21,28,10,269,,29,24,006,25,32,00,220,*71
$GPGSV,5,4,17,36,52,277,29,40,86,352,,41,58,082,,49,32,274,*74
$GPGSV,5,5,17,50,10,089,*4A
$GLGSV,3,1,09,69,36,070,33,70,44,165,18,71,08,198,,73,59,223,31*68
$GLGSV,3,2,09,74,41,300,,80,20,165,19,84,06,357,,85,03,311,*6E
$GLGSV,3,3,09,,,,22*6C
$GNGLL,0419.81066,S,05539.90240,E,071927.00,A,A*60
$GNRMC,071928.00,A,0419.81062,S,05539.90255,E,0.010,,280525,,,A*7F
$GNVTG,,T,,M,0.010,N,0.018,K,A*35
$GNGGA,071928.00,0419.81062,S,05539.90255,E,1,11,0.93,26.7,M,-47.6,M,,*4B
$GNGSA,A,3,25,23,12,15,18,24,29,05,13,,,,1.56,0.93,1.26*13
$GNGSA,A,3,73,69,,,,,,,,,,,1.56,0.93,1.26*1A
$GPGSV,5,1,17,05,17,028,31,10,26,219,22,12,58,143,29,13,10,083,29*7F
$GPGSV,5,2,17,15,44,104,29,18,25,318,18,23,67,242,25,24,22,157,22*79
$GPGSV,5,3,17,25,83,286,20,28,10,269,,29,24,006,27,32,00,220,*72
$GPGSV,5,4,17,36,52,277,29,40,86,352,,41,58,082,,49,32,274,*74
$GPGSV,5,5,17,50,10,089,*4A
$GLGSV,3,1,09,69,36,070,32,70,44,165,19,71,08,198,,73,59,223,25*6D
$GLGSV,3,2,09,74,41,300,,80,20,165,17,84,06,357,,85,03,311,*60
$GLGSV,3,3,09,,,,22*6C
$GNGLL,0419.81062,S,05539.90255,E,071928.00,A,A*6F
$GNRMC,071929.00,A,0419.81057,S,05539.90262,E,0.156,,280525,,,A*7F
$GNVTG,,T,,M,0.156,N,0.290,K,A*34
$GNGGA,071929.00,0419.81057,S,05539.90262,E,1,11,0.93,26.9,M,-47.6,M,,*46
$GNGSA,A,3,25,23,12,15,18,24,29,05,13,,,,1.56,0.93,1.26*13
$GNGSA,A,3,73,69,,,,,,,,,,,1.56,0.93,1.26*1A
$GPGSV,5,1,17,05,17,028,31,10,26,219,21,12,58,143,29,13,10,083,29*7C
$GPGSV,5,2,17,15,44,104,30,18,25,318,18,23,67,242,21,24,22,157,23*74
$GPGSV,5,3,17,25,83,286,20,28,10,269,,29,24,006,28,32,00,220,*7D
$GPGSV,5,4,17,36,52,277,30,40,86,352,,41,58,082,,49,32,274,*7C
$GPGSV,5,5,17,50,10,089,*4A
$GLGSV,3,1,09,69,36,070,32,70,44,165,20,71,08,198,,73,59,223,26*64
$GLGSV,3,2,09,74,41,300,,80,20,165,17,84,06,357,,85,03,311,*60
$GLGSV,3,3,09,,,,20*6E
$GNGLL,0419.81057,S,05539.90262,E,071929.00,A,A*6C
$GNRMC,071930.00,A,0419.81054,S,05539.90274,E,0.045,,280525,,,A*70
$GNVTG,,T,,M,0.045,N,0.084,K,A*30
$GNGGA,071930.00,0419.81054,S,05539.90274,E,1,12,0.86,27.0,M,-47.6,M,,*45
$GNGSA,A,3,25,23,12,15,18,24,29,05,13,,,,1.44,0.86,1.16*17
$GNGSA,A,3,73,69,80,,,,,,,,,,1.44,0.86,1.16*16
$GPGSV,5,1,17,05,17,028,31,10,26,219,19,12,58,143,28,13,10,083,30*7E
$GPGSV,5,2,17,15,44,104,30,18,25,318,19,23,67,242,22,24,22,157,23*76
$GPGSV,5,3,17,25,83,286,19,28,10,269,,29,24,006,28,32,00,220,*77
$GPGSV,5,4,17,36,52,277,29,40,86,352,,41,58,082,,49,32,274,*74
$GPGSV,5,5,17,50,10,089,*4A
$GLGSV,3,1,09,69,36,070,33,70,44,165,20,71,08,198,,73,59,223,26*65
$GLGSV,3,2,09,74,41,300,,80,20,165,17,84,06,357,,85,03,311,*60
$GLGSV,3,3,09,,,,19*64
$GNGLL,0419.81054,S,05539.90274,E,071930.00,A,A*60
$GNRMC,071931.00,A,0419.81058,S,05539.90279,E,0.087,,280525,,,A*7E
$GNVTG,,T,,M,0.087,N,0.161,K,A*34
$GNGGA,071931.00,0419.81058,S,05539.90279,E,1,12,0.93,26.9,M,-47.6,M,,*49
$GNGSA,A,3,25,23,12,15,18,24,29,05,13,,,,1.56,0.93,1.26*13
$GNGSA,A,3,73,69,80,,,,,,,,,,1.56,0.93,1.26*12
$GPGSV,5,1,17,05,17,028,31,10,26,219,21,12,58,143,28,13,10,083,30*75
$GPGSV,5,2,17,15,44,104,32,18,25,318,18,23,67,242,24,24,22,157,23*73
$GPGSV,5,3,17,25,83,286,18,28,10,269,,29,24,006,28,32,00,220,*76
$GPGSV,5,4,17,36,52,277,30,40,86,352,,41,58,082,,49,32,274,*7C
$GPGSV,5,5,17,50,10,089,*4A
$GLGSV,3,1,09,69,36,070,32,70,45,165,20,71,08,198,,73,59,223,24*67
$GLGSV,3,2,09,74,41,300,,80,20,165,16,84,06,357,,85,03,311,*61
$GLGSV,3,3,09,,,,20*6E
$GNGLL,0419.81058,S,05539.90279,E,071931.00,A,A*60
$GNRMC,071932.00,A,0419.81057,S,05539.90290,E,0.085,,280525,,,A*77
$GNVTG,,T,,M,0.085,N,0.158,K,A*3C
$GNGGA,071932.00,0419.81057,S,05539.90290,E,1,11,0.93,26.9,M,-47.6,M,,*41
$GNGSA,A,3,25,23,12,15,18,24,29,05,13,,,,1.56,0.93,1.26*13
$GNGSA,A,3,73,69,,,,,,,,,,,1.56,0.93,1.26*1A
$GPGSV,5,1,17,05,17,028,32,10,26,219,24,12,58,143,27,13,10,083,30*7C
$GPGSV,5,2,17,15,44,104,33,18,25,318,18,23,67,242,24,24,22,157,21*70
$GPGSV,5,3,17,25,83,286,19,28,10,269,,29,24,006,28,32,00,220,*77
$GPGSV,5,4,17,36,52,277,29,40,86,352,,41,58,082,,49,32,274,*74
$GPGSV,5,5,17,50,10,089,*4A
$GLGSV,3,1,09,69,36,070,32,70,45,165,19,71,09,198,,73,59,223,25*6D
$GLGSV,3,2,09,74,41,300,,80,20,165,,84,06,357,,85,03,311,*66
$GLGSV,3,3,09,,,,19*64
$GNGLL,0419.81057,S,05539.90290,E,071932.00,A,A*6B
$GNRMC,071933.00,A,0419.81061,S,05539.90294,E,0.110,,280525,,,A*7A
$GNVTG,,T,,M,0.110,N,0.204,K,A*3B
$GNGGA,071933.00,0419.81061,S,05539.90294,E,1,11,0.93,26.9,M,-47.6,M,,*41
$GNGSA,A,3,25,23,12,15,18,24,29,05,13,,,,1.56,0.93,1.26*13
$GNGSA,A,3,73,69,,,,,,,,,,,1.56,0.93,1.26*1A
$GPGSV,5,1,17,05,17,028,31,10,26,219,22,12,58,143,27,13,10,083,30*79
$GPGSV,5,2,17,15,44,104,32,18,25,318,18,23,67,242,25,24,22,157,22*73
$GPGSV,5,3,17,25,83,286,22,28,10,269,,29,24,006,29,32,00,220,*7E
$GPGSV,5,4,17,36,52,277,31,40,86,352,,41,58,082,,49,32,274,*7D
$GPGSV,5,5,17,50,10,089,*4A
$GLGSV,3,1,09,69,36,070,35,70,45,165,20,71,09,198,,73,59,223,25*60
$GLGSV,3,2,09,74,41,300,,80,20,165,21,84,06,357,,85,03,311,*65
$GLGSV,3,3,09,,,,18*65
$GNGLL,0419.81061,S,05539.90294,E,071933.00,A,A*6B
$GNRMC,071934.00,A,0419.81062,S,05539.90302,E,0.130,,280525,,,A*72
$GNVTG,,T,,M,0.130,N,0.241,K,A*38
$GNGGA,071934.00,0419.81062,S,05539.90302,E,1,11,0.93,27.1,M,-47.6,M,,*42
$GNGSA,A,3,25,23,12,15,18,24,29,05,13,,,,1.56,0.93,1.26*13
$GNGSA,A,3,73,69,,,,,,,,,,,1.56,0.93,1.26*1A
$GPGSV,5,1,17,05,17,028,35,10,26,219,22,12,58,143,28,13,10,083,31*73
$GPGSV,5,2,17,15,44,104,27,18,25,318,18,23,67,242,24,24,22,157,23*77
$GPGSV,5,3,17,25,83,286,25,28,10,269,,29,24,006,30,32,00,220,*71
$GPGSV,5,4,17,36,52,277,31,40,86,352,,41,58,082,,49,32,274,*7D
$GPGSV,5,5,17,50,10,089,*4A
$GLGSV,3,1,09,69,36,070,34,70,45,165,21,71,09,198,,73,59,221,24*63
$GLGSV,3,2,09,74,41,300,,80,20,165,18,84,06,357,,85,03,311,*6F
$GLGSV,3,3,09,,,,17*6A
$GNGLL,0419.81062,S,05539.90302,E,071934.00,A,A*61
$GNRMC,071935.00,A,0419.81055,S,05539.90319,E,0.107,,280525,,,A*79
$GNVTG,,T,,M,0.107,N,0.197,K,A*34
$GNGGA,071935.00,0419.81055,S,05539.90319,E,1,11,0.93,27.6,M,-47.6,M,,*4A
$GNGSA,A,3,25,23,12,15,18,24,29,05,13,,,,1.56,0.93,1.26*13
$GNGSA,A,3,73,69,,,,,,,,,,,1.56,0.93,1.26*1A
$GPGSV,5,1,17,05,17,028,31,10,26,219,21,12,58,143,29,13,10,083,30*74
$GPGSV,5,2,17,15,44,104,29,18,25,318,17,23,67,242,21,24,22,157,23*73
$GPGSV,5,3,17,25,83,286,23,28,10,269,,29,24,006,28,32,00,220,*7E
$GPGSV,5,4,17,36,52,277,31,40,86,352,,41,58,082,,49,32,274,*7D
$GPGSV,5,5,17,50,10,089,*4A
$GLGSV,3,1,09,69,36,070,34,70,45,165,20,71,09,198,,73,59,221,24*62
$GLGSV,3,2,09,74,41,299,,80,20,165,16,84,06,357,,85,03,311,*60
$GLGSV,3,3,09,,,,22*6C
$GNGLL,0419.81055,S,05539.90319,E,071935.00,A,A*6E
$GNRMC,071936.00,A,0419.81053,S,05539.90326,E,0.212,,280525,,,A*77
$GNVTG,,T,,M,0.212,N,0.392,K,A*34
$GNGGA,071936.00,0419.81053,S,05539.90326,E,1,11,0.93,27.4,M,-47.6,M,,*41
$GNGSA,A,3,25,23,12,15,18,24,29,05,13,,,,1.56,0.93,1.26*13
$GNGSA,A,3,73,69,,,,,,,,,,,1.56,0.93,1.26*1A
$GPGSV,5,1,17,05,17,028,32,10,26,219,21,12,58,143,32,13,10,083,29*75
$GPGSV,5,2,17,15,44,104,34,18,25,318,20,23,67,242,18,24,22,157,24*76
$GPGSV,5,3,17,25,83,286,24,28,10,269,,29,24,006,28,32,00,220,*79
$GPGSV,5,4,17,36,52,277,29,40,86,352,,41,58,082,,49,32,274,*74
$GPGSV,5,5,17,50,10,089,*4A
$GLGSV,3,1,09,69,36,070,36,70,45,165,19,71,09,198,,73,59,221,25*6B
$GLGSV,3,2,09,74,41,299,,80,20,165,14,84,06,357,,85,03,311,*62
$GLGSV,3,3,09,,,,25*6B
$GNGLL,0419.81053,S,05539.90326,E,071936.00,A,A*67
$GNRMC,071937.00,A,0419.81064,S,05539.90321,E,0.052,,280525,,,A*73
$GNVTG,,T,,M,0.052,N,0.096,K,A*35
$GNGGA,071937.00,0419.81064,S,05539.90321,E,1,12,0.93,26.8,M,-47.6,M,,*4D
$GNGSA,A,3,25,23,12,15,18,24,29,05,13,,,,1.56,0.93,1.26*13
$GNGSA,A,3,73,69,80,,,,,,,,,,1.56,0.93,1.26*12
$GPGSV,5,1,17,05,17,028,33,10,26,219,20,12,58,143,31,13,10,083,31*7F
$GPGSV,5,2,17,15,44,104,28,18,25,318,20,23,67,242,18,24,22,157,24*7B
$GPGSV,5,3,17,25,83,286,24,28,10,269,,29,24,006,28,32,00,220,*79
$GPGSV,5,4,17,36,52,277,29,40,86,352,,41,58,082,,49,32,274,*74
$GPGSV,5,5,17,50,10,089,*4A
$GLGSV,3,1,09,69,36,070,34,70,45,165,19,71,09,198,,73,59,221,25*69
$GLGSV,3,2,09,74,41,299,,80,20,165,14,84,06,357,,85,03,311,*62
$GLGSV,3,3,09,,,,23*6D
$GNGLL,0419.81064,S,05539.90321,E,071937.00,A,A*65
$GNRMC,071938.00,A,0419.81066,S,05539.90323,E,0.223,,280525,,,A*78
$GNVTG,,T,,M,0.223,N,0.413,K,A*38
$GNGGA,071938.00,0419.81066,S,05539.90323,E,1,12,0.93,26.7,M,-47.6,M,,*4D
$GNGSA,A,3,25,23,12,15,18,24,29,05,13,,,,1.56,0.93,1.26*13
$GNGSA,A,3,73,69,80,,,,,,,,,,1.56,0.93,1.26*12
$GPGSV,5,1,17,05,17,028,33,10,26,219,20,12,58,143,25,13,10,083,30*7B
$GPGSV,5,2,17,15,44,104,27,18,25,318,19,23,67,242,18,24,22,157,22*78
$GPGSV,5,3,17,25,83,286,26,28,10,269,,29,24,006,28,32,00,220,*7B
$GPGSV,5,4,17,36,52,277,29,40,86,352,,41,58,082,,49,32,274,*74
$GPGSV,5,5,17,50,10,089,*4A
$GLGSV,3,1,09,69,36,070,33,70,45,165,19,71,09,198,,73,59,221,25*6E
$GLGSV,3,2,09,74,41,299,,80,20,165,11,84,06,357,,85,03,311,*67
$GLGSV,3,3,09,,,,21*6F
$GNGLL,0419.81066,S,05539.90323,E,071938.00,A,A*6A
$GNRMC,071939.00,A,0419.81081,S,05539.90299,E,0.860,,280525,,,A*7D
$GNVTG,,T,,M,0.860,N,1.593,K,A*3D
$GNGGA,071939.00,0419.81081,S,05539.90299,E,1,12,0.93,26.5,M,-47.6,M,,*47
$GNGSA,A,3,25,23,12,15,18,24,29,05,13,,,,1.56,0.93,1.26*13
$GNGSA,A,3,73,69,80,,,,,,,,,,1.56,0.93,1.26*12
$GPGSV,5,1,17,05,17,028,27,10,26,219,18,12,58,143,26,13,10,083,29*7E
$GPGSV,5,2,17,15,44,104,28,18,25,318,17,23,67,242,18,24,22,157,21*7A
$GPGSV,5,3,17,25,83,286,24,28,10,269,,29,24,006,28,32,00,220,*79
$GPGSV,5,4,17,36,52,277,28,40,86,352,,41,58,082,,49,32,274,*75
$GPGSV,5,5,17,50,10,089,*4A
$GLGSV,3,1,09,69,36,070,31,70,45,165,17,71,09,198,,73,59,221,21*66
$GLGSV,3,2,09,74,41,299,,80,20,165,11,84,06,357,,85,03,311,*67
$GLGSV,3,3,09,,,,18*65
$GNGLL,0419.81081,S,05539.90299,E,071939.00,A,A*62
$GNRMC,071940.00,A,0419.81079,S,05539.90302,E,0.427,,280525,,,A*78
$GNVTG,,T,,M,0.427,N,0.790,K,A*32
$GNGGA,071940.00,0419.81079,S,05539.90302,E,1,12,0.93,26.6,M,-47.6,M,,*4E
$GNGSA,A,3,25,23,12,15,18,24,29,05,13,,,,1.56,0.93,1.26*13
$GNGSA,A,3,73,69,80,,,,,,,,,,1.56,0.93,1.26*12
$GPGSV,5,1,17,05,17,028,28,10,26,219,17,12,58,143,26,13,10,083,29*7E
$GPGSV,5,2,17,15,44,104,29,18,25,318,16,23,67,242,19,24,22,157,21*7B
$GPGSV,5,3,17,25,83,286,22,28,10,269,,29,24,006,26,32,00,220,*71
$GPGSV,5,4,17,36,52,277,27,40,86,352,,41,58,082,,49,32,274,*7A
$GPGSV,5,5,17,50,10,089,*4A
$GLGSV,3,1,09,69,36,070,34,70,45,165,18,71,09,198,,73,59,221,20*6D
$GLGSV,3,2,09,74,41,299,,80,20,165,13,84,06,357,,85,03,311,*65
$GLGSV,3,3,09,,,,20*6E
$GNGLL,0419.81079,S,05539.90302,E,071940.00,A,A*68
$GNRMC,071941.00,A,0419.81087,S,05539.90296,E,0.485,,280525,,,A*7C
$GNVTG,,T,,M,0.485,N,0.897,K,A*32
$GNGGA,071941.00,0419.81087,S,05539.90296,E,1,12,0.93,26.6,M,-47.6,M,,*42
$GNGSA,A,3,25,23,12,15,18,24,29,05,13,,,,1.56,0.93,1.26*13
$GNGSA,A,3,73,69,80,,,,,,,,,,1.56,0.93,1.26*12
$GPGSV,5,1,17,05,17,028,28,10,26,219,15,12,58,143,24,13,10,083,28*7F
$GPGSV,5,2,17,15,44,104,27,18,25,318,14,23,67,242,18,24,22,157,20*77
$GPGSV,5,3,17,25,83,286,19,28,10,269,,29,24,006,26,32,00,220,*79
$GPGSV,5,4,17,36,52,277,27,40,86,352,,41,58,082,,49,32,274,*7A
$GPGSV,5,5,17,50,10,089,*4A
$GLGSV,3,1,09,69,36,070,31,70,45,165,17,71,09,198,,73,59,221,19*6D
$GLGSV,3,2,09,74,41,299,,80,19,165,13,84,06,357,,85,03,311,*6F
$GLGSV,3,3,09,,,,19*64
$GNGLL,0419.81087,S,05539.90296,E,071941.00,A,A*64
$GNRMC,071942.00,A,0419.81081,S,05539.90291,E,0.460,,280525,,,A*75
$GNVTG,,T,,M,0.460,N,0.853,K,A*31
$GNGGA,071942.00,0419.81081,S,05539.90291,E,1,12,0.93,26.6,M,-47.6,M,,*40
$GNGSA,A,3,25,23,12,15,18,24,29,05,13,,,,1.56,0.93,1.26*13
$GNGSA,A,3,73,69,80,,,,,,,,,,1.56,0.93,1.26*12
$GPGSV,5,1,17,05,17,028,28,10,26,219,14,12,58,143,23,13,10,083,27*76
$GPGSV,5,2,17,15,44,104,27,18,25,318,10,23,67,242,17,24,22,157,20*7C
$GPGSV,5,3,17,25,83,286,18,28,10,269,,29,24,006,26,32,00,220,*78
$GPGSV,5,4,17,36,52,277,27,40,86,352,,41,58,082,,49,32,274,*7A
$GPGSV,5,5,17,50,10,089,*4A
$GLGSV,3,1,09,69,36,070,30,70,45,165,17,71,09,198,,73,59,221,19*6C
$GLGSV,3,2,09,74,41,299,,80,19,165,13,84,06,357,,85,03,311,*6F
$GLGSV,3,3,09,,,,19*64
$GNGLL,0419.81081,S,05539.90291,E,071942.00,A,A*66
$GNRMC,071943.00,A,0419.81071,S,05539.90298,E,0.112,,280525,,,A*72
$GNVTG,,T,,M,0.112,N,0.207,K,A*3A
$GNGGA,071943.00,0419.81071,S,05539.90298,E,1,11,1.15,26.6,M,-47.6,M,,*4B
$GNGSA,A,3,25,23,12,15,24,29,05,13,,,,,1.88,1.15,1.48*1E
$GNGSA,A,3,73,69,80,,,,,,,,,,1.88,1.15,1.48*16
$GPGSV,5,1,17,05,17,028,28,10,26,219,15,12,58,143,25,13,10,083,27*71
$GPGSV,5,2,17,15,44,104,28,18,25,318,09,23,67,242,15,24,22,157,19*73
$GPGSV,5,3,17,25,83,286,20,28,10,269,,29,24,006,25,32,00,220,*70
$GPGSV,5,4,17,36,52,277,27,40,86,352,,41,58,082,,49,32,274,*7A
$GPGSV,5,5,17,50,10,089,*4A
$GLGSV,3,1,09,69,36,070,34,70,45,165,15,71,09,198,,73,59,221,20*60
$GLGSV,3,2,09,74,41,299,,80,19,165,13,84,06,357,,85,03,311,*6F
$GLGSV,3,3,09,,,,18*65
$GNGLL,0419.81071,S,05539.90298,E,071943.00,A,A*61
$GNRMC,071944.00,A,0419.81062,S,05539.90305,E,0.134,,280525,,,A*76
$GNVTG,,T,,M,0.134,N,0.249,K,A*34
$GNGGA,071944.00,0419.81062,S,05539.90305,E,1,12,0.93,27.1,M,-47.6,M,,*41
$GNGSA,A,3,25,23,12,15,18,24,29,05,13,,,,1.56,0.93,1.26*13
$GNGSA,A,3,73,69,80,,,,,,,,,,1.56,0.93,1.26*12
$GPGSV,5,1,17,05,17,028,30,10,26,219,18,12,58,143,25,13,10,083,28*7A
$GPGSV,5,2,17,15,44,104,28,18,25,318,10,23,67,242,17,24,22,157,21*72
$GPGSV,5,3,17,25,83,286,23,28,10,269,,29,24,006,31,32,00,220,*76
$GPGSV,5,4,17,36,52,277,27,40,86,352,,41,58,082,,49,32,274,*7A
$GPGSV,5,5,17,50,10,089,*4A
$GLGSV,3,1,09,69,36,070,31,70,45,165,12,71,09,198,,73,59,221,19*68
$GLGSV,3,2,09,74,41,299,,80,19,165,13,84,06,357,,85,03,311,*6F
$GLGSV,3,3,09,,,,16*6B
$GNGLL,0419.81062,S,05539.90305,E,071944.00,A,A*61
$GNRMC,071945.00,A,0419.81065,S,05539.90295,E,0.118,,280525,,,A*76
$GNVTG,,T,,M,0.118,N,0.218,K,A*3E
$GNGGA,071945.00,0419.81065,S,05539.90295,E,1,11,1.15,27.0,M,-47.6,M,,*42
$GNGSA,A,3,25,23,12,15,24,29,05,13,,,,,1.88,1.15,1.48*1E
$GNGSA,A,3,73,69,80,,,,,,,,,,1.88,1.15,1.48*16
$GPGSV,5,1,17,05,17,028,30,10,26,219,19,12,58,143,25,13,10,083,28*7B
$GPGSV,5,2,17,15,44,104,28,18,25,318,,23,67,242,16,24,22,157,19*79
$GPGSV,5,3,17,25,83,286,23,28,10,269,,29,24,006,24,32,00,220,*72
$GPGSV,5,4,17,36,52,277,27,40,86,352,,41,58,082,,49,32,274,*7A
$GPGSV,5,5,17,50,10,089,*4A
$GLGSV,3,1,09,69,36,070,29,70,45,165,13,71,09,198,,73,59,221,20*6A
$GLGSV,3,2,09,74,41,299,,80,19,165,12,84,06,357,,85,03,311,*6E
$GLGSV,3,3,09,,,,15*68
$GNGLL,0419.81065,S,05539.90295,E,071945.00,A,A*6F
$GNRMC,071946.00,A,0419.81061,S,05539.90306,E,0.165,,280525,,,A*70
$GNVTG,,T,,M,0.165,N,0.306,K,A*3A
$GNGGA,071946.00,0419.81061,S,05539.90306,E,1,11,1.15,27.2,M,-47.6,M,,*4C
$GNGSA,A,3,25,23,12,15,24,29,05,13,,,,,1.88,1.15,1.48*1E
$GNGSA,A,3,73,69,80,,,,,,,,,,1.88,1.15,1.48*16
$GPGSV,5,1,17,05,17,028,29,10,26,219,19,12,58,143,26,13,10,083,29*71
$GPGSV,5,2,17,15,44,104,29,18,25,318,,23,67,242,18,24,22,157,19*76
$GPGSV,5,3,17,25,83,286,21,28,10,269,,29,24,006,25,32,00,220,*71
$GPGSV,5,4,17,36,52,277,,40,86,352,,41,58,082,,49,32,274,*7F
$GPGSV,5,5,17,50,10,089,*4A
$GLGSV,3,1,09,69,36,070,29,70,45,165,11,71,09,198,,73,59,221,19*62
$GLGSV,3,2,09,74,41,299,,80,19,165,11,84,06,357,,85,03,311,*6D
$GLGSV,3,3,09,,,,15*68
$GNGLL,0419.81061,S,05539.90306,E,071946.00,A,A*63
$GNRMC,071947.00,A,0419.81071,S,05539.90297,E,0.257,,280525,,,A*7B
$GNVTG,,T,,M,0.257,N,0.475,K,A*3B
$GNGGA,071947.00,0419.81071,S,05539.90297,E,1,11,1.15,26.9,M,-47.6,M,,*4F
$GNGSA,A,3,25,23,12,15,24,29,05,13,,,,,1.88,1.15,1.48*1E
$GNGSA,A,3,73,69,80,,,,,,,,,,1.88,1.15,1.48*16
$GPGSV,5,1,17,05,17,028,28,10,26,219,17,12,58,143,27,13,10,083,29*7F
$GPGSV,5,2,17,15,44,104,29,18,25,318,,23,67,242,17,24,22,157,18*78
$GPGSV,5,3,17,25,83,286,21,28,10,269,,29,24,006,25,32,00,220,*71
$GPGSV,5,4,17,36,52,277,,40,86,352,,41,58,082,,49,32,274,*7F
$GPGSV,5,5,17,50,10,089,*4A
$GLGSV,3,1,09,69,36,070,29,70,45,165,,71,09,198,,73,59,221,20*68
$GLGSV,3,2,09,74,41,299,,80,19,165,13,84,06,357,,85,03,311,*6F
$GLGSV,3,3,09,,,,16*6B
$GNGLL,0419.81071,S,05539.90297,E,071947.00,A,A*6A
$GNRMC,071948.00,A,0419.81068,S,05539.90302,E,0.355,,280525,,,A*72
$GNVTG,,T,,M,0.355,N,0.658,K,A*35
$GNGGA,071948.00,0419.81068,S,05539.90302,E,1,11,1.15,27.0,M,-47.6,M,,*4D
$GNGSA,A,3,25,23,12,15,24,29,05,13,,,,,1.88,1.15,1.48*1E
$GNGSA,A,3,73,69,80,,,,,,,,,,1.88,1.15,1.48*16
$GPGSV,5,1,17,05,17,028,27,10,26,219,16,12,58,143,26,13,10,083,27*7E
$GPGSV,5,2,17,15,44,104,28,18,25,318,,23,67,242,17,24,22,157,16*77
$GPGSV,5,3,17,25,83,286,21,28,10,269,,29,24,006,25,32,00,220,*71
$GPGSV,5,4,17,36,52,277,,40,86,352,,41,58,082,,49,32,274,*7F
$GPGSV,5,5,17,50,10,089,*4A
$GLGSV,3,1,09,69,36,070,29,70,45,165,,71,09,198,,73,59,221,20*68
$GLGSV,3,2,09,74,41,299,,80,19,165,13,84,06,357,,85,03,311,*6F
$GLGSV,3,3,09,,,,14*69
$GNGLL,0419.81068,S,05539.90302,E,071948.00,A,A*60
$GNRMC,071949.00,A,0419.81068,S,05539.90297,E,0.272,,280525,,,A*7A
$GNVTG,,T,,M,0.272,N,0.504,K,A*3B
$GNGGA,071949.00,0419.81068,S,05539.90297,E,1,11,1.15,26.7,M,-47.6,M,,*47
$GNGSA,A,3,25,23,12,15,24,29,05,13,,,,,1.88,1.15,1.48*1E
$GNGSA,A,3,73,69,80,,,,,,,,,,1.88,1.15,1.48*16
$GPGSV,5,1,17,05,17,028,33,10,26,219,14,12,58,143,32,13,10,083,31*7B
$GPGSV,5,2,17,15,44,104,32,18,25,318,,23,67,242,17,24,22,157,19*73
$GPGSV,5,3,17,25,83,286,19,28,10,269,,29,24,006,30,32,00,220,*7E
$GPGSV,5,4,17,36,52,277,,40,86,352,,41,58,082,,49,32,274,*7F
$GPGSV,5,5,17,50,10,089,*4A
$GLGSV,3,1,09,69,36,070,33,70,45,165,,71,09,198,,73,59,221,20*63
$GLGSV,3,2,09,74,41,299,,80,19,165,15,84,06,357,,85,03,311,*69
$GLGSV,3,3,09,,,,15*68
$GNGLL,0419.81068,S,05539.90297,E,071949.00,A,A*6C
$GNRMC,071950.00,A,0419.81063,S,05539.90301,E,0.277,,280525,,,A*72
$GNVTG,,T,,M,0.277,N,0.512,K,A*39
$GNGGA,071950.00,0419.81063,S,05539.90301,E,1,11,1.15,26.7,M,-47.6,M,,*4A
$GNGSA,A,3,25,23,12,15,24,29,05,13,,,,,1.88,1.15,1.48*1E
$GNGSA,A,3,73,69,80,,,,,,,,,,1.88,1.15,1.48*16
$GPGSV,5,1,17,05,17,028,32,10,26,219,15,12,58,143,30,13,10,083,32*7A
$GPGSV,5,2,17,15,44,104,29,18,25,318,16,23,67,242,15,24,22,157,20*76
$GPGSV,5,3,17,25,83,286,23,28,10,269,,29,24,006,25,32,00,220,*73
$GPGSV,5,4,17,36,52,277,,40,86,352,,41,58,082,,49,32,274,*7F
$GPGSV,5,5,17,50,10,089,*4A
$GLGSV,3,1,09,69,36,070,33,70,45,165,,71,09,198,,73,59,221,22*61
$GLGSV,3,2,09,74,41,299,,80,19,165,17,84,06,357,,85,03,311,*6B
$GLGSV,3,3,09,,,,21*6F
$GNGLL,0419.81063,S,05539.90301,E,071950.00,A,A*61
$GNRMC,071951.00,A,0419.81062,S,05539.90303,E,0.086,,280525,,,A*7C
$GNVTG,,T,,M,0.086,N,0.159,K,A*3E
$GNGGA,071951.00,0419.81062,S,05539.90303,E,1,11,1.15,26.7,M,-47.6,M,,*48
$GNGSA,A,3,25,23,12,15,24,29,05,13,,,,,1.88,1.15,1.48*1E
$GNGSA,A,3,73,69,80,,,,,,,,,,1.88,1.15,1.48*16
$GPGSV,5,1,17,05,17,028,28,10,26,219,15,12,58,143,22,13,10,083,27*76
$GPGSV,5,2,17,15,44,104,26,18,25,318,14,23,67,242,14,24,22,157,20*7A
$GPGSV,5,3,17,25,83,286,23,28,10,269,,29,24,006,25,32,00,220,*73
$GPGSV,5,4,17,36,52,277,,40,86,352,,41,58,082,,49,32,274,*7F
$GPGSV,5,5,17,50,10,089,*4A
$GLGSV,3,1,09,69,36,070,30,70,45,165,,71,09,198,,73,59,221,21*61
$GLGSV,3,2,09,74,41,299,,80,19,165,15,84,06,357,,85,03,311,*69
$GLGSV,3,3,09,,,,19*64
$GNGLL,0419.81062,S,05539.90303,E,071951.00,A,A*63
$GNRMC,071952.00,A,0419.81067,S,05539.90306,E,0.040,,280525,,,A*75
$GNVTG,,T,,M,0.040,N,0.075,K,A*3B
$GNGGA,071952.00,0419.81067,S,05539.90306,E,1,11,1.15,26.6,M,-47.6,M,,*4A
$GNGSA,A,3,25,23,12,15,24,29,05,13,,,,,1.88,1.15,1.48*1E
$GNGSA,A,3,73,69,80,,,,,,,,,,1.88,1.15,1.48*16
$GPGSV,5,1,17,05,17,028,29,10,26,219,16,12,58,143,31,13,10,083,32*72
$GPGSV,5,2,17,15,44,104,28,18,25,318,11,23,67,242,15,24,22,157,20*70
$GPGSV,5,3,17,25,83,286,26,28,10,269,,29,24,006,30,32,00,220,*72
$GPGSV,5,4,17,36,52,277,,40,86,352,,41,58,082,,49,32,274,*7F
$GPGSV,5,5,17,50,10,089,*4A
$GLGSV,3,1,09,69,36,070,31,70,45,165,,71,09,198,,73,59,221,22*63
$GLGSV,3,2,09,74,41,299,,80,19,165,17,84,06,357,,85,03,311,*6B
$GLGSV,3,3,09,,,,19*64
$GNGLL,0419.81067,S,05539.90306,E,071952.00,A,A*60
$GNRMC,071953.00,A,0419.81067,S,05539.90294,E,0.360,,280525,,,A*7F
$GNVTG,,T,,M,0.360,N,0.668,K,A*30
$GNGGA,071953.00,0419.81067,S,05539.90294,E,1,10,1.21,26.8,M,-47.6,M,,*49
$GNGSA,A,3,25,12,15,24,29,05,13,,,,,,1.91,1.21,1.48*10
$GNGSA,A,3,73,69,80,,,,,,,,,,1.91,1.21,1.48*19
$GPGSV,5,1,17,05,17,028,30,10,26,219,15,12,58,143,31,13,10,083,26*7C
$GPGSV,5,2,17,15,44,104,29,18,25,318,10,23,67,242,,24,22,157,21*75
$GPGSV,5,3,17,25,83,286,24,28,10,269,,29,24,006,23,32,00,220,*72
$GPGSV,5,4,17,36,52,277,,40,86,352,,41,58,082,,49,32,274,*7F
$GPGSV,5,5,17,50,10,089,*4A
$GLGSV,3,1,09,69,36,070,28,70,45,165,,71,09,198,,73,59,221,22*6B
$GLGSV,3,2,09,74,41,299,,80,19,165,15,84,06,357,,85,03,311,*69
$GLGSV,3,3,09,,,,16*6B
$GNGLL,0419.81067,S,05539.90294,E,071953.00,A,A*6B
$GNRMC,071954.00,A,0419.81082,S,05539.90272,E,0.424,,280525,,,A*7C
$GNVTG,,T,,M,0.424,N,0.784,K,A*34
$GNGGA,071954.00,0419.81082,S,05539.90272,E,1,10,1.21,26.2,M,-47.6,M,,*47
$GNGSA,A,3,25,12,15,24,29,05,13,,,,,,1.91,1.21,1.48*10
$GNGSA,A,3,73,69,80,,,,,,,,,,1.91,1.21,1.48*19
$GPGSV,5,1,17,05,17,028,29,10,26,219,17,12,58,143,30,13,10,083,27*76
$GPGSV,5,2,17,15,44,104,27,18,25,318,10,23,67,242,,24,22,157,21*7B
$GPGSV,5,3,17,25,83,286,24,28,10,269,,29,24,006,23,32,00,220,*72
$GPGSV,5,4,17,36,52,277,,40,86,352,,41,58,082,,49,32,274,*7F
$GPGSV,5,5,17,50,10,089,*4A
$GLGSV,3,1,09,69,36,070,29,70,45,165,,71,09,198,,73,59,221,22*6A
$GLGSV,3,2,09,74,41,299,,80,19,165,16,84,06,357,,85,03,311,*6A
$GLGSV,3,3,09,,,,15*68
$GNGLL,0419.81082,S,05539.90272,E,071954.00,A,A*6F
$GNRMC,071955.00,A,0419.81068,S,05539.90289,E,0.036,,280525,,,A*7A
$GNVTG,,T,,M,0.036,N,0.067,K,A*39
$GNGGA,071955.00,0419.81068,S,05539.90289,E,1,11,0.95,26.5,M,-47.6,M,,*4E
$GNGSA,A,3,25,12,15,18,24,29,05,13,,,,,1.59,0.95,1.28*15
$GNGSA,A,3,73,69,80,,,,,,,,,,1.59,0.95,1.28*15
$GPGSV,5,1,17,05,17,028,34,10,26,219,20,12,58,143,31,13,10,083,33*7A
$GPGSV,5,2,17,15,44,104,27,18,25,318,10,23,67,242,15,24,22,157,21*7F
$GPGSV,5,3,17,25,83,286,25,28,10,269,,29,24,006,26,32,00,220,*76
$GPGSV,5,4,17,36,52,277,,40,86,352,,41,58,082,,49,32,274,*7F
$GPGSV,5,5,17,50,10,089,*4A
$GLGSV,3,1,09,69,36,070,35,70,45,165,,71,09,198,,73,59,221,25*60
$GLGSV,3,2,09,74,41,299,,80,19,165,19,84,06,357,,85,03,311,*65
$GLGSV,3,3,09,,,,15*68
