b0X(
,.c
'g0cc8[ 3{4
V^:R 
YTAG(HTJKLToUAXVb(K$GNRMC,100751.00,A,0419.73180,S,05539.86491,E,0.282,,210525,,,A*71
$GNVTG,,T,,M,0.282,N,0.523,K,A*31
$GNGNS,100751.00,0419.73180,S,05539.86491,E,AA,08,1.39,12.3,-47.6,,*65
$GNGGA,100751.00,0419.73180,S,05539.86491,E,1,08,1.39,12.3,M,-47.6,M,,*4F
$GNGSA,A,3,23,10,29,15,18,32,,,,,,,2.89,1.39,2.54*10
$GNGSA,A,3,71,85,,,,,,,,,,,2.89,1.39,2.54*1C
$GPGSV,5,1,18,10,44,302,31,12,03,146,10,15,11,039,31,16,12,304,*7B
$GPGSV,5,2,18,18,18,017,28,23,31,355,30,24,11,099,,25,29,165,*70
$GPGSV,5,3,18,26,28,279,26,28,19,209,,29,56,091,16,31,07,232,*78
$GPGSV,5,4,18,32,51,195,25,36,52,277,,40,86,350,,41,58,082,*70
$GPGSV,5,5,18,49,32,274,,50,10,089,*78
$GLGSV,3,1,09,65,25,208,19,71,40,022,28,72,84,235,22,74,05,155,*6A
$GLGSV,3,2,09,75,26,200,18,76,20,263,,84,03,111,09,85,21,065,15*6A
$GLGSV,3,3,09,86,13,008,24*5E
$GNGLL,0419.73180,S,05539.86491,E,100751.00,A,A*61
$GNGRS,100751.00,1,-1.2,1.0,6.6,-1.5,6.8,-0.4,,,,,,*73
$GNGRS,100751.00,1,2.8,-6.8,,,,,,,,,,*7B
$GNGST,100751.00,42,,,,6.1,6.2,15*64
$GNZDA,100751.00,21,05,2025,00,00*79
$GNGBS,100751.00,6.1,6.2,15.3,,,,*69
b0X
,.R4'0cc8[ 3}{4
V^:R 
YTAG(HTJKLToUAV1bK$GNRMC,100752.00,A,0419.73148,S,05539.86505,E,0.934,,210525,,,A*7C
$GNVTG,,T,,M,0.934,N,1.731,K,A*37
$GNGNS,100752.00,0419.73148,S,05539.86505,E,AA,08,1.39,12.5,-47.6,,*68
$GNGGA,100752.00,0419.73148,S,05539.86505,E,1,08,1.39,12.5,M,-47.6,M,,*42
$GNGSA,A,3,23,10,29,15,18,32,,,,,,,2.89,1.39,2.54*10
$GNGSA,A,3,71,85,,,,,,,,,,,2.89,1.39,2.54*1C
$GPGSV,5,1,18,10,44,302,23,12,03,146,09,15,11,039,24,16,12,304,*74
$GPGSV,5,2,18,18,18,017,15,23,31,355,22,24,11,099,,25,29,165,*7D
$GPGSV,5,3,18,26,28,279,24,28,19,209,,29,56,091,15,31,07,232,*79
$GPGSV,5,4,18,32,51,195,22,36,52,277,,40,86,350,,41,58,082,*77
$GPGSV,5,5,18,49,32,274,,50,10,089,*78
$GLGSV,3,1,09,65,25,208,19,71,40,022,26,72,84,235,22,74,05,155,*64
$GLGSV,3,2,09,75,26,200,16,76,20,263,,84,03,111,09,85,21,065,16*67
$GLGSV,3,3,09,86,13,008,23*59
$GNGLL,0419.73148,S,05539.86505,E,100752.00,A,A*6A
$GNGRS,100752.00,1,1.7,3.4,9.3,4.8,8.0,-3.9,,,,,,*79
$GNGRS,100752.00,1,2.6,-6.1,,,,,,,,,,*7F
$GNGST,100752.00,53,,,,6.2,6.4,15*62
$GNZDA,100752.00,21,05,2025,00,00*7A
$GNGBS,100752.00,6.2,6.4,15.5,,,,*69
b0X
,.B'0cDc8[ 3M{4
V^:R 
YTAG (:HTJKLToUAVbKv$GNRMC,100753.00,A,0419.73151,S,05539.86505,E,0.111,,210525,,,A*7A
$GNVTG,,T,,M,0.111,N,0.205,K,A*3B
$GNGNS,100753.00,0419.73151,S,05539.86505,E,AA,08,1.39,12.3,-47.6,,*67
$GNGGA,100753.00,0419.73151,S,05539.86505,E,1,08,1.39,12.3,M,-47.6,M,,*4D
$GNGSA,A,3,23,10,29,15,18,32,,,,,,,2.89,1.39,2.54*10
$GNGSA,A,3,71,85,,,,,,,,,,,2.89,1.39,2.54*1C
$GPGSV,5,1,18,10,44,302,31,12,03,146,11,15,11,039,31,16,12,304,*7A
$GPGSV,5,2,18,18,18,017,29,23,31,355,30,24,11,099,,25,29,165,*71
$GPGSV,5,3,18,26,28,279,30,28,19,209,,29,56,091,14,31,07,232,*7D
$GPGSV,5,4,18,32,51,195,30,36,52,277,,40,86,350,,41,58,082,*74
$GPGSV,5,5,18,49,32,274,,50,10,089,*78
$GLGSV,3,1,09,65,25,208,20,71,40,022,32,72,84,235,23,74,05,155,*6A
$GLGSV,3,2,09,75,26,200,15,76,20,263,,84,03,111,14,85,21,065,18*66
$GLGSV,3,3,09,86,13,008,25*5F
$GNGLL,0419.73151,S,05539.86505,E,100753.00,A,A*63
$GNGRS,100753.00,1,3.2,3.2,9.4,4.0,9.8,0.8,,,,,,*50
$GNGRS,100753.00,1,-2.0,-6.1,,,,,,,,,,*55
$GNGST,100753.00,38,,,,6.2,6.4,15*6E
$GNZDA,100753.00,21,05,2025,00,00*7B
$GNGBS,100753.00,6.2,6.4,15.5,,,,*68
b0X
,.&'0 cc78[ 3O{4
V^:R 
YTAG!(HTJKLTouUAVSbKo$GNRMC,100754.00,A,0419.73164,S,05539.86503,E,0.230,,210525,,,A*7D
$GNVTG,,T,,M,0.230,N,0.426,K,A*3C
$GNGNS,100754.00,0419.73164,S,05539.86503,E,AA,08,1.39,12.1,-47.6,,*62
$GNGGA,100754.00,0419.73164,S,05539.86503,E,1,08,1.39,12.1,M,-47.6,M,,*48
$GNGSA,A,3,23,10,29,15,18,32,,,,,,,2.90,1.39,2.54*18
$GNGSA,A,3,71,85,,,,,,,,,,,2.90,1.39,2.54*14
$GPGSV,5,1,18,10,44,302,31,12,03,146,11,15,11,039,25,16,12,304,*7F
$GPGSV,5,2,18,18,18,017,32,23,31,355,30,24,11,099,,25,29,165,19*73
$GPGSV,5,3,18,26,28,279,30,28,19,209,,29,56,091,27,31,07,232,*7D
$GPGSV,5,4,18,32,51,195,28,36,52,277,,40,86,350,,41,58,082,*7D
$GPGSV,5,5,18,49,32,274,,50,10,089,*78
$GLGSV,3,1,09,65,25,208,20,71,40,022,33,72,84,235,26,74,05,155,*6E
$GLGSV,3,2,09,75,26,200,16,76,20,263,,84,03,111,11,85,21,065,19*61
$GLGSV,3,3,09,86,13,008,25*5F
$GNGLL,0419.73164,S,05539.86503,E,100754.00,A,A*64
$GNGRS,100754.00,1,-2.2,2.9,5.1,-1.2,4.4,5.9,,,,,,*57
$GNGRS,100754.00,1,-3.4,-6.4,,,,,,,,,,*52
$GNGST,100754.00,32,,,,6.2,6.3,15*64
$GNZDA,100754.00,21,05,2025,00,00*7C
$GNGBS,100754.00,6.2,6.3,15.3,,,,*6E
b0X
 ,.'r0cc8[( 3{4
V^:R 
YTAG(HTJKLToyUAFVbKGF$GNRMC,100755.00,A,0419.73166,S,05539.86504,E,0.289,,210525,,,A*7B
$GNVTG,,T,,M,0.289,N,0.536,K,A*3E
$GNGNS,100755.00,0419.73166,S,05539.86504,E,AA,08,1.39,12.4,-47.6,,*63
$GNGGA,100755.00,0419.73166,S,05539.86504,E,1,08,1.39,12.4,M,-47.6,M,,*49
$GNGSA,A,3,23,10,29,15,18,32,,,,,,,2.90,1.39,2.54*18
$GNGSA,A,3,71,85,,,,,,,,,,,2.90,1.39,2.54*14
$GPGSV,5,1,18,10,44,302,32,12,03,146,08,15,11,039,27,16,12,304,*76
$GPGSV,5,2,18,18,18,017,27,23,31,355,30,24,11,099,,25,29,165,22*7F
$GPGSV,5,3,18,26,28,279,23,28,19,209,,29,56,091,22,31,07,232,*7A
$GPGSV,5,4,18,32,51,195,26,36,52,277,,40,86,350,,41,58,082,*73
$GPGSV,5,5,18,49,32,274,,50,10,089,*78
$GLGSV,3,1,09,65,25,208,19,71,40,022,27,72,84,235,26,74,05,155,*61
$GLGSV,3,2,09,75,26,200,15,76,20,263,,84,03,111,09,85,21,065,18*6A
$GLGSV,3,3,09,86,13,008,26*5C
$GNGLL,0419.73166,S,05539.86504,E,100755.00,A,A*60
$GNGRS,100755.00,1,1.8,7.2,3.0,1.1,1.5,2.2,,,,,,*5D
$GNGRS,100755.00,1,-0.4,-4.4,,,,,,,,,,*52
$GNGST,100755.00,36,,,,6.2,6.3,15*61
$GNZDA,100755.00,21,05,2025,00,00*7D
$GNGBS,100755.00,6.2,6.3,15.3,,,,*6F
b0X
#,.'0cc
8[ 3{4
V^:R 
YTAG(HTJKLToUABVObyK$GNRMC,100756.00,A,0419.73169,S,05539.86492,E,0.119,,210525,,,A*73
$GNVTG,,T,,M,0.119,N,0.221,K,A*35
$GNGNS,100756.00,0419.73169,S,05539.86492,E,AA,08,1.39,12.2,-47.6,,*67
$GNGGA,100756.00,0419.73169,S,05539.86492,E,1,08,1.39,12.2,M,-47.6,M,,*4D
$GNGSA,A,3,23,10,29,15,18,32,,,,,,,2.90,1.39,2.54*18
$GNGSA,A,3,71,85,,,,,,,,,,,2.90,1.39,2.54*14
$GPGSV,5,1,18,10,44,302,35,12,03,146,12,15,11,039,28,16,12,304,*75
$GPGSV,5,2,18,18,18,017,29,23,31,355,30,24,11,099,,25,29,165,22*71
$GPGSV,5,3,18,26,28,279,22,28,19,209,,29,56,091,22,31,07,232,*7B
$GPGSV,5,4,18,32,51,195,25,36,52,277,,40,86,350,,41,58,082,*70
$GPGSV,5,5,18,49,32,274,,50,10,089,*78
$GLGSV,3,1,09,65,25,208,17,71,40,022,27,72,84,235,26,74,05,155,*6F
$GLGSV,3,2,09,75,26,200,16,76,20,263,,84,03,111,09,85,21,065,18*69
$GLGSV,3,3,09,86,13,008,27*5D
$GNGLL,0419.73169,S,05539.86492,E,100756.00,A,A*62
$GNGRS,100756.00,1,2.0,2.4,1.5,-0.7,-0.6,-10.3,,,,,,*4B
$GNGRS,100756.00,1,-3.8,-1.9,,,,,,,,,,*56
$GNGST,100756.00,36,,,,6.3,6.2,15*62
$GNZDA,100756.00,21,05,2025,00,00*7E
$GNGBS,100756.00,6.3,6.2,15.4,,,,*6B
b0X
,.T'0cc8[ 3{4
V^:R 
YTAG(HTJKLToUAV+baK$GNRMC,100757.00,A,0419.73125,S,05539.86469,E,1.211,,210525,,,A*74
$GNVTG,,T,,M,1.211,N,2.244,K,A*3E
$GNGNS,100757.00,0419.73125,S,05539.86469,E,AA,09,1.11,12.3,-47.6,,*60
$GNGGA,100757.00,0419.73125,S,05539.86469,E,1,09,1.11,12.3,M,-47.6,M,,*4A
$GNGSA,A,3,25,23,10,29,15,18,32,,,,,,2.33,1.11,2.05*18
$GNGSA,A,3,71,85,,,,,,,,,,,2.33,1.11,2.05*13
$GPGSV,5,1,18,10,44,302,31,12,03,146,12,15,11,039,28,16,12,304,*71
$GPGSV,5,2,18,18,18,017,28,23,31,355,21,24,11,099,,25,29,165,21*73
$GPGSV,5,3,18,26,28,279,23,28,19,209,,29,56,091,23,31,07,232,*7B
$GPGSV,5,4,18,32,51,195,24,36,52,277,,40,86,350,,41,58,082,*71
$GPGSV,5,5,18,49,32,274,,50,10,089,*78
$GLGSV,3,1,09,65,25,208,14,71,40,022,27,72,84,235,22,74,05,155,*68
$GLGSV,3,2,09,75,26,200,21,76,20,263,,84,03,111,09,85,21,065,18*6D
$GLGSV,3,3,09,86,13,008,26*5C
$GNGLL,0419.73125,S,05539.86469,E,100757.00,A,A*6F
$GNGRS,100757.00,1,-2.8,-0.4,4.4,0.2,-3.7,-0.6,-3.5,,,,,*5F
$GNGRS,100757.00,1,-8.4,-0.9,,,,,,,,,,*51
$GNGST,100757.00,46,,,,6.4,6.2,15*63
$GNZDA,100757.00,21,05,2025,00,00*7F
$GNGBS,100757.00,6.4,6.2,15.4,,,,*6D
b0X
,.
$'0c`c+
8[" 34{4
V^:R 
YTAG(HTJKLToUA4VbIK~$GNRMC,100758.00,A,0419.73113,S,05539.86454,E,0.388,,210525,,,A*70
$GNVTG,,T,,M,0.388,N,0.718,K,A*30
$GNGNS,100758.00,0419.73113,S,05539.86454,E,AA,09,1.11,12.2,-47.6,,*65
$GNGGA,100758.00,0419.73113,S,05539.86454,E,1,09,1.11,12.2,M,-47.6,M,,*4F
$GNGSA,A,3,25,23,10,29,15,18,32,,,,,,2.33,1.11,2.05*18
$GNGSA,A,3,71,85,,,,,,,,,,,2.33,1.11,2.05*13
$GPGSV,5,1,18,10,44,302,25,12,03,146,10,15,11,039,36,16,12,304,*79
$GPGSV,5,2,18,18,18,017,27,23,31,355,27,24,11,099,14,25,29,165,20*7E
$GPGSV,5,3,18,26,28,279,20,28,19,209,,29,56,091,22,31,07,232,*79
$GPGSV,5,4,18,32,51,195,30,36,52,277,,40,86,350,,41,58,082,*74
$GPGSV,5,5,18,49,32,274,,50,10,089,*78
$GLGSV,3,1,09,65,25,208,14,71,40,022,25,72,84,235,21,74,05,155,*69
$GLGSV,3,2,09,75,26,200,20,76,20,263,,84,03,111,09,85,21,065,19*6D
$GLGSV,3,3,09,86,13,008,24*5E
$GNGLL,0419.73113,S,05539.86454,E,100758.00,A,A*6B
$GNGRS,100758.00,1,-1.1,3.5,-0.2,0.3,-2.7,-0.9,0.5,,,,,*7B
$GNGRS,100758.00,1,-15.8,0.5,,,,,,,,,,*4F
$GNGST,100758.00,46,,,,6.3,6.3,15*6A
$GNZDA,100758.00,21,05,2025,00,00*70
$GNGBS,100758.00,6.3,6.3,15.4,,,,*64
b0Xh
,.d@!'0cc8[H 3{4
V^:R 
YTAG(HTJKLTo
JUA#V\bh1K$GNRMC,100759.00,A,0419.73129,S,05539.86459,E,0.644,,210525,,,A*70
$GNVTG,,T,,M,0.644,N,1.192,K,A*30
$GNGNS,100759.00,0419.73129,S,05539.86459,E,AA,09,1.11,11.3,-47.6,,*62
$GNGGA,100759.00,0419.73129,S,05539.86459,E,1,09,1.11,11.3,M,-47.6,M,,*48
$GNGSA,A,3,25,23,10,29,15,18,32,,,,,,2.33,1.11,2.05*18
$GNGSA,A,3,71,85,,,,,,,,,,,2.33,1.11,2.05*13
$GPGSV,5,1,18,10,44,302,23,12,03,146,12,15,11,039,33,16,12,304,*78
$GPGSV,5,2,18,18,18,017,31,23,31,355,24,24,11,099,14,25,29,165,19*70
$GPGSV,5,3,18,26,28,279,20,28,19,209,,29,56,091,23,31,07,232,*78
$GPGSV,5,4,18,32,51,195,31,36,52,277,,40,86,350,,41,58,082,*75
$GPGSV,5,5,18,49,32,274,,50,10,089,*78
$GLGSV,3,1,09,65,25,208,14,71,40,022,25,72,84,235,19,74,05,155,*62
$GLGSV,3,2,09,75,26,200,17,76,20,263,,84,03,111,07,85,21,065,18*66
$GLGSV,3,3,09,86,13,008,30*5B
$GNGLL,0419.73129,S,05539.86459,E,100759.00,A,A*6E
$GNGRS,100759.00,1,5.0,0.1,-1.6,0.7,1.3,0.1,1.6,,,,,*59
$GNGRS,100759.00,1,-13.4,0.4,,,,,,,,,,*45
$GNGST,100759.00,46,,,,6.2,6.5,16*6F
$GNZDA,100759.00,21,05,2025,00,00*71
$GNGBS,100759.00,6.2,6.5,15.6,,,,*60
b0XP
,.
$'0#ccG8[ 3{4
V^:R 
YTAG(HTJKLToUAVlbPKN$GNRMC,100800.00,A,0419.73140,S,05539.86459,E,0.275,,210525,,,A*7A
$GNVTG,,T,,M,0.275,N,0.510,K,A*39
$GNGNS,100800.00,0419.73140,S,05539.86459,E,AA,09,1.11,11.0,-47.6,,*6D
$GNGGA,100800.00,0419.73140,S,05539.86459,E,1,09,1.11,11.0,M,-47.6,M,,*47
$GNGSA,A,3,25,23,10,29,15,18,32,,,,,,2.33,1.11,2.05*18
$GNGSA,A,3,71,85,,,,,,,,,,,2.33,1.11,2.05*13
$GPGSV,5,1,18,10,44,302,25,12,03,146,10,15,11,039,36,16,12,304,*79
$GPGSV,5,2,18,18,18,017,27,23,31,355,27,24,11,099,13,25,29,165,16*7C
$GPGSV,5,3,18,26,28,279,18,28,19,209,,29,56,091,26,31,07,232,*76
$GPGSV,5,4,18,32,51,195,27,36,52,277,,40,86,350,,41,58,082,*72
$GPGSV,5,5,18,49,32,274,,50,10,089,*78
$GLGSV,3,1,09,65,25,208,17,71,40,022,24,72,84,235,20,74,05,155,*6A
$GLGSV,3,2,09,75,26,200,13,76,20,263,22,84,03,111,09,85,21,065,17*63
$GLGSV,3,3,09,86,13,008,31*5A
$GNGLL,0419.73140,S,05539.86459,E,100800.00,A,A*62
$GNGRS,100800.00,1,5.8,-8.7,2.7,2.4,1.4,0.4,7.0,,,,,*5D
$GNGRS,100800.00,1,-15.0,1.5,,,,,,,,,,*44
$GNGST,100800.00,45,,,,6.2,6.6,16*6C
$GNZDA,100800.00,21,05,2025,00,00*72
$GNGBS,100800.00,6.2,6.6,15.6,,,,*60
b0X8
,.
&'F0tc"c|8[X 3{4
V^:R 
YT@AG(sHTJKLToxUA(VZb8KX$GNRMC,100801.00,A,0419.73150,S,05539.86471,E,0.113,,210525,,,A*73
$GNVTG,,T,,M,0.113,N,0.210,K,A*3D
$GNGNS,100801.00,0419.73150,S,05539.86471,E,AA,09,1.11,11.2,-47.6,,*65
$GNGGA,100801.00,0419.73150,S,05539.86471,E,1,09,1.11,11.2,M,-47.6,M,,*4F
$GNGSA,A,3,25,23,10,29,15,18,32,,,,,,2.33,1.11,2.05*18
$GNGSA,A,3,71,85,,,,,,,,,,,2.33,1.11,2.05*13
$GPGSV,5,1,18,10,44,302,27,12,03,146,10,15,11,039,38,16,12,304,*75
$GPGSV,5,2,18,18,18,017,27,23,31,355,27,24,11,099,,25,29,165,18*70
$GPGSV,5,3,18,26,28,279,19,28,19,209,17,29,56,091,28,31,07,232,*7F
$GPGSV,5,4,18,32,51,195,26,36,52,277,,40,86,350,,41,58,082,*73
$GPGSV,5,5,18,49,32,274,,50,10,089,*78
$GLGSV,3,1,09,65,25,208,17,71,40,022,24,72,84,235,20,74,05,155,*6A
$GLGSV,3,2,09,75,26,200,14,76,20,263,21,84,03,111,09,85,21,065,16*66
$GLGSV,3,3,09,86,13,008,30*5B
$GNGLL,0419.73150,S,05539.86471,E,100801.00,A,A*68
$GNGRS,100801.00,1,1.2,-7.3,2.2,3.4,3.3,1.2,4.6,,,,,*5A
$GNGRS,100801.00,1,-14.2,0.4,,,,,,,,,,*46
$GNGST,100801.00,45,,,,6.1,6.6,15*6D
$GNZDA,100801.00,21,05,2025,00,00*73
$GNGBS,100801.00,6.1,6.6,15.5,,,,*61
b0X 
,.R%'0ccY8[  3{4
V^:R 
YTFAG(EHTJKLToUA.VEb K/)$GNRMC,100802.00,A,0419.73169,S,05539.86480,E,0.093,,210525,,,A*7D
$GNVTG,,T,,M,0.093,N,0.172,K,A*33
$GNGNS,100802.00,0419.73169,S,05539.86480,E,AA,09,1.11,10.7,-47.6,,*66
$GNGGA,100802.00,0419.73169,S,05539.86480,E,1,09,1.11,10.7,M,-47.6,M,,*4C
$GNGSA,A,3,25,23,10,29,15,18,32,,,,,,2.33,1.11,2.05*18
$GNGSA,A,3,71,85,,,,,,,,,,,2.33,1.11,2.05*13
$GPGSV,5,1,18,10,44,302,26,12,03,146,09,15,11,039,37,16,12,304,*73
$GPGSV,5,2,18,18,18,017,27,23,31,355,26,24,11,099,,25,29,165,18*71
$GPGSV,5,3,18,26,28,279,18,28,19,209,19,29,56,091,30,31,07,232,*79
$GPGSV,5,4,18,32,51,195,23,36,52,277,,40,86,350,,41,58,082,*76
$GPGSV,5,5,18,49,32,274,,50,10,089,*78
$GLGSV,3,1,09,65,25,208,16,71,40,022,22,72,84,235,22,74,05,155,*6F
$GLGSV,3,2,09,75,26,200,15,76,20,263,20,84,03,111,08,85,21,065,13*62
$GLGSV,3,3,09,86,13,008,29*53
$GNGLL,0419.73169,S,05539.86480,E,100802.00,A,A*6F
$GNGRS,100802.00,1,0.9,-8.4,-1.7,5.4,4.9,2.8,3.9,,,,,*7A
$GNGRS,100802.00,1,-14.7,0.5,,,,,,,,,,*41
$GNGST,100802.00,50,,,,6.2,6.4,15*6B
$GNZDA,100802.00,21,05,2025,00,00*70
$GNGBS,100802.00,6.2,6.4,15.2,,,,*64
b0X

,.2%'0cc8[ 3{4
V^:R 
YTAG(HTJKLTo@UAVb
K$GNRMC,100803.00,A,0419.73187,S,05539.86503,E,0.039,,210525,,,A*76
$GNVTG,,T,,M,0.039,N,0.073,K,A*33
$GNGNS,100803.00,0419.73187,S,05539.86503,E,AA,09,1.11,11.0,-47.6,,*6B
$GNGGA,100803.00,0419.73187,S,05539.86503,E,1,09,1.11,11.0,M,-47.6,M,,*41
$GNGSA,A,3,25,23,10,29,15,18,32,,,,,,2.33,1.11,2.05*18
$GNGSA,A,3,71,85,,,,,,,,,,,2.33,1.11,2.05*13
$GPGSV,5,1,18,10,44,302,25,12,03,146,11,15,11,039,37,16,12,304,*79
$GPGSV,5,2,18,18,18,017,28,23,31,355,25,24,11,099,,25,29,165,16*73
$GPGSV,5,3,18,26,28,279,20,28,19,209,19,29,56,091,29,31,07,232,*7A
$GPGSV,5,4,18,32,51,195,26,36,52,277,,40,86,350,,41,58,082,*73
$GPGSV,5,5,18,49,32,274,,50,10,089,*78
$GLGSV,3,1,09,65,25,208,16,71,40,022,20,72,84,235,22,74,05,155,*6D
$GLGSV,3,2,09,75,26,200,13,76,20,263,20,84,03,111,11,85,21,065,11*6E
$GLGSV,3,3,09,86,13,008,27*5D
$GNGLL,0419.73187,S,05539.86503,E,100803.00,A,A*64
$GNGRS,100803.00,1,4.1,-10.3,0.5,12.5,4.0,-0.5,4.3,,,,,*76
$GNGRS,100803.00,1,-15.7,-0.5,,,,,,,,,,*6C
$GNGST,100803.00,52,,,,6.2,6.4,15*68
$GNZDA,100803.00,21,05,2025,00,00*71
$GNGBS,100803.00,6.2,6.4,15.0,,,,*67
b0X
,.%'0^cQc8[
 3{4
V^:R 
YTAG(@HTJKLToUAOVbK$GNRMC,100804.00,A,0419.73200,S,05539.86518,E,0.017,,210525,,,A*7B
$GNVTG,,T,,M,0.017,N,0.031,K,A*39
$GNGNS,100804.00,0419.73200,S,05539.86518,E,AA,09,1.11,11.2,-47.6,,*68
$GNGGA,100804.00,0419.73200,S,05539.86518,E,1,09,1.11,11.2,M,-47.6,M,,*42
$GNGSA,A,3,25,23,10,29,15,18,32,,,,,,2.33,1.11,2.05*18
$GNGSA,A,3,71,85,,,,,,,,,,,2.33,1.11,2.05*13
$GPGSV,5,1,18,10,44,302,25,12,03,146,07,15,11,039,37,16,12,304,21*7D
$GPGSV,5,2,18,18,18,017,27,23,31,355,25,24,11,099,,25,29,165,17*7D
$GPGSV,5,3,18,26,28,279,19,28,19,209,18,29,56,091,28,31,07,232,*70
$GPGSV,5,4,18,32,51,195,27,36,52,277,,40,86,350,,41,58,082,*72
$GPGSV,5,5,18,49,32,274,,50,10,089,*78
$GLGSV,3,1,09,65,25,208,15,71,40,022,16,72,84,235,20,74,05,155,*69
$GLGSV,3,2,09,75,26,200,13,76,20,263,20,84,03,111,07,85,21,065,12*6A
$GLGSV,3,3,09,86,13,008,27*5D
$GNGLL,0419.73200,S,05539.86518,E,100804.00,A,A*65
$GNGRS,100804.00,1,1.9,-12.0,-0.2,7.8,2.3,-1.6,5.0,,,,,*6B
$GNGRS,100804.00,1,-14.7,-1.8,,,,,,,,,,*66
$GNGST,100804.00,53,,,,6.2,6.3,15*69
$GNZDA,100804.00,21,05,2025,00,00*76
$GNGBS,100804.00,6.2,6.3,14.8,,,,*6E
b0X
,.%'0scc8[ 3{4
V^:R 
YTAG(HTJKLTo!U
A9V{bKR$GNRMC,100805.00,A,0419.73210,S,05539.86534,E,0.133,,210525,,,A*72
$GNVTG,,T,,M,0.133,N,0.247,K,A*3D
$GNGNS,100805.00,0419.73210,S,05539.86534,E,AA,09,1.11,11.5,-47.6,,*61
$GNGGA,100805.00,0419.73210,S,05539.86534,E,1,09,1.11,11.5,M,-47.6,M,,*4B
$GNGSA,A,3,25,23,10,29,15,18,32,,,,,,2.33,1.11,2.05*18
$GNGSA,A,3,71,85,,,,,,,,,,,2.33,1.11,2.05*13
$GPGSV,5,1,18,10,44,302,24,12,03,146,09,15,11,039,37,16,12,304,19*79
$GPGSV,5,2,18,18,18,017,27,23,31,355,23,24,11,099,,25,29,165,16*7A
$GPGSV,5,3,18,26,28,279,18,28,19,209,16,29,56,091,30,31,07,232,*76
$GPGSV,5,4,18,32,51,195,28,36,52,277,,40,86,350,,41,58,082,*7D
$GPGSV,5,5,18,49,32,274,,50,10,089,*78
$GLGSV,3,1,09,65,25,208,16,71,40,022,14,72,84,235,19,74,05,155,*62
$GLGSV,3,2,09,75,26,200,13,76,20,263,20,84,03,111,11,85,21,065,10*6F
$GLGSV,3,3,09,86,13,008,27*5D
$GNGLL,0419.73210,S,05539.86534,E,100805.00,A,A*6B
$GNGRS,100805.00,1,2.5,-10.7,-0.3,6.6,2.9,-4.0,5.0,,,,,*67
$GNGRS,100805.00,1,-16.6,-4.5,,,,,,,,,,*6C
$GNGST,100805.00,54,,,,6.1,6.3,15*6C
$GNZDA,100805.00,21,05,2025,00,00*77
$GNGBS,100805.00,6.1,6.3,14.6,,,,*62
b0X
,.
%'z0bcQc8[ 3{4
V^:R 
YT.AG(|HTJKLTozUAVbK$GNRMC,100806.00,A,0419.73204,S,05539.86548,E,0.062,,210525,,,A*7A
$GNVTG,,T,,M,0.062,N,0.114,K,A*3D
$GNGNS,100806.00,0419.73204,S,05539.86548,E,AA,09,1.11,11.7,-47.6,,*6E
$GNGGA,100806.00,0419.73204,S,05539.86548,E,1,09,1.11,11.7,M,-47.6,M,,*44
$GNGSA,A,3,25,23,10,29,15,18,32,,,,,,2.33,1.11,2.05*18
$GNGSA,A,3,71,85,,,,,,,,,,,2.33,1.11,2.05*13
$GPGSV,5,1,18,10,44,302,23,12,03,146,10,15,11,039,37,16,12,304,17*78
$GPGSV,5,2,18,18,18,017,27,23,31,355,21,24,11,099,,25,29,165,14*7A
$GPGSV,5,3,18,26,28,279,16,28,19,209,17,29,56,091,30,31,07,232,*79
$GPGSV,5,4,18,32,51,195,29,36,52,277,,40,86,350,,41,58,082,*7C
$GPGSV,5,5,18,49,32,274,,50,10,089,*78
$GLGSV,3,1,09,65,25,208,17,71,40,022,18,72,84,235,22,74,05,155,*67
$GLGSV,3,2,09,75,26,200,15,76,20,263,19,84,03,111,08,85,21,065,13*68
$GLGSV,3,3,09,86,13,008,27*5D
$GNGLL,0419.73204,S,05539.86548,E,100806.00,A,A*66
$GNGRS,100806.00,1,2.3,-12.0,-2.9,5.2,3.8,-6.7,-8.0,,,,,*4D
$GNGRS,100806.00,1,-14.1,-4.9,,,,,,,,,,*66
$GNGST,100806.00,99931,,,,6.1,6.2,14*55
$GNZDA,100806.00,21,05,2025,00,00*74
$GNGBS,100806.00,6.1,6.2,14.4,,,,*62
b0X
,.|%'G0cc(8[ 3{4
V^:R 
YTAG(aHTJKLT
oFUAVtbqKf"$GNRMC,100807.00,A,0419.73212,S,05539.86560,E,0.121,,210525,,,A*70
$GNVTG,,T,,M,0.121,N,0.224,K,A*3B
$GNGNS,100807.00,0419.73212,S,05539.86560,E,AA,09,1.11,11.8,-47.6,,*6D
$GNGGA,100807.00,0419.73212,S,05539.86560,E,1,09,1.11,11.8,M,-47.6,M,,*47
$GNGSA,A,3,25,23,10,29,15,18,32,,,,,,2.33,1.11,2.05*18
$GNGSA,A,3,71,85,,,,,,,,,,,2.33,1.11,2.05*13
$GPGSV,5,1,18,10,44,302,24,12,03,146,11,15,11,039,37,16,12,304,16*7F
$GPGSV,5,2,18,18,18,017,28,23,31,355,22,24,11,099,21,25,29,165,16*77
$GPGSV,5,3,18,26,28,279,17,28,19,209,17,29,56,091,29,31,07,232,*70
$GPGSV,5,4,18,32,51,195,21,36,52,277,,40,86,350,,41,58,082,*74
$GPGSV,5,5,18,49,32,274,,50,10,089,*78
$GLGSV,3,1,09,65,25,208,19,71,40,022,21,72,84,235,22,74,05,155,*63
$GLGSV,3,2,09,75,26,200,19,76,20,263,17,84,03,111,10,85,21,065,12*62
$GLGSV,3,3,09,86,13,008,27*5D
$GNGLL,0419.73212,S,05539.86560,E,100807.00,A,A*6A
$GNGRS,100807.00,1,1.6,-13.1,-3.9,4.9,3.3,-8.8,-0.5,,,,,*46
$GNGRS,100807.00,1,-14.4,-5.3,,,,,,,,,,*69
$GNGST,100807.00,99931,,,,6.1,6.2,14*54
$GNZDA,100807.00,21,05,2025,00,00*75
$GNGBS,100807.00,6.1,6.2,14.3,,,,*64
b0X
,.
""'20Acc7h8[ 3{4
V^:R 
YTAG(HTJKLTo'UAlVbYK>$GNRMC,100808.00,A,0419.73219,S,05539.86557,E,0.139,,210525,,,A*79
$GNVTG,,T,,M,0.139,N,0.257,K,A*36
$GNGNS,100808.00,0419.73219,S,05539.86557,E,AA,09,1.11,11.3,-47.6,,*66
$GNGGA,100808.00,0419.73219,S,05539.86557,E,1,09,1.11,11.3,M,-47.6,M,,*4C
$GNGSA,A,3,25,23,10,29,15,18,32,,,,,,2.33,1.11,2.05*18
$GNGSA,A,3,71,85,,,,,,,,,,,2.33,1.11,2.05*13
$GPGSV,5,1,18,10,44,302,24,12,03,146,10,15,11,039,34,16,12,304,15*7E
$GPGSV,5,2,18,18,18,017,18,23,31,355,21,24,11,099,20,25,29,165,19*79
$GPGSV,5,3,18,26,28,279,18,28,19,209,16,29,56,091,28,31,07,232,*7F
$GPGSV,5,4,18,32,51,195,31,36,52,277,,40,86,350,,41,58,082,*75
$GPGSV,5,5,18,49,32,274,,50,10,089,*78
$GLGSV,3,1,09,65,25,208,18,71,40,022,28,72,84,235,22,74,05,155,*6B
$GLGSV,3,2,09,75,26,200,20,76,20,263,17,84,03,111,08,85,21,065,11*62
$GLGSV,3,3,09,86,13,008,26*5C
$GNGLL,0419.73219,S,05539.86557,E,100808.00,A,A*6A
$GNGRS,100808.00,1,1.0,-10.7,-3.6,2.3,3.1,-7.0,-2.4,,,,,*4F
$GNGRS,100808.00,1,-15.3,-9.2,,,,,,,,,,*6D
$GNGST,100808.00,47,,,,6.1,6.2,14*63
$GNZDA,100808.00,21,05,2025,00,00*7A
$GNGBS,100808.00,6.1,6.2,14.2,,,,*6A
b0Xx!
,.."'&0qcc8[ 3v{4
V^:R 
YTAG'HTJKLT
oSUAV/bx!AK$GNRMC,100809.00,A,0419.73239,S,05539.86562,E,0.260,,210525,,,A*73
$GNVTG,,T,,M,0.260,N,0.481,K,A*34
$GNGNS,100809.00,0419.73239,S,05539.86562,E,AA,09,1.11,10.7,-47.6,,*66
$GNGGA,100809.00,0419.73239,S,05539.86562,E,1,09,1.11,10.7,M,-47.6,M,,*4C
$GNGSA,A,3,25,23,10,29,15,18,32,,,,,,2.33,1.11,2.05*18
$GNGSA,A,3,71,85,,,,,,,,,,,2.33,1.11,2.05*13
$GPGSV,5,1,18,10,44,302,24,12,03,146,08,15,11,039,34,16,12,304,14*76
$GPGSV,5,2,18,18,18,017,14,23,31,355,22,24,11,099,18,25,29,165,18*7C
$GPGSV,5,3,18,26,28,279,20,28,19,209,15,29,56,091,29,31,07,232,*76
$GPGSV,5,4,18,32,51,195,31,36,52,277,,40,86,350,,41,58,082,*75
$GPGSV,5,5,18,49,32,274,,50,10,089,*78
$GLGSV,3,1,09,65,25,208,16,71,39,022,30,72,84,235,21,74,05,155,*61
$GLGSV,3,2,09,75,26,200,20,76,20,263,16,84,03,111,10,85,21,065,14*6F
$GLGSV,3,3,09,86,13,008,26*5C
$GNGLL,0419.73239,S,05539.86562,E,100809.00,A,A*6F
$GNGRS,100809.00,1,2.3,-10.6,-4.7,2.7,2.9,-9.1,-1.4,,,,,*48
$GNGRS,100809.00,1,-11.5,12.5,,,,,,,,,,*7E
$GNGST,100809.00,43970,,,,5.9,6.2,14*53
$GNZDA,100809.00,21,05,2025,00,00*7B
$GNGBS,100809.00,5.9,6.2,13.9,,,,*6C
b0X`%
,.1m#'0c;c8[ 3{4
V^:R 
YTAG'HTJKLT
o'UAVbb`%)KZ$GNRMC,100810.00,A,0419.73253,S,05539.86574,E,0.326,,210525,,,A*73
$GNVTG,,T,,M,0.326,N,0.603,K,A*3F
$GNGNS,100810.00,0419.73253,S,05539.86574,E,AA,09,1.11,10.1,-47.6,,*63
$GNGGA,100810.00,0419.73253,S,05539.86574,E,1,09,1.11,10.1,M,-47.6,M,,*49
$GNGSA,A,3,25,23,10,29,15,18,32,,,,,,2.33,1.11,2.05*18
$GNGSA,A,3,71,85,,,,,,,,,,,2.33,1.11,2.05*13
$GPGSV,5,1,18,10,44,302,24,12,03,146,11,15,11,039,35,16,12,304,14*7F
$GPGSV,5,2,18,18,18,017,16,23,31,355,21,24,11,099,17,25,29,165,17*7D
$GPGSV,5,3,18,26,28,279,20,28,19,209,14,29,56,091,31,31,07,232,*7E
$GPGSV,5,4,18,32,51,195,29,36,52,277,,40,86,350,,41,58,082,*7C
$GPGSV,5,5,18,49,32,274,,50,10,089,*78
$GLGSV,3,1,09,65,25,208,16,71,39,022,30,72,84,241,22,74,05,155,*61
$GLGSV,3,2,09,75,26,200,20,76,20,263,15,84,03,111,10,85,21,065,14*6C
$GLGSV,3,3,09,86,13,008,26*5C
$GNGLL,0419.73253,S,05539.86574,E,100810.00,A,A*6C
$GNGRS,100810.00,1,2.0,-7.1,-7.2,-0.2,2.7,-10.3,-2.3,,,,,*6E
$GNGRS,100810.00,1,-5.9,12.4,,,,,,,,,,*4E
$GNGST,100810.00,63956,,,,5.9,6.2,14*5D
$GNZDA,100810.00,21,05,2025,00,00*73
$GNGBS,100810.00,5.9,6.2,13.6,,,,*6B
b0XH)
,.w-$'0lccD8[ 3{4
V^:R 
YT!AG'OHTJKLT
oUAVxbH)K$GNRMC,100811.00,A,0419.73252,S,05539.86562,E,0.519,,210525,,,A*7E
$GNVTG,,T,,M,0.519,N,0.962,K,A*3D
$GNGNS,100811.00,0419.73252,S,05539.86562,E,AA,09,1.12,9.8,-47.6,,*56
$GNGGA,100811.00,0419.73252,S,05539.86562,E,1,09,1.12,9.8,M,-47.6,M,,*7C
$GNGSA,A,3,25,23,10,29,15,18,32,24,,,,,2.22,1.12,1.91*13
$GNGSA,A,3,71,,,,,,,,,,,,2.22,1.12,1.91*13
$GPGSV,5,1,18,10,44,302,21,12,03,146,14,15,11,039,36,16,12,304,15*7D
$GPGSV,5,2,18,18,18,017,15,23,31,355,21,24,11,099,17,25,29,165,19*70
$GPGSV,5,3,18,26,28,279,19,28,19,209,14,29,56,091,31,31,07,232,*74
$GPGSV,5,4,18,32,51,195,29,36,52,277,,40,86,350,,41,58,082,*7C
$GPGSV,5,5,18,49,32,274,,50,10,089,*78
$GLGSV,3,1,09,65,25,208,16,71,39,022,28,72,84,241,22,74,05,155,*68
$GLGSV,3,2,09,75,26,200,17,76,20,263,16,84,03,111,10,85,21,065,07*69
$GLGSV,3,3,09,86,13,008,25*5F
$GNGLL,0419.73252,S,05539.86562,E,100811.00,A,A*6B
$GNGRS,100811.00,1,3.2,-6.0,-5.9,-0.9,2.2,-9.2,-0.5,-10.6,,,,*62
$GNGRS,100811.00,1,-9.4,,,,,,,,,,,*57
$GNGST,100811.00,50,,,,5.8,6.2,13*60
$GNZDA,100811.00,21,05,2025,00,00*72
$GNGBS,100811.00,5.8,6.2,13.4,,,,*69
b0X0-
,.$'0c=c28[ 3{4
V^:R 
YTAG'HTJKLToTU
AVtb0-K'$GNRMC,100812.00,A,0419.73258,S,05539.86570,E,0.186,,210525,,,A*76
$GNVTG,,T,,M,0.186,N,0.344,K,A*31
$GNGNS,100812.00,0419.73258,S,05539.86570,E,AA,10,1.06,9.6,-47.6,,*5F
$GNGGA,100812.00,0419.73258,S,05539.86570,E,1,10,1.06,9.6,M,-47.6,M,,*75
$GNGSA,A,3,25,23,10,29,15,18,32,24,,,,,2.18,1.06,1.91*1F
$GNGSA,A,3,71,85,,,,,,,,,,,2.18,1.06,1.91*12
$GPGSV,5,1,18,10,44,302,19,12,03,146,13,15,11,039,36,16,12,304,15*71
$GPGSV,5,2,18,18,18,017,15,23,31,355,19,24,11,099,17,25,29,165,18*7A
$GPGSV,5,3,18,26,28,279,18,28,19,209,16,29,56,091,31,31,07,232,*77
$GPGSV,5,4,18,32,51,195,27,36,52,277,,40,86,350,,41,58,082,*72
$GPGSV,5,5,18,49,32,274,,50,10,089,*78
$GLGSV,3,1,09,65,25,208,,71,39,022,28,72,84,241,22,74,04,154,*6F
$GLGSV,3,2,09,75,26,200,14,76,20,263,16,84,03,111,09,85,21,065,10*64
$GLGSV,3,3,09,86,13,008,24*5E
$GNGLL,0419.73258,S,05539.86570,E,100812.00,A,A*61
$GNGRS,100812.00,1,3.1,-2.0,-6.1,1.7,1.6,-8.1,-3.3,-14.0,,,,*4D
$GNGRS,100812.00,1,-11.0,11.9,,,,,,,,,,*7E
$GNGST,100812.00,58,,,,5.8,6.2,13*6B
$GNZDA,100812.00,21,05,2025,00,00*71
$GNGBS,100812.00,5.8,6.2,13.2,,,,*6C
b0X1
,.#'0rcvcI$8[  3{4
V^:R 
YTAG'SHTJKLTo0UAVb1Ku$GNRMC,100813.00,A,0419.73250,S,05539.86587,E,0.270,,210525,,,A*7D
$GNVTG,,T,,M,0.270,N,0.500,K,A*3D
$GNGNS,100813.00,0419.73250,S,05539.86587,E,AA,10,1.06,9.8,-47.6,,*50
$GNGGA,100813.00,0419.73250,S,05539.86587,E,1,10,1.06,9.8,M,-47.6,M,,*7A
$GNGSA,A,3,25,23,10,29,15,18,32,24,,,,,2.18,1.06,1.91*1F
$GNGSA,A,3,71,85,,,,,,,,,,,2.18,1.06,1.91*12
$GPGSV,5,1,18,10,44,302,17,12,03,146,11,15,11,039,35,16,12,304,15*7E
$GPGSV,5,2,18,18,18,017,16,23,31,355,17,24,11,099,17,25,29,165,17*78
$GPGSV,5,3,18,26,28,279,21,28,19,209,17,29,56,091,31,31,07,232,*7C
$GPGSV,5,4,18,32,51,195,26,36,52,277,,40,86,350,,41,58,082,*73
$GPGSV,5,5,18,49,32,274,,50,10,089,*78
$GLGSV,3,1,09,65,25,208,,71,39,022,29,72,84,241,21,74,04,154,*6D
$GLGSV,3,2,09,75,25,200,12,76,20,263,17,84,03,111,09,85,21,065,14*64
$GLGSV,3,3,09,86,13,008,23*59
$GNGLL,0419.73250,S,05539.86587,E,100813.00,A,A*60
$GNGRS,100813.00,1,0.4,-3.9,-8.6,2.9,1.3,-9.1,-6.3,-22.3,,,,*41
$GNGRS,100813.00,1,-9.4,11.5,,,,,,,,,,*4E
$GNGST,100813.00,54,,,,5.7,6.2,13*69
$GNZDA,100813.00,21,05,2025,00,00*70
$GNGBS,100813.00,5.7,6.2,13.0,,,,*60
b0X5
,.'#'t0
c/c8[ 3{4
V^:R 
YT9AG'HTJKLTo*UAVob5KM$GNRMC,100814.00,A,0419.73250,S,05539.86602,E,0.228,,210525,,,A*79
$GNVTG,,T,,M,0.228,N,0.421,K,A*32
$GNGNS,100814.00,0419.73250,S,05539.86602,E,AA,10,1.06,10.0,-47.6,,*69
$GNGGA,100814.00,0419.73250,S,05539.86602,E,1,10,1.06,10.0,M,-47.6,M,,*43
$GNGSA,A,3,25,23,10,29,15,18,32,24,,,,,2.18,1.06,1.91*1F
$GNGSA,A,3,71,85,,,,,,,,,,,2.18,1.06,1.91*12
$GPGSV,5,1,18,10,44,302,18,12,03,146,09,15,11,039,35,16,12,304,16*7B
$GPGSV,5,2,18,18,18,017,17,23,31,355,16,24,11,099,17,25,29,165,16*79
$GPGSV,5,3,18,26,28,279,24,28,19,209,17,29,56,091,29,31,07,232,*70
$GPGSV,5,4,18,32,51,195,25,36,52,277,,40,86,350,,41,58,082,*70
$GPGSV,5,5,18,49,32,274,,50,10,089,*78
$GLGSV,3,1,09,65,25,208,,71,39,022,29,72,84,241,20,74,04,154,*6C
$GLGSV,3,2,09,75,25,200,13,76,20,262,17,84,03,111,11,85,21,065,18*61
$GLGSV,3,3,09,86,13,008,23*59
$GNGLL,0419.73250,S,05539.86602,E,100814.00,A,A*69
$GNGRS,100814.00,1,-0.5,-4.7,-9.8,6.6,1.2,-10.1,-5.7,-25.9,,,,*54
$GNGRS,100814.00,1,-6.1,9.0,,,,,,,,,,*7F
$GNGST,100814.00,52,,,,5.7,6.3,13*69
$GNZDA,100814.00,21,05,2025,00,00*77
$GNGBS,100814.00,5.7,6.3,12.9,,,,*6E
b0X8
,..#'W0ccK8[g 3\{4
V^:R 
YTAG'kHTJKLT
oUA5V.b8L%R$GNRMC,100815.00,A,0419.73254,S,05539.86631,E,0.363,,210525,,,A*72
$GNVTG,,T,,M,0.363,N,0.672,K,A*38
$GNGNS,100815.00,0419.73254,S,05539.86631,E,AA,10,1.06,10.5,-47.6,,*69
$GNGGA,100815.00,0419.73254,S,05539.86631,E,1,10,1.06,10.5,M,-47.6,M,,*43
$GNGSA,A,3,25,23,10,29,15,18,32,24,,,,,2.18,1.06,1.91*1F
$GNGSA,A,3,71,85,,,,,,,,,,,2.18,1.06,1.91*12
$GPGSV,5,1,18,10,44,302,18,12,03,146,12,15,11,039,35,16,12,304,15*72
$GPGSV,5,2,18,18,18,017,17,23,31,355,15,24,11,099,17,25,29,165,17*7B
$GPGSV,5,3,18,26,28,279,24,28,19,209,16,29,56,091,28,31,07,232,*70
$GPGSV,5,4,18,32,51,195,25,36,52,277,,40,86,350,,41,58,082,*70
$GPGSV,5,5,18,49,32,274,,50,10,089,*78
$GLGSV,3,1,09,65,25,208,,71,39,022,29,72,84,241,22,74,04,154,*6E
$GLGSV,3,2,09,75,25,200,12,76,20,262,15,84,03,111,10,85,21,065,19*62
$GLGSV,3,3,09,86,13,008,22*58
$GNGLL,0419.73254,S,05539.86631,E,100815.00,A,A*6C
$GNGRS,100815.00,1,-1.8,-5.5,-11.3,13.8,0.9,-11.1,-1.6,-25.9,,,,*5C
$GNGRS,100815.00,1,-4.0,8.2,,,,,,,,,,*7E
$GNGST,100815.00,52,,,,5.7,6.4,13*6F
$GNZDA,100815.00,21,05,2025,00,00*76
$GNGBS,100815.00,5.7,6.4,12.8,,,,*69
b0X<
,.
#'60PccW"8[z 3
{4
V^:R 
YT5AG'RHTJKLTo[UA'Vb<L$GNRMC,100816.00,A,0419.73268,S,05539.86646,E,0.385,,210525,,,A*76
$GNVTG,,T,,M,0.385,N,0.713,K,A*36
$GNGNS,100816.00,0419.73268,S,05539.86646,E,AA,10,1.11,10.3,-47.6,,*65
$GNGGA,100816.00,0419.73268,S,05539.86646,E,1,10,1.11,10.3,M,-47.6,M,,*4F
$GNGSA,A,3,25,23,10,29,15,18,32,24,,,,,2.33,1.11,2.05*1E
$GNGSA,A,3,71,85,,,,,,,,,,,2.33,1.11,2.05*13
$GPGSV,5,1,18,10,44,302,18,12,03,146,10,15,11,039,35,16,12,304,13*76
$GPGSV,5,2,18,18,18,017,19,23,31,355,14,24,11,099,16,25,29,165,19*7B
$GPGSV,5,3,18,26,28,279,22,28,19,209,15,29,56,091,29,31,07,232,*74
$GPGSV,5,4,18,32,51,195,27,36,52,277,,40,86,350,,41,58,082,*72
$GPGSV,5,5,18,49,32,274,,50,10,089,*78
$GLGSV,3,1,09,65,25,208,,71,39,022,29,72,84,241,23,74,04,154,*6F
$GLGSV,3,2,09,75,25,200,12,76,20,262,14,84,03,111,08,85,21,065,19*6A
$GLGSV,3,3,09,86,13,008,22*58
$GNGLL,0419.73268,S,05539.86646,E,100816.00,A,A*60
$GNGRS,100816.00,1,-2.2,-5.5,-11.1,3.8,0.5,-9.4,-2.5,-22.2,,,,*59
$GNGRS,100816.00,1,-9.4,8.1,,,,,,,,,,*77
$GNGST,100816.00,46,,,,5.7,6.4,13*69
$GNZDA,100816.00,21,05,2025,00,00*75
$GNGBS,100816.00,5.7,6.4,12.6,,,,*64
b0X@
,.
#'0>ccyJ8[ 32{4
V^:R 
YTAG'HTJKLToUAVb@L"$GNRMC,100817.00,A,0419.73270,S,05539.86651,E,0.095,,210525,,,A*7A
$GNVTG,,T,,M,0.095,N,0.176,K,A*31
$GNGNS,100817.00,0419.73270,S,05539.86651,E,AA,10,1.06,10.3,-47.6,,*6D
$GNGGA,100817.00,0419.73270,S,05539.86651,E,1,10,1.06,10.3,M,-47.6,M,,*47
$GNGSA,A,3,25,23,10,29,15,18,32,24,,,,,2.18,1.06,1.91*1F
$GNGSA,A,3,71,85,,,,,,,,,,,2.18,1.06,1.91*12
$GPGSV,5,1,18,10,44,302,16,12,03,146,11,15,11,039,35,16,12,304,11*7B
$GPGSV,5,2,18,18,18,017,20,23,31,355,14,24,11,099,16,25,29,165,20*7B
$GPGSV,5,3,18,26,28,279,22,28,19,209,16,29,56,091,30,31,07,232,*7F
$GPGSV,5,4,18,32,51,195,24,36,52,277,,40,86,350,,41,58,082,*71
$GPGSV,5,5,18,49,32,274,,50,10,089,*78
$GLGSV,3,1,09,65,25,208,,71,39,022,29,72,84,241,24,74,04,154,*68
$GLGSV,3,2,09,75,25,200,13,76,20,262,13,84,03,111,08,85,21,065,20*66
$GLGSV,3,3,09,86,13,008,21*5B
$GNGLL,0419.73270,S,05539.86651,E,100817.00,A,A*6E
$GNGRS,100817.00,1,0.7,-5.6,-12.7,-0.7,0.1,-7.1,-2.1,-21.8,,,,*57
$GNGRS,100817.00,1,-3.1,7.9,,,,,,,,,,*7E
$GNGST,100817.00,52,,,,5.7,6.5,13*6C
$GNZDA,100817.00,21,05,2025,00,00*74
$GNGBS,100817.00,5.7,6.5,12.5,,,,*67
b0XD
,.T#'0Ycc8[ 3{4
V^:R 
YT}AG'9HTJKLT
o~UAVbDiL$GNRMC,100818.00,A,0419.73274,S,05539.86668,E,0.128,,210525,,,A*7C
$GNVTG,,T,,M,0.128,N,0.237,K,A*30
$GNGNS,100818.00,0419.73274,S,05539.86668,E,AA,10,1.11,10.2,-47.6,,*6B
$GNGGA,100818.00,0419.73274,S,05539.86668,E,1,10,1.11,10.2,M,-47.6,M,,*41
$GNGSA,A,3,25,23,10,29,15,18,32,24,,,,,2.33,1.11,2.05*1E
$GNGSA,A,3,71,85,,,,,,,,,,,2.33,1.11,2.05*13
$GPGSV,5,1,18,10,44,302,16,12,03,146,11,15,11,039,35,16,12,304,13*79
$GPGSV,5,2,18,18,18,017,20,23,31,355,15,24,11,099,16,25,29,165,20*7A
$GPGSV,5,3,18,26,28,279,23,28,19,209,16,29,56,091,29,31,07,232,*76
$GPGSV,5,4,18,32,51,195,26,36,52,277,,40,86,350,,41,58,082,*73
$GPGSV,5,5,18,49,32,274,,50,10,089,*78
$GLGSV,3,1,09,65,25,208,,71,39,022,28,72,84,241,22,74,04,154,*6F
$GLGSV,3,2,09,75,25,200,13,76,20,262,14,84,03,111,10,85,21,065,19*62
$GLGSV,3,3,09,86,13,008,21*5B
$GNGLL,0419.73274,S,05539.86668,E,100818.00,A,A*6F
$GNGRS,100818.00,1,-0.9,-4.8,-14.5,1.9,0.1,-4.2,-0.2,-20.9,,,,*53
$GNGRS,100818.00,1,-4.6,7.1,,,,,,,,,,*79
$GNGST,100818.00,46,,,,5.7,6.6,12*64
$GNZDA,100818.00,21,05,2025,00,00*7B
$GNGBS,100818.00,5.7,6.6,12.4,,,,*6A
b0XH
,."'0ccw8[ 3{4
V^:R 
YTAG'HTJKLToiUAVbHQL$GNRMC,100819.00,A,0419.73283,S,05539.86679,E,0.274,,210525,,,A*7F
$GNVTG,,T,,M,0.274,N,0.507,K,A*3E
$GNGNS,100819.00,0419.73283,S,05539.86679,E,AA,10,1.11,9.9,-47.6,,*51
$GNGGA,100819.00,0419.73283,S,05539.86679,E,1,10,1.11,9.9,M,-47.6,M,,*7B
$GNGSA,A,3,25,23,10,29,15,18,32,24,,,,,2.33,1.11,2.05*1E
$GNGSA,A,3,71,85,,,,,,,,,,,2.33,1.11,2.05*13
$GPGSV,5,1,18,10,44,302,15,12,03,146,07,15,11,039,34,16,12,304,16*79
$GPGSV,5,2,18,18,18,017,21,23,31,355,15,24,11,099,16,25,29,165,20*7B
$GPGSV,5,3,18,26,28,279,24,28,19,209,14,29,56,091,31,31,07,232,*7A
$GPGSV,5,4,18,32,51,195,28,36,52,277,,40,86,350,,41,58,082,*7D
$GPGSV,5,5,18,49,32,274,,50,10,089,*78
$GLGSV,3,1,09,65,25,208,,71,39,022,29,72,84,241,21,74,04,154,*6D
$GLGSV,3,2,09,75,25,200,17,76,20,262,16,84,03,111,11,85,21,065,16*6A
$GLGSV,3,3,09,86,13,008,21*5B
$GNGLL,0419.73283,S,05539.86679,E,100819.00,A,A*66
$GNGRS,100819.00,1,-0.2,-3.5,-16.6,-0.7,-0.3,-3.8,-1.0,-21.9,,,,*50
$GNGRS,100819.00,1,-8.9,6.5,,,,,,,,,,*7E
$GNGST,100819.00,51,,,,5.6,6.6,12*62
$GNZDA,100819.00,21,05,2025,00,00*7A
$GNGBS,100819.00,5.6,6.6,12.3,,,,*6D
b0XpL
,.j"'0mcc8[W 3;{4
V^:R 
YTAG'\HTJKLT
oUAVnbpL9L]Z$GNRMC,100820.00,A,0419.73286,S,05539.86692,E,0.065,,210525,,,A*77
$GNVTG,,T,,M,0.065,N,0.120,K,A*3D
$GNGNS,100820.00,0419.73286,S,05539.86692,E,AA,10,1.11,9.9,-47.6,,*5B
$GNGGA,100820.00,0419.73286,S,05539.86692,E,1,10,1.11,9.9,M,-47.6,M,,*71
$GNGSA,A,3,25,23,10,29,15,18,32,24,,,,,2.33,1.11,2.05*1E
$GNGSA,A,3,71,85,,,,,,,,,,,2.33,1.11,2.05*13
$GPGSV,5,1,18,10,44,302,18,12,03,146,07,15,11,039,34,16,12,304,14*76
$GPGSV,5,2,18,18,18,017,22,23,31,355,15,24,11,099,16,25,29,165,21*79
$GPGSV,5,3,18,26,28,279,24,28,19,209,,29,56,091,31,31,07,232,*7F
$GPGSV,5,4,18,32,51,195,30,36,52,277,,40,86,350,,41,58,082,*74
$GPGSV,5,5,18,49,32,274,,50,10,089,*78
$GLGSV,3,1,09,65,25,208,,71,39,022,31,72,84,241,21,74,04,154,*64
$GLGSV,3,2,09,75,25,200,19,76,20,262,19,84,03,111,10,85,21,065,16*6A
$GLGSV,3,3,09,86,13,008,20*5A
$GNGLL,0419.73286,S,05539.86692,E,100820.00,A,A*6C
$GNGRS,100820.00,1,-2.6,-4.9,-14.3,0.9,-0.2,-4.0,-2.0,-22.9,,,,*7D
$GNGRS,100820.00,1,-6.8,5.3,,,,,,,,,,*7E
$GNGST,100820.00,45,,,,5.6,6.6,12*6D
$GNZDA,100820.00,21,05,2025,00,00*70
$GNGBS,100820.00,5.6,6.6,12.1,,,,*65
b0XXP
,.3#'0cc}8[t 3{4
V^:R 
YT!AG 'HTJKLToYUAVSbXP!L5$GNRMC,100821.00,A,0419.73305,S,05539.86708,E,0.347,,210525,,,A*7D
$GNVTG,,T,,M,0.347,N,0.643,K,A*3C
$GNGNS,100821.00,0419.73305,S,05539.86708,E,AA,10,1.11,9.4,-47.6,,*5F
$GNGGA,100821.00,0419.73305,S,05539.86708,E,1,10,1.11,9.4,M,-47.6,M,,*75
$GNGSA,A,3,25,23,10,29,15,18,32,24,,,,,2.33,1.11,2.05*1E
$GNGSA,A,3,71,85,,,,,,,,,,,2.33,1.11,2.05*13
$GPGSV,5,1,18,10,44,302,18,12,03,146,11,15,11,039,35,16,12,304,12*76
$GPGSV,5,2,18,18,18,017,22,23,31,355,16,24,11,099,17,25,29,165,19*70
$GPGSV,5,3,18,26,28,279,24,28,19,209,,29,56,091,31,31,07,232,*7F
$GPGSV,5,4,18,32,51,195,31,36,52,277,,40,86,350,,41,58,082,*75
$GPGSV,5,5,18,49,32,274,,50,10,089,*78
$GLGSV,3,1,09,65,25,208,,71,39,022,32,72,84,241,20,74,04,154,*66
$GLGSV,3,2,09,75,25,200,18,76,20,262,19,84,03,111,12,85,21,065,18*67
$GLGSV,3,3,09,86,13,008,19*50
$GNGLL,0419.73305,S,05539.86708,E,100821.00,A,A*65
$GNGRS,100821.00,1,-1.3,-3.6,-12.3,1.2,0.0,-3.8,0.0,-23.8,,,,*71
$GNGRS,100821.00,1,-8.4,4.3,,,,,,,,,,*7C
$GNGST,100821.00,44,,,,5.5,6.6,12*6E
$GNZDA,100821.00,21,05,2025,00,00*71
$GNGBS,100821.00,5.5,6.6,11.9,,,,*6C
b0X@T
,.E#'0Rcc8[  3{4
V^:R 
YTAG'VHTJKLToCUAVb@TL*$GNRMC,100822.00,A,0419.73310,S,05539.86723,E,0.365,,210525,,,A*73
$GNVTG,,T,,M,0.365,N,0.676,K,A*3A
$GNGNS,100822.00,0419.73310,S,05539.86723,E,AA,10,1.11,9.3,-47.6,,*56
$GNGGA,100822.00,0419.73310,S,05539.86723,E,1,10,1.11,9.3,M,-47.6,M,,*7C
$GNGSA,A,3,25,23,10,29,15,18,32,24,,,,,2.33,1.11,2.05*1E
$GNGSA,A,3,71,85,,,,,,,,,,,2.33,1.11,2.05*13
$GPGSV,5,1,18,10,44,302,16,12,03,146,11,15,11,039,35,16,12,304,09*72
$GPGSV,5,2,18,18,18,017,22,23,31,355,18,24,11,099,16,25,29,165,18*7E
$GPGSV,5,3,18,26,28,279,23,28,19,209,,29,56,091,31,31,07,232,*78
$GPGSV,5,4,18,32,51,195,32,36,52,277,,40,86,350,,41,58,082,*76
$GPGSV,5,5,18,49,32,274,,50,10,089,*78
$GLGSV,3,1,09,65,25,208,,71,39,022,30,72,84,241,22,74,04,154,*66
$GLGSV,3,2,09,75,25,200,17,76,20,262,17,84,03,111,09,85,21,065,18*6C
$GLGSV,3,3,09,86,13,008,19*50
$GNGLL,0419.73310,S,05539.86723,E,100822.00,A,A*6B
$GNGRS,100822.00,1,0.2,-1.1,-12.1,0.2,-0.1,-4.3,-3.6,-26.6,,,,*5A
$GNGRS,100822.00,1,-6.8,4.2,,,,,,,,,,*7C
$GNGST,100822.00,46,,,,5.4,6.6,12*6E
$GNZDA,100822.00,21,05,2025,00,00*72
$GNGBS,100822.00,5.4,6.6,11.8,,,,*6F
b0X(X
,.N#'0c(c 8[ !3{4
V^:R 
YTAG'HTJKLToUB:V@b(XL$GNRMC,100823.00,A,0419.73310,S,05539.86737,E,0.278,,210525,,,A*7A
$GNVTG,,T,,M,0.278,N,0.515,K,A*31
$GNGNS,100823.00,0419.73310,S,05539.86737,E,AA,10,1.11,9.1,-47.6,,*50
$GNGGA,100823.00,0419.73310,S,05539.86737,E,1,10,1.11,9.1,M,-47.6,M,,*7A
$GNGSA,A,3,25,23,10,29,15,18,32,24,,,,,2.33,1.11,2.05*1E
$GNGSA,A,3,71,85,,,,,,,,,,,2.33,1.11,2.05*13
$GPGSV,5,1,18,10,44,302,14,12,03,146,08,15,11,039,35,16,12,304,*71
$GPGSV,5,2,18,18,18,017,21,23,31,355,18,24,11,099,18,25,29,165,15*7E
$GPGSV,5,3,18,26,28,279,24,28,19,209,,29,56,091,32,31,07,232,*7C
$GPGSV,5,4,18,32,51,195,33,36,52,277,,40,86,350,,41,58,082,*77
$GPGSV,5,5,18,49,32,274,,50,10,089,*78
$GLGSV,3,1,09,65,25,208,,71,39,022,30,72,84,241,22,74,04,154,*66
$GLGSV,3,2,09,75,25,200,18,76,20,262,14,84,03,111,08,85,21,066,19*63
$GLGSV,3,3,09,86,13,008,19*50
$GNGLL,0419.73310,S,05539.86737,E,100823.00,A,A*6F
$GNGRS,100823.00,1,1.9,0.4,-10.7,-0.5,-0.2,-5.0,-5.6,-23.4,,,,*56
$GNGRS,100823.00,1,-11.1,3.1,,,,,,,,,,*46
$GNGST,100823.00,47,,,,5.4,6.6,12*6E
$GNZDA,100823.00,21,05,2025,00,00*73
$GNGBS,100823.00,5.4,6.6,11.7,,,,*61
b0X\
,.Te#'0/ccO 8[{  3:{4
V^:R 
YT<AG'HTJKLToUBqV=b\#L$GNRMC,100824.00,A,0419.73308,S,05539.86747,E,0.271,,210525,,,A*7A
$GNVTG,,T,,M,0.271,N,0.501,K,A*3D
$GNGNS,100824.00,0419.73308,S,05539.86747,E,AA,10,1.06,9.2,-47.6,,*5C
$GNGGA,100824.00,0419.73308,S,05539.86747,E,1,10,1.06,9.2,M,-47.6,M,,*76
$GNGSA,A,3,25,23,10,29,15,18,32,24,,,,,2.18,1.06,1.91*1F
$GNGSA,A,3,71,85,,,,,,,,,,,2.18,1.06,1.91*12
$GPGSV,5,1,18,10,44,302,13,12,03,146,11,15,11,039,35,16,12,304,*7E
$GPGSV,5,2,18,18,18,017,22,23,31,355,17,24,11,099,18,25,29,165,15*72
$GPGSV,5,3,18,26,28,279,23,28,19,209,,29,56,091,32,31,07,232,*7B
$GPGSV,5,4,18,32,51,195,32,36,52,277,,40,86,350,,41,58,082,*76
$GPGSV,5,5,18,49,32,274,,50,10,089,*78
$GLGSV,3,1,09,65,25,208,,71,39,022,30,72,84,241,22,74,04,154,*66
$GLGSV,3,2,09,75,25,200,20,76,20,262,12,84,03,111,11,85,21,066,21*6D
$GLGSV,3,3,09,86,14,009,20*5C
$GNGLL,0419.73308,S,05539.86747,E,100824.00,A,A*66
$GNGRS,100824.00,1,1.7,0.0,-9.4,1.2,-0.5,-7.2,-4.5,-22.3,,,,*48
$GNGRS,100824.00,1,-5.0,1.1,,,,,,,,,,*77
$GNGST,100824.00,48,,,,5.3,6.6,12*61
$GNZDA,100824.00,21,05,2025,00,00*74
$GNGBS,100824.00,5.3,6.6,11.5,,,,*63
b0X_
,.{#'0c{cD8[l 3{4
V^:R 
YTAG '4HTJKLT
oUBVb_'LP$GNRMC,100825.00,A,0419.73305,S,05539.86759,E,0.167,,210525,,,A*7D
$GNVTG,,T,,M,0.167,N,0.309,K,A*37
$GNGNS,100825.00,0419.73305,S,05539.86759,E,AA,10,1.06,9.4,-47.6,,*59
$GNGGA,100825.00,0419.73305,S,05539.86759,E,1,10,1.06,9.4,M,-47.6,M,,*73
$GNGSA,A,3,25,23,10,29,15,18,32,24,,,,,2.18,1.06,1.91*1F
$GNGSA,A,3,71,85,,,,,,,,,,,2.18,1.06,1.91*12
$GPGSV,5,1,18,10,44,302,17,12,03,146,08,15,11,039,35,16,12,304,*72
$GPGSV,5,2,18,18,18,017,22,23,31,355,15,24,11,099,18,25,29,165,17*72
$GPGSV,5,3,18,26,28,279,24,28,19,209,,29,56,091,31,31,07,232,*7F
$GPGSV,5,4,18,32,51,195,31,36,52,277,,40,86,350,,41,58,082,*75
$GPGSV,5,5,18,49,32,274,,50,10,089,*78
$GLGSV,3,1,09,65,25,208,,71,39,022,32,72,84,241,22,74,04,154,*64
$GLGSV,3,2,09,75,25,200,17,76,20,262,,84,03,111,10,85,21,066,19*60
$GLGSV,3,3,09,86,14,009,20*5C
$GNGLL,0419.73305,S,05539.86759,E,100825.00,A,A*65
$GNGRS,100825.00,1,1.6,-3.9,-9.0,1.1,-0.5,-7.4,-7.7,-19.8,,,,*6C
$GNGRS,100825.00,1,-4.6,3.9,,,,,,,,,,*7B
$GNGST,100825.00,46,,,,5.3,6.6,11*6D
$GNZDA,100825.00,21,05,2025,00,00*75
$GNGBS,100825.00,5.3,6.6,11.4,,,,*63
b0Xc
,.#'0cIc8[ 3{4
V^:R 
YTAG 'HTJKLTo;UBVxbc+Lk$GNRMC,100826.00,A,0419.73314,S,05539.86768,E,0.104,,210525,,,A*79
$GNVTG,,T,,M,0.104,N,0.192,K,A*32
$GNGNS,100826.00,0419.73314,S,05539.86768,E,AA,10,1.11,9.1,-47.6,,*5B
$GNGGA,100826.00,0419.73314,S,05539.86768,E,1,10,1.11,9.1,M,-47.6,M,,*71
$GNGSA,A,3,25,23,10,29,15,18,32,24,,,,,2.33,1.11,2.05*1E
$GNGSA,A,3,71,85,,,,,,,,,,,2.33,1.11,2.05*13
$GPGSV,5,1,18,10,44,302,21,12,03,146,07,15,11,039,35,16,12,304,*78
$GPGSV,5,2,18,18,18,017,25,23,31,355,13,24,11,099,18,25,29,165,19*7D
$GPGSV,5,3,18,26,28,279,25,28,19,209,,29,56,091,30,31,07,232,*7F
$GPGSV,5,4,18,32,51,195,31,36,52,277,,40,86,350,,41,58,082,*75
$GPGSV,5,5,18,49,32,274,,50,10,089,*78
$GLGSV,3,1,09,65,25,208,,71,39,022,32,72,84,241,22,74,04,154,*64
$GLGSV,3,2,09,75,25,200,15,76,20,262,,84,03,111,12,85,21,066,19*60
$GLGSV,3,3,09,86,14,009,20*5C
$GNGLL,0419.73314,S,05539.86768,E,100826.00,A,A*64
$GNGRS,100826.00,1,1.6,-9.5,-6.0,-0.7,-0.5,-5.9,-2.9,-20.2,,,,*48
$GNGRS,100826.00,1,-8.8,4.0,,,,,,,,,,*74
$GNGST,100826.00,44,,,,5.2,6.6,11*6D
$GNZDA,100826.00,21,05,2025,00,00*76
$GNGBS,100826.00,5.2,6.6,11.3,,,,*66
b0Xg
,.#'0;cc8[H  3{4
V^:R 
YTAG'PHTJKLToUB!VMbg/LC $GNRMC,100827.00,A,0419.73305,S,05539.86768,E,0.245,,210525,,,A*7E
$GNVTG,,T,,M,0.245,N,0.455,K,A*3A
$GNGNS,100827.00,0419.73305,S,05539.86768,E,AA,09,1.26,9.4,-47.6,,*53
$GNGGA,100827.00,0419.73305,S,05539.86768,E,1,09,1.26,9.4,M,-47.6,M,,*79
$GNGSA,A,3,25,23,29,15,18,32,24,,,,,,2.30,1.26,1.92*15
$GNGSA,A,3,71,85,,,,,,,,,,,2.30,1.26,1.92*19
$GPGSV,5,1,18,10,44,302,,12,03,146,08,15,11,039,35,16,12,304,*74
$GPGSV,5,2,18,18,18,017,24,23,31,355,15,24,11,099,17,25,29,165,20*7F
$GPGSV,5,3,18,26,28,279,25,28,19,209,,29,56,091,30,31,07,232,*7F
$GPGSV,5,4,18,32,51,195,32,36,52,277,,40,86,350,,41,58,082,*76
$GPGSV,5,5,18,49,32,274,,50,10,089,*78
$GLGSV,3,1,09,65,25,208,,71,39,022,31,72,84,241,23,74,04,154,*66
$GLGSV,3,2,09,75,25,200,15,76,20,262,,84,03,111,09,85,21,066,20*60
$GLGSV,3,3,09,86,14,009,19*56
$GNGLL,0419.73305,S,05539.86768,E,100827.00,A,A*65
$GNGRS,100827.00,1,1.5,-7.8,0.7,-0.6,-4.5,-3.2,-19.1,,,,,*6C
$GNGRS,100827.00,1,-4.3,2.9,,,,,,,,,,*7D
$GNGST,100827.00,43,,,,5.2,6.7,11*6A
$GNZDA,100827.00,21,05,2025,00,00*77
$GNGBS,100827.00,5.2,6.7,11.2,,,,*67
b0Xk
,.
x#'0cc8[  3{4
V^:R 
YT4AG'HTJKLT
oUBVBbky3L$GNRMC,100828.00,A,0419.73304,S,05539.86761,E,0.079,,210525,,,A*74
$GNVTG,,T,,M,0.079,N,0.145,K,A*33
$GNGNS,100828.00,0419.73304,S,05539.86761,E,AA,09,1.26,9.1,-47.6,,*51
$GNGGA,100828.00,0419.73304,S,05539.86761,E,1,09,1.26,9.1,M,-47.6,M,,*7B
$GNGSA,A,3,25,23,29,15,18,32,24,,,,,,2.30,1.26,1.92*15
$GNGSA,A,3,71,85,,,,,,,,,,,2.30,1.26,1.92*19
$GPGSV,5,1,18,10,44,302,,12,03,146,10,15,11,039,35,16,12,304,*7D
$GPGSV,5,2,18,18,18,017,24,23,31,355,15,24,11,099,15,25,29,165,18*76
$GPGSV,5,3,18,26,28,279,24,28,19,209,,29,56,091,31,31,07,232,*7F
$GPGSV,5,4,18,32,51,195,32,36,52,277,,40,86,350,,41,58,082,*76
$GPGSV,5,5,18,49,32,274,,50,10,089,*78
$GLGSV,3,1,09,65,25,208,,71,39,022,30,72,84,241,23,74,04,154,*67
$GLGSV,3,2,09,75,25,200,18,76,20,262,,84,03,111,10,85,21,066,19*6F
$GLGSV,3,3,09,86,14,009,18*57
$GNGLL,0419.73304,S,05539.86761,E,100828.00,A,A*62
$GNGRS,100828.00,1,2.7,-7.9,-3.8,-0.2,-6.4,-3.4,-19.2,,,,,*40
$GNGRS,100828.00,1,-8.6,1.5,,,,,,,,,,*74
$GNGST,100828.00,45,,,,5.2,6.7,11*63
$GNZDA,100828.00,21,05,2025,00,00*78
$GNGBS,100828.00,5.2,6.7,11.1,,,,*6B
b0Xo
,.
^#'0cc8[ 3{4
V^:R 
YTAG'HTJKLTo@.UBVboa7L$GNRMC,100829.00,A,0419.73307,S,05539.86760,E,0.221,,210525,,,A*78
$GNVTG,,T,,M,0.221,N,0.409,K,A*31
$GNGNS,100829.00,0419.73307,S,05539.86760,E,AA,09,1.26,9.2,-47.6,,*51
$GNGGA,100829.00,0419.73307,S,05539.86760,E,1,09,1.26,9.2,M,-47.6,M,,*7B
$GNGSA,A,3,25,23,29,15,18,32,24,,,,,,2.30,1.26,1.92*15
$GNGSA,A,3,71,85,,,,,,,,,,,2.30,1.26,1.92*19
$GPGSV,5,1,18,10,44,302,,12,03,146,10,15,11,039,35,16,12,304,*7D
$GPGSV,5,2,18,18,18,017,23,23,31,355,13,24,11,099,16,25,29,165,15*79
$GPGSV,5,3,18,26,28,279,24,28,19,209,,29,56,091,30,31,07,232,*7E
$GPGSV,5,4,18,32,51,195,31,36,52,277,,40,86,350,,41,58,082,*75
$GPGSV,5,5,18,49,32,274,,50,10,089,*78
$GLGSV,3,1,09,65,25,208,,71,39,022,30,72,84,241,21,74,04,154,*65
$GLGSV,3,2,09,75,25,200,19,76,20,262,,84,03,111,08,85,21,066,19*67
$GLGSV,3,3,09,86,14,009,19*56
$GNGLL,0419.73307,S,05539.86760,E,100829.00,A,A*61
$GNGRS,100829.00,1,2.8,-8.8,2.5,-0.2,-8.1,2.7,-18.8,,,,,*4E
$GNGRS,100829.00,1,-3.6,1.7,,,,,,,,,,*7C
$GNGST,100829.00,49,,,,5.1,6.7,11*6D
$GNZDA,100829.00,21,05,2025,00,00*79
$GNGBS,100829.00,5.1,6.7,11.0,,,,*68
b0Xs
,.#'0ccC8[b  3`{4
V^:R 
YTAG 'HTJKLToUBVbsI;LX$GNRMC,100830.00,A,0419.73311,S,05539.86763,E,0.127,,210525,,,A*71
$GNVTG,,T,,M,0.127,N,0.234,K,A*3C
$GNGNS,100830.00,0419.73311,S,05539.86763,E,AA,09,1.26,9.2,-47.6,,*5D
$GNGGA,100830.00,0419.73311,S,05539.86763,E,1,09,1.26,9.2,M,-47.6,M,,*77
$GNGSA,A,3,25,23,29,15,18,32,24,,,,,,2.30,1.26,1.92*15
$GNGSA,A,3,71,85,,,,,,,,,,,2.30,1.26,1.92*19
$GPGSV,5,1,18,10,44,302,,12,03,146,,15,11,039,35,16,12,304,*7C
$GPGSV,5,2,18,18,18,017,23,23,31,355,16,24,11,099,16,25,29,165,14*7D
$GPGSV,5,3,18,26,28,279,23,28,19,209,,29,56,091,29,31,07,232,*71
$GPGSV,5,4,18,32,51,195,32,36,52,277,,40,86,350,,41,58,082,*76
$GPGSV,5,5,18,49,32,274,,50,10,089,*78
$GLGSV,3,1,09,65,25,208,,71,39,022,32,72,84,241,20,74,04,154,*66
$GLGSV,3,2,09,75,25,200,21,76,20,262,,84,03,111,08,85,21,066,18*6D
$GLGSV,3,3,09,86,14,009,19*56
$GNGLL,0419.73311,S,05539.86763,E,100830.00,A,A*6D
$GNGRS,100830.00,1,3.2,-10.2,1.0,-0.2,-8.7,-1.6,-18.4,,,,,*5D
$GNGRS,100830.00,1,-7.6,1.4,,,,,,,,,,*73
$GNGST,100830.00,47,,,,5.1,6.8,11*64
$GNZDA,100830.00,21,05,2025,00,00*71
$GNGBS,100830.00,5.1,6.8,10.9,,,,*67
b0Xhw
,.$'0cc8\K 3{4
V^:R 
YTAG 'HTJKLT
oUBVbhw1?L$GNRMC,100831.00,A,0419.73320,S,05539.86766,E,0.065,,210525,,,A*70
$GNVTG,,T,,M,0.065,N,0.120,K,A*3D
$GNGNS,100831.00,0419.73320,S,05539.86766,E,AA,09,1.26,9.1,-47.6,,*58
$GNGGA,100831.00,0419.73320,S,05539.86766,E,1,09,1.26,9.1,M,-47.6,M,,*72
$GNGSA,A,3,25,23,29,15,18,32,24,,,,,,2.30,1.26,1.92*15
$GNGSA,A,3,71,85,,,,,,,,,,,2.30,1.26,1.92*19
$GPGSV,5,1,18,10,44,302,,12,03,146,,15,11,039,36,16,12,304,*7F
$GPGSV,5,2,18,18,18,017,25,23,31,355,19,24,11,099,16,25,29,165,14*74
$GPGSV,5,3,18,26,28,279,21,28,19,209,,29,56,092,28,31,07,232,*71
$GPGSV,5,4,18,32,51,195,31,36,52,277,,40,86,350,,41,58,082,*75
$GPGSV,5,5,18,49,32,274,,50,10,089,*78
$GLGSV,3,1,09,65,25,208,,71,39,022,32,72,84,241,22,74,04,154,*64
$GLGSV,3,2,09,75,25,200,20,76,20,262,,84,03,111,10,85,21,066,21*6F
$GLGSV,3,3,09,86,14,009,21*5D
$GNGLL,0419.73320,S,05539.86766,E,100831.00,A,A*6B
$GNGRS,100831.00,1,3.9,-10.7,-1.8,-0.5,-8.8,2.8,-17.7,,,,,*53
$GNGRS,100831.00,1,-7.6,2.2,,,,,,,,,,*77
$GNGST,100831.00,44,,,,5.1,6.8,11*66
$GNZDA,100831.00,21,05,2025,00,00*70
$GNGBS,100831.00,5.1,6.8,10.8,,,,*67
b0XP{
,.#'0yc"ck8\ 3{4
V^:R 
YTrAG'HTJKLTo(UBVlbP{CL{($GNRMC,100832.00,A,0419.73327,S,05539.86760,E,0.243,,210525,,,A*74
$GNVTG,,T,,M,0.243,N,0.451,K,A*38
$GNGNS,100832.00,0419.73327,S,05539.86760,E,AA,09,1.26,9.0,-47.6,,*5B
$GNGGA,100832.00,0419.73327,S,05539.86760,E,1,09,1.26,9.0,M,-47.6,M,,*71
$GNGSA,A,3,25,23,29,15,18,32,24,,,,,,2.30,1.26,1.92*15
$GNGSA,A,3,71,85,,,,,,,,,,,2.30,1.26,1.92*19
$GPGSV,5,1,18,10,44,302,,12,03,146,,15,11,039,35,16,12,304,*7C
$GPGSV,5,2,18,18,18,017,23,23,31,355,17,24,11,099,17,25,29,165,15*7C
$GPGSV,5,3,18,26,28,279,20,28,19,209,,29,56,092,28,31,07,232,*70
$GPGSV,5,4,18,32,51,195,31,36,52,277,,40,86,350,,41,58,082,*75
$GPGSV,5,5,18,49,32,274,,50,10,089,*78
$GLGSV,3,1,09,65,25,208,,71,39,022,31,72,84,241,25,74,04,154,*60
$GLGSV,3,2,09,75,25,200,18,76,20,262,,84,03,111,09,85,21,066,20*6D
$GLGSV,3,3,09,86,14,009,21*5D
$GNGLL,0419.73327,S,05539.86760,E,100832.00,A,A*69
$GNGRS,100832.00,1,6.2,-7.3,2.8,-0.6,-6.5,1.6,-18.0,,,,,*47
$GNGRS,100832.00,1,-8.7,-0.1,,,,,,,,,,*56
$GNGST,100832.00,44,,,,5.0,6.8,11*64
$GNZDA,100832.00,21,05,2025,00,00*73
$GNGBS,100832.00,5.0,6.8,10.8,,,,*65
b0X8
,."'0cc48\j 3K{4
V^:R 
YTAG'1HTJKLToUBYV,Gb8GLS$GNRMC,100833.00,A,0419.73326,S,05539.86758,E,0.335,,210525,,,A*7F
$GNVTG,,T,,M,0.335,N,0.620,K,A*3C
$GNGNS,100833.00,0419.73326,S,05539.86758,E,AA,09,1.26,9.2,-47.6,,*52
$GNGGA,100833.00,0419.73326,S,05539.86758,E,1,09,1.26,9.2,M,-47.6,M,,*78
$GNGSA,A,3,25,23,29,15,18,32,24,,,,,,2.30,1.26,1.92*15
$GNGSA,A,3,71,85,,,,,,,,,,,2.30,1.26,1.92*19
$GPGSV,5,1,18,10,44,302,,12,03,146,,15,11,039,34,16,12,304,*7D
$GPGSV,5,2,18,18,18,017,22,23,31,355,16,24,11,099,15,25,29,165,16*7D
$GPGSV,5,3,18,26,28,279,19,28,19,209,,29,56,092,28,31,07,232,*7A
$GPGSV,5,4,18,32,51,195,30,36,52,277,,40,86,350,,41,58,082,*74
$GPGSV,5,5,18,49,32,274,,50,10,089,*78
$GLGSV,3,1,09,65,25,208,,71,39,022,31,72,84,241,24,74,04,154,*61
$GLGSV,3,2,09,75,25,200,17,76,20,262,,84,03,111,09,85,21,066,20*62
$GLGSV,3,3,09,86,14,009,21*5D
$GNGLL,0419.73326,S,05539.86758,E,100833.00,A,A*62
$GNGRS,100833.00,1,3.1,-7.7,3.6,-0.4,-5.4,-1.8,-18.8,,,,,*60
$GNGRS,100833.00,1,-9.7,-1.7,,,,,,,,,,*51
$GNGST,100833.00,48,,,,5.0,6.9,11*68
$GNZDA,100833.00,21,05,2025,00,00*72
$GNGBS,100833.00,5.0,6.9,10.7,,,,*6A
b0X 
,."'0cwc:8\ 3{4
V^:R 
YT2AG'HTJKLToeUBVb JL*$GNRMC,100834.00,A,0419.73332,S,05539.86750,E,0.371,,210525,,,A*75
$GNVTG,,T,,M,0.371,N,0.687,K,A*31
$GNGNS,100834.00,0419.73332,S,05539.86750,E,AA,09,1.26,8.9,-47.6,,*52
$GNGGA,100834.00,0419.73332,S,05539.86750,E,1,09,1.26,8.9,M,-47.6,M,,*78
$GNGSA,A,3,25,23,29,15,18,32,24,,,,,,2.30,1.26,1.92*15
$GNGSA,A,3,71,85,,,,,,,,,,,2.30,1.26,1.92*19
$GPGSV,5,1,18,10,44,302,,12,03,146,,15,11,039,34,16,12,304,*7D
$GPGSV,5,2,18,18,18,017,21,23,31,355,14,24,11,099,13,25,29,165,17*7B
$GPGSV,5,3,18,26,28,279,18,28,19,209,,29,56,092,28,31,07,232,*7B
$GPGSV,5,4,18,32,51,195,31,36,52,277,,40,86,350,,41,58,082,*75
$GPGSV,5,5,18,49,32,274,,50,10,089,*78
$GLGSV,3,1,09,65,25,208,,71,39,022,31,72,84,241,23,74,04,154,*66
$GLGSV,3,2,09,75,25,200,16,76,20,262,,84,03,111,06,85,21,066,19*66
$GLGSV,3,3,09,86,14,009,21*5D
$GNGLL,0419.73332,S,05539.86750,E,100834.00,A,A*68
$GNGRS,100834.00,1,3.1,-3.9,2.2,-0.4,-5.1,1.4,-18.0,,,,,*44
$GNGRS,100834.00,1,-13.5,-1.2,,,,,,,,,,*6A
$GNGST,100834.00,50,,,,5.0,6.9,11*66
$GNZDA,100834.00,21,05,2025,00,00*75
$GNGBS,100834.00,5.0,6.9,10.7,,,,*6D
b0X
,."'0
cc8\ 3{4
V^:R 
YTAG'5HTJKLToUBV97bNL]$GNRMC,100835.00,A,0419.73338,S,05539.86748,E,0.314,,210525,,,A*74
$GNVTG,,T,,M,0.314,N,0.581,K,A*37
$GNGNS,100835.00,0419.73338,S,05539.86748,E,AA,08,1.44,8.7,-47.6,,*5B
$GNGGA,100835.00,0419.73338,S,05539.86748,E,1,08,1.44,8.7,M,-47.6,M,,*71
$GNGSA,A,3,25,29,15,18,32,24,,,,,,,2.42,1.44,1.94*13
$GNGSA,A,3,71,85,,,,,,,,,,,2.42,1.44,1.94*1E
$GPGSV,5,1,18,10,44,302,17,12,03,146,,15,11,039,34,16,12,304,*7B
$GPGSV,5,2,18,18,18,017,22,23,31,355,10,24,11,099,14,25,29,165,16*7A
$GPGSV,5,3,18,26,28,279,19,28,19,209,,29,56,092,28,31,07,232,*7A
$GPGSV,5,4,18,32,51,195,30,36,52,277,,40,86,350,,41,58,082,*74
$GPGSV,5,5,18,49,32,274,,50,10,089,*78
$GLGSV,3,1,09,65,25,208,,71,39,022,31,72,84,241,24,74,04,154,*61
$GLGSV,3,2,09,75,25,200,18,76,20,262,,84,03,111,08,85,21,066,20*6C
$GLGSV,3,3,09,86,14,009,21*5D
$GNGLL,0419.73338,S,05539.86748,E,100835.00,A,A*6A
$GNGRS,100835.00,1,2.5,2.0,-0.5,-5.7,-0.7,-18.3,,,,,,*60
$GNGRS,100835.00,1,-12.3,-3.4,,,,,,,,,,*68
$GNGST,100835.00,46,,,,5.0,7.0,11*68
$GNZDA,100835.00,21,05,2025,00,00*74
$GNGBS,100835.00,5.0,7.0,10.7,,,,*64
b0X
,/"'0;c}cH8\u 3{4
V^:R 
YTAG'}HTJKLToUBVbRL$GNRMC,100836.00,A,0419.73339,S,05539.86750,E,0.142,,210525,,,A*7E
$GNVTG,,T,,M,0.142,N,0.264,K,A*3A
$GNGNS,100836.00,0419.73339,S,05539.86750,E,AA,09,1.27,8.8,-47.6,,*5B
$GNGGA,100836.00,0419.73339,S,05539.86750,E,1,09,1.27,8.8,M,-47.6,M,,*71
$GNGSA,A,3,25,23,29,15,18,32,24,,,,,,2.30,1.27,1.92*14
$GNGSA,A,3,71,85,,,,,,,,,,,2.30,1.27,1.92*18
$GPGSV,5,1,18,10,44,303,14,12,03,146,,15,11,039,34,16,12,304,*79
$GPGSV,5,2,18,18,18,017,22,23,31,355,12,24,11,099,14,25,29,165,14*7A
$GPGSV,5,3,18,26,28,279,18,28,19,209,,29,56,092,27,31,07,232,*74
$GPGSV,5,4,18,32,51,195,31,36,52,277,,40,86,350,,41,58,082,*75
$GPGSV,5,5,18,49,32,274,,50,10,089,*78
$GLGSV,3,1,09,65,25,208,,71,39,022,31,72,84,241,25,74,04,154,*60
$GLGSV,3,2,09,75,25,200,19,76,20,262,,84,03,111,08,85,21,066,20*6D
$GLGSV,3,3,09,86,14,009,22*5E
$GNGLL,0419.73339,S,05539.86750,E,100836.00,A,A*61
$GNGRS,100836.00,1,3.3,3.8,3.7,-0.5,-4.5,-2.4,-18.1,,,,,*47
$GNGRS,100836.00,1,-9.0,-5.6,,,,,,,,,,*56
$GNGST,100836.00,99931,,,,5.0,7.1,11*53
$GNZDA,100836.00,21,05,2025,00,00*77
$GNGBS,100836.00,5.0,7.1,10.6,,,,*67
b0X

,/"'0scc8\ 3{4
V^:R 
YTAG'kHTJKLTonUBVbVL$GNRMC,100837.00,A,0419.73341,S,05539.86750,E,0.083,,210525,,,A*7C
$GNVTG,,T,,M,0.083,N,0.153,K,A*31
$GNGNS,100837.00,0419.73341,S,05539.86750,E,AA,09,1.27,8.8,-47.6,,*55
$GNGGA,100837.00,0419.73341,S,05539.86750,E,1,09,1.27,8.8,M,-47.6,M,,*7F
$GNGSA,A,3,25,23,29,15,18,32,24,,,,,,2.30,1.27,1.92*14
$GNGSA,A,3,71,85,,,,,,,,,,,2.30,1.27,1.92*18
$GPGSV,5,1,18,10,44,303,10,12,03,146,,15,11,039,34,16,12,304,*7D
$GPGSV,5,2,18,18,18,017,22,23,31,355,15,24,11,099,13,25,29,165,13*7D
$GPGSV,5,3,18,26,28,279,18,28,19,209,,29,56,092,27,31,07,232,*74
$GPGSV,5,4,18,32,51,195,31,36,52,277,,40,86,350,,41,58,082,*75
$GPGSV,5,5,18,49,32,274,,50,10,089,*78
$GLGSV,3,1,09,65,25,208,,71,39,022,31,72,84,241,25,74,04,154,*60
$GLGSV,3,2,09,75,25,200,18,76,20,262,,84,03,111,08,85,21,066,21*6D
$GLGSV,3,3,09,86,14,009,22*5E
$GNGLL,0419.73341,S,05539.86750,E,100837.00,A,A*6F
$GNGRS,100837.00,1,2.7,3.9,2.6,-0.4,-4.0,-1.1,-20.7,,,,,*4D
$GNGRS,100837.00,1,-9.2,-8.3,,,,,,,,,,*5D
$GNGST,100837.00,99931,,,,5.0,7.1,11*52
$GNZDA,100837.00,21,05,2025,00,00*76
$GNGBS,100837.00,5.0,7.1,10.6,,,,*66
b0X
,/!'0`cqc(78\_ 3N{4
V^:R 
YTAG 'HTJKLToIUBVbZL$GNRMC,100838.00,A,0419.73348,S,05539.86748,E,0.121,,210525,,,A*7A
$GNVTG,,T,,M,0.121,N,0.224,K,A*3B
$GNGNS,100838.00,0419.73348,S,05539.86748,E,AA,09,1.27,8.7,-47.6,,*55
$GNGGA,100838.00,0419.73348,S,05539.86748,E,1,09,1.27,8.7,M,-47.6,M,,*7F
$GNGSA,A,3,25,23,29,15,18,32,24,,,,,,2.30,1.27,1.92*14
$GNGSA,A,3,71,85,,,,,,,,,,,2.30,1.27,1.92*18
$GPGSV,5,1,18,10,44,303,12,12,03,145,,15,11,039,33,16,12,304,*7B
$GPGSV,5,2,18,18,18,017,21,23,31,355,11,24,11,099,13,25,29,165,15*7C
$GPGSV,5,3,18,26,28,279,20,28,19,209,,29,56,092,26,31,07,232,*7E
$GPGSV,5,4,18,32,51,195,30,36,52,277,,40,86,350,,41,58,082,*74
$GPGSV,5,5,18,49,32,274,,50,10,089,*78
$GLGSV,3,1,09,65,25,208,,71,39,022,32,72,84,241,25,74,04,154,*63
$GLGSV,3,2,09,75,25,200,17,76,20,262,,84,03,111,09,85,21,066,21*63
$GLGSV,3,3,09,86,14,009,22*5E
$GNGLL,0419.73348,S,05539.86748,E,100838.00,A,A*60
$GNGRS,100838.00,1,3.1,1.1,3.5,-0.4,-4.2,0.8,-20.1,,,,,*6C
$GNGRS,100838.00,1,-8.1,-8.0,,,,,,,,,,*53
$GNGST,100838.00,49,,,,5.0,7.2,11*68
$GNZDA,100838.00,21,05,2025,00,00*79
$GNGBS,100838.00,5.0,7.2,10.6,,,,*6A
b0X
,/4"'0cc\8\m 3{4
V^:R 
YT$AG '2HTJKLT
oUB(Vbq^La$GNRMC,100839.00,A,0419.73351,S,05539.86756,E,0.285,,210525,,,A*71
$GNVTG,,T,,M,0.285,N,0.528,K,A*3D
$GNGNS,100839.00,0419.73351,S,05539.86756,E,AA,10,1.06,8.9,-47.6,,*56
$GNGGA,100839.00,0419.73351,S,05539.86756,E,1,10,1.06,8.9,M,-47.6,M,,*7C
$GNGSA,A,3,25,23,10,29,15,18,32,24,,,,,2.18,1.06,1.91*1F
$GNGSA,A,3,71,85,,,,,,,,,,,2.18,1.06,1.91*12
$GPGSV,5,1,18,10,44,303,14,12,03,145,,15,11,039,34,16,12,304,*7A
$GPGSV,5,2,18,18,18,017,21,23,31,355,11,24,11,099,14,25,29,165,16*78
$GPGSV,5,3,18,26,28,279,21,28,19,209,,29,56,092,25,31,07,232,*7C
$GPGSV,5,4,18,32,51,195,31,36,52,277,,40,86,350,,41,58,082,*75
$GPGSV,5,5,18,49,32,274,,50,10,089,*78
$GLGSV,3,1,09,65,25,208,,71,39,022,32,72,84,241,24,74,04,154,*62
$GLGSV,3,2,09,75,25,200,18,76,20,262,,84,03,111,10,85,21,066,20*65
$GLGSV,3,3,09,86,14,009,22*5E
$GNGLL,0419.73351,S,05539.86756,E,100839.00,A,A*66
$GNGRS,100839.00,1,-0.5,14.2,-12.3,6.2,-0.3,-5.6,0.0,-19.6,,,,*46
$GNGRS,100839.00,1,-7.2,-7.3,,,,,,,,,,*52
$GNGST,100839.00,37921,,,,4.9,7.2,11*52
$GNZDA,100839.00,21,05,2025,00,00*78
$GNGBS,100839.00,4.9,7.2,10.6,,,,*63
b0X
,/#'0'c|c!8\!  3{4
V^:R 
YTAG 'yHTJKLToUBVbYbL9V$GNRMC,100840.00,A,0419.73353,S,05539.86759,E,0.161,,210525,,,A*7B
$GNVTG,,T,,M,0.161,N,0.299,K,A*39
$GNGNS,100840.00,0419.73353,S,05539.86759,E,AA,10,1.06,8.9,-47.6,,*55
$GNGGA,100840.00,0419.73353,S,05539.86759,E,1,10,1.06,8.9,M,-47.6,M,,*7F
$GNGSA,A,3,25,23,10,29,15,18,32,24,,,,,2.18,1.06,1.91*1F
$GNGSA,A,3,71,85,,,,,,,,,,,2.18,1.06,1.91*12
$GPGSV,5,1,18,10,44,303,15,12,03,145,,15,11,039,35,16,12,304,*7A
$GPGSV,5,2,18,18,18,017,21,23,31,355,08,24,11,099,15,25,29,165,15*72
$GPGSV,5,3,18,26,28,279,20,28,19,209,,29,56,092,26,31,07,232,*7E
$GPGSV,5,4,18,32,51,195,32,36,52,277,,40,86,350,,41,58,082,*76
$GPGSV,5,5,18,49,32,274,,50,10,089,*78
$GLGSV,3,1,09,65,25,208,,71,39,022,32,72,84,241,26,74,04,154,*60
$GLGSV,3,2,09,75,25,200,20,76,20,262,,84,03,111,07,85,21,066,22*6A
$GLGSV,3,3,09,86,14,009,21*5D
$GNGLL,0419.73353,S,05539.86759,E,100840.00,A,A*65
$GNGRS,100840.00,1,-2.7,14.0,-10.3,8.0,0.1,-4.7,0.0,-17.6,,,,*65
$GNGRS,100840.00,1,-6.5,-10.0,,,,,,,,,,*6F
$GNGST,100840.00,56882,,,,4.9,7.3,11*52
$GNZDA,100840.00,21,05,2025,00,00*76
$GNGBS,100840.00,4.9,7.3,10.5,,,,*6F
b0Xx
,/$
'0
c\c8\  3{4
V^:R 
YT^AG'HTJKLTo
JUBV_tbxAfL$GNRMC,100841.00,A,0419.73354,S,05539.86754,E,0.036,,210525,,,A*73
$GNVTG,,T,,M,0.036,N,0.066,K,A*38
$GNGNS,100841.00,0419.73354,S,05539.86754,E,AA,10,1.06,8.9,-47.6,,*5E
$GNGGA,100841.00,0419.73354,S,05539.86754,E,1,10,1.06,8.9,M,-47.6,M,,*74
$GNGSA,A,3,25,23,10,29,15,18,32,24,,,,,2.18,1.06,1.91*1F
$GNGSA,A,3,71,85,,,,,,,,,,,2.18,1.06,1.91*12
$GPGSV,5,1,18,10,44,303,19,12,03,145,06,15,10,039,36,16,12,304,*72
$GPGSV,5,2,18,18,18,017,23,23,31,355,10,24,11,099,18,25,29,165,13*72
$GPGSV,5,3,18,26,28,279,19,28,19,209,,29,56,092,28,31,07,232,*7A
$GPGSV,5,4,18,32,51,195,32,36,52,277,,40,86,350,,41,58,082,*76
$GPGSV,5,5,18,49,32,274,,50,10,089,*78
$GLGSV,3,1,09,65,25,208,,71,39,022,30,72,84,241,26,74,04,154,*62
$GLGSV,3,2,09,75,25,200,22,76,20,262,,84,03,111,11,85,21,066,21*6C
$GLGSV,3,3,09,86,14,009,21*5D
$GNGLL,0419.73354,S,05539.86754,E,100841.00,A,A*6E
$GNGRS,100841.00,1,-3.0,6.0,-8.8,4.5,0.1,-2.3,-0.6,-18.9,,,,*43
$GNGRS,100841.00,1,-8.7,-11.5,,,,,,,,,,*66
$GNGST,100841.00,57,,,,4.9,7.3,10*61
$GNZDA,100841.00,21,05,2025,00,00*77
$GNGBS,100841.00,4.9,7.3,10.5,,,,*6E
b0X`
,/$
'/cc8\  3={4
V^:R 
YTAG 'HTJKLT
onUBVyb`)jL&$GNRMC,100842.00,A,0419.73366,S,05539.86752,E,0.222,,210525,,,A*70
$GNVTG,,T,,M,0.222,N,0.410,K,A*3A
$GNGNS,100842.00,0419.73366,S,05539.86752,E,AA,09,1.23,8.7,-47.6,,*5B
$GNGGA,100842.00,0419.73366,S,05539.86752,E,1,09,1.23,8.7,M,-47.6,M,,*71
$GNGSA,A,3,23,10,29,15,18,32,24,,,,,,2.42,1.23,2.09*12
$GNGSA,A,3,71,85,,,,,,,,,,,2.42,1.23,2.09*18
$GPGSV,5,1,18,10,44,303,19,12,03,145,08,15,10,039,36,16,12,303,*7B
$GPGSV,5,2,18,18,18,017,26,23,31,355,13,24,11,099,19,25,29,165,*77
$GPGSV,5,3,18,26,28,279,20,28,19,209,,29,56,092,28,31,07,232,*70
$GPGSV,5,4,18,32,51,195,32,36,52,277,,40,86,350,,41,58,082,*76
$GPGSV,5,5,18,49,32,274,,50,10,089,*78
$GLGSV,3,1,09,65,25,208,,71,39,022,32,72,84,241,26,74,04,154,*60
$GLGSV,3,2,09,75,25,200,22,76,20,262,19,84,03,111,10,85,21,066,21*65
$GLGSV,3,3,09,86,14,009,22*5E
