b0XJ
!+1'.&dKa8_X 5 {4!V^:R 
YU@AG&GHUJKLTqUDx
V
NbJO$GNRMC,101136.00,A,0419.72547,S,05539.86707,E,0.025,,210525,,,A*7A
$GNVTG,,T,,M,0.025,N,0.047,K,A*39
$GNGNS,101136.00,0419.72547,S,05539.86707,E,AA,08,1.43,3.6,-47.6,,*59
$GNGGA,101136.00,0419.72547,S,05539.86707,E,1,08,1.43,3.6,M,-47.6,M,,*73
$GNGSA,A,3,23,10,29,32,,,,,,,,,2.82,1.43,2.44*1A
$GNGSA,A,3,71,72,85,86,,,,,,,,,2.82,1.43,2.44*10
$GPGSV,5,1,18,10,43,305,33,12,02,145,09,15,09,039,,16,13,302,*7F
$GPGSV,5,2,18,18,18,019,26,23,30,356,38,24,11,097,,25,28,164,*74
$GPGSV,5,3,18,26,28,277,,28,19,207,,29,56,095,23,31,07,231,*7D
$GPGSV,5,4,18,32,53,195,21,36,52,277,,40,86,350,33,41,58,082,*76
$GPGSV,5,5,18,49,32,274,,50,10,089,*78
$GLGSV,3,1,09,65,27,209,,71,38,021,28,72,85,258,19,74,04,153,*68
$GLGSV,3,2,09,75,25,198,,76,20,261,,84,03,113,09,85,21,068,30*68
$GLGSV,3,3,09,86,14,010,28*5C
$GNGLL,0419.72547,S,05539.86707,E,101136.00,A,A*65
$GNGRS,101136.00,1,0.8,1.7,8.6,0.3,,,,,,,,*57
$GNGRS,101136.00,1,8.4,-15.8,1.2,-0.3,,,,,,,,*64
$GNGST,101136.00,36,,,,5.9,4.8,13*64
$GNZDA,101136.00,21,05,2025,00,00*7F
$GNGBS,101136.00,5.9,4.8,13.4,,,,*6D
b0XM
+1'.*dZa8_ 5{4V^:R 
Y
U@AG&HUJKLTqAUD5
V
il/bMOu<$GNRMC,101137.00,A,0419.72577,S,05539.86707,E,0.212,,210525,,,A*7E
$GNVTG,,T,,M,0.212,N,0.393,K,A*35
$GNGNS,101137.00,0419.72577,S,05539.86707,E,AA,09,1.26,2.3,-47.6,,*5D
$GNGGA,101137.00,0419.72577,S,05539.86707,E,1,09,1.26,2.3,M,-47.6,M,,*77
$GNGSA,A,3,23,10,29,18,32,,,,,,,,2.20,1.26,1.81*12
$GNGSA,A,3,71,72,85,86,,,,,,,,,2.20,1.26,1.81*11
$GPGSV,5,1,18,10,43,305,28,12,02,145,13,15,09,039,,16,13,302,*7E
$GPGSV,5,2,18,18,18,019,23,23,30,356,29,24,11,097,,25,28,164,*71
$GPGSV,5,3,18,26,28,277,,28,19,207,,29,56,095,22,31,07,231,*7C
$GPGSV,5,4,18,32,53,195,21,36,52,277,,40,86,350,27,41,58,082,*73
$GPGSV,5,5,18,49,32,274,,50,10,089,*78
$GLGSV,3,1,09,65,27,209,,71,38,021,26,72,85,258,17,74,04,153,*68
$GLGSV,3,2,09,75,25,198,,76,20,261,,84,03,113,09,85,21,068,28*61
$GLGSV,3,3,09,86,14,010,25*51
$GNGLL,0419.72577,S,05539.86707,E,101137.00,A,A*67
$GNGRS,101137.00,1,0.9,1.3,9.9,-9.8,1.4,,,,,,,*59
$GNGRS,101137.00,1,6.5,-16.2,0.5,1.0,,,,,,,,*4A
$GNGST,101137.00,50,,,,6.0,4.8,14*68
$GNZDA,101137.00,21,05,2025,00,00*7E
$GNGBS,101137.00,6.0,4.8,13.6,,,,*64
b0XQ
$+1<'._$da8_Z 5{4&V^:R 
YUP@AG&)HUJKLTqUDo
V
"bQOM$GNRMC,101138.00,A,0419.72603,S,05539.86717,E,0.104,,210525,,,A*74
$GNVTG,,T,,M,0.104,N,0.192,K,A*32
$GNGNS,101138.00,0419.72603,S,05539.86717,E,AA,09,1.26,1.6,-47.6,,*55
$GNGGA,101138.00,0419.72603,S,05539.86717,E,1,09,1.26,1.6,M,-47.6,M,,*7F
$GNGSA,A,3,23,10,29,18,32,,,,,,,,2.20,1.26,1.81*12
$GNGSA,A,3,71,72,85,86,,,,,,,,,2.20,1.26,1.81*11
$GPGSV,5,1,18,10,43,305,36,12,02,145,09,15,09,039,13,16,13,302,*78
$GPGSV,5,2,18,18,18,019,30,23,30,356,36,24,11,097,,25,28,164,*7D
$GPGSV,5,3,18,26,28,277,,28,19,207,,29,56,095,29,31,07,231,*77
$GPGSV,5,4,18,32,53,195,21,36,52,277,,40,86,350,38,41,58,082,*7D
$GPGSV,5,5,18,49,32,274,,50,10,089,*78
$GLGSV,3,1,09,65,27,209,,71,38,021,27,72,85,258,16,74,04,153,*68
$GLGSV,3,2,09,75,25,198,,76,20,261,,84,03,113,04,85,21,068,29*6D
$GLGSV,3,3,09,86,14,010,25*51
$GNGLL,0419.72603,S,05539.86717,E,101138.00,A,A*69
$GNGRS,101138.00,1,1.3,-2.0,8.6,-6.7,2.8,,,,,,,*71
$GNGRS,101138.00,1,3.0,-15.8,1.1,2.7,,,,,,,,*4D
$GNGST,101138.00,48,,,,6.1,4.8,14*6F
$GNZDA,101138.00,21,05,2025,00,00*71
$GNGBS,101138.00,6.1,4.8,13.7,,,,*6B
b0XU
'+1'.#da8_3 5{4&V^:R 
YUAG &HUJKLTqU!Dw
V
3bUO%$GNRMC,101139.00,A,0419.72596,S,05539.86740,E,0.113,,210525,,,A*7E
$GNVTG,,T,,M,0.113,N,0.210,K,A*3D
$GNGNS,101139.00,0419.72596,S,05539.86740,E,AA,09,1.43,2.5,-47.6,,*5A
$GNGGA,101139.00,0419.72596,S,05539.86740,E,1,09,1.43,2.5,M,-47.6,M,,*70
$GNGSA,A,3,23,10,29,18,32,,,,,,,,2.79,1.43,2.39*1D
$GNGSA,A,3,71,72,85,86,,,,,,,,,2.79,1.43,2.39*1E
$GPGSV,5,1,18,10,43,305,39,12,02,145,09,15,09,039,,16,13,302,*75
$GPGSV,5,2,18,18,18,019,30,23,30,356,35,24,11,097,,25,28,164,*7E
$GPGSV,5,3,18,26,28,277,,28,19,207,,29,56,095,28,31,07,231,*76
$GPGSV,5,4,18,32,53,195,26,36,52,277,,40,86,350,38,41,58,082,*7A
$GPGSV,5,5,18,49,32,274,,50,10,089,*78
$GLGSV,3,1,09,65,27,209,,71,38,021,32,72,85,258,20,74,04,153,*69
$GLGSV,3,2,09,75,25,198,,76,20,261,,84,03,113,09,85,21,068,33*6B
$GLGSV,3,3,09,86,14,010,31*54
$GNGLL,0419.72596,S,05539.86740,E,101139.00,A,A*65
$GNGRS,101139.00,1,-3.8,-2.4,5.6,-11.1,4.2,,,,,,,*61
$GNGRS,101139.00,1,7.5,-16.1,-3.9,2.6,,,,,,,,*61
$GNGST,101139.00,28,,,,6.0,4.6,14*67
$GNZDA,101139.00,21,05,2025,00,00*70
$GNGBS,101139.00,6.0,4.6,13.6,,,,*64
b0XY
)+1y'.l$da8_ 5{4'V^:R 
YUAG&yHUJKLTqU D<
V
>bYy!Ot$GNRMC,101140.00,A,0419.72580,S,05539.86745,E,0.092,,210525,,,A*7A
$GNVTG,,T,,M,0.092,N,0.170,K,A*30
$GNGNS,101140.00,0419.72580,S,05539.86745,E,AA,09,1.43,2.6,-47.6,,*55
$GNGGA,101140.00,0419.72580,S,05539.86745,E,1,09,1.43,2.6,M,-47.6,M,,*7F
$GNGSA,A,3,23,10,29,18,32,,,,,,,,2.79,1.43,2.39*1D
$GNGSA,A,3,71,72,85,86,,,,,,,,,2.79,1.43,2.39*1E
$GPGSV,5,1,18,10,43,305,41,12,02,145,12,15,09,039,,16,13,302,*70
$GPGSV,5,2,18,18,18,019,29,23,30,356,36,24,11,097,,25,28,164,*75
$GPGSV,5,3,18,26,28,277,,28,19,207,,29,56,095,28,31,07,231,*76
$GPGSV,5,4,18,32,53,195,28,36,52,277,,40,86,350,39,41,58,082,*75
$GPGSV,5,5,18,49,32,274,,50,10,089,*78
$GLGSV,3,1,09,65,27,209,,71,38,021,31,72,85,258,22,74,04,153,*68
$GLGSV,3,2,09,75,25,198,,76,20,261,,84,03,113,09,85,21,068,32*6A
$GLGSV,3,3,09,86,14,010,30*55
$GNGLL,0419.72580,S,05539.86745,E,101140.00,A,A*69
$GNGRS,101140.00,1,2.2,-1.3,4.4,-6.6,1.7,,,,,,,*7F
$GNGRS,101140.00,1,-1.4,-15.9,-4.5,1.5,,,,,,,,*45
$GNGST,101140.00,27,,,,5.9,4.5,13*68
$GNZDA,101140.00,21,05,2025,00,00*7E
$GNGBS,101140.00,5.9,4.5,13.5,,,,*60
b0X]
(+1'.$da8_ 5{4&V^:R 
YUAG&HUJKLTqBU D 
V
Nb]a%O$GNRMC,101141.00,A,0419.72567,S,05539.86747,E,0.230,,210525,,,A*7A
$GNVTG,,T,,M,0.230,N,0.427,K,A*3D
$GNGNS,101141.00,0419.72567,S,05539.86747,E,AA,09,1.43,3.0,-47.6,,*58
$GNGGA,101141.00,0419.72567,S,05539.86747,E,1,09,1.43,3.0,M,-47.6,M,,*72
$GNGSA,A,3,23,10,29,18,32,,,,,,,,2.79,1.43,2.39*1D
$GNGSA,A,3,71,72,85,86,,,,,,,,,2.79,1.43,2.39*1E
$GPGSV,5,1,18,10,43,305,40,12,02,145,09,15,09,039,,16,13,302,*7B
$GPGSV,5,2,18,18,18,019,27,23,30,356,36,24,11,097,,25,28,164,*7B
$GPGSV,5,3,18,26,28,277,,28,19,207,,29,56,095,28,31,07,231,*76
$GPGSV,5,4,18,32,53,195,27,36,52,277,,40,86,350,38,41,58,082,*7B
$GPGSV,5,5,18,49,32,274,,50,10,089,*78
$GLGSV,3,1,09,65,27,209,,71,38,021,30,72,85,258,22,74,04,153,*69
$GLGSV,3,2,09,75,25,198,,76,20,261,,84,03,113,11,85,21,068,32*63
$GLGSV,3,3,09,86,14,010,29*5D
$GNGLL,0419.72567,S,05539.86747,E,101141.00,A,A*63
$GNGRS,101141.00,1,-0.3,-1.1,5.1,-0.7,-2.3,,,,,,,*7B
$GNGRS,101141.00,1,-3.0,-12.9,-9.9,-1.8,,,,,,,,*64
$GNGST,101141.00,28,,,,5.8,4.4,13*66
$GNZDA,101141.00,21,05,2025,00,00*7F
$GNGBS,101141.00,5.8,4.4,13.4,,,,*60
b0Xa
(+1'.w$da8_ 5Q{4%V^:R 
YUAG&RHUaJKLTqU!D1
V
mbaI)OD$GNRMC,101142.00,A,0419.72560,S,05539.86734,E,0.256,,210525,,,A*7A
$GNVTG,,T,,M,0.256,N,0.474,K,A*3B
$GNGNS,101142.00,0419.72560,S,05539.86734,E,AA,09,1.43,3.2,-47.6,,*5A
$GNGGA,101142.00,0419.72560,S,05539.86734,E,1,09,1.43,3.2,M,-47.6,M,,*70
$GNGSA,A,3,23,10,29,18,32,,,,,,,,2.79,1.43,2.39*1D
$GNGSA,A,3,71,72,85,86,,,,,,,,,2.79,1.43,2.39*1E
$GPGSV,5,1,18,10,43,305,40,12,02,145,12,15,09,039,,16,13,302,*71
$GPGSV,5,2,18,18,18,019,28,23,30,356,36,24,11,097,,25,28,164,*74
$GPGSV,5,3,18,26,28,277,,28,19,207,,29,56,095,28,31,07,231,*76
$GPGSV,5,4,18,32,53,195,28,36,52,277,,40,86,350,37,41,58,082,*7B
$GPGSV,5,5,18,49,32,274,,50,10,089,*78
$GLGSV,3,1,09,65,27,209,,71,38,021,23,72,85,258,22,74,04,153,*6B
$GLGSV,3,2,09,75,25,198,,76,20,261,,84,03,113,08,85,21,068,33*6A
$GLGSV,3,3,09,86,14,010,29*5D
$GNGLL,0419.72560,S,05539.86734,E,101142.00,A,A*63
$GNGRS,101142.00,1,2.8,1.9,4.3,-3.9,-1.8,,,,,,,*7F
$GNGRS,101142.00,1,-1.7,-9.3,-7.2,2.1,,,,,,,,*70
$GNGST,101142.00,31,,,,5.8,4.3,13*6A
$GNZDA,101142.00,21,05,2025,00,00*7C
$GNGBS,101142.00,5.8,4.3,13.4,,,,*64
b0Xhe
(+14'.$dwa8_A 5{4&V^:R 
YU5AG&HUJKLTqUU!D
V
bhe1-O$GNRMC,101143.00,A,0419.72551,S,05539.86739,E,0.139,,210525,,,A*7E
$GNVTG,,T,,M,0.139,N,0.258,K,A*39
$GNGNS,101143.00,0419.72551,S,05539.86739,E,AA,09,1.43,3.6,-47.6,,*50
$GNGGA,101143.00,0419.72551,S,05539.86739,E,1,09,1.43,3.6,M,-47.6,M,,*7A
$GNGSA,A,3,23,10,29,18,32,,,,,,,,2.79,1.43,2.39*1D
$GNGSA,A,3,71,72,85,86,,,,,,,,,2.79,1.43,2.39*1E
$GPGSV,5,1,18,10,43,305,40,12,02,145,09,15,09,039,,16,13,302,*7B
$GPGSV,5,2,18,18,18,019,28,23,30,356,36,24,11,097,,25,28,164,*74
$GPGSV,5,3,18,26,28,277,,28,19,207,,29,56,095,27,31,07,231,*79
$GPGSV,5,4,18,32,53,195,27,36,52,277,,40,86,350,38,41,58,082,*7B
$GPGSV,5,5,18,49,32,274,,50,10,089,*78
$GLGSV,3,1,09,65,27,209,,71,38,021,31,72,85,258,21,74,04,153,*6B
$GLGSV,3,2,09,75,25,198,,76,20,261,,84,03,113,11,85,21,068,33*62
$GLGSV,3,3,09,86,14,010,29*5D
$GNGLL,0419.72551,S,05539.86739,E,101143.00,A,A*6D
$GNGRS,101143.00,1,1.2,-0.9,3.2,-8.4,-2.3,,,,,,,*53
$GNGRS,101143.00,1,-0.3,-7.6,-3.7,-3.2,,,,,,,,*51
$GNGST,101143.00,29,,,,5.7,4.2,13*6C
$GNZDA,101143.00,21,05,2025,00,00*7D
$GNGBS,101143.00,5.7,4.2,13.3,,,,*6C
b0XPi
(+1!'.%da8_[ 5b{4&V^:R 
YUAG&0HUzJKLTqU"Di
V
N"bPi1O]$GNRMC,101144.00,A,0419.72544,S,05539.86736,E,0.091,,210525,,,A*71
$GNVTG,,T,,M,0.091,N,0.168,K,A*3A
$GNGNS,101144.00,0419.72544,S,05539.86736,E,AA,09,1.43,3.9,-47.6,,*53
$GNGGA,101144.00,0419.72544,S,05539.86736,E,1,09,1.43,3.9,M,-47.6,M,,*79
$GNGSA,A,3,23,10,29,18,32,,,,,,,,2.79,1.43,2.39*1D
$GNGSA,A,3,71,72,85,86,,,,,,,,,2.79,1.43,2.39*1E
$GPGSV,5,1,18,10,43,305,40,12,02,145,13,15,09,039,,16,13,302,*70
$GPGSV,5,2,18,18,18,019,27,23,30,356,37,24,11,097,,25,28,164,*7A
$GPGSV,5,3,18,26,28,277,,28,19,207,,29,56,095,27,31,07,231,*79
$GPGSV,5,4,18,32,53,195,26,36,52,277,,40,86,350,38,41,58,082,*7A
$GPGSV,5,5,18,49,32,274,,50,10,089,*78
$GLGSV,3,1,09,65,27,209,,71,38,021,31,72,85,258,21,74,04,153,*6B
$GLGSV,3,2,09,75,25,198,,76,20,261,,84,03,113,07,85,21,068,34*62
$GLGSV,3,3,09,86,14,010,30*55
$GNGLL,0419.72544,S,05539.86736,E,101144.00,A,A*61
$GNGRS,101144.00,1,0.2,0.1,0.9,-8.0,-4.1,,,,,,,*78
$GNGRS,101144.00,1,0.5,-6.5,-4.1,-4.3,,,,,,,,*78
$GNGST,101144.00,29,,,,5.7,4.1,13*68
$GNZDA,101144.00,21,05,2025,00,00*7A
$GNGBS,101144.00,5.7,4.1,13.3,,,,*68
b0X8m
'+1'.$da8_ 5{4%V^:R 
YUAG&HU8JKLTqU!D
V
Qb8m5O5|$GNRMC,101145.00,A,0419.72538,S,05539.86735,E,0.152,,210525,,,A*76
$GNVTG,,T,,M,0.152,N,0.282,K,A*33
$GNGNS,101145.00,0419.72538,S,05539.86735,E,AA,09,1.43,4.1,-47.6,,*55
$GNGGA,101145.00,0419.72538,S,05539.86735,E,1,09,1.43,4.1,M,-47.6,M,,*7F
$GNGSA,A,3,23,10,29,18,32,,,,,,,,2.79,1.43,2.39*1D
$GNGSA,A,3,71,72,85,86,,,,,,,,,2.79,1.43,2.39*1E
$GPGSV,5,1,18,10,43,305,39,12,02,145,08,15,09,039,,16,13,302,*74
$GPGSV,5,2,18,18,18,019,25,23,30,356,36,24,11,097,,25,28,164,*79
$GPGSV,5,3,18,26,28,277,,28,19,207,,29,56,095,27,31,07,231,*79
$GPGSV,5,4,18,32,53,195,25,36,52,277,,40,86,350,37,41,58,082,*76
$GPGSV,5,5,18,49,32,274,,50,10,089,*78
$GLGSV,3,1,09,65,27,209,,71,38,021,29,72,85,258,21,74,04,153,*62
$GLGSV,3,2,09,75,25,198,,76,20,261,,84,03,113,11,85,21,068,33*62
$GLGSV,3,3,09,86,14,010,31*54
$GNGLL,0419.72538,S,05539.86735,E,101145.00,A,A*68
$GNGRS,101145.00,1,-0.9,-0.1,-0.8,-2.4,-1.2,,,,,,,*56
$GNGRS,101145.00,1,-2.7,-7.1,-3.6,-6.9,,,,,,,,*59
$GNGST,101145.00,30,,,,5.6,4.0,13*61
$GNZDA,101145.00,21,05,2025,00,00*7B
$GNGBS,101145.00,5.6,4.0,13.2,,,,*68
b0X q
&+1'. da8_ 5s{4$V^:R 
YUAG&xHUJKLTqU!D
V
iGb q8O$GNRMC,101146.00,A,0419.72538,S,05539.86731,E,0.026,,210525,,,A*73
$GNVTG,,T,,M,0.026,N,0.048,K,A*35
$GNGNS,101146.00,0419.72538,S,05539.86731,E,AA,09,1.43,4.1,-47.6,,*52
$GNGGA,101146.00,0419.72538,S,05539.86731,E,1,09,1.43,4.1,M,-47.6,M,,*78
$GNGSA,A,3,23,10,29,18,32,,,,,,,,2.79,1.43,2.40*13
$GNGSA,A,3,71,72,85,86,,,,,,,,,2.79,1.43,2.40*10
$GPGSV,5,1,18,10,43,305,38,12,02,145,09,15,09,039,19,16,13,302,*7C
$GPGSV,5,2,18,18,18,019,25,23,30,356,32,24,11,097,18,25,28,164,*74
$GPGSV,5,3,18,26,28,277,,28,19,207,19,29,56,095,25,31,07,231,*73
$GPGSV,5,4,18,32,53,195,24,36,52,277,,40,86,350,36,41,58,082,*76
$GPGSV,5,5,18,49,32,274,,50,10,089,*78
$GLGSV,3,1,09,65,27,209,,71,38,021,29,72,85,258,21,74,04,153,*62
$GLGSV,3,2,09,75,25,198,,76,20,261,,84,03,113,08,85,21,068,33*6A
$GLGSV,3,3,09,86,14,010,30*55
$GNGLL,0419.72538,S,05539.86731,E,101146.00,A,A*6F
$GNGRS,101146.00,1,-0.7,-0.4,-0.1,-8.2,-4.0,,,,,,,*5C
$GNGRS,101146.00,1,-3.9,-6.3,-3.2,-1.5,,,,,,,,*59
$GNGST,101146.00,31,,,,5.6,4.0,13*63
$GNZDA,101146.00,21,05,2025,00,00*78
$GNGBS,101146.00,5.6,4.0,13.2,,,,*6B
b0Xu
&+1-'.$dai8_ 5{4#V^:R 
YUAG&=HUJKLTqIU!D
V
bu<OI$GNRMC,101147.00,A,0419.72540,S,05539.86729,E,0.005,,210525,,,A*75
$GNVTG,,T,,M,0.005,N,0.009,K,A*31
$GNGNS,101147.00,0419.72540,S,05539.86729,E,AA,09,1.43,4.1,-47.6,,*55
$GNGGA,101147.00,0419.72540,S,05539.86729,E,1,09,1.43,4.1,M,-47.6,M,,*7F
$GNGSA,A,3,23,10,29,18,32,,,,,,,,2.79,1.43,2.40*13
$GNGSA,A,3,71,72,85,86,,,,,,,,,2.79,1.43,2.40*10
$GPGSV,5,1,18,10,43,305,38,12,02,145,07,15,09,039,17,16,13,302,*7C
$GPGSV,5,2,18,18,18,019,24,23,30,356,36,24,11,097,18,25,28,164,*71
$GPGSV,5,3,18,26,28,277,,28,19,207,15,29,56,095,26,31,07,231,*7C
$GPGSV,5,4,18,32,53,195,23,36,52,277,,40,86,350,35,41,58,082,*72
$GPGSV,5,5,18,49,32,274,,50,10,089,*78
$GLGSV,3,1,09,65,27,209,,71,38,021,29,72,85,258,20,74,04,153,*63
$GLGSV,3,2,09,75,25,198,,76,20,261,,84,03,113,09,85,21,068,33*6B
$GLGSV,3,3,09,86,14,010,30*55
$GNGLL,0419.72540,S,05539.86729,E,101147.00,A,A*68
$GNGRS,101147.00,1,-0.5,-0.2,1.6,-3.5,-1.0,,,,,,,*7B
$GNGRS,101147.00,1,-4.5,-5.1,-3.1,-4.9,,,,,,,,*58
$GNGST,101147.00,33,,,,5.6,4.0,13*60
$GNZDA,101147.00,21,05,2025,00,00*79
$GNGBS,101147.00,5.6,4.0,13.2,,,,*6A
b0Xx
&+1'9.`$da8_ 5m{4$V^:R 
YUAG&HU#JKLT
qU!D
V
bx@O$GNRMC,101148.00,A,0419.72536,S,05539.86729,E,0.015,,210525,,,A*7A
$GNVTG,,T,,M,0.015,N,0.027,K,A*3C
$GNGNS,101148.00,0419.72536,S,05539.86729,E,AA,09,1.43,4.3,-47.6,,*59
$GNGGA,101148.00,0419.72536,S,05539.86729,E,1,09,1.43,4.3,M,-47.6,M,,*73
$GNGSA,A,3,23,10,29,18,32,,,,,,,,2.79,1.43,2.40*13
$GNGSA,A,3,71,72,85,86,,,,,,,,,2.79,1.43,2.40*10
$GPGSV,5,1,18,10,43,305,38,12,02,145,09,15,09,039,15,16,13,302,*70
$GPGSV,5,2,18,18,18,019,25,23,30,356,36,24,11,097,18,25,28,164,*70
$GPGSV,5,3,18,26,28,277,,28,19,207,12,29,56,095,26,31,07,231,*7B
$GPGSV,5,4,18,32,53,195,24,36,52,277,,40,86,350,36,41,58,082,*76
$GPGSV,5,5,18,49,32,274,,50,10,089,*78
$GLGSV,3,1,09,65,27,209,,71,38,021,28,72,85,258,20,74,04,153,*62
$GLGSV,3,2,09,75,25,198,,76,20,261,,84,03,113,10,85,21,068,33*63
$GLGSV,3,3,09,86,14,010,29*5D
$GNGLL,0419.72536,S,05539.86729,E,101148.00,A,A*66
$GNGRS,101148.00,1,-0.5,0.0,2.3,-11.8,-1.5,,,,,,,*66
$GNGRS,101148.00,1,2.2,-4.8,-3.0,-2.4,,,,,,,,*79
$GNGST,101148.00,31,,,,5.6,3.9,13*63
$GNZDA,101148.00,21,05,2025,00,00*76
$GNGBS,101148.00,5.6,3.9,13.2,,,,*6B
b0X|
&+1'.%da
8_ 5,{4$V^:R 
YUAG&HUJKLTqU!D
V
b|DO
$GNRMC,101149.00,A,0419.72530,S,05539.86729,E,0.044,,210525,,,A*79
$GNVTG,,T,,M,0.044,N,0.081,K,A*34
$GNGNS,101149.00,0419.72530,S,05539.86729,E,AA,10,1.24,4.6,-47.6,,*52
$GNGGA,101149.00,0419.72530,S,05539.86729,E,1,10,1.24,4.6,M,-47.6,M,,*78
$GNGSA,A,3,23,10,29,18,32,24,,,,,,,2.24,1.24,1.86*15
$GNGSA,A,3,71,72,85,86,,,,,,,,,2.24,1.24,1.86*10
$GPGSV,5,1,18,10,43,305,38,12,02,145,07,15,09,039,,16,13,302,*7A
$GPGSV,5,2,18,18,18,019,25,23,30,356,37,24,11,097,18,25,28,164,*71
$GPGSV,5,3,18,26,28,277,,28,19,207,10,29,56,095,25,31,07,231,*7A
$GPGSV,5,4,18,32,53,195,24,36,52,277,,40,86,350,36,41,58,082,*76
$GPGSV,5,5,18,49,32,274,,50,10,089,*78
$GLGSV,3,1,09,65,27,209,,71,38,021,30,72,85,258,20,74,04,153,*6B
$GLGSV,3,2,09,75,25,198,,76,20,261,,84,03,113,12,85,21,068,33*61
$GLGSV,3,3,09,86,14,010,29*5D
$GNGLL,0419.72530,S,05539.86729,E,101149.00,A,A*61
$GNGRS,101149.00,1,-0.2,-0.1,2.6,-7.6,-2.1,-18.7,,,,,,*4A
$GNGRS,101149.00,1,1.7,-6.0,-3.0,-5.7,,,,,,,,*70
$GNGST,101149.00,40,,,,5.6,3.9,13*64
$GNZDA,101149.00,21,05,2025,00,00*77
$GNGBS,101149.00,5.6,3.9,13.2,,,,*6A
b0X
&+1
'.'da8_ 5{4$V^:R 
YUAG&HUJKLTqU!D
V
bHOkr$GNRMC,101150.00,A,0419.72525,S,05539.86728,E,0.074,,210525,,,A*77
$GNVTG,,T,,M,0.074,N,0.137,K,A*3B
$GNGNS,101150.00,0419.72525,S,05539.86728,E,AA,10,1.24,4.9,-47.6,,*50
$GNGGA,101150.00,0419.72525,S,05539.86728,E,1,10,1.24,4.9,M,-47.6,M,,*7A
$GNGSA,A,3,23,10,29,18,32,24,,,,,,,2.24,1.24,1.86*15
$GNGSA,A,3,71,72,85,86,,,,,,,,,2.24,1.24,1.86*10
$GPGSV,5,1,18,10,43,305,38,12,02,145,12,15,09,039,,16,13,302,*7E
$GPGSV,5,2,18,18,18,019,26,23,30,356,39,24,11,097,17,25,28,164,*73
$GPGSV,5,3,18,26,28,277,,28,19,207,08,29,56,095,25,31,07,231,*73
$GPGSV,5,4,18,32,53,195,24,36,52,277,,40,86,350,36,41,58,082,*76
$GPGSV,5,5,18,49,32,274,,50,10,089,*78
$GLGSV,3,1,09,65,27,209,,71,38,021,30,72,85,258,20,74,04,153,*6B
$GLGSV,3,2,09,75,25,198,,76,20,261,19,84,03,113,07,85,21,068,33*6D
$GLGSV,3,3,09,86,14,010,30*55
$GNGLL,0419.72525,S,05539.86728,E,101150.00,A,A*6C
$GNGRS,101150.00,1,0.2,-0.1,1.4,-4.9,-2.6,-12.5,,,,,,*6D
$GNGRS,101150.00,1,-0.6,-5.8,-2.6,-4.9,,,,,,,,*56
$GNGST,101150.00,40,,,,5.5,3.9,13*6F
$GNZDA,101150.00,21,05,2025,00,00*7F
$GNGBS,101150.00,5.5,3.9,13.1,,,,*62
b0X
'+1'.4&da
8_8 5{4%V^:R 
YUAG&nHUJKLTqU!D
V
"{bqLOC$GNRMC,101151.00,A,0419.72520,S,05539.86727,E,0.052,,210525,,,A*78
$GNVTG,,T,,M,0.052,N,0.097,K,A*34
$GNGNS,101151.00,0419.72520,S,05539.86727,E,AA,10,1.24,5.0,-47.6,,*53
$GNGGA,101151.00,0419.72520,S,05539.86727,E,1,10,1.24,5.0,M,-47.6,M,,*79
$GNGSA,A,3,23,10,29,18,32,24,,,,,,,2.24,1.24,1.86*15
$GNGSA,A,3,71,72,85,86,,,,,,,,,2.24,1.24,1.86*10
$GPGSV,5,1,18,10,43,305,39,12,02,145,08,15,09,039,,16,13,302,*74
$GPGSV,5,2,18,18,18,019,25,23,30,356,38,24,11,097,17,25,28,164,*71
$GPGSV,5,3,18,26,28,277,,28,19,207,10,29,56,095,25,31,07,231,*7A
$GPGSV,5,4,18,32,53,195,24,36,52,277,,40,86,350,37,41,58,082,*77
$GPGSV,5,5,18,49,32,274,,50,10,089,*78
$GLGSV,3,1,09,65,27,209,,71,38,021,29,72,85,258,20,74,04,153,*63
$GLGSV,3,2,09,75,25,198,,76,20,261,19,84,03,113,11,85,21,068,33*6A
$GLGSV,3,3,09,86,14,010,30*55
$GNGLL,0419.72520,S,05539.86727,E,101151.00,A,A*67
$GNGRS,101151.00,1,0.2,0.2,0.6,-4.6,-0.1,-19.0,,,,,,*45
$GNGRS,101151.00,1,1.1,-5.6,-2.3,-1.0,,,,,,,,*7B
$GNGST,101151.00,40,,,,5.5,3.8,13*6F
$GNZDA,101151.00,21,05,2025,00,00*7E
$GNGBS,101151.00,5.5,3.8,13.1,,,,*62
b0X
&+1'.>$da8_ 5{4%V^:R 
YUAG&HUJKLTqU!D
V
gbYPOB$GNRMC,101152.00,A,0419.72517,S,05539.86724,E,0.058,,210525,,,A*76
$GNVTG,,T,,M,0.058,N,0.107,K,A*36
$GNGNS,101152.00,0419.72517,S,05539.86724,E,AA,10,1.24,5.1,-47.6,,*56
$GNGGA,101152.00,0419.72517,S,05539.86724,E,1,10,1.24,5.1,M,-47.6,M,,*7C
$GNGSA,A,3,23,10,29,18,32,24,,,,,,,2.24,1.24,1.86*15
$GNGSA,A,3,71,72,85,86,,,,,,,,,2.24,1.24,1.86*10
$GPGSV,5,1,18,10,43,305,38,12,02,145,11,15,09,039,,16,13,302,*7D
$GPGSV,5,2,18,18,18,019,25,23,30,356,36,24,11,097,18,25,28,164,*70
$GPGSV,5,3,18,26,28,277,,28,19,207,09,29,56,095,24,31,07,231,*73
$GPGSV,5,4,18,32,53,195,24,36,52,277,,40,86,350,37,41,58,082,*77
$GPGSV,5,5,18,49,32,274,,50,10,089,*78
$GLGSV,3,1,09,65,27,209,,71,38,021,29,72,85,258,21,74,04,153,*62
$GLGSV,3,2,09,75,25,198,,76,20,261,18,84,03,113,08,85,21,068,33*63
$GLGSV,3,3,09,86,14,010,30*55
$GNGLL,0419.72517,S,05539.86724,E,101152.00,A,A*63
$GNGRS,101152.00,1,0.3,0.0,0.0,-4.5,-0.7,-15.7,,,,,,*4D
$GNGRS,101152.00,1,-0.8,-7.9,-2.3,-2.6,,,,,,,,*55
$GNGST,101152.00,40,,,,5.5,3.8,13*6C
$GNZDA,101152.00,21,05,2025,00,00*7D
$GNGBS,101152.00,5.5,3.8,13.1,,,,*61
b0Xx
&+1
D'.%da8_ 5{4$V^:R 
YUAG&HUJKLT
qU!DT
V
bxATO$GNRMC,101153.00,A,0419.72518,S,05539.86724,E,0.062,,210525,,,A*71
$GNVTG,,T,,M,0.062,N,0.114,K,A*3D
$GNGNS,101153.00,0419.72518,S,05539.86724,E,AA,10,1.24,5.2,-47.6,,*5B
$GNGGA,101153.00,0419.72518,S,05539.86724,E,1,10,1.24,5.2,M,-47.6,M,,*71
$GNGSA,A,3,23,10,29,18,32,24,,,,,,,2.24,1.24,1.86*15
$GNGSA,A,3,71,72,85,86,,,,,,,,,2.24,1.24,1.86*10
$GPGSV,5,1,18,10,43,305,38,12,02,145,10,15,09,039,,16,13,302,*7C
$GPGSV,5,2,18,18,18,019,26,23,30,356,37,24,11,097,19,25,28,164,*73
$GPGSV,5,3,18,26,28,277,,28,19,207,08,29,56,095,24,31,07,231,*72
$GPGSV,5,4,18,32,53,195,23,36,52,277,,40,86,350,36,41,58,082,*71
$GPGSV,5,5,18,49,32,274,,50,10,089,*78
$GLGSV,3,1,09,65,27,209,,71,38,021,29,72,85,258,20,74,04,153,*63
$GLGSV,3,2,09,75,25,198,,76,20,261,19,84,03,113,10,85,21,068,33*6B
$GLGSV,3,3,09,86,14,010,30*55
$GNGLL,0419.72518,S,05539.86724,E,101153.00,A,A*6D
$GNGRS,101153.00,1,0.2,0.2,2.0,-3.1,1.9,-13.4,,,,,,*69
$GNGRS,101153.00,1,-0.7,-8.5,0.8,-2.3,,,,,,,,*79
$GNGST,101153.00,39,,,,5.4,3.8,13*62
$GNZDA,101153.00,21,05,2025,00,00*7C
$GNGBS,101153.00,5.4,3.8,13.1,,,,*61
b0X`
&+1&'.%da8_ 5L{4%V^:R 
YUAG%HU=JKLTqU!D%
V
vb`)XO$GNRMC,101154.00,A,0419.72517,S,05539.86720,E,0.111,,210525,,,A*78
$GNVTG,,T,,M,0.111,N,0.205,K,A*3B
$GNGNS,101154.00,0419.72517,S,05539.86720,E,AA,10,1.24,5.2,-47.6,,*57
$GNGGA,101154.00,0419.72517,S,05539.86720,E,1,10,1.24,5.2,M,-47.6,M,,*7D
$GNGSA,A,3,23,10,29,18,32,24,,,,,,,2.24,1.24,1.86*15
$GNGSA,A,3,71,72,85,86,,,,,,,,,2.24,1.24,1.86*10
$GPGSV,5,1,18,10,43,305,38,12,02,145,08,15,09,039,,16,13,302,*75
$GPGSV,5,2,18,18,18,019,26,23,30,356,37,24,11,097,19,25,28,164,*73
$GPGSV,5,3,18,26,28,277,,28,19,207,08,29,56,095,23,31,07,231,*75
$GPGSV,5,4,18,32,53,195,22,36,52,277,,40,86,350,37,41,58,082,*71
$GPGSV,5,5,18,49,32,274,,50,10,089,*78
$GLGSV,3,1,09,65,27,209,,71,37,021,30,72,85,258,20,74,04,153,*64
$GLGSV,3,2,09,75,25,198,,76,20,261,20,84,03,113,12,85,21,068,33*63
$GLGSV,3,3,09,86,14,010,29*5D
$GNGLL,0419.72517,S,05539.86720,E,101154.00,A,A*61
$GNGRS,101154.00,1,0.1,0.4,2.3,-3.8,3.3,-13.5,,,,,,*68
$GNGRS,101154.00,1,-2.8,-7.1,-2.2,-0.4,,,,,,,,*58
$GNGST,101154.00,40,,,,5.5,3.8,13*6A
$GNZDA,101154.00,21,05,2025,00,00*7B
$GNGBS,101154.00,5.5,3.8,13.1,,,,*67
b0XH
&+1'+.$da
8_` 5{4&V^:R 
YUAG%HUBJKLTqU D
V
'5bH\Oz$GNRMC,101155.00,A,0419.72518,S,05539.86716,E,0.142,,210525,,,A*75
$GNVTG,,T,,M,0.142,N,0.263,K,A*3D
$GNGNS,101155.00,0419.72518,S,05539.86716,E,AA,10,1.24,5.1,-47.6,,*5F
$GNGGA,101155.00,0419.72518,S,05539.86716,E,1,10,1.24,5.1,M,-47.6,M,,*75
$GNGSA,A,3,23,10,29,18,32,24,,,,,,,2.24,1.24,1.86*15
$GNGSA,A,3,71,72,85,86,,,,,,,,,2.24,1.24,1.86*10
$GPGSV,5,1,18,10,43,305,38,12,02,145,12,15,09,039,18,16,13,302,*77
$GPGSV,5,2,18,18,18,019,25,23,30,356,36,24,11,097,19,25,28,164,*71
$GPGSV,5,3,18,26,28,277,,28,19,207,10,29,56,095,23,31,07,231,*7C
$GPGSV,5,4,18,32,53,195,21,36,52,277,,40,86,350,38,41,58,082,*7D
$GPGSV,5,5,18,49,32,274,,50,10,089,*78
$GLGSV,3,1,09,65,27,209,,71,37,021,30,72,85,267,21,74,04,153,*69
$GLGSV,3,2,09,75,25,198,,76,20,261,20,84,03,113,11,85,21,068,32*61
$GLGSV,3,3,09,86,14,010,27*53
$GNGLL,0419.72518,S,05539.86716,E,101155.00,A,A*6A
$GNGRS,101155.00,1,0.0,0.1,3.5,-3.3,2.2,-16.6,,,,,,*67
$GNGRS,101155.00,1,-3.3,-7.0,-0.9,0.4,,,,,,,,*76
$GNGST,101155.00,41,,,,5.5,3.7,13*65
$GNZDA,101155.00,21,05,2025,00,00*7A
$GNGBS,101155.00,5.5,3.7,13.1,,,,*69
b0X0
&+1
`'.$d#a8_ 5{4&V^:R 
YUAG%HU$JKLTq'U!D
V
-b0_Oz$GNRMC,101156.00,A,0419.72513,S,05539.86717,E,0.124,,210525,,,A*7C
$GNVTG,,T,,M,0.124,N,0.230,K,A*3B
$GNGNS,101156.00,0419.72513,S,05539.86717,E,AA,10,1.24,5.3,-47.6,,*54
$GNGGA,101156.00,0419.72513,S,05539.86717,E,1,10,1.24,5.3,M,-47.6,M,,*7E
$GNGSA,A,3,23,10,29,18,32,24,,,,,,,2.24,1.24,1.86*15
$GNGSA,A,3,71,72,85,86,,,,,,,,,2.24,1.24,1.86*10
$GPGSV,5,1,18,10,43,305,38,12,02,145,10,15,09,039,16,16,13,302,*7B
$GPGSV,5,2,18,18,18,019,24,23,30,356,36,24,11,097,19,25,28,164,17*76
$GPGSV,5,3,18,26,28,277,,28,19,207,,29,56,095,23,31,07,231,*7D
$GPGSV,5,4,18,32,53,195,19,36,52,277,,40,86,350,38,41,58,082,*76
$GPGSV,5,5,18,49,32,274,,50,10,089,*78
$GLGSV,3,1,09,65,27,209,,71,37,021,30,72,85,267,21,74,04,153,*69
$GLGSV,3,2,09,75,25,198,,76,20,261,20,84,03,113,11,85,21,068,33*60
$GLGSV,3,3,09,86,14,010,26*52
$GNGLL,0419.72513,S,05539.86717,E,101156.00,A,A*63
$GNGRS,101156.00,1,0.3,-0.1,5.3,-3.2,2.3,-16.2,,,,,,*4E
$GNGRS,101156.00,1,-1.2,-7.3,-0.7,0.0,,,,,,,,*7F
$GNGST,101156.00,42,,,,5.5,3.7,13*65
$GNZDA,101156.00,21,05,2025,00,00*79
$GNGBS,101156.00,5.5,3.7,13.2,,,,*69
b0X
&+1
!'.r$da8_ 5"{4&V^:R 
YUAG%RHUJKLT
qU D
V
rbcORG$GNRMC,101157.00,A,0419.72506,S,05539.86721,E,0.130,,210525,,,A*79
$GNVTG,,T,,M,0.130,N,0.241,K,A*38
$GNGNS,101157.00,0419.72506,S,05539.86721,E,AA,10,1.24,5.7,-47.6,,*50
$GNGGA,101157.00,0419.72506,S,05539.86721,E,1,10,1.24,5.7,M,-47.6,M,,*7A
$GNGSA,A,3,23,10,29,18,32,24,,,,,,,2.24,1.24,1.86*15
$GNGSA,A,3,71,72,85,86,,,,,,,,,2.24,1.24,1.86*10
$GPGSV,5,1,18,10,43,305,38,12,02,145,10,15,09,039,15,16,13,302,*78
$GPGSV,5,2,18,18,18,019,24,23,30,356,36,24,11,097,20,25,28,164,16*7D
$GPGSV,5,3,18,26,28,277,,28,19,207,,29,56,095,22,31,07,231,*7C
$GPGSV,5,4,18,32,53,195,18,36,52,277,,40,86,350,38,41,58,082,*77
$GPGSV,5,5,18,49,32,274,,50,10,089,*78
$GLGSV,3,1,09,65,27,209,,71,37,021,30,72,85,267,22,74,04,153,*6A
$GLGSV,3,2,09,75,25,198,,76,20,261,20,84,03,113,10,85,21,068,32*60
$GLGSV,3,3,09,86,14,010,25*51
$GNGLL,0419.72506,S,05539.86721,E,101157.00,A,A*63
$GNGRS,101157.00,1,0.3,0.0,4.6,-4.0,2.9,-18.3,,,,,,*67
$GNGRS,101157.00,1,3.4,-8.1,1.3,3.7,,,,,,,,*76
$GNGST,101157.00,38,,,,5.5,3.7,13*69
$GNZDA,101157.00,21,05,2025,00,00*78
$GNGBS,101157.00,5.5,3.7,13.2,,,,*68
b0X
%+1'.b#da8_ 5{4&V^:R 
YUAG%~HUJKLTqU D
V
@'bgO*$GNRMC,101158.00,A,0419.72506,S,05539.86724,E,0.158,,210525,,,A*7D
$GNVTG,,T,,M,0.158,N,0.292,K,A*38
$GNGNS,101158.00,0419.72506,S,05539.86724,E,AA,10,1.24,5.8,-47.6,,*55
$GNGGA,101158.00,0419.72506,S,05539.86724,E,1,10,1.24,5.8,M,-47.6,M,,*7F
$GNGSA,A,3,23,10,29,18,32,24,,,,,,,2.24,1.24,1.86*15
$GNGSA,A,3,71,72,85,86,,,,,,,,,2.24,1.24,1.86*10
$GPGSV,5,1,18,10,43,305,37,12,02,145,08,15,09,039,16,16,13,302,*7D
$GPGSV,5,2,18,18,18,019,23,23,30,356,35,24,11,097,20,25,28,164,15*7A
$GPGSV,5,3,18,26,28,277,,28,19,207,,29,56,095,22,31,07,231,*7C
$GPGSV,5,4,18,32,53,195,16,36,52,277,,40,86,350,38,41,58,082,*79
$GPGSV,5,5,18,49,32,274,,50,10,089,*78
$GLGSV,3,1,09,65,27,209,,71,37,021,30,72,85,267,23,74,04,153,*6B
$GLGSV,3,2,09,75,25,198,,76,20,261,20,84,03,113,07,85,21,068,32*66
$GLGSV,3,3,09,86,14,010,25*51
$GNGLL,0419.72506,S,05539.86724,E,101158.00,A,A*69
$GNGRS,101158.00,1,0.1,0.0,3.9,-6.7,2.0,-18.0,,,,,,*6D
$GNGRS,101158.00,1,-1.3,-8.9,1.8,3.2,,,,,,,,*57
$GNGST,101158.00,39,,,,5.5,3.7,13*67
$GNZDA,101158.00,21,05,2025,00,00*77
$GNGBS,101158.00,5.5,3.7,13.2,,,,*67
b0X
&+1:'.#da8_ 5{4&U`:R 
YUAG%wHUJKLT
q(JU D[
V
abkO$GNRMC,101159.00,A,0419.72501,S,05539.86721,E,0.203,,210525,,,A*73
$GNVTG,,T,,M,0.203,N,0.375,K,A*3D
$GNGNS,101159.00,0419.72501,S,05539.86721,E,AA,10,1.24,5.7,-47.6,,*59
$GNGGA,101159.00,0419.72501,S,05539.86721,E,1,10,1.24,5.7,M,-47.6,M,,*73
$GNGSA,A,3,23,10,29,18,32,24,,,,,,,2.24,1.24,1.87*14
$GNGSA,A,3,71,72,85,86,,,,,,,,,2.24,1.24,1.87*11
$GPGSV,5,1,18,10,43,305,38,12,02,145,07,15,09,039,,16,13,302,*7A
$GPGSV,5,2,18,18,18,019,24,23,30,356,35,24,11,097,20,25,28,164,15*7D
$GPGSV,5,3,18,26,28,277,,28,19,207,,29,56,095,21,31,07,231,*7F
$GPGSV,5,4,18,32,53,195,14,36,52,277,,40,85,352,38,41,58,082,*7A
$GPGSV,5,5,18,49,32,274,,50,10,089,*78
$GLGSV,3,1,09,65,27,209,,71,37,021,30,72,85,267,23,74,04,153,*6B
$GLGSV,3,2,09,75,25,198,,76,20,260,20,84,03,113,10,85,21,068,32*61
$GLGSV,3,3,09,86,14,010,24*50
$GNGLL,0419.72501,S,05539.86721,E,101159.00,A,A*6A
$GNGRS,101159.00,1,0.3,0.0,2.6,-7.9,-3.0,-15.8,,,,,,*46
$GNGRS,101159.00,1,-6.5,-10.4,-1.7,5.0,,,,,,,,*45
$GNGST,101159.00,45,,,,5.5,3.7,13*6D
$GNZDA,101159.00,21,05,2025,00,00*76
$GNGBS,101159.00,5.5,3.7,13.3,,,,*67
b0X
&+1
'.#d.a8_ 5{4&U`:R 
YUAG%HUJKLTqU Dr
V
gboOp$GNRMC,101200.00,A,0419.72506,S,05539.86713,E,0.086,,210525,,,A*75
$GNVTG,,T,,M,0.086,N,0.159,K,A*3E
$GNGNS,101200.00,0419.72506,S,05539.86713,E,AA,11,1.04,5.2,-47.6,,*56
$GNGGA,101200.00,0419.72506,S,05539.86713,E,1,11,1.04,5.2,M,-47.6,M,,*7C
$GNGSA,A,3,25,23,10,29,18,32,24,,,,,,1.90,1.04,1.60*14
$GNGSA,A,3,71,72,85,86,,,,,,,,,1.90,1.04,1.60*16
$GPGSV,5,1,18,10,43,305,38,12,02,145,10,15,09,039,,16,13,302,*7C
$GPGSV,5,2,18,18,18,019,25,23,30,356,35,24,11,097,20,25,28,164,17*7E
$GPGSV,5,3,18,26,28,277,,28,19,207,,29,56,095,22,31,07,231,*7C
$GPGSV,5,4,18,32,53,195,14,36,52,277,,40,85,352,38,41,58,082,*7A
$GPGSV,5,5,18,49,32,274,,50,10,089,*78
$GLGSV,3,1,09,65,27,209,,71,37,021,30,72,85,267,23,74,04,153,*6B
$GLGSV,3,2,09,75,25,198,,76,20,260,20,84,03,113,07,85,21,068,32*67
$GLGSV,3,3,09,86,14,010,24*50
$GNGLL,0419.72506,S,05539.86713,E,101200.00,A,A*63
$GNGRS,101200.00,1,22.0,0.5,0.3,1.7,-7.8,-5.1,-16.3,,,,,*5E
$GNGRS,101200.00,1,-5.6,-10.1,-1.4,5.3,,,,,,,,*4F
$GNGST,101200.00,45,,,,5.5,3.7,13*62
$GNZDA,101200.00,21,05,2025,00,00*79
$GNGBS,101200.00,5.5,3.7,13.3,,,,*68
b0X
&+1)'.G#dHa8_ 5{4&U`:R 
YUAG%HUiJKLTqU DS
V
FbsO$GNRMC,101201.00,A,0419.72506,S,05539.86710,E,0.169,,210525,,,A*77
$GNVTG,,T,,M,0.169,N,0.312,K,A*33
$GNGNS,101201.00,0419.72506,S,05539.86710,E,AA,11,1.04,5.1,-47.6,,*57
$GNGGA,101201.00,0419.72506,S,05539.86710,E,1,11,1.04,5.1,M,-47.6,M,,*7D
$GNGSA,A,3,25,23,10,29,18,32,24,,,,,,1.90,1.04,1.60*14
$GNGSA,A,3,71,72,85,86,,,,,,,,,1.90,1.04,1.60*16
$GPGSV,5,1,18,10,43,305,38,12,02,145,08,15,09,039,,16,13,302,*75
$GPGSV,5,2,18,18,18,019,25,23,30,356,35,24,11,097,20,25,28,164,17*7E
$GPGSV,5,3,18,26,28,277,,28,19,207,,29,56,095,25,31,07,231,*7B
$GPGSV,5,4,18,32,53,195,16,36,52,277,,40,85,352,38,41,58,082,*78
$GPGSV,5,5,18,49,32,274,,50,10,089,*78
$GLGSV,3,1,09,65,27,209,,71,37,021,30,72,85,267,23,74,04,153,*6B
$GLGSV,3,2,09,75,25,198,,76,20,260,20,84,03,113,08,85,21,068,32*68
$GLGSV,3,3,09,86,14,010,25*51
$GNGLL,0419.72506,S,05539.86710,E,101201.00,A,A*61
$GNGRS,101201.00,1,20.7,0.7,0.4,2.6,-9.5,-6.1,-16.1,,,,,*5F
$GNGRS,101201.00,1,1.3,-11.8,-1.7,4.4,,,,,,,,*6F
$GNGST,101201.00,41,,,,5.5,3.7,13*67
$GNZDA,101201.00,21,05,2025,00,00*78
$GNGBS,101201.00,5.5,3.7,13.4,,,,*6E
b0X
&+1=5'.#dXav8_ 5!{4%U`:R 
YUAG%HUJKLTqU DX
V
MW8biwO@$GNRMC,101202.00,A,0419.72494,S,05539.86713,E,0.057,,210525,,,A*71
$GNVTG,,T,,M,0.057,N,0.106,K,A*38
$GNGNS,101202.00,0419.72494,S,05539.86713,E,AA,11,1.04,5.5,-47.6,,*59
$GNGGA,101202.00,0419.72494,S,05539.86713,E,1,11,1.04,5.5,M,-47.6,M,,*73
$GNGSA,A,3,25,23,10,29,18,32,24,,,,,,1.90,1.04,1.60*14
$GNGSA,A,3,71,72,85,86,,,,,,,,,1.90,1.04,1.60*16
$GPGSV,5,1,18,10,43,305,38,12,02,145,06,15,09,039,,16,13,302,*7B
$GPGSV,5,2,18,18,18,019,26,23,30,356,35,24,11,097,21,25,28,164,15*7E
$GPGSV,5,3,18,26,28,277,,28,19,207,,29,56,095,26,31,07,231,*78
$GPGSV,5,4,18,32,53,195,19,36,52,277,,40,85,352,37,41,58,082,*78
$GPGSV,5,5,18,49,32,274,,50,10,089,*78
$GLGSV,3,1,09,65,27,209,,71,37,021,30,72,85,267,24,74,04,153,*6C
$GLGSV,3,2,09,75,25,198,,76,20,260,20,84,03,113,08,85,21,068,32*68
$GLGSV,3,3,09,86,14,010,26*52
$GNGLL,0419.72494,S,05539.86713,E,101202.00,A,A*6B
$GNGRS,101202.00,1,17.3,0.9,0.6,2.1,-8.7,-7.3,-14.2,,,,,*56
$GNGRS,101202.00,1,7.2,-10.2,-1.7,3.3,,,,,,,,*60
$GNGST,101202.00,42,,,,5.5,3.7,13*67
$GNZDA,101202.00,21,05,2025,00,00*7B
$GNGBS,101202.00,5.5,3.7,13.3,,,,*6A
b0X
&+1CA'.v#d|a8_ 5{4%U`:R 
YUAG%eHUJKLTqU Dw
V
dabQ{Oa$GNRMC,101203.00,A,0419.72489,S,05539.86713,E,0.056,,210525,,,A*7D
$GNVTG,,T,,M,0.056,N,0.104,K,A*3B
$GNGNS,101203.00,0419.72489,S,05539.86713,E,AA,11,1.04,5.7,-47.6,,*56
$GNGGA,101203.00,0419.72489,S,05539.86713,E,1,11,1.04,5.7,M,-47.6,M,,*7C
$GNGSA,A,3,25,23,10,29,18,32,24,,,,,,1.90,1.04,1.60*14
$GNGSA,A,3,71,72,85,86,,,,,,,,,1.90,1.04,1.60*16
$GPGSV,5,1,18,10,43,305,38,12,02,145,07,15,09,039,,16,13,302,*7A
$GPGSV,5,2,18,18,18,019,26,23,30,356,35,24,11,097,20,25,28,164,16*7C
$GPGSV,5,3,18,26,28,277,,28,19,207,,29,56,095,26,31,07,231,*78
$GPGSV,5,4,18,32,53,195,19,36,52,277,,40,85,352,37,41,58,082,*78
$GPGSV,5,5,18,49,32,274,,50,10,089,*78
$GLGSV,3,1,09,65,27,209,,71,37,021,29,72,85,267,24,74,04,153,*64
$GLGSV,3,2,09,75,25,198,,76,20,260,20,84,03,113,08,85,21,068,32*68
$GLGSV,3,3,09,86,14,010,25*51
$GNGLL,0419.72489,S,05539.86713,E,101203.00,A,A*66
$GNGRS,101203.00,1,17.4,1.2,0.7,3.9,-9.1,-7.5,-13.3,,,,,*55
$GNGRS,101203.00,1,11.3,-10.3,-1.4,4.5,,,,,,,,*54
$GNGST,101203.00,39,,,,5.5,3.7,13*6A
$GNZDA,101203.00,21,05,2025,00,00*7A
$GNGBS,101203.00,5.5,3.7,13.2,,,,*6A
b0Xp
'+18I'.#day8_ 5b{4'U`:R 
YUAG%XHUbJKLT
qU Dz
V
Bbp9O9$GNRMC,101204.00,A,0419.72480,S,05539.86713,E,0.169,,210525,,,A*7E
$GNVTG,,T,,M,0.169,N,0.313,K,A*32
$GNGNS,101204.00,0419.72480,S,05539.86713,E,AA,11,1.04,5.8,-47.6,,*57
$GNGGA,101204.00,0419.72480,S,05539.86713,E,1,11,1.04,5.8,M,-47.6,M,,*7D
$GNGSA,A,3,25,23,10,29,18,32,24,,,,,,1.90,1.04,1.60*14
$GNGSA,A,3,71,72,85,86,,,,,,,,,1.90,1.04,1.60*16
$GPGSV,5,1,18,10,43,305,39,12,02,145,13,15,09,039,,16,13,302,*7E
$GPGSV,5,2,18,18,18,019,27,23,30,356,35,24,11,097,21,25,28,164,19*73
$GPGSV,5,3,18,26,28,277,,28,19,207,,29,56,095,24,31,07,231,*7A
$GPGSV,5,4,18,32,53,195,19,36,52,277,,40,85,352,39,41,58,082,*76
$GPGSV,5,5,18,49,32,274,,50,10,089,*78
$GLGSV,3,1,09,65,27,209,,71,37,021,28,72,85,267,24,74,04,153,*65
$GLGSV,3,2,09,75,25,198,,76,20,260,20,84,03,113,10,85,21,068,32*61
$GLGSV,3,3,09,86,14,010,25*51
$GNGLL,0419.72480,S,05539.86713,E,101204.00,A,A*68
$GNGRS,101204.00,1,14.7,1.5,0.6,2.7,-7.7,-6.7,-11.6,,,,,*57
$GNGRS,101204.00,1,18.8,-11.8,-1.3,4.9,,,,,,,,*50
$GNGST,101204.00,39,,,,5.5,3.7,13*6D
$GNZDA,101204.00,21,05,2025,00,00*7D
$GNGBS,101204.00,5.5,3.7,13.2,,,,*6D
b0XX
&+1)'.Y#da08_ 5l{4&U`:R 
YUAG%HUJKLTqU D
V
gabX!Ox$GNRMC,101205.00,A,0419.72480,S,05539.86713,E,0.057,,210525,,,A*73
$GNVTG,,T,,M,0.057,N,0.106,K,A*38
$GNGNS,101205.00,0419.72480,S,05539.86713,E,AA,11,1.04,5.8,-47.6,,*56
$GNGGA,101205.00,0419.72480,S,05539.86713,E,1,11,1.04,5.8,M,-47.6,M,,*7C
$GNGSA,A,3,25,23,10,29,18,32,24,,,,,,1.90,1.04,1.60*14
$GNGSA,A,3,71,72,85,86,,,,,,,,,1.90,1.04,1.60*16
$GPGSV,5,1,18,10,43,305,38,12,02,145,09,15,09,039,,16,13,302,*74
$GPGSV,5,2,18,18,18,019,27,23,30,356,35,24,11,097,20,25,28,164,20*78
$GPGSV,5,3,18,26,28,277,,28,19,207,,29,56,095,23,31,07,231,*7D
$GPGSV,5,4,18,32,53,195,20,36,52,277,,40,85,352,38,41,58,082,*7D
$GPGSV,5,5,18,49,32,274,,50,10,089,*78
$GLGSV,3,1,09,65,27,209,,71,37,021,30,72,85,267,23,74,04,153,*6B
$GLGSV,3,2,09,75,25,198,,76,20,260,19,84,03,113,08,85,21,068,32*62
$GLGSV,3,3,09,86,14,010,25*51
$GNGLL,0419.72480,S,05539.86713,E,101205.00,A,A*69
$GNGRS,101205.00,1,13.3,1.5,0.4,4.3,-6.8,-6.6,-11.5,,,,,*59
$GNGRS,101205.00,1,4.2,-10.0,0.0,3.6,,,,,,,,*48
$GNGST,101205.00,42,,,,5.5,3.7,13*60
$GNZDA,101205.00,21,05,2025,00,00*7C
$GNGBS,101205.00,5.5,3.7,13.3,,,,*6D
b0X@
&+1
8'.#da-8_ 5*{4%U`:R 
YUAG%HUbJKLT
qU D~
V
q.Xb@O$GNRMC,101206.00,A,0419.72481,S,05539.86712,E,0.030,,210525,,,A*71
$GNVTG,,T,,M,0.030,N,0.056,K,A*3D
$GNGNS,101206.00,0419.72481,S,05539.86712,E,AA,11,1.04,5.8,-47.6,,*55
$GNGGA,101206.00,0419.72481,S,05539.86712,E,1,11,1.04,5.8,M,-47.6,M,,*7F
$GNGSA,A,3,25,23,10,29,18,32,24,,,,,,1.91,1.04,1.60*15
$GNGSA,A,3,71,72,85,86,,,,,,,,,1.91,1.04,1.60*17
$GPGSV,5,1,18,10,43,305,38,12,02,145,10,15,09,039,18,16,13,302,*75
$GPGSV,5,2,18,18,18,019,27,23,30,356,35,24,11,097,21,25,28,164,20*79
$GPGSV,5,3,18,26,28,277,,28,19,207,,29,56,095,22,31,07,231,*7C
$GPGSV,5,4,18,32,53,195,21,36,52,277,,40,85,352,37,41,58,082,*73
$GPGSV,5,5,18,49,32,274,,50,10,089,*78
$GLGSV,3,1,09,65,27,209,,71,37,021,29,72,85,267,22,74,04,153,*62
$GLGSV,3,2,09,75,25,198,,76,20,260,17,84,03,113,10,85,21,068,32*65
$GLGSV,3,3,09,86,14,010,25*51
$GNGLL,0419.72481,S,05539.86712,E,101206.00,A,A*6A
$GNGRS,101206.00,1,11.9,1.5,0.2,3.9,-7.4,-4.7,-12.4,,,,,*55
$GNGRS,101206.00,1,6.4,-9.3,-1.3,3.7,,,,,,,,*5A
$GNGST,101206.00,40,,,,5.4,3.7,13*60
$GNZDA,101206.00,21,05,2025,00,00*7F
$GNGBS,101206.00,5.4,3.7,13.4,,,,*68
b0X(
'+1U'."daA8_E 57{4%U`:R 
YUAG%HUJKLTqUD
V
xb(OE$GNRMC,101207.00,A,0419.72472,S,05539.86715,E,0.067,,210525,,,A*79
$GNVTG,,T,,M,0.067,N,0.124,K,A*3B
$GNGNS,101207.00,0419.72472,S,05539.86715,E,AA,11,1.04,6.3,-47.6,,*57
$GNGGA,101207.00,0419.72472,S,05539.86715,E,1,11,1.04,6.3,M,-47.6,M,,*7D
$GNGSA,A,3,25,23,10,29,18,32,24,,,,,,1.91,1.04,1.60*15
$GNGSA,A,3,71,72,85,86,,,,,,,,,1.91,1.04,1.60*17
$GPGSV,5,1,18,10,43,305,39,12,02,145,07,15,09,039,17,16,13,302,*7D
$GPGSV,5,2,18,18,18,019,28,23,30,356,34,24,11,097,21,25,28,164,21*76
$GPGSV,5,3,18,26,28,277,,28,19,207,,29,56,095,22,31,07,231,*7C
$GPGSV,5,4,18,32,53,195,21,36,52,277,,40,85,352,37,41,58,082,*73
$GPGSV,5,5,18,49,32,274,,50,10,089,*78
$GLGSV,3,1,09,65,27,209,,71,37,021,29,72,85,267,23,74,04,153,*63
$GLGSV,3,2,09,75,25,198,,76,20,260,17,84,03,113,14,85,21,068,31*62
$GLGSV,3,3,09,86,14,010,24*50
$GNGLL,0419.72472,S,05539.86715,E,101207.00,A,A*60
$GNGRS,101207.00,1,10.0,1.6,0.0,5.8,-10.7,-4.6,-14.7,,,,,*6B
$GNGRS,101207.00,1,10.4,-8.9,-3.4,3.8,,,,,,,,*6D
$GNGST,101207.00,39,,,,5.4,3.7,13*6F
$GNZDA,101207.00,21,05,2025,00,00*7E
$GNGBS,101207.00,5.4,3.7,13.4,,,,*69
b0X
%+1'.0!da 8_p 5{4#U`:R 
YUAG%vHUxJKLTqWJU DG
V
jobO$GNRMC,101208.00,A,0419.72466,S,05539.86721,E,0.113,,210525,,,A*76
$GNVTG,,T,,M,0.113,N,0.209,K,A*35
$GNGNS,101208.00,0419.72466,S,05539.86721,E,AA,11,1.04,6.8,-47.6,,*51
$GNGGA,101208.00,0419.72466,S,05539.86721,E,1,11,1.04,6.8,M,-47.6,M,,*7B
$GNGSA,A,3,25,23,10,29,18,32,24,,,,,,1.91,1.04,1.60*15
$GNGSA,A,3,71,72,85,86,,,,,,,,,1.91,1.04,1.60*17
$GPGSV,5,1,18,10,43,305,37,12,02,145,09,15,09,039,15,16,13,302,*7F
$GPGSV,5,2,18,18,18,019,28,23,30,356,33,24,11,097,19,25,28,164,20*7B
$GPGSV,5,3,18,26,28,277,,28,19,207,,29,56,095,21,31,07,231,*7F
$GPGSV,5,4,18,32,53,195,21,36,52,277,,40,85,352,35,41,58,082,*71
$GPGSV,5,5,18,49,32,274,,50,10,089,*78
$GLGSV,3,1,09,65,27,209,,71,37,021,28,72,85,267,24,74,04,153,*65
$GLGSV,3,2,09,75,25,198,19,76,20,260,18,84,03,113,09,85,22,068,32*69
$GLGSV,3,3,09,86,14,010,23*57
$GNGLL,0419.72466,S,05539.86721,E,101208.00,A,A*6D
$GNGRS,101208.00,1,10.6,1.6,-0.2,6.2,-12.3,-5.1,-13.4,,,,,*40
$GNGRS,101208.00,1,11.4,-9.0,-1.9,5.2,,,,,,,,*68
$GNGST,101208.00,39,,,,5.4,3.8,13*6F
$GNZDA,101208.00,21,05,2025,00,00*71
$GNGBS,101208.00,5.4,3.8,13.5,,,,*68
b0X
&+1d'.t"da8_ 5b{4%U`:R 
YUAG%HUJKLTqUD:
V
$;bOo$GNRMC,101209.00,A,0419.72463,S,05539.86723,E,0.091,,210525,,,A*7B
$GNVTG,,T,,M,0.091,N,0.168,K,A*3A
$GNGNS,101209.00,0419.72463,S,05539.86723,E,AA,11,1.04,7.2,-47.6,,*5C
$GNGGA,101209.00,0419.72463,S,05539.86723,E,1,11,1.04,7.2,M,-47.6,M,,*76
$GNGSA,A,3,25,23,10,29,18,32,24,,,,,,1.91,1.04,1.60*15
$GNGSA,A,3,71,72,85,86,,,,,,,,,1.91,1.04,1.60*17
$GPGSV,5,1,18,10,43,305,38,12,02,145,12,15,09,039,15,16,13,302,*7A
$GPGSV,5,2,18,18,18,019,29,23,30,356,34,24,11,097,19,25,28,164,20*7D
$GPGSV,5,3,18,26,28,277,,28,19,207,,29,56,095,20,31,07,231,*7E
$GPGSV,5,4,18,32,53,195,22,36,52,277,,40,85,352,37,41,58,082,*70
$GPGSV,5,5,18,49,32,274,,50,10,089,*78
$GLGSV,3,1,09,65,27,209,,71,37,021,28,72,85,267,24,74,04,153,*65
$GLGSV,3,2,09,75,25,198,19,76,20,260,19,84,03,113,09,85,22,068,31*6B
$GLGSV,3,3,09,86,15,010,24*51
$GNGLL,0419.72463,S,05539.86723,E,101209.00,A,A*6B
$GNGRS,101209.00,1,9.5,1.9,-0.2,7.4,-11.6,-4.1,-13.0,,,,,*71
$GNGRS,101209.00,1,9.7,-10.5,-4.5,5.5,,,,,,,,*60
$GNGST,101209.00,39,,,,5.4,3.8,14*69
$GNZDA,101209.00,21,05,2025,00,00*70
$GNGBS,101209.00,5.4,3.8,13.5,,,,*69
b0X
'+1'.#da%8_ 5{4'U`:R 
YUAG%HU^JKLT
qUD
V
qbOGn$GNRMC,101210.00,A,0419.72456,S,05539.86728,E,0.205,,210525,,,A*71
$GNVTG,,T,,M,0.205,N,0.379,K,A*37
$GNGNS,101210.00,0419.72456,S,05539.86728,E,AA,12,1.03,7.8,-47.6,,*57
$GNGGA,101210.00,0419.72456,S,05539.86728,E,1,12,1.03,7.8,M,-47.6,M,,*7D
$GNGSA,A,3,25,23,10,29,15,18,32,24,,,,,1.86,1.03,1.55*16
$GNGSA,A,3,71,72,85,86,,,,,,,,,1.86,1.03,1.55*10
$GPGSV,5,1,18,10,43,305,39,12,02,145,09,15,09,039,17,16,13,302,*73
$GPGSV,5,2,18,18,18,019,29,23,30,356,35,24,11,097,19,25,28,164,21*7D
$GPGSV,5,3,18,26,28,277,,28,19,207,,29,56,095,20,31,07,231,*7E
$GPGSV,5,4,18,32,53,195,23,36,52,277,,40,85,352,39,41,58,082,*7F
$GPGSV,5,5,18,49,32,274,,50,10,089,*78
$GLGSV,3,1,09,65,27,209,,71,37,021,29,72,85,267,23,74,04,153,*63
$GLGSV,3,2,09,75,25,198,20,76,20,260,18,84,03,113,10,85,22,068,31*68
$GLGSV,3,3,09,86,15,010,24*51
$GNGLL,0419.72456,S,05539.86728,E,101210.00,A,A*6E
$GNGRS,101210.00,1,10.6,1.8,-0.2,9.0,-7.7,-8.7,-3.7,-13.4,,,,*76
$GNGRS,101210.00,1,10.5,-11.9,-6.2,4.4,,,,,,,,*5A
$GNGST,101210.00,42,,,,5.4,3.8,14*6D
$GNZDA,101210.00,21,05,2025,00,00*78
$GNGBS,101210.00,5.4,3.8,13.5,,,,*61
b0X
)+1
'.U#da8_ 5,{4'U`:R 
YUAG!%HUJKLT
qU D
V
7.bO$GNRMC,101211.00,A,0419.72445,S,05539.86737,E,0.108,,210525,,,A*72
$GNVTG,,T,,M,0.108,N,0.199,K,A*35
$GNGNS,101211.00,0419.72445,S,05539.86737,E,AA,10,1.09,8.5,-47.6,,*50
$GNGGA,101211.00,0419.72445,S,05539.86737,E,1,10,1.09,8.5,M,-47.6,M,,*7A
$GNGSA,A,3,25,23,10,29,18,32,,,,,,,2.03,1.09,1.72*15
$GNGSA,A,3,71,72,85,86,,,,,,,,,2.03,1.09,1.72*11
$GPGSV,5,1,18,10,43,305,41,12,02,145,10,15,09,039,21,16,13,302,*71
$GPGSV,5,2,18,18,18,019,30,23,30,356,35,24,11,097,,25,28,164,21*7D
$GPGSV,5,3,18,26,28,277,,28,19,207,,29,56,095,20,31,07,231,*7E
$GPGSV,5,4,18,32,53,195,23,36,52,277,,40,85,352,39,41,58,082,*7F
$GPGSV,5,5,18,49,32,274,,50,10,089,*78
$GLGSV,3,1,09,65,27,209,,71,37,021,33,72,85,267,23,74,04,153,*68
$GLGSV,3,2,09,75,25,198,21,76,20,260,15,84,03,113,10,85,22,068,32*67
$GLGSV,3,3,09,86,15,010,24*51
$GNGLL,0419.72445,S,05539.86737,E,101211.00,A,A*63
$GNGRS,101211.00,1,10.2,1.8,-0.6,7.6,-9.4,-4.7,,,,,,*4C
$GNGRS,101211.00,1,6.5,-10.3,-3.5,3.1,,,,,,,,*67
$GNGST,101211.00,37,,,,5.3,3.8,14*69
$GNZDA,101211.00,21,05,2025,00,00*79
$GNGBS,101211.00,5.3,3.8,13.5,,,,*67
b0X
(+1H'.r%da8_@ 5{4'U`:R 
YUAG%HUJKLTqUDb
V
DTtbyO>$GNRMC,101212.00,A,0419.72456,S,05539.86735,E,0.333,,210525,,,A*7B
$GNVTG,,T,,M,0.333,N,0.616,K,A*3F
$GNGNS,101212.00,0419.72456,S,05539.86735,E,AA,10,1.09,8.1,-47.6,,*57
$GNGGA,101212.00,0419.72456,S,05539.86735,E,1,10,1.09,8.1,M,-47.6,M,,*7D
$GNGSA,A,3,25,23,10,29,18,32,,,,,,,2.03,1.09,1.72*15
$GNGSA,A,3,71,72,85,86,,,,,,,,,2.03,1.09,1.72*11
$GPGSV,5,1,18,10,43,305,40,12,02,145,11,15,09,039,,16,13,302,*72
$GPGSV,5,2,18,18,18,019,31,23,30,356,37,24,11,097,18,25,28,164,20*76
$GPGSV,5,3,18,26,28,277,,28,19,207,,29,56,095,20,31,07,231,*7E
$GPGSV,5,4,18,32,53,195,26,36,52,277,,40,85,352,39,41,58,082,*7A
$GPGSV,5,5,18,49,32,274,,50,10,089,*78
$GLGSV,3,1,09,65,27,209,,71,37,021,29,72,85,267,23,74,04,153,*63
$GLGSV,3,2,09,75,25,198,21,76,20,260,11,84,03,113,12,85,22,068,30*63
$GLGSV,3,3,09,86,15,010,25*50
$GNGLL,0419.72456,S,05539.86735,E,101212.00,A,A*60
$GNGRS,101212.00,1,9.7,2.2,-1.0,5.8,-4.0,-3.1,,,,,,*78
$GNGRS,101212.00,1,2.4,-10.5,-4.1,3.2,,,,,,,,*67
$GNGST,101212.00,36,,,,5.3,3.8,14*6B
$GNZDA,101212.00,21,05,2025,00,00*7A
$GNGBS,101212.00,5.3,3.8,13.6,,,,*67
b0X
(+1'."da8_ 5{4&U`:R 
YUAG%HUJKL
TqUD
V
<baO$GNRMC,101213.00,A,0419.72440,S,05539.86738,E,0.182,,210525,,,A*78
$GNVTG,,T,,M,0.182,N,0.338,K,A*3E
$GNGNS,101213.00,0419.72440,S,05539.86738,E,AA,09,1.26,8.4,-47.6,,*5C
$GNGGA,101213.00,0419.72440,S,05539.86738,E,1,09,1.26,8.4,M,-47.6,M,,*76
$GNGSA,A,3,25,23,10,18,32,,,,,,,,2.40,1.26,2.05*17
$GNGSA,A,3,71,72,85,86,,,,,,,,,2.40,1.26,2.05*18
$GPGSV,5,1,18,10,43,305,40,12,02,145,11,15,09,039,20,16,13,302,*70
$GPGSV,5,2,18,18,18,019,30,23,30,356,34,24,11,097,,25,28,164,17*79
$GPGSV,5,3,18,26,28,277,,28,19,207,,29,56,095,21,31,07,231,*7F
$GPGSV,5,4,18,32,53,195,27,36,52,277,,40,85,352,38,41,58,082,*7A
$GPGSV,5,5,18,49,32,274,,50,10,089,*78
$GLGSV,3,1,09,65,27,209,,71,37,021,30,72,85,267,24,74,04,153,*6C
$GLGSV,3,2,09,75,25,198,20,76,20,260,10,84,03,113,08,85,22,068,30*68
$GLGSV,3,3,09,86,15,010,25*50
$GNGLL,0419.72440,S,05539.86738,E,101213.00,A,A*6B
$GNGRS,101213.00,1,7.6,2.1,-0.7,-7.7,-3.8,,,,,,,*5D
$GNGRS,101213.00,1,4.4,-10.5,-0.4,4.2,,,,,,,,*66
$GNGST,101213.00,39,,,,5.3,3.8,14*65
$GNZDA,101213.00,21,05,2025,00,00*7B
$GNGBS,101213.00,5.3,3.8,13.7,,,,*67
b0X
(+1v'. &da8_- 5{4&U`:R 
YUAG%HUJKL
Tq(UD
V
bIO$GNRMC,101214.00,A,0419.72430,S,05539.86741,E,0.056,,210525,,,A*7E
$GNVTG,,T,,M,0.056,N,0.104,K,A*3B
$GNGNS,101214.00,0419.72430,S,05539.86741,E,AA,09,1.44,8.8,-47.6,,*5A
$GNGGA,101214.00,0419.72430,S,05539.86741,E,1,09,1.44,8.8,M,-47.6,M,,*70
$GNGSA,A,3,23,10,29,18,32,,,,,,,,2.81,1.44,2.41*12
$GNGSA,A,3,71,72,85,86,,,,,,,,,2.81,1.44,2.41*11
$GPGSV,5,1,18,10,43,305,40,12,02,145,12,15,09,039,21,16,13,302,*72
$GPGSV,5,2,18,18,18,019,32,23,30,356,38,24,11,097,,25,28,164,*71
$GPGSV,5,3,18,26,28,277,,28,19,207,,29,56,095,23,31,07,231,*7D
$GPGSV,5,4,18,32,53,195,27,36,52,277,,40,85,352,38,41,58,082,*7A
$GPGSV,5,5,18,49,32,274,,50,10,089,*78
$GLGSV,3,1,09,65,27,209,,71,37,021,29,72,85,267,25,74,04,153,*65
$GLGSV,3,2,09,75,25,198,17,76,20,260,10,84,03,113,11,85,22,068,31*65
$GLGSV,3,3,09,86,15,010,26*53
$GNGLL,0419.72430,S,05539.86741,E,101214.00,A,A*65
$GNGRS,101214.00,1,2.2,-0.4,5.6,-8.1,-0.9,,,,,,,*53
$GNGRS,101214.00,1,4.4,-8.8,-0.7,4.2,,,,,,,,*56
$GNGST,101214.00,29,,,,5.3,3.8,14*63
$GNZDA,101214.00,21,05,2025,00,00*7C
$GNGBS,101214.00,5.3,3.8,13.8,,,,*6F
b0Xh
'+1'. %daR8_ 5{4&U`:R 
YUAG%HUJKLTqUD
V
Gbh1Ov$GNRMC,101215.00,A,0419.72422,S,05539.86742,E,0.118,,210525,,,A*74
$GNVTG,,T,,M,0.118,N,0.219,K,A*3F
$GNGNS,101215.00,0419.72422,S,05539.86742,E,AA,10,1.41,9.0,-47.6,,*5F
$GNGGA,101215.00,0419.72422,S,05539.86742,E,1,10,1.41,9.0,M,-47.6,M,,*75
$GNGSA,A,3,23,10,29,15,18,32,,,,,,,2.60,1.41,2.18*10
$GNGSA,A,3,71,72,85,86,,,,,,,,,2.60,1.41,2.18*17
$GPGSV,5,1,18,10,43,305,39,12,02,145,09,15,09,039,20,16,13,302,*77
$GPGSV,5,2,18,18,18,019,32,23,30,356,37,24,11,097,,25,28,164,19*76
$GPGSV,5,3,18,26,28,277,,28,19,207,,29,56,095,22,31,07,231,*7C
$GPGSV,5,4,18,32,53,195,26,36,52,277,,40,85,352,38,41,58,082,*7B
$GPGSV,5,5,18,49,32,274,,50,10,089,*78
$GLGSV,3,1,09,65,27,209,,71,37,021,29,72,85,267,25,74,04,153,*65
$GLGSV,3,2,09,75,25,198,13,76,20,260,13,84,03,113,09,85,22,068,29*62
$GLGSV,3,3,09,86,15,010,27*52
$GNGLL,0419.72422,S,05539.86742,E,101215.00,A,A*64
$GNGRS,101215.00,1,2.0,-0.5,5.4,-6.4,-6.0,-0.3,,,,,,*57
$GNGRS,101215.00,1,4.2,-10.3,-6.0,4.5,,,,,,,,*65
$GNGST,101215.00,34,,,,5.3,3.8,14*6E
$GNZDA,101215.00,21,05,2025,00,00*7D
$GNGBS,101215.00,5.3,3.8,13.8,,,,*6E
b0XP
(+1'. &dak8_J 5{4&U`:R 
YUAG%4HUJKLT
qUDR
V
~bPOW$GNRMC,101216.00,A,0419.72412,S,05539.86747,E,0.243,,210525,,,A*7C
$GNVTG,,T,,M,0.243,N,0.450,K,A*39
$GNGNS,101216.00,0419.72412,S,05539.86747,E,AA,10,1.41,9.4,-47.6,,*5E
$GNGGA,101216.00,0419.72412,S,05539.86747,E,1,10,1.41,9.4,M,-47.6,M,,*74
$GNGSA,A,3,23,10,29,15,18,32,,,,,,,2.60,1.41,2.18*10
$GNGSA,A,3,71,72,85,86,,,,,,,,,2.60,1.41,2.18*17
$GPGSV,5,1,18,10,43,305,40,12,02,145,09,15,09,039,20,16,13,302,*79
$GPGSV,5,2,18,18,18,019,32,23,30,356,38,24,11,097,,25,28,164,18*78
$GPGSV,5,3,18,26,28,277,,28,19,207,,29,56,095,19,31,07,231,*74
$GPGSV,5,4,18,32,53,195,25,36,52,277,,40,85,352,38,41,58,082,*78
$GPGSV,5,5,18,49,32,274,,50,10,089,*78
$GLGSV,3,1,09,65,27,209,,71,37,021,30,72,85,267,25,74,04,153,*6D
$GLGSV,3,2,09,75,25,198,09,76,20,260,14,84,03,113,10,85,22,068,29*66
$GLGSV,3,3,09,86,15,010,27*52
$GNGLL,0419.72412,S,05539.86747,E,101216.00,A,A*61
$GNGRS,101216.00,1,1.8,-1.0,8.4,-0.8,-7.7,1.4,,,,,,*71
$GNGRS,101216.00,1,5.6,-7.8,-4.3,3.8,,,,,,,,*55
$GNGST,101216.00,36,,,,5.3,3.8,14*6F
$GNZDA,101216.00,21,05,2025,00,00*7E
$GNGBS,101216.00,5.3,3.8,13.8,,,,*6D
b0X8
(+1
2'. &da+8_4 5{4&U`:R 
YUAG%oHUJKLTq_UD
V
nb8O/F$GNRMC,101217.00,A,0419.72405,S,05539.86750,E,0.105,,210525,,,A*7C
$GNVTG,,T,,M,0.105,N,0.195,K,A*34
$GNGNS,101217.00,0419.72405,S,05539.86750,E,AA,09,1.55,9.7,-47.6,,*51
$GNGGA,101217.00,0419.72405,S,05539.86750,E,1,09,1.55,9.7,M,-47.6,M,,*7B
$GNGSA,A,3,23,10,15,18,32,,,,,,,,2.91,1.55,2.46*1B
$GNGSA,A,3,71,72,85,86,,,,,,,,,2.91,1.55,2.46*17
$GPGSV,5,1,18,10,43,305,40,12,02,145,10,15,09,039,22,16,13,302,*73
$GPGSV,5,2,18,18,18,019,32,23,30,356,38,24,11,097,,25,28,164,18*78
$GPGSV,5,3,18,26,28,277,,28,19,207,,29,56,095,20,31,07,231,*7E
$GPGSV,5,4,18,32,53,195,23,36,52,277,,40,85,352,38,41,58,082,*7E
$GPGSV,5,5,18,49,32,274,,50,10,089,*78
$GLGSV,3,1,09,65,27,209,,71,37,021,30,72,85,267,25,74,04,153,*6D
$GLGSV,3,2,09,75,25,198,08,76,20,260,15,84,03,113,09,85,22,068,29*6E
$GLGSV,3,3,09,86,15,010,26*53
$GNGLL,0419.72405,S,05539.86750,E,101217.00,A,A*60
$GNGRS,101217.00,1,1.4,-1.2,-11.3,-4.9,4.0,,,,,,,*6B
$GNGRS,101217.00,1,3.7,-8.5,-3.5,4.1,,,,,,,,*5E
$GNGST,101217.00,32,,,,5.3,3.8,14*6A
$GNZDA,101217.00,21,05,2025,00,00*7F
$GNGBS,101217.00,5.3,3.8,13.8,,,,*6C
b0X 
%+1{
'.%da8_e 5{4$U`:R 
YUAG%HUJKLTqUDk
V
lb O$GNRMC,101218.00,A,0419.72401,S,05539.86750,E,0.072,,210525,,,A*76
$GNVTG,,T,,M,0.072,N,0.133,K,A*39
$GNGNS,101218.00,0419.72401,S,05539.86750,E,AA,09,1.55,9.7,-47.6,,*5A
$GNGGA,101218.00,0419.72401,S,05539.86750,E,1,09,1.55,9.7,M,-47.6,M,,*70
$GNGSA,A,3,23,10,15,18,32,,,,,,,,2.91,1.55,2.46*1B
$GNGSA,A,3,71,72,85,86,,,,,,,,,2.91,1.55,2.46*17
$GPGSV,5,1,18,10,43,305,37,12,02,145,10,15,09,039,22,16,13,302,*73
$GPGSV,5,2,18,18,18,019,31,23,30,356,37,24,11,097,,25,28,164,16*7A
$GPGSV,5,3,18,26,28,277,,28,19,207,,29,56,095,18,31,07,231,*75
$GPGSV,5,4,18,32,53,195,20,36,52,277,,40,85,352,36,41,58,082,*73
$GPGSV,5,5,18,49,32,274,,50,10,089,*78
$GLGSV,3,1,09,65,27,209,,71,37,021,28,72,85,267,23,74,04,153,*62
$GLGSV,3,2,09,75,25,198,08,76,20,260,14,84,03,113,07,85,22,068,28*60
$GLGSV,3,3,09,86,15,010,24*51
$GNGLL,0419.72401,S,05539.86750,E,101218.00,A,A*6B
$GNGRS,101218.00,1,1.7,-1.3,-11.2,-1.3,2.8,,,,,,,*66
$GNGRS,101218.00,1,0.2,-7.8,-4.0,3.6,,,,,,,,*57
$GNGST,101218.00,35,,,,5.3,3.8,14*62
$GNZDA,101218.00,21,05,2025,00,00*70
$GNGBS,101218.00,5.3,3.8,14.0,,,,*6C
b0X
%+1'.%da8_ 5{4$U`:R 
YUAG!%HUJKLTqUD
V
bO$GNRMC,101219.00,A,0419.72389,S,05539.86753,E,0.173,,210525,,,A*73
$GNVTG,,T,,M,0.173,N,0.320,K,A*39
$GNGNS,101219.00,0419.72389,S,05539.86753,E,AA,10,1.25,10.1,-47.6,,*6E
$GNGGA,101219.00,0419.72389,S,05539.86753,E,1,10,1.25,10.1,M,-47.6,M,,*44
$GNGSA,A,3,25,23,10,15,18,32,,,,,,,2.33,1.25,1.96*1D
$GNGSA,A,3,71,72,85,86,,,,,,,,,2.33,1.25,1.96*16
$GPGSV,5,1,18,10,43,305,37,12,02,145,08,15,09,039,22,16,13,302,*7A
$GPGSV,5,2,18,18,18,019,31,23,30,356,37,24,11,097,,25,28,164,16*7A
$GPGSV,5,3,18,26,28,277,,28,19,207,,29,56,095,18,31,07,231,*75
$GPGSV,5,4,18,32,53,195,19,36,52,277,,40,85,352,36,41,58,082,*79
$GPGSV,5,5,18,49,32,274,,50,10,089,*78
$GLGSV,3,1,09,65,27,209,,71,37,021,33,72,85,267,23,74,04,153,*68
$GLGSV,3,2,09,75,25,198,08,76,20,260,13,84,03,113,11,85,22,068,27*6F
$GLGSV,3,3,09,86,15,010,24*51
$GNGLL,0419.72389,S,05539.86753,E,101219.00,A,A*6E
$GNGRS,101219.00,1,-15.6,1.6,-1.2,-10.3,-2.9,4.4,,,,,,*55
$GNGRS,101219.00,1,2.5,-7.9,-3.3,2.8,,,,,,,,*59
$GNGST,101219.00,43,,,,5.4,3.8,14*65
$GNZDA,101219.00,21,05,2025,00,00*71
$GNGBS,101219.00,5.4,3.8,14.0,,,,*6A
b0X
&+1y'. &da8_ 51{4%U`:R 
YUAG %HUJKLT
qUDV
V
hbOl$GNRMC,101220.00,A,0419.72385,S,05539.86755,E,0.064,,210525,,,A*74
$GNVTG,,T,,M,0.064,N,0.119,K,A*36
$GNGNS,101220.00,0419.72385,S,05539.86755,E,AA,10,1.55,10.2,-47.6,,*6A
$GNGGA,101220.00,0419.72385,S,05539.86755,E,1,10,1.55,10.2,M,-47.6,M,,*40
$GNGSA,A,3,25,23,10,15,18,32,,,,,,,2.91,1.55,2.46*1C
$GNGSA,A,3,71,72,85,86,,,,,,,,,2.91,1.55,2.46*17
$GPGSV,5,1,18,10,43,305,38,12,02,145,09,15,09,039,23,16,13,302,*75
$GPGSV,5,2,18,18,18,019,32,23,30,356,38,24,11,097,,25,28,164,16*76
$GPGSV,5,3,18,26,28,277,,28,19,207,,29,56,095,18,31,07,231,*75
$GPGSV,5,4,18,32,53,195,19,36,52,277,,40,85,352,37,41,58,082,*78
$GPGSV,5,5,18,49,32,274,,50,10,089,*78
$GLGSV,3,1,09,65,27,209,,71,37,021,32,72,85,267,23,74,04,153,*69
$GLGSV,3,2,09,75,25,198,11,76,20,260,13,84,03,113,10,85,22,068,28*69
$GLGSV,3,3,09,86,15,010,26*53
$GNGLL,0419.72385,S,05539.86755,E,101220.00,A,A*6E
$GNGRS,101220.00,1,-20.6,1.7,-1.3,-10.0,-5.7,8.2,,,,,,*59
$GNGRS,101220.00,1,0.0,-7.5,-1.7,4.1,,,,,,,,*51
$GNGST,101220.00,34,,,,5.4,3.9,14*6E
$GNZDA,101220.00,21,05,2025,00,00*7B
$GNGBS,101220.00,5.4,3.9,14.0,,,,*61
b0X
#+1'.#da8_Y 5{4 U`:R 
YUAG%~HUYJKLTqUD
V
bO$GNRMC,101221.00,A,0419.72374,S,05539.86757,E,0.173,,210525,,,A*7E
$GNVTG,,T,,M,0.173,N,0.321,K,A*38
$GNGNS,101221.00,0419.72374,S,05539.86757,E,AA,11,1.55,10.5,-47.6,,*61
$GNGGA,101221.00,0419.72374,S,05539.86757,E,1,11,1.55,10.5,M,-47.6,M,,*4B
$GNGSA,A,3,25,23,10,29,15,18,32,,,,,,2.91,1.55,2.46*17
$GNGSA,A,3,71,72,85,86,,,,,,,,,2.91,1.55,2.46*17
$GPGSV,5,1,18,10,43,305,35,12,02,145,09,15,09,039,21,16,13,302,*7A
$GPGSV,5,2,18,18,18,019,28,23,30,356,35,24,11,097,,25,28,164,16*70
$GPGSV,5,3,18,26,28,277,,28,19,207,,29,56,095,18,31,07,231,*75
$GPGSV,5,4,18,32,53,195,18,36,52,277,,40,85,352,32,41,58,082,*7C
$GPGSV,5,5,18,49,32,274,,50,10,089,*78
$GLGSV,3,1,09,65,27,209,,71,37,021,27,72,85,267,21,74,04,153,*6F
$GLGSV,3,2,09,75,25,198,,76,20,260,13,84,03,113,07,85,22,068,26*61
$GLGSV,3,3,09,86,15,010,26*53
$GNGLL,0419.72374,S,05539.86757,E,101221.00,A,A*63
$GNGRS,101221.00,1,-21.7,2.0,-1.0,-27.3,-8.9,-3.7,6.6,,,,,*56
$GNGRS,101221.00,1,-1.3,-9.3,7.2,4.4,,,,,,,,*5C
$GNGST,101221.00,40,,,,5.5,3.9,14*6D
$GNZDA,101221.00,21,05,2025,00,00*7A
$GNGBS,101221.00,5.5,3.9,14.2,,,,*63
b0X
#+1'.#da8_8 5{4!U`:R 
YUAG%HUJKLTqUD
V
ZbOe<$GNRMC,101222.00,A,0419.72377,S,05539.86753,E,0.078,,210525,,,A*70
$GNVTG,,T,,M,0.078,N,0.144,K,A*33
$GNGNS,101222.00,0419.72377,S,05539.86753,E,AA,11,1.09,10.2,-47.6,,*6B
$GNGGA,101222.00,0419.72377,S,05539.86753,E,1,11,1.09,10.2,M,-47.6,M,,*41
$GNGSA,A,3,25,23,10,29,15,18,32,,,,,,1.95,1.09,1.62*1C
$GNGSA,A,3,71,72,85,86,,,,,,,,,1.95,1.09,1.62*1C
$GPGSV,5,1,18,10,43,305,35,12,02,145,07,15,09,039,20,16,13,302,*75
$GPGSV,5,2,18,18,18,019,29,23,30,356,35,24,11,097,,25,28,164,15*72
$GPGSV,5,3,18,26,28,277,,28,19,207,,29,56,095,17,31,07,231,*7A
$GPGSV,5,4,18,32,53,195,18,36,52,277,,40,85,352,33,41,58,082,*7D
$GPGSV,5,5,18,49,32,274,,50,10,089,*78
$GLGSV,3,1,09,65,27,209,,71,37,021,28,72,85,267,21,74,04,153,*60
$GLGSV,3,2,09,75,25,198,,76,20,260,13,84,03,113,08,85,22,068,26*6E
$GLGSV,3,3,09,86,15,010,26*53
$GNGLL,0419.72377,S,05539.86753,E,101222.00,A,A*67
$GNGRS,101222.00,1,-16.2,1.8,-1.1,-25.0,-10.0,-1.1,7.0,,,,,*6C
$GNGRS,101222.00,1,-4.9,-7.8,-1.0,3.5,,,,,,,,*7A
$GNGST,101222.00,49,,,,5.6,4.0,14*6A
$GNZDA,101222.00,21,05,2025,00,00*79
$GNGBS,101222.00,5.6,4.0,14.2,,,,*6D
b0X
#+1T'."#da8_ 5{4"U`:R 
YUAG%kHUJKLTqLJUD0
V
5<bqO>$GNRMC,101223.00,A,0419.72366,S,05539.86746,E,0.257,,210525,,,A*7A
$GNVTG,,T,,M,0.257,N,0.477,K,A*39
$GNGNS,101223.00,0419.72366,S,05539.86746,E,AA,11,1.09,9.9,-47.6,,*5D
$GNGGA,101223.00,0419.72366,S,05539.86746,E,1,11,1.09,9.9,M,-47.6,M,,*77
$GNGSA,A,3,25,23,10,29,15,18,32,,,,,,1.95,1.09,1.62*1C
$GNGSA,A,3,71,72,85,86,,,,,,,,,1.95,1.09,1.62*1C
$GPGSV,5,1,18,10,43,305,35,12,01,145,11,15,09,039,21,16,13,302,*70
$GPGSV,5,2,18,18,18,019,29,23,30,356,35,24,11,097,,25,28,164,15*72
$GPGSV,5,3,18,26,28,277,,28,19,207,,29,56,095,17,31,07,231,*7A
$GPGSV,5,4,18,32,53,195,19,36,52,277,,40,85,352,34,41,58,082,*7B
$GPGSV,5,5,18,49,32,274,,50,10,089,*78
$GLGSV,3,1,09,65,27,209,,71,37,021,28,72,85,267,21,74,04,153,*60
$GLGSV,3,2,09,75,25,198,,76,20,260,13,84,03,113,06,85,22,068,26*60
$GLGSV,3,3,09,86,15,010,24*51
$GNGLL,0419.72366,S,05539.86746,E,101223.00,A,A*62
$GNGRS,101223.00,1,-13.1,1.7,-1.2,-20.2,-10.2,2.9,9.3,,,,,*49
$GNGRS,101223.00,1,1.1,-10.6,-4.6,3.1,,,,,,,,*64
$GNGST,101223.00,51,,,,5.7,4.0,14*63
$GNZDA,101223.00,21,05,2025,00,00*78
$GNGBS,101223.00,5.7,4.0,14.4,,,,*6B
b0X
&+1'.%da8_ 5${4%U`:R 
YUAG%mHUJKLTqUD
V
sASbYO$GNRMC,101224.00,A,0419.72354,S,05539.86740,E,0.337,,210525,,,A*7D
$GNVTG,,T,,M,0.337,N,0.624,K,A*3A
$GNGNS,101224.00,0419.72354,S,05539.86740,E,AA,11,1.09,9.7,-47.6,,*53
$GNGGA,101224.00,0419.72354,S,05539.86740,E,1,11,1.09,9.7,M,-47.6,M,,*79
$GNGSA,A,3,25,23,10,29,15,18,32,,,,,,1.95,1.09,1.62*1C
$GNGSA,A,3,71,72,85,86,,,,,,,,,1.95,1.09,1.62*1C
$GPGSV,5,1,18,10,43,305,38,12,01,145,09,15,09,039,21,16,13,302,*74
$GPGSV,5,2,18,18,18,019,30,23,30,356,37,24,11,097,,25,28,164,16*7B
$GPGSV,5,3,18,26,28,277,,28,19,207,,29,56,095,18,31,07,231,*75
$GPGSV,5,4,18,32,53,195,20,36,52,277,,40,85,352,37,41,58,082,*72
$GPGSV,5,5,18,49,32,274,,50,10,089,*78
$GLGSV,3,1,09,65,27,209,,71,37,021,29,72,85,267,21,74,04,153,*61
$GLGSV,3,2,09,75,25,198,,76,20,260,13,84,03,113,07,85,22,068,26*61
$GLGSV,3,3,09,86,15,010,24*51
$GNGLL,0419.72354,S,05539.86740,E,101224.00,A,A*62
$GNGRS,101224.00,1,-12.6,1.4,-1.2,-18.8,-8.3,2.8,10.6,,,,,*4E
$GNGRS,101224.00,1,-1.5,-11.0,-3.2,1.1,,,,,,,,*4C
$GNGST,101224.00,50,,,,5.8,4.1,14*6B
$GNZDA,101224.00,21,05,2025,00,00*7F
$GNGBS,101224.00,5.8,4.1,14.5,,,,*63
b0Xx
&+1}'.%da8_ 5}{4$U`:R 
YUAG%HU:JKLT
qUD>
V
bxAO$GNRMC,101225.00,A,0419.72351,S,05539.86734,E,0.359,,210525,,,A*72
$GNVTG,,T,,M,0.359,N,0.665,K,A*37
$GNGNS,101225.00,0419.72351,S,05539.86734,E,AA,11,1.09,9.4,-47.6,,*57
$GNGGA,101225.00,0419.72351,S,05539.86734,E,1,11,1.09,9.4,M,-47.6,M,,*7D
$GNGSA,A,3,25,23,10,29,15,18,32,,,,,,1.95,1.09,1.62*1C
$GNGSA,A,3,71,72,85,86,,,,,,,,,1.95,1.09,1.62*1C
$GPGSV,5,1,18,10,43,305,38,12,01,145,07,15,09,039,20,16,13,302,*7B
$GPGSV,5,2,18,18,18,019,31,23,30,356,37,24,11,097,,25,28,164,17*7B
$GPGSV,5,3,18,26,28,277,,28,19,207,,29,56,095,18,31,07,231,*75
$GPGSV,5,4,18,32,53,195,21,36,52,277,,40,85,352,36,41,58,082,*72
$GPGSV,5,5,18,49,32,274,,50,10,089,*78
$GLGSV,3,1,09,65,27,209,,71,37,021,31,72,85,267,23,74,04,153,*6A
$GLGSV,3,2,09,75,25,198,,76,20,260,17,84,03,113,10,85,22,068,26*63
$GLGSV,3,3,09,86,15,010,25*50
$GNGLL,0419.72351,S,05539.86734,E,101225.00,A,A*65
$GNGRS,101225.00,1,-10.7,1.3,-0.9,-18.8,-8.1,-2.3,11.5,,,,,*67
$GNGRS,101225.00,1,-3.1,-12.2,-4.5,0.0,,,,,,,,*4A
$GNGST,101225.00,48,,,,5.9,4.1,15*63
$GNZDA,101225.00,21,05,2025,00,00*7E
$GNGBS,101225.00,5.9,4.1,14.5,,,,*63
b0d`
%+1 &."da|8_ 5{4$U`:R 
YUAG%3HUAJKLTqUD
V
#nb`)O$GNRMC,101226.00,A,0419.72353,S,05539.86717,E,0.395,,210525,,,A*72
$GNVTG,,T,,M,0.395,N,0.731,K,A*37
$GNGNS,101226.00,0419.72353,S,05539.86717,E,AA,11,1.09,8.6,-47.6,,*54
$GNGGA,101226.00,0419.72353,S,05539.86717,E,1,11,1.09,8.6,M,-47.6,M,,*7E
$GNGSA,A,3,25,23,10,29,15,18,32,,,,,,1.95,1.09,1.62*1C
$GNGSA,A,3,71,72,85,86,,,,,,,,,1.95,1.09,1.62*1C
$GPGSV,5,1,18,10,43,305,37,12,01,145,11,15,09,038,21,16,13,302,*73
$GPGSV,5,2,18,18,18,019,31,23,30,356,34,24,11,097,,25,28,164,17*78
$GPGSV,5,3,18,26,28,277,,28,19,207,,29,56,095,18,31,07,231,*75
$GPGSV,5,4,18,32,53,195,23,36,52,277,,40,85,352,36,41,58,082,*70
$GPGSV,5,5,18,49,32,274,,50,10,089,*78
$GLGSV,3,1,10,65,27,209,,71,37,021,31,72,85,267,24,74,04,153,*65
$GLGSV,3,2,10,75,25,198,,76,20,260,18,84,03,113,09,85,22,068,27*6D
$GLGSV,3,3,10,86,15,010,25,,,,35*5E
$GNGLL,0419.72353,S,05539.86717,E,101226.00,A,A*65
$GNGRS,101226.00,1,-11.6,1.3,-0.2,-15.6,-5.6,-4.9,12.7,,,,,*6B
$GNGRS,101226.00,1,-4.6,-12.2,-3.5,1.7,,,,,,,,*48
$GNGST,101226.00,43,,,,5.9,4.1,15*6B
$GNZDA,101226.00,21,05,2025,00,00*7D
$GNGBS,101226.00,5.9,4.1,14.5,,,,*60
b0dH
#+1&".Z"dea88_j 5;{4"U`:R 
YUAG%HUJKLTqUD
V
#bHOR$GNRMC,101227.00,A,0419.72345,S,05539.86703,E,0.460,,210525,,,A*7C
$GNVTG,,T,,M,0.460,N,0.853,K,A*31
$GNGNS,101227.00,0419.72345,S,05539.86703,E,AA,11,1.09,8.2,-47.6,,*53
$GNGGA,101227.00,0419.72345,S,05539.86703,E,1,11,1.09,8.2,M,-47.6,M,,*79
$GNGSA,A,3,25,23,10,29,15,18,32,,,,,,1.95,1.09,1.62*1C
$GNGSA,A,3,71,72,85,86,,,,,,,,,1.95,1.09,1.62*1C
$GPGSV,5,1,18,10,43,305,35,12,01,145,09,15,09,038,21,16,13,302,*78
$GPGSV,5,2,18,18,18,019,30,23,30,356,34,24,11,097,,25,28,164,16*78
$GPGSV,5,3,18,26,28,277,,28,19,207,,29,56,095,18,31,07,231,*75
$GPGSV,5,4,18,32,53,195,21,36,52,277,,40,85,352,34,41,58,082,*70
$GPGSV,5,5,18,49,32,274,,50,10,089,*78
