$GNTXT,01,01,01,More than 100 frame errors, UART RX was disabled*70
b0Ld0H'r^
s3`:b|={4V^:R 
Y
^EF
I'JUOP6]}ST1<U!bdOGI8$GNRMC,042345.00,A,0419.77908,S,05539.87909,E,0.256,,210525,,,A*7F
$GNVTG,,T,,M,0.256,N,0.475,K,A*3A
$GNGNS,042345.00,0419.77908,S,05539.87909,E,AA,10,0.88,13.3,-47.6,,*61
$GNGGA,042345.00,0419.77908,S,05539.87909,E,1,10,0.88,13.3,M,-47.6,M,,*4B
$GNGSA,A,3,24,20,11,05,15,12,14,,,,,,1.60,0.88,1.33*19
$GNGSA,A,3,84,80,73,,,,,,,,,,1.60,0.88,1.33*1A
$GPGSV,5,1,17,05,48,157,27,06,07,028,,11,39,019,23,12,19,350,16*76
$GPGSV,5,2,17,13,26,171,20,14,10,115,13,15,27,208,27,18,11,221,*7E
$GPGSV,5,3,17,20,51,096,24,22,21,098,15,24,61,283,24,29,11,283,16*7B
$GPGSV,5,4,17,36,52,277,,40,86,350,,41,58,082,,49,32,274,*7D
$GPGSV,5,5,17,50,10,089,*4A
$GLGSV,3,1,09,69,11,140,,70,12,201,,73,39,004,18,74,02,341,*67
$GLGSV,3,2,09,79,14,139,,80,54,093,19,83,15,008,,84,49,316,25*63
$GLGSV,3,3,09,85,33,245,25*55
$GNGLL,0419.77908,S,05539.87909,E,042345.00,A,A*66
$GNGRS,042345.00,1,-5.4,-9.7,-4.0,0.7,-0.7,2.3,-10.4,,,,,*68
$GNGRS,042345.00,1,7.5,-3.9,1.3,,,,,,,,,*5D
$GNGST,042345.00,55,,,,4.7,5.2,12*64
$GNZDA,042345.00,21,05,2025,00,00*7F
$GNGBS,042345.00,4.7,5.2,12.2,,,,*6E
$GNTXT,01,01,01,More than 100 frame errors, UART RX was disabled*70
b0Ld0}'6^
s3`b={4V^:R 
Y^~EF
I'JUOP6]ST1<U!NbdO/M$GNRMC,042346.00,A,0419.77916,S,05539.87885,E,0.513,,210525,,,A*70
$GNVTG,,T,,M,0.513,N,0.950,K,A*36
$GNGNS,042346.00,0419.77916,S,05539.87885,E,AA,10,0.88,13.8,-47.6,,*63
$GNGGA,042346.00,0419.77916,S,05539.87885,E,1,10,0.88,13.8,M,-47.6,M,,*49
$GNGSA,A,3,24,20,11,05,15,12,14,,,,,,1.60,0.88,1.33*19
$GNGSA,A,3,84,80,73,,,,,,,,,,1.60,0.88,1.33*1A
$GPGSV,5,1,17,05,48,157,26,06,07,028,,11,39,019,22,12,19,350,15*75
$GPGSV,5,2,17,13,26,171,17,14,10,115,12,15,27,208,25,18,11,221,*79
$GPGSV,5,3,17,20,51,096,23,22,21,098,15,24,61,283,23,29,11,283,16*7B
$GPGSV,5,4,17,36,52,277,,40,86,350,,41,58,082,,49,32,274,*7D
$GPGSV,5,5,17,50,10,089,*4A
$GLGSV,3,1,09,69,11,140,,70,12,201,,73,39,004,16,74,02,341,*69
$GLGSV,3,2,09,79,14,140,,80,54,093,18,83,15,008,,84,49,316,22*6B
$GLGSV,3,3,09,85,33,245,23*53
$GNGLL,0419.77916,S,05539.87885,E,042346.00,A,A*6F
$GNGRS,042346.00,1,0.0,-8.2,-4.6,1.3,-3.6,2.2,-12.6,,,,,*43
$GNGRS,042346.00,1,7.1,-3.6,1.4,,,,,,,,,*52
$GNGST,042346.00,57,,,,4.7,5.3,12*64
$GNZDA,042346.00,21,05,2025,00,00*7C
$GNGBS,042346.00,4.7,5.3,12.2,,,,*6C
$GNTXT,01,01,01,More than 100 frame errors, UART RX was disabled*70
b0Ld0'^
s3`b ={4V^:R 
Y^EF
I
'^JUOP6^.ST1<NU!ZbdOQ$GNRMC,042347.00,A,0419.77915,S,05539.87877,E,0.200,,210525,,,A*7A
$GNVTG,,T,,M,0.200,N,0.371,K,A*3A
$GNGNS,042347.00,0419.77915,S,05539.87877,E,AA,11,0.85,14.0,-47.6,,*6F
$GNGGA,042347.00,0419.77915,S,05539.87877,E,1,11,0.85,14.0,M,-47.6,M,,*45
$GNGSA,A,3,24,20,11,05,15,22,12,14,,,,,1.58,0.85,1.33*1F
$GNGSA,A,3,84,80,73,,,,,,,,,,1.58,0.85,1.33*1C
$GPGSV,5,1,17,05,48,157,28,06,07,028,,11,39,019,22,12,19,350,18*76
$GPGSV,5,2,17,13,26,171,20,14,10,115,11,15,27,208,25,18,11,221,*7E
$GPGSV,5,3,17,20,51,096,23,22,21,098,18,24,61,283,25,29,11,283,18*7E
$GPGSV,5,4,17,36,52,277,,40,86,350,,41,58,082,,49,32,274,*7D
$GPGSV,5,5,17,50,10,089,*4A
$GLGSV,3,1,09,69,11,140,,70,12,201,,73,39,004,10,74,02,341,*6F
$GLGSV,3,2,09,79,14,140,,80,54,094,22,83,15,008,,84,49,316,23*64
$GLGSV,3,3,09,85,33,245,23*53
$GNGLL,0419.77915,S,05539.87877,E,042347.00,A,A*60
$GNGRS,042347.00,1,-5.4,-5.7,-3.8,3.9,2.7,8.0,2.9,-15.7,,,,*61
$GNGRS,042347.00,1,5.9,-4.7,0.9,,,,,,,,,*53
$GNGST,042347.00,86543,,,,4.8,5.5,12*52
$GNZDA,042347.00,21,05,2025,00,00*7D
$GNGBS,042347.00,4.8,5.5,12.2,,,,*64
$GNTXT,01,01,01,More than 100 frame errors, UART RX was disabled*70
b0Lpd0-'^
s3`b={4V^:R 
Y^EF
I'JUOP6^ST1<pU!ebpdOTzm$GNRMC,042348.00,A,0419.77915,S,05539.87880,E,0.091,,210525,,,A*77
$GNVTG,,T,,M,0.091,N,0.169,K,A*3B
$GNGNS,042348.00,0419.77915,S,05539.87880,E,AA,11,0.85,14.0,-47.6,,*68
$GNGGA,042348.00,0419.77915,S,05539.87880,E,1,11,0.85,14.0,M,-47.6,M,,*42
$GNGSA,A,3,24,20,11,05,15,22,12,14,,,,,1.58,0.85,1.33*1F
$GNGSA,A,3,84,80,73,,,,,,,,,,1.58,0.85,1.33*1C
$GPGSV,5,1,17,05,48,157,29,06,07,028,,11,39,019,24,12,19,350,21*7B
$GPGSV,5,2,17,13,26,171,21,14,10,115,14,15,27,208,27,18,11,221,*78
$GPGSV,5,3,17,20,51,096,23,22,21,098,18,24,61,283,26,29,11,283,20*76
$GPGSV,5,4,17,36,52,277,,40,86,350,,41,58,082,,49,32,274,*7D
$GPGSV,5,5,17,50,10,089,*4A
$GLGSV,3,1,09,69,11,140,,70,12,201,,73,39,004,15,74,02,341,*6A
$GLGSV,3,2,09,79,14,140,,80,54,094,25,83,15,008,,84,49,316,25*65
$GLGSV,3,3,09,85,33,245,24*54
$GNGLL,0419.77915,S,05539.87880,E,042348.00,A,A*67
$GNGRS,042348.00,1,-6.3,-6.4,-3.0,8.1,-0.8,14.8,2.8,-12.8,,,,*7D
$GNGRS,042348.00,1,6.2,-2.6,0.3,,,,,,,,,*59
$GNGST,042348.00,86543,,,,4.8,5.5,12*5D
$GNZDA,042348.00,21,05,2025,00,00*72
$GNGBS,042348.00,4.8,5.5,12.2,,,,*6B
$GNTXT,01,01,01,More than 100 frame errors, UART RX was disabled*70
b0LXd0G'^H
sz3`ib={4V^:R 
Y^8EF
I'JUOP6^ST1<U! bXdOXR$GNRMC,042349.00,A,0419.77918,S,05539.87865,E,0.242,,210525,,,A*7C
$GNVTG,,T,,M,0.242,N,0.449,K,A*30
$GNGNS,042349.00,0419.77918,S,05539.87865,E,AA,11,0.85,14.2,-47.6,,*6D
$GNGGA,042349.00,0419.77918,S,05539.87865,E,1,11,0.85,14.2,M,-47.6,M,,*47
$GNGSA,A,3,24,20,11,05,15,22,12,14,,,,,1.58,0.85,1.33*1F
$GNGSA,A,3,84,80,73,,,,,,,,,,1.58,0.85,1.33*1C
$GPGSV,5,1,17,05,48,157,22,06,07,028,,11,39,019,24,12,19,350,20*71
$GPGSV,5,2,17,13,26,171,20,14,10,115,15,15,27,208,27,18,11,221,*78
$GPGSV,5,3,17,20,51,096,21,22,21,098,17,24,61,283,25,29,11,283,20*78
$GPGSV,5,4,17,36,52,277,,40,86,350,,41,58,082,,49,32,274,*7D
$GPGSV,5,5,17,50,10,089,*4A
$GLGSV,3,1,09,69,11,140,,70,12,201,,73,39,004,12,74,02,341,*6D
$GLGSV,3,2,09,79,14,140,,80,54,094,25,83,15,008,,84,49,316,24*64
$GLGSV,3,3,09,85,33,245,23*53
$GNGLL,0419.77918,S,05539.87865,E,042349.00,A,A*60
$GNGRS,042349.00,1,-6.0,-6.6,-1.3,3.3,-3.1,12.6,0.7,-11.6,,,,*77
$GNGRS,042349.00,1,7.7,-3.4,-5.7,,,,,,,,,*73
$GNGST,042349.00,55,,,,4.9,5.6,12*62
$GNZDA,042349.00,21,05,2025,00,00*73
$GNGBS,042349.00,4.9,5.6,12.2,,,,*68
$GNTXT,01,01,01,More than 100 frame errors, UART RX was disabled*70
b0L@d0'^S
s9g3`ib=]{4V^:R 
Y^EF
I'JUOP6^ST1<XU!Ob@dO\*=$GNRMC,042350.00,A,0419.77922,S,05539.87846,E,0.437,,210525,,,A*78
$GNVTG,,T,,M,0.437,N,0.810,K,A*34
$GNGNS,042350.00,0419.77922,S,05539.87846,E,AA,11,0.85,14.3,-47.6,,*6C
$GNGGA,042350.00,0419.77922,S,05539.87846,E,1,11,0.85,14.3,M,-47.6,M,,*46
$GNGSA,A,3,24,20,11,05,15,22,12,14,,,,,1.58,0.85,1.33*1F
$GNGSA,A,3,84,80,73,,,,,,,,,,1.58,0.85,1.33*1C
$GPGSV,5,1,17,05,48,157,23,06,07,028,,11,39,019,24,12,19,350,20*70
$GPGSV,5,2,17,13,26,171,18,14,10,115,15,15,27,208,27,18,11,221,*73
$GPGSV,5,3,17,20,51,096,20,22,21,098,16,24,61,283,25,29,11,283,19*72
$GPGSV,5,4,17,36,52,277,,40,86,350,,41,58,082,,49,32,274,*7D
$GPGSV,5,5,17,50,10,089,*4A
$GLGSV,3,1,09,69,11,140,,70,12,201,,73,39,004,12,74,02,341,*6D
$GLGSV,3,2,09,79,14,140,19,80,54,094,25,83,14,009,,84,49,316,24*6C
$GLGSV,3,3,09,85,33,245,24*54
$GNGLL,0419.77922,S,05539.87846,E,042350.00,A,A*60
$GNGRS,042350.00,1,-4.2,-6.6,-3.4,6.7,-4.1,11.9,0.8,-12.2,,,,*78
$GNGRS,042350.00,1,6.0,-2.9,-5.7,,,,,,,,,*71
$GNGST,042350.00,62311,,,,4.9,5.6,12*5D
$GNZDA,042350.00,21,05,2025,00,00*7B
$GNGBS,042350.00,4.9,5.6,12.2,,,,*60
$GNTXT,01,01,01,More than 100 frame errors, UART RX was disabled*70
b0L(d0' ^
sF3`vbx=9{4V^:R 
Y
^WEF
I'JUOP6^5ST0<U!$wb(dO`$GNRMC,042351.00,A,0419.77928,S,05539.87840,E,0.309,,210525,,,A*7F
$GNVTG,,T,,M,0.309,N,0.572,K,A*37
$GNGNS,042351.00,0419.77928,S,05539.87840,E,AA,11,0.87,14.6,-47.6,,*66
$GNGGA,042351.00,0419.77928,S,05539.87840,E,1,11,0.87,14.6,M,-47.6,M,,*4C
$GNGSA,A,3,24,20,11,05,15,22,12,14,,,,,1.69,0.87,1.45*1E
$GNGSA,A,3,84,80,73,,,,,,,,,,1.69,0.87,1.45*1D
$GPGSV,5,1,17,05,48,157,31,06,07,028,,11,39,019,24,12,19,350,19*79
$GPGSV,5,2,17,13,26,171,18,14,10,115,15,15,27,208,27,18,11,221,*73
$GPGSV,5,3,17,20,51,096,21,22,21,098,14,24,61,283,26,29,11,283,16*7D
$GPGSV,5,4,17,36,52,277,,40,86,350,,41,58,082,,49,32,274,*7D
$GPGSV,5,5,17,50,10,089,*4A
$GLGSV,3,1,09,69,11,140,,70,12,201,,73,39,004,11,74,02,341,*6E
$GLGSV,3,2,09,79,14,140,18,80,54,094,25,83,14,009,,84,48,316,25*6D
$GLGSV,3,3,09,85,33,245,23*53
$GNGLL,0419.77928,S,05539.87840,E,042351.00,A,A*6D
$GNGRS,042351.00,1,-4.5,-6.5,-4.8,7.6,-1.9,11.4,0.1,-13.6,,,,*7A
$GNGRS,042351.00,1,4.0,-4.6,-5.7,,,,,,,,,*7B
$GNGST,042351.00,97622,,,,4.9,5.7,12*52
$GNZDA,042351.00,21,05,2025,00,00*7A
$GNGBS,042351.00,4.9,5.7,12.2,,,,*60
$GNTXT,01,01,01,More than 100 frame errors, UART RX was disabled*70
b0Ld!0'^
s3`b={4V^:R 
Y^EF
I'PJUOCP6^ST0<U!ZbdOd$GNRMC,042352.00,A,0419.77942,S,05539.87842,E,0.232,,210525,,,A*7B
$GNVTG,,T,,M,0.232,N,0.430,K,A*39
$GNGNS,042352.00,0419.77942,S,05539.87842,E,AA,11,0.87,14.8,-47.6,,*65
$GNGGA,042352.00,0419.77942,S,05539.87842,E,1,11,0.87,14.8,M,-47.6,M,,*4F
$GNGSA,A,3,24,20,11,05,15,22,12,14,,,,,1.69,0.87,1.45*1E
$GNGSA,A,3,84,80,73,,,,,,,,,,1.69,0.87,1.45*1D
$GPGSV,5,1,17,05,48,157,33,06,07,028,,11,39,019,23,12,19,350,17*72
$GPGSV,5,2,17,13,26,171,20,14,10,115,16,15,27,208,25,18,11,221,*79
$GPGSV,5,3,17,20,51,096,22,22,21,098,15,24,61,283,31,29,11,283,12*7D
$GPGSV,5,4,17,36,52,277,,40,86,350,,41,58,082,,49,32,274,*7D
$GPGSV,5,5,17,50,10,089,*4A
$GLGSV,3,1,09,69,11,140,,70,12,201,,73,39,004,15,74,02,341,*6A
$GLGSV,3,2,09,79,14,140,18,80,54,094,27,83,14,009,,84,48,316,26*6C
$GLGSV,3,3,09,85,33,246,26*55
$GNGLL,0419.77942,S,05539.87842,E,042352.00,A,A*60
$GNGRS,042352.00,1,-5.0,-5.7,-5.7,4.4,0.0,7.0,-0.9,-12.8,,,,*4F
$GNGRS,042352.00,1,4.0,-8.0,-14.6,,,,,,,,,*43
$GNGST,042352.00,50,,,,4.9,5.6,12*6D
$GNZDA,042352.00,21,05,2025,00,00*79
$GNGBS,042352.00,4.9,5.6,12.2,,,,*62
$GNTXT,01,01,01,More than 100 frame errors, UART RX was disabled*70
b0Ld0'R^d
s3`bx=`
{4V^:R 
Y^nEF
I'JUOP6^FST0<U!/bdOhf$GNRMC,042353.00,A,0419.77950,S,05539.87835,E,0.158,,210525,,,A*76
$GNVTG,,T,,M,0.158,N,0.292,K,A*38
$GNGNS,042353.00,0419.77950,S,05539.87835,E,AA,11,0.87,14.9,-47.6,,*66
$GNGGA,042353.00,0419.77950,S,05539.87835,E,1,11,0.87,14.9,M,-47.6,M,,*4C
$GNGSA,A,3,24,20,11,05,15,22,12,14,,,,,1.69,0.87,1.45*1E
$GNGSA,A,3,84,80,73,,,,,,,,,,1.69,0.87,1.45*1D
$GPGSV,5,1,17,05,48,157,29,06,07,028,,11,39,019,21,12,19,350,14*78
$GPGSV,5,2,17,13,26,171,19,14,10,115,16,15,27,208,27,18,11,221,*71
$GPGSV,5,3,17,20,51,096,23,22,21,098,15,24,61,283,29,29,11,283,10*77
$GPGSV,5,4,17,36,52,277,,40,86,350,,41,58,082,,49,32,274,*7D
$GPGSV,5,5,17,50,10,089,*4A
$GLGSV,3,1,09,69,11,140,,70,12,201,,73,39,004,15,74,02,341,*6A
$GLGSV,3,2,09,79,14,140,15,80,54,094,27,83,14,009,,84,48,316,25*62
$GLGSV,3,3,09,85,33,246,27*54
$GNGLL,0419.77950,S,05539.87835,E,042353.00,A,A*62
$GNGRS,042353.00,1,-4.2,-5.3,-6.9,9.1,0.3,6.3,-1.6,-13.7,,,,*4D
$GNGRS,042353.00,1,2.6,-12.1,-5.8,,,,,,,,,*46
$GNGST,042353.00,143991,,,,4.9,5.6,12*6E
$GNZDA,042353.00,21,05,2025,00,00*78
$GNGBS,042353.00,4.9,5.6,12.2,,,,*63
$GNTXT,01,01,01,More than 100 frame errors, UART RX was disabled*70
b0Ld0"'^O
s3`b =6{4V^:R 
Y^EF
I'JUOP6^ST0<cU!bdOol$GNRMC,042354.00,A,0419.77953,S,05539.87828,E,0.101,,210525,,,A*72
$GNVTG,,T,,M,0.101,N,0.186,K,A*32
$GNGNS,042354.00,0419.77953,S,05539.87828,E,AA,12,0.85,15.2,-47.6,,*65
$GNGGA,042354.00,0419.77953,S,05539.87828,E,1,12,0.85,15.2,M,-47.6,M,,*4F
$GNGSA,A,3,24,20,11,05,15,22,12,14,,,,,1.61,0.85,1.36*10
$GNGSA,A,3,84,80,73,79,,,,,,,,,1.61,0.85,1.36*1D
$GPGSV,5,1,17,05,48,157,29,06,07,028,,11,39,019,23,12,19,350,14*7A
$GPGSV,5,2,17,13,26,171,20,14,10,115,15,15,27,208,28,18,11,221,*77
$GPGSV,5,3,17,20,51,096,26,22,21,098,16,24,61,283,29,29,11,283,11*70
$GPGSV,5,4,17,36,52,277,,40,86,350,,41,58,082,,49,32,274,*7D
$GPGSV,5,5,17,50,10,089,*4A
$GLGSV,3,1,09,69,11,140,,70,12,201,,73,39,004,15,74,02,341,*6A
$GLGSV,3,2,09,79,14,140,12,80,54,094,26,83,14,009,,84,48,316,23*62
$GLGSV,3,3,09,85,33,246,26*55
$GNGLL,0419.77953,S,05539.87828,E,042354.00,A,A*6A
$GNGRS,042354.00,1,-2.0,-5.2,-7.6,5.5,0.2,5.4,-1.8,-13.3,,,,*46
$GNGRS,042354.00,1,1.0,-11.5,-6.0,-29.0,,,,,,,,*70
$GNGST,042354.00,181236,,,,4.9,5.6,12*61
$GNZDA,042354.00,21,05,2025,00,00*7F
$GNGBS,042354.00,4.9,5.6,12.2,,,,*64
$GNTXT,01,01,01,More than 100 frame errors, UART RX was disabled*70
b0Ld0'^-
sH3`b={4V^:R 
Y
^sEF
I
'JUOP6^ST0<U!bdOWpa6$GNRMC,042355.00,A,0419.77951,S,05539.87819,E,0.074,,210525,,,A*70
$GNVTG,,T,,M,0.074,N,0.138,K,A*34
$GNGNS,042355.00,0419.77951,S,05539.87819,E,AA,12,0.85,15.4,-47.6,,*62
$GNGGA,042355.00,0419.77951,S,05539.87819,E,1,12,0.85,15.4,M,-47.6,M,,*48
$GNGSA,A,3,24,20,11,05,15,22,12,14,,,,,1.61,0.85,1.36*10
$GNGSA,A,3,84,80,73,79,,,,,,,,,1.61,0.85,1.36*1D
$GPGSV,5,1,17,05,48,157,28,06,07,028,,11,39,019,24,12,19,350,19*71
$GPGSV,5,2,17,13,26,171,22,14,10,115,16,15,27,208,27,18,11,221,*79
$GPGSV,5,3,17,20,51,096,26,22,21,098,17,24,61,283,23,29,11,283,12*78
$GPGSV,5,4,17,36,52,277,,40,86,350,,41,58,082,,49,32,274,*7D
$GPGSV,5,5,17,50,10,089,*4A
$GLGSV,3,1,09,69,11,140,,70,12,201,,73,39,004,10,74,02,341,*6F
$GLGSV,3,2,09,79,14,140,12,80,54,094,25,83,14,009,,84,48,316,22*60
$GLGSV,3,3,09,85,33,246,25*56
$GNGLL,0419.77951,S,05539.87819,E,042355.00,A,A*6B
$GNGRS,042355.00,1,-0.1,-5.6,-5.7,4.3,-0.8,4.5,5.6,-12.1,,,,*47
$GNGRS,042355.00,1,0.2,-5.1,-10.8,-26.7,,,,,,,,*74
$GNGST,042355.00,55,,,,5.0,5.6,12*67
$GNZDA,042355.00,21,05,2025,00,00*7E
$GNGBS,042355.00,5.0,5.6,12.2,,,,*6D
$GNTXT,01,01,01,More than 100 frame errors, UART RX was disabled*70
b0Ld0'^w
sL3`jb={4V^:R 
Y^ZEF
I'JUOP6^ST0<U!NTbdO?t9$GNRMC,042356.00,A,0419.77947,S,05539.87814,E,0.158,,210525,,,A*76
$GNVTG,,T,,M,0.158,N,0.292,K,A*38
$GNGNS,042356.00,0419.77947,S,05539.87814,E,AA,12,0.83,15.6,-47.6,,*6F
$GNGGA,042356.00,0419.77947,S,05539.87814,E,1,12,0.83,15.6,M,-47.6,M,,*45
$GNGSA,A,3,24,20,11,05,15,22,12,14,,,,,1.53,0.83,1.28*18
$GNGSA,A,3,84,80,73,79,,,,,,,,,1.53,0.83,1.28*15
$GPGSV,5,1,17,05,48,157,19,06,07,028,,11,39,019,25,12,19,350,13*78
$GPGSV,5,2,17,13,26,171,21,14,10,115,15,15,27,208,27,18,11,221,*79
$GPGSV,5,3,17,20,51,096,26,22,21,098,16,24,61,283,23,29,11,283,11*7A
$GPGSV,5,4,17,36,52,277,,40,86,350,,41,58,082,,49,32,274,*7D
$GPGSV,5,5,17,50,10,089,*4A
$GLGSV,3,1,09,69,11,140,,70,12,201,,73,39,004,18,74,02,341,*67
$GLGSV,3,2,09,79,14,140,12,80,54,094,24,83,14,009,,84,48,316,21*62
$GLGSV,3,3,09,85,33,246,25*56
$GNGLL,0419.77947,S,05539.87814,E,042356.00,A,A*62
$GNGRS,042356.00,1,2.7,-4.1,-4.9,10.0,0.8,1.4,14.0,-11.1,,,,*4E
$GNGRS,042356.00,1,-0.4,-6.2,-6.4,-30.6,,,,,,,,*61
$GNGST,042356.00,57,,,,5.0,5.6,12*66
$GNZDA,042356.00,21,05,2025,00,00*7D
$GNGBS,042356.00,5.0,5.6,12.2,,,,*6E
$GNTXT,01,01,01,More than 100 frame errors, UART RX was disabled*70
b0Le0'^
sw3`
b={4V^:R 
Y^@EF
I'JUOP6^ST0<U!
beO'x$GNRMC,042357.00,A,0419.77973,S,05539.87806,E,0.461,,210525,,,A*7C
$GNVTG,,T,,M,0.461,N,0.854,K,A*37
$GNGNS,042357.00,0419.77973,S,05539.87806,E,AA,12,0.83,16.3,-47.6,,*6C
$GNGGA,042357.00,0419.77973,S,05539.87806,E,1,12,0.83,16.3,M,-47.6,M,,*46
$GNGSA,A,3,24,20,11,05,15,22,12,14,,,,,1.53,0.83,1.28*18
$GNGSA,A,3,84,80,73,79,,,,,,,,,1.53,0.83,1.28*15
$GPGSV,5,1,17,05,48,157,24,06,07,028,13,11,39,019,24,12,19,350,11*77
$GPGSV,5,2,17,13,26,171,22,14,10,115,13,15,27,208,26,18,11,221,*7D
$GPGSV,5,3,17,20,51,096,24,22,21,098,16,24,61,283,23,29,11,283,11*78
$GPGSV,5,4,17,36,52,277,,40,86,350,,41,58,082,,49,32,274,*7D
$GPGSV,5,5,17,50,10,089,*4A
$GLGSV,3,1,09,69,11,140,,70,12,201,,73,39,004,18,74,02,341,*67
$GLGSV,3,2,09,79,14,140,11,80,54,094,21,83,14,009,,84,48,316,21*64
$GLGSV,3,3,09,85,33,246,24*57
$GNGLL,0419.77973,S,05539.87806,E,042357.00,A,A*67
$GNGRS,042357.00,1,4.0,-5.0,-4.9,1.5,1.2,4.0,11.9,-15.8,,,,*70
$GNGRS,042357.00,1,-0.7,-5.3,-5.6,-29.3,,,,,,,,*6D
$GNGST,042357.00,58,,,,5.0,5.6,12*68
$GNZDA,042357.00,21,05,2025,00,00*7C
$GNGBS,042357.00,5.0,5.6,12.2,,,,*6F
$GNTXT,01,01,01,More than 100 frame errors, UART RX was disabled*70
b0Le0'^^ 
sH3`b=t
{4V^:R 
Y^_EF
I'sJUOP6^ST0<"U!#beO||$GNRMC,042358.00,A,0419.77966,S,05539.87799,E,0.096,,210525,,,A*72
$GNVTG,,T,,M,0.096,N,0.177,K,A*33
$GNGNS,042358.00,0419.77966,S,05539.87799,E,AA,11,0.85,16.1,-47.6,,*69
$GNGGA,042358.00,0419.77966,S,05539.87799,E,1,11,0.85,16.1,M,-47.6,M,,*43
$GNGSA,A,3,24,20,11,05,15,22,12,14,,,,,1.58,0.85,1.33*1F
$GNGSA,A,3,84,80,73,,,,,,,,,,1.58,0.85,1.33*1C
$GPGSV,5,1,17,05,48,157,24,06,07,028,12,11,39,019,23,12,19,350,13*73
$GPGSV,5,2,17,13,26,171,21,14,10,115,12,15,27,208,25,18,11,221,*7C
$GPGSV,5,3,17,20,51,096,23,22,21,098,16,24,61,283,22,29,11,283,10*7F
$GPGSV,5,4,17,36,52,277,,40,86,350,,41,58,082,,49,32,274,*7D
$GPGSV,5,5,17,50,10,089,*4A
$GLGSV,3,1,09,69,11,140,,70,12,201,,73,39,004,17,74,02,341,*68
$GLGSV,3,2,09,79,14,140,09,80,54,094,18,83,14,009,,84,48,316,21*67
$GLGSV,3,3,09,85,33,246,22*51
$GNGLL,0419.77966,S,05539.87799,E,042358.00,A,A*65
$GNGRS,042358.00,1,-4.0,-5.7,-1.6,7.7,0.7,2.6,10.6,-18.3,,,,*57
$GNGRS,042358.00,1,0.3,-7.6,-6.5,,,,,,,,,*77
$GNGST,042358.00,56,,,,5.1,5.6,12*68
$GNZDA,042358.00,21,05,2025,00,00*73
$GNGBS,042358.00,5.1,5.6,12.2,,,,*61
$GNTXT,01,01,01,More than 100 frame errors, UART RX was disabled*70
b0Lhe0'^
s3`bq={4V^:R 
Y^}EF
I'JUO*P6^ST0<U!bheO$GNRMC,042359.00,A,0419.77964,S,05539.87791,E,0.066,,210525,,,A*76
$GNVTG,,T,,M,0.066,N,0.123,K,A*3D
$GNGNS,042359.00,0419.77964,S,05539.87791,E,AA,11,0.84,16.4,-47.6,,*66
$GNGGA,042359.00,0419.77964,S,05539.87791,E,1,11,0.84,16.4,M,-47.6,M,,*4C
$GNGSA,A,3,24,20,11,05,15,22,12,,,,,,1.58,0.84,1.34*1C
$GNGSA,A,3,84,80,73,79,,,,,,,,,1.58,0.84,1.34*14
$GPGSV,5,1,17,05,48,157,26,06,07,028,09,11,39,019,21,12,19,350,13*79
$GPGSV,5,2,17,13,26,171,21,14,10,115,08,15,27,208,26,18,11,221,*74
$GPGSV,5,3,17,20,51,096,22,22,21,098,18,24,61,283,22,29,11,283,09*78
$GPGSV,5,4,17,36,52,277,,40,86,350,,41,58,082,,49,32,274,*7D
$GPGSV,5,5,17,50,10,089,*4A
$GLGSV,3,1,09,69,11,140,,70,12,201,,73,39,004,18,74,02,341,*67
$GLGSV,3,2,09,79,14,140,13,80,54,094,19,83,14,009,,84,48,316,22*6E
$GLGSV,3,3,09,85,33,246,24*57
$GNGLL,0419.77964,S,05539.87791,E,042359.00,A,A*6E
$GNGRS,042359.00,1,0.2,-5.9,-3.7,7.4,0.3,1.1,11.7,,,,,*4A
$GNGRS,042359.00,1,-0.7,-8.0,-5.0,-27.7,,,,,,,,*61
$GNGST,042359.00,52,,,,5.1,5.6,12*6D
$GNZDA,042359.00,21,05,2025,00,00*72
$GNGBS,042359.00,5.1,5.6,12.2,,,,*60
$GNTXT,01,01,01,More than 100 frame errors, UART RX was disabled*70
b0LPe05
'^
s3`b=Y{4V^:R 
Y^EF
I'JUOP6^jST0<U!GbPeOI$GNRMC,042400.00,A,0419.77967,S,05539.87787,E,0.079,,210525,,,A*77
$GNVTG,,T,,M,0.079,N,0.146,K,A*30
$GNGNS,042400.00,0419.77967,S,05539.87787,E,AA,12,0.83,16.6,-47.6,,*6F
$GNGGA,042400.00,0419.77967,S,05539.87787,E,1,12,0.83,16.6,M,-47.6,M,,*45
$GNGSA,A,3,24,20,11,05,15,22,12,14,,,,,1.53,0.83,1.28*18
$GNGSA,A,3,84,80,73,79,,,,,,,,,1.53,0.83,1.28*15
$GPGSV,5,1,17,05,48,156,26,06,07,028,10,11,39,019,22,12,19,350,21*72
$GPGSV,5,2,17,13,26,171,22,14,10,115,14,15,27,208,26,18,11,221,*7A
$GPGSV,5,3,17,20,51,096,22,22,21,098,17,24,61,283,25,29,11,283,09*70
$GPGSV,5,4,17,36,52,277,,40,86,350,,41,58,082,,49,32,274,*7D
$GPGSV,5,5,17,50,10,089,*4A
$GLGSV,3,1,09,69,11,140,,70,12,201,,73,39,004,18,74,02,341,*67
$GLGSV,3,2,09,79,14,140,17,80,54,094,21,83,14,009,,84,48,316,24*67
$GLGSV,3,3,09,85,33,246,27*54
$GNGLL,0419.77967,S,05539.87787,E,042400.00,A,A*61
$GNGRS,042400.00,1,-4.2,-5.4,-3.1,10.8,0.3,0.1,12.7,-3.7,,,,*5C
$GNGRS,042400.00,1,-0.3,-6.6,-5.9,-25.6,,,,,,,,*6C
$GNGST,042400.00,117588,,,,5.2,5.6,12*60
$GNZDA,042400.00,21,05,2025,00,00*79
$GNGBS,042400.00,5.2,5.6,12.2,,,,*68
$GNTXT,01,01,01,More than 100 frame errors, UART RX was disabled*70
b0L8e0#z'^
szK3`b=T{4V^:R 
Y^EF
I')JUOP6^OST0<U!b8eOq$GNRMC,042401.00,A,0419.77934,S,05539.87788,E,1.213,,210525,,,A*70
$GNVTG,,T,,M,1.213,N,2.247,K,A*3F
$GNGNS,042401.00,0419.77934,S,05539.87788,E,AA,12,0.83,16.6,-47.6,,*67
$GNGGA,042401.00,0419.77934,S,05539.87788,E,1,12,0.83,16.6,M,-47.6,M,,*4D
$GNGSA,A,3,24,20,11,05,15,22,12,14,,,,,1.53,0.83,1.28*18
$GNGSA,A,3,84,80,73,79,,,,,,,,,1.53,0.83,1.28*15
$GPGSV,5,1,17,05,48,156,26,06,07,028,12,11,39,019,22,12,19,350,15*77
$GPGSV,5,2,17,13,26,171,20,14,10,115,11,15,27,208,25,18,11,221,*7E
$GPGSV,5,3,17,20,51,096,23,22,21,098,16,24,61,283,24,29,11,283,08*70
$GPGSV,5,4,17,36,52,277,,40,86,350,,41,58,082,,49,32,274,*7D
$GPGSV,5,5,17,50,10,089,*4A
$GLGSV,3,1,09,69,11,140,,70,12,201,,73,39,004,17,74,02,341,*68
$GLGSV,3,2,09,79,14,140,18,80,54,094,20,83,14,009,,84,48,316,24*69
$GLGSV,3,3,09,85,33,246,27*54
$GNGLL,0419.77934,S,05539.87788,E,042401.00,A,A*69
$GNGRS,042401.00,1,-4.3,-4.9,-3.7,8.0,0.8,-2.5,12.0,-3.9,,,,*4E
$GNGRS,042401.00,1,-0.1,-6.9,-4.7,-24.2,,,,,,,,*6A
$GNGST,042401.00,83147,,,,5.2,5.7,12*5B
$GNZDA,042401.00,21,05,2025,00,00*78
$GNGBS,042401.00,5.2,5.7,12.3,,,,*69
$GNTXT,01,01,01,More than 100 frame errors, UART RX was disabled*70
b0L e0'^
syu3`2b=E{4V^:R 
Y^ EF
I'JUOP6^ST0<cU!b eOI$GNRMC,042402.00,A,0419.77947,S,05539.87763,E,0.597,,210525,,,A*78
$GNVTG,,T,,M,0.597,N,1.106,K,A*30
$GNGNS,042402.00,0419.77947,S,05539.87763,E,AA,13,0.80,18.2,-47.6,,*6D
$GNGGA,042402.00,0419.77947,S,05539.87763,E,1,12,0.80,18.2,M,-47.6,M,,*46
$GNGSA,A,3,24,20,11,05,15,22,06,12,14,,,,1.41,0.80,1.17*12
$GNGSA,A,3,84,80,73,79,,,,,,,,,1.41,0.80,1.17*19
$GPGSV,5,1,17,05,48,156,27,06,07,028,11,11,39,019,24,12,19,350,17*71
$GPGSV,5,2,17,13,26,171,18,14,10,115,15,15,27,208,22,18,11,221,*76
$GPGSV,5,3,17,20,51,096,24,22,21,098,17,24,61,283,21,29,11,283,07*7C
$GPGSV,5,4,17,36,52,277,,40,86,350,,41,58,082,28,49,32,274,*77
$GPGSV,5,5,17,50,10,089,*4A
$GLGSV,3,1,09,69,11,140,,70,12,201,,73,39,004,13,74,02,341,*6C
$GLGSV,3,2,09,79,14,140,16,80,54,094,21,83,14,009,,84,48,316,23*61
$GLGSV,3,3,09,85,33,246,26*55
$GNGLL,0419.77947,S,05539.87763,E,042402.00,A,A*6B
$GNGRS,042402.00,1,-4.4,-7.2,-3.8,7.8,-3.9,-2.8,-79.8,12.7,-1.4,,,*55
$GNGRS,042402.00,1,1.0,-5.3,5.3,-24.1,,,,,,,,*66
$GNGST,042402.00,54,,,,5.3,5.8,12*6E
$GNZDA,042402.00,21,05,2025,00,00*7B
$GNGBS,042402.00,5.3,5.8,12.2,,,,*65
$GNTXT,01,01,01,More than 100 frame errors, UART RX was disabled*70
b0Le0DC'^
sR$3`Ab={4V^:R 
Y^qEF
I'8JUOP6^ST0<U!beO!$GNRMC,042403.00,A,0419.77939,S,05539.87777,E,0.407,,210525,,,A*7D
$GNVTG,,T,,M,0.407,N,0.755,K,A*39
$GNGNS,042403.00,0419.77939,S,05539.87777,E,AA,14,0.77,18.2,-47.6,,*6F
$GNGGA,042403.00,0419.77939,S,05539.87777,E,1,12,0.77,18.2,M,-47.6,M,,*43
$GNGSA,A,3,24,20,11,05,15,22,06,12,14,,,,1.59,0.77,1.39*1F
$GNGSA,A,3,84,80,73,85,79,,,,,,,,1.59,0.77,1.39*19
$GPGSV,5,1,17,05,48,156,26,06,07,028,08,11,39,019,24,12,19,350,16*79
$GPGSV,5,2,17,13,26,171,17,14,10,115,15,15,27,208,21,18,11,221,*7A
$GPGSV,5,3,17,20,51,096,25,22,21,098,15,24,61,283,29,29,11,283,*70
$GPGSV,5,4,17,36,52,277,,40,86,350,,41,58,082,27,49,32,274,*78
$GPGSV,5,5,17,50,10,089,*4A
$GLGSV,3,1,09,69,11,140,,70,12,201,,73,39,004,14,74,02,341,*6B
$GLGSV,3,2,09,79,14,140,13,80,54,094,19,83,14,009,,84,48,316,23*6F
$GLGSV,3,3,09,85,33,246,27*54
$GNGLL,0419.77939,S,05539.87777,E,042403.00,A,A*66
$GNGRS,042403.00,1,-3.1,-7.0,-5.0,8.4,-4.8,-0.7,28.8,11.7,21.3,,,*60
$GNGRS,042403.00,1,2.0,-5.3,5.7,-7.5,-21.7,,,,,,,*62
$GNGST,042403.00,50,,,,5.4,5.8,12*6C
$GNZDA,042403.00,21,05,2025,00,00*7A
$GNGBS,042403.00,5.4,5.8,12.3,,,,*62
$GNTXT,01,01,01,More than 100 frame errors, UART RX was disabled*70
b0Le0'^
s3`1b>=z{4V^:R 
Y^PEF
I'JUO
P6^,ST0<9U!mbeO$GNRMC,042404.00,A,0419.77988,S,05539.87821,E,2.368,137.77,210525,,,A*6B
$GNVTG,137.77,T,,M,2.368,N,4.386,K,A*20
$GNGNS,042404.00,0419.77988,S,05539.87821,E,AA,14,0.77,18.8,-47.6,,*64
$GNGGA,042404.00,0419.77988,S,05539.87821,E,1,12,0.77,18.8,M,-47.6,M,,*48
$GNGSA,A,3,24,20,11,05,15,22,06,12,14,,,,1.59,0.77,1.39*1F
$GNGSA,A,3,84,80,73,85,79,,,,,,,,1.59,0.77,1.39*19
$GPGSV,5,1,17,05,48,156,25,06,07,028,12,11,39,019,23,12,19,350,16*76
$GPGSV,5,2,17,13,26,171,16,14,10,115,12,15,27,208,21,18,11,221,*7C
$GPGSV,5,3,17,20,51,096,25,22,21,098,16,24,61,283,30,29,11,283,*7B
$GPGSV,5,4,17,36,52,277,,40,86,350,,41,58,082,28,49,32,274,*77
$GPGSV,5,5,17,50,10,089,*4A
$GLGSV,3,1,09,69,11,140,,70,12,201,,73,39,004,16,74,02,341,*69
$GLGSV,3,2,09,79,14,140,10,80,54,094,22,83,14,009,,84,48,316,25*62
$GLGSV,3,3,09,85,33,246,27*54
$GNGLL,0419.77988,S,05539.87821,E,042404.00,A,A*67
$GNGRS,042404.00,1,-1.3,-4.6,-4.9,16.8,-3.7,0.6,29.5,12.8,20.0,,,*7F
$GNGRS,042404.00,1,3.1,-7.2,4.6,-11.0,-21.6,,,,,,,*55
$GNGST,042404.00,48,,,,5.4,5.8,12*62
$GNZDA,042404.00,21,05,2025,00,00*7D
$GNGBS,042404.00,5.4,5.8,12.4,,,,*62
$GNTXT,01,01,01,More than 100 frame errors, UART RX was disabled*70
b0L e0
'c^i
sT3`bK={4V^:R 
Y^EF
I'/JUO
P6^}ST0<>U!SSb eOgB$GNRMC,042405.00,A,0419.78031,S,05539.87843,E,1.575,,210525,,,A*78
$GNVTG,,T,,M,1.575,N,2.916,K,A*37
$GNGNS,042405.00,0419.78031,S,05539.87843,E,AA,12,0.77,19.1,-47.6,,*6B
$GNGGA,042405.00,0419.78031,S,05539.87843,E,1,12,0.77,19.1,M,-47.6,M,,*41
$GNGSA,A,3,24,11,05,15,22,06,12,14,,,,,1.54,0.77,1.33*1A
$GNGSA,A,3,84,80,73,85,,,,,,,,,1.54,0.77,1.33*10
$GPGSV,5,1,17,05,48,156,23,06,07,028,10,11,39,019,21,12,19,350,14*72
$GPGSV,5,2,17,13,26,171,14,14,10,115,08,15,27,208,17,18,11,221,*70
$GPGSV,5,3,17,20,51,096,21,22,21,098,15,24,61,283,22,29,11,283,*7F
$GPGSV,5,4,17,36,52,277,,40,86,350,,41,58,082,27,49,32,274,*78
$GPGSV,5,5,17,50,10,089,*4A
$GLGSV,3,1,09,69,11,140,,70,12,201,,73,39,004,14,74,02,341,*6B
$GLGSV,3,2,09,79,14,140,10,80,54,094,22,83,14,009,,84,48,316,24*63
$GLGSV,3,3,09,85,33,246,27*54
$GNGLL,0419.78031,S,05539.87843,E,042405.00,A,A*66
$GNGRS,042405.00,1,2.2,-4.1,17.4,-0.5,-1.8,21.9,11.3,-12.0,,,,*56
$GNGRS,042405.00,1,3.2,-6.4,0.5,-12.0,,,,,,,,*62
$GNGST,042405.00,58,,,,5.5,5.7,12*6C
$GNZDA,042405.00,21,05,2025,00,00*7C
$GNGBS,042405.00,5.5,5.7,12.5,20,,-3.9,58.6*72
$GNTXT,01,01,01,More than 100 frame errors, UART RX was disabled*70
b0L$e0'^
s 3`b=>{4V^:R 
Y^EF
I'JUOSP6^ST0<U!b$eOO$GNRMC,042406.00,A,0419.78037,S,05539.87850,E,0.308,,210525,,,A*72
$GNVTG,,T,,M,0.308,N,0.570,K,A*34
$GNGNS,042406.00,0419.78037,S,05539.87850,E,AA,14,0.81,19.2,-47.6,,*60
$GNGGA,042406.00,0419.78037,S,05539.87850,E,1,12,0.81,19.2,M,-47.6,M,,*4C
$GNGSA,A,3,24,20,11,05,15,22,06,12,14,,,,1.89,0.81,1.71*17
$GNGSA,A,3,84,80,73,85,79,,,,,,,,1.89,0.81,1.71*11
$GPGSV,5,1,17,05,48,156,21,06,07,028,11,11,39,019,18,12,19,350,15*7A
$GPGSV,5,2,17,13,26,171,15,14,10,115,17,15,27,208,13,18,11,221,*7B
$GPGSV,5,3,17,20,51,096,20,22,21,098,16,24,61,283,22,29,11,283,*7D
$GPGSV,5,4,17,36,52,277,,40,86,350,,41,58,082,27,49,32,274,*78
$GPGSV,5,5,17,50,10,089,*4A
$GLGSV,3,1,09,69,11,140,,70,12,201,,73,39,004,11,74,02,341,*6E
$GLGSV,3,2,09,79,14,140,12,80,54,094,19,83,14,009,,84,48,316,23*6E
$GLGSV,3,3,09,85,33,246,25*56
$GNGLL,0419.78037,S,05539.87850,E,042406.00,A,A*61
$GNGRS,042406.00,1,0.6,4.3,-3.4,14.9,0.3,0.3,28.3,13.1,22.0,,,*57
$GNGRS,042406.00,1,4.7,-8.7,1.7,-8.2,-27.3,,,,,,,*61
$GNGST,042406.00,90391,,,,5.7,5.8,13*5C
$GNZDA,042406.00,21,05,2025,00,00*7F
$GNGBS,042406.00,5.7,5.8,12.7,,,,*60
$GNTXT,01,01,01,More than 100 frame errors, UART RX was disabled*70
b0L(e0

'^

sE3`b={4V^:R 
Y^EF
I'JUO=P6^ST0<;U!5,b(eO7$GNRMC,042407.00,A,0419.78013,S,05539.87841,E,0.683,,210525,,,A*73
$GNVTG,,T,,M,0.683,N,1.265,K,A*30
$GNGNS,042407.00,0419.78013,S,05539.87841,E,AA,13,0.73,19.3,-47.6,,*6C
$GNGGA,042407.00,0419.78013,S,05539.87841,E,1,12,0.73,19.3,M,-47.6,M,,*47
$GNGSA,A,3,24,20,11,05,15,22,06,12,14,,,,1.39,0.73,1.18*1E
$GNGSA,A,3,84,80,85,79,,,,,,,,,1.39,0.73,1.18*1C
$GPGSV,5,1,17,05,48,156,20,06,07,028,10,11,39,019,16,12,20,350,16*7D
$GPGSV,5,2,17,13,26,171,14,14,10,115,10,15,27,208,18,18,11,221,*76
$GPGSV,5,3,17,20,51,096,20,22,21,098,14,24,61,283,20,29,11,283,*7D
$GPGSV,5,4,17,36,52,277,,40,86,350,,41,58,082,,49,32,274,*7D
$GPGSV,5,5,17,50,10,089,*4A
$GLGSV,3,1,09,69,11,140,,70,12,201,,73,39,004,08,74,02,341,*66
$GLGSV,3,2,09,79,14,140,13,80,54,094,16,83,14,009,,84,48,316,21*62
$GLGSV,3,3,09,85,33,246,24*57
$GNGLL,0419.78013,S,05539.87841,E,042407.00,A,A*66
$GNGRS,042407.00,1,-1.0,7.1,-2.8,16.7,0.7,-0.7,27.1,12.3,23.1,,,*5F
$GNGRS,042407.00,1,3.2,-10.9,-7.1,-27.5,,,,,,,,*77
$GNGST,042407.00,3303294,,,,6.1,6.0,13*5D
$GNZDA,042407.00,21,05,2025,00,00*7E
$GNGBS,042407.00,6.1,6.0,13.0,,,,*69
$GNTXT,01,01,01,More than 100 frame errors, UART RX was disabled*70
b0L,e0!'6^
sI3`bT={4V^:R 
Y^EF
I'JUOP6^ST0<U!n.b,eOXz$GNRMC,042408.00,A,0419.77981,S,05539.87832,E,0.498,,210525,,,A*7D
$GNVTG,,T,,M,0.498,N,0.922,K,A*31
$GNGNS,042408.00,0419.77981,S,05539.87832,E,AA,13,0.73,19.3,-47.6,,*6A
$GNGGA,042408.00,0419.77981,S,05539.87832,E,1,12,0.73,19.3,M,-47.6,M,,*41
$GNGSA,A,3,24,20,11,05,15,22,06,12,14,,,,1.39,0.73,1.18*1E
$GNGSA,A,3,84,80,85,79,,,,,,,,,1.39,0.73,1.18*1C
$GPGSV,5,1,17,05,48,156,21,06,07,028,13,11,39,019,16,12,20,350,18*71
$GPGSV,5,2,17,13,26,171,13,14,10,115,15,15,27,208,16,18,11,221,*7A
$GPGSV,5,3,17,20,51,096,22,22,21,098,14,24,61,283,17,29,11,283,*7B
$GPGSV,5,4,17,36,52,277,,40,86,350,,41,58,082,,49,32,274,*7D
$GPGSV,5,5,17,50,10,089,*4A
$GLGSV,3,1,09,69,11,140,,70,12,201,,73,39,004,07,74,02,341,*69
$GLGSV,3,2,09,79,14,140,14,80,54,094,17,83,14,009,,84,48,316,21*64
$GLGSV,3,3,09,85,33,246,24*57
$GNGLL,0419.77981,S,05539.87832,E,042408.00,A,A*60
$GNGRS,042408.00,1,-0.4,7.3,-2.0,14.5,0.3,-1.7,85.9,9.0,-12.1,,,*4C
$GNGRS,042408.00,1,5.4,-10.7,-2.9,-29.1,,,,,,,,*71
$GNGST,042408.00,60,,,,6.3,6.1,13*6B
$GNZDA,042408.00,21,05,2025,00,00*71
$GNGBS,042408.00,6.3,6.1,13.2,,,,*67
$GNTXT,01,01,01,More than 100 frame errors, UART RX was disabled*70
b0Lx0e0['^K
tM3`]bm={4V^:R 
Y^EF
I
'JUOpP6^ST0<wU!sbx0eO0$GNRMC,042409.00,A,0419.77971,S,05539.87841,E,0.584,,210525,,,A*7B
$GNVTG,,T,,M,0.584,N,1.082,K,A*3F
$GNGNS,042409.00,0419.77971,S,05539.87841,E,AA,14,0.81,19.9,-47.6,,*60
$GNGGA,042409.00,0419.77971,S,05539.87841,E,1,12,0.81,19.9,M,-47.6,M,,*4C
$GNGSA,A,3,24,20,11,05,15,22,06,12,14,,,,1.89,0.81,1.71*17
$GNGSA,A,3,84,80,73,85,79,,,,,,,,1.89,0.81,1.71*11
$GPGSV,5,1,17,05,48,156,30,06,07,028,11,11,39,019,22,12,20,350,19*75
$GPGSV,5,2,17,13,26,171,16,14,10,116,18,15,27,208,17,18,11,221,*70
$GPGSV,5,3,17,20,51,096,21,22,21,098,15,24,61,283,23,29,11,283,*7E
$GPGSV,5,4,17,36,52,277,,40,86,350,,41,58,082,,49,32,274,*7D
$GPGSV,5,5,17,50,10,089,*4A
$GLGSV,3,1,09,69,11,140,,70,12,201,,73,39,004,10,74,02,341,*6F
$GLGSV,3,2,09,79,14,140,11,80,54,094,16,83,14,009,,84,48,316,21*60
$GLGSV,3,3,09,85,33,246,23*50
$GNGLL,0419.77971,S,05539.87841,E,042409.00,A,A*6A
$GNGRS,042409.00,1,-0.8,8.6,-3.5,9.9,-0.5,-1.5,29.1,11.0,21.2,,,*4F
$GNGRS,042409.00,1,3.8,-11.0,16.9,-2.9,-29.6,,,,,,,*6B
$GNGST,042409.00,127832,,,,6.3,6.2,14*65
$GNZDA,042409.00,21,05,2025,00,00*70
$GNGBS,042409.00,6.3,6.2,13.5,,,,*62
$GNTXT,01,01,01,More than 100 frame errors, UART RX was disabled*70
b0L`4e0\&'^
t3`@b=N{4V^:R 
Y^EF
I'{JUOxP6^ST0<U!y!b`4eOG$GNRMC,042410.00,A,0419.77958,S,05539.87855,E,0.621,,210525,,,A*71
$GNVTG,,T,,M,0.621,N,1.150,K,A*3D
$GNGNS,042410.00,0419.77958,S,05539.87855,E,AA,14,0.81,19.3,-47.6,,*6C
$GNGGA,042410.00,0419.77958,S,05539.87855,E,1,12,0.81,19.3,M,-47.6,M,,*40
$GNGSA,A,3,24,20,11,05,15,22,06,12,14,,,,1.89,0.81,1.71*17
$GNGSA,A,3,84,80,73,85,79,,,,,,,,1.89,0.81,1.71*11
$GPGSV,5,1,17,05,48,156,27,06,07,028,12,11,39,019,20,12,20,350,17*7C
$GPGSV,5,2,17,13,26,171,17,14,10,116,13,15,27,208,19,18,11,221,*74
$GPGSV,5,3,17,20,51,096,19,22,21,098,16,24,61,283,22,29,11,283,*77
$GPGSV,5,4,17,36,52,277,,40,86,350,,41,58,082,28,49,32,274,*77
$GPGSV,5,5,17,50,10,089,*4A
$GLGSV,3,1,09,69,11,140,,70,12,201,,73,39,004,16,74,02,341,*69
$GLGSV,3,2,09,79,14,140,09,80,54,094,17,83,14,009,,84,48,316,22*6B
$GLGSV,3,3,09,85,33,246,24*57
$GNGLL,0419.77958,S,05539.87855,E,042410.00,A,A*6C
$GNGRS,042410.00,1,-6.9,10.9,-3.6,11.2,2.1,-2.7,28.5,12.8,20.0,,,*60
$GNGRS,042410.00,1,4.1,-12.9,16.6,-3.9,-34.6,,,,,,,*65
$GNGST,042410.00,90391,,,,6.4,6.3,14*54
$GNZDA,042410.00,21,05,2025,00,00*78
$GNGBS,042410.00,6.4,6.3,13.8,,,,*61
$GNTXT,01,01,01,More than 100 frame errors, UART RX was disabled*70
b0LH8e0
'^
t3`b%={4V^:R 
Y^EF
I'JUO
P6^ST0<U!29bH8eO$GNRMC,042411.00,A,0419.77969,S,05539.87861,E,0.323,,210525,,,A*72
$GNVTG,,T,,M,0.323,N,0.598,K,A*3B
$GNGNS,042411.00,0419.77969,S,05539.87861,E,AA,14,0.84,19.0,-47.6,,*6E
$GNGGA,042411.00,0419.77969,S,05539.87861,E,1,12,0.84,19.0,M,-47.6,M,,*42
$GNGSA,A,3,24,20,11,05,15,22,06,12,14,,,,1.91,0.84,1.71*1B
$GNGSA,A,3,84,80,73,85,79,,,,,,,,1.91,0.84,1.71*1D
$GPGSV,5,1,17,05,48,156,26,06,07,028,10,11,39,019,19,12,20,350,18*7A
$GPGSV,5,2,17,13,26,171,18,14,10,116,19,15,27,208,19,18,11,221,*71
$GPGSV,5,3,17,20,51,096,19,22,21,098,15,24,61,283,23,29,11,283,*75
$GPGSV,5,4,17,36,52,277,,40,86,350,,41,58,082,27,49,32,274,*78
$GPGSV,5,5,17,50,10,089,*4A
$GLGSV,3,1,09,69,11,140,,70,12,201,,73,39,004,16,74,02,341,*69
$GLGSV,3,2,09,79,14,140,10,80,54,094,18,83,14,009,,84,48,316,22*6C
$GLGSV,3,3,09,85,33,246,26*55
$GNGLL,0419.77969,S,05539.87861,E,042411.00,A,A*68
$GNGRS,042411.00,1,-6.4,9.8,-3.1,7.4,1.9,-4.8,32.0,12.2,-29.4,,,*45
$GNGRS,042411.00,1,4.0,-10.1,23.3,-2.1,-34.0,,,,,,,*63
$GNGST,042411.00,55,,,,6.5,6.4,14*61
$GNZDA,042411.00,21,05,2025,00,00*79
$GNGBS,042411.00,6.5,6.4,14.2,,,,*6B
$GNTXT,01,01,01,More than 100 frame errors, UART RX was disabled*70
b0L0<e0a'^D
tZ3`b&=|{4V^:R 
Y^EF
I'JUOP6^TST0<4U!%gb0<eO$GNRMC,042412.00,A,0419.77963,S,05539.87867,E,0.097,,210525,,,A*71
$GNVTG,,T,,M,0.097,N,0.180,K,A*3A
$GNGNS,042412.00,0419.77963,S,05539.87867,E,AA,14,0.81,18.3,-47.6,,*66
$GNGGA,042412.00,0419.77963,S,05539.87867,E,1,12,0.81,18.3,M,-47.6,M,,*4A
$GNGSA,A,3,24,20,11,05,15,22,06,12,14,,,,1.89,0.81,1.71*17
$GNGSA,A,3,84,80,73,85,79,,,,,,,,1.89,0.81,1.71*11
$GPGSV,5,1,17,05,48,156,26,06,07,028,14,11,39,019,18,12,20,350,20*74
$GPGSV,5,2,17,13,26,171,20,14,10,116,11,15,27,208,19,18,11,221,*72
$GPGSV,5,3,17,20,51,096,21,22,21,098,17,24,61,283,21,29,11,283,*7E
$GPGSV,5,4,17,36,52,277,,40,86,350,,41,58,082,27,49,32,274,*78
$GPGSV,5,5,17,50,10,089,*4A
$GLGSV,3,1,09,69,11,140,,70,12,201,,73,39,004,16,74,02,341,*69
$GLGSV,3,2,09,79,14,140,11,80,54,094,17,83,14,009,,84,48,316,23*63
$GLGSV,3,3,09,85,33,246,25*56
$GNGLL,0419.77963,S,05539.87867,E,042412.00,A,A*67
$GNGRS,042412.00,1,-9.0,7.9,-0.5,6.1,2.0,-7.3,28.4,13.5,21.4,,,*6F
$GNGRS,042412.00,1,3.1,-9.4,-6.3,-3.2,-34.1,,,,,,,*42
$GNGST,042412.00,79544,,,,6.6,6.5,15*5A
$GNZDA,042412.00,21,05,2025,00,00*7A
$GNGBS,042412.00,6.6,6.5,14.6,,,,*6E
$GNTXT,01,01,01,More than 100 frame errors, UART RX was disabled*70
b0L@e0
'^
tXg3`Kb={4V^:R 
Y^EF
I'RJUOP6^GST0<AU!_b@eO$GNRMC,042413.00,A,0419.77959,S,05539.87882,E,0.346,,210525,,,A*7D
$GNVTG,,T,,M,0.346,N,0.640,K,A*3E
$GNGNS,042413.00,0419.77959,S,05539.87882,E,AA,14,0.81,18.6,-47.6,,*60
$GNGGA,042413.00,0419.77959,S,05539.87882,E,1,12,0.81,18.6,M,-47.6,M,,*4C
$GNGSA,A,3,24,20,11,05,15,22,06,12,14,,,,1.89,0.81,1.71*17
$GNGSA,A,3,84,80,73,85,79,,,,,,,,1.89,0.81,1.71*11
$GPGSV,5,1,17,05,48,156,27,06,07,028,11,11,39,019,19,12,20,350,22*73
$GPGSV,5,2,17,13,26,171,19,14,10,116,11,15,27,208,18,18,11,221,*79
$GPGSV,5,3,17,20,51,096,24,22,21,098,14,24,61,283,20,29,11,283,*79
$GPGSV,5,4,17,36,52,277,,40,86,350,,41,58,082,26,49,32,274,*79
$GPGSV,5,5,17,50,10,089,*4A
$GLGSV,3,1,09,69,11,140,,70,12,201,,73,39,004,11,74,02,341,*6E
$GLGSV,3,2,09,79,14,140,11,80,54,094,20,83,14,009,,84,48,316,24*60
$GLGSV,3,3,09,85,33,246,27*54
$GNGLL,0419.77959,S,05539.87882,E,042413.00,A,A*64
$GNGRS,042413.00,1,-8.4,5.9,-0.9,10.5,1.0,-5.7,27.8,11.9,21.4,,,*5E
$GNGRS,042413.00,1,0.7,-9.5,-6.9,-2.4,-33.9,,,,,,,*45
$GNGST,042413.00,115700,,,,6.7,6.5,15*63
$GNZDA,042413.00,21,05,2025,00,00*7B
$GNGBS,042413.00,6.7,6.5,15.0,,,,*69
$GNTXT,01,01,01,More than 100 frame errors, UART RX was disabled*70
b0LDe 0u'^<
ty3`~b=f{4V^:R 
Y^EF
I
'JUOP6^ST0<YU!ebDeOg$GNRMC,042414.00,A,0419.77959,S,05539.87893,E,0.167,,210525,,,A*7B
$GNVTG,,T,,M,0.167,N,0.309,K,A*37
$GNGNS,042414.00,0419.77959,S,05539.87893,E,AA,14,0.74,18.0,-47.6,,*6B
$GNGGA,042414.00,0419.77959,S,05539.87893,E,1,12,0.74,18.0,M,-47.6,M,,*47
$GNGSA,A,3,24,20,11,05,15,22,06,12,14,,,,1.44,0.74,1.23*1B
$GNGSA,A,3,84,80,73,85,79,,,,,,,,1.44,0.74,1.23*1D
$GPGSV,5,1,17,05,48,156,32,06,07,028,08,11,39,019,20,12,20,350,22*75
$GPGSV,5,2,17,13,26,171,19,14,10,116,15,15,27,208,18,18,11,221,*7D
$GPGSV,5,3,17,20,51,096,25,22,21,098,16,24,61,283,22,29,11,283,*78
$GPGSV,5,4,17,36,52,277,,40,86,350,,41,58,082,28,49,32,274,*77
$GPGSV,5,5,17,50,10,089,*4A
$GLGSV,3,1,09,69,11,140,,70,12,201,,73,39,004,10,74,02,341,*6F
$GLGSV,3,2,09,79,14,140,15,80,54,094,23,83,14,009,,84,48,316,24*67
$GLGSV,3,3,09,85,33,246,28*5B
$GNGLL,0419.77959,S,05539.87893,E,042414.00,A,A*63
$GNGRS,042414.00,1,-6.7,6.4,-2.4,1.2,2.2,-8.3,2.3,10.8,19.1,,,*58
$GNGRS,042414.00,1,-1.7,-5.8,-7.7,-2.3,-33.3,,,,,,,*6D
$GNGST,042414.00,58,,,,6.5,6.4,15*68
$GNZDA,042414.00,21,05,2025,00,00*7C
$GNGBS,042414.00,6.5,6.4,15.1,,,,*6C
$GNTXT,01,01,01,More than 100 frame errors, UART RX was disabled*70
b0LGe 0yM'8^7
tG3_b=w{4V^:R 
Y
^EF
I'JUOSP6^ST0<U!ebGeOw>@$GNRMC,042415.00,A,0419.77960,S,05539.87915,E,0.161,,210525,,,A*79
$GNVTG,,T,,M,0.161,N,0.299,K,A*39
$GNGNS,042415.00,0419.77960,S,05539.87915,E,AA,14,0.77,17.8,-47.6,,*6B
$GNGGA,042415.00,0419.77960,S,05539.87915,E,1,12,0.77,17.8,M,-47.6,M,,*47
$GNGSA,A,3,24,20,11,05,15,22,06,12,14,,,,1.61,0.77,1.42*18
$GNGSA,A,3,84,80,73,85,79,,,,,,,,1.61,0.77,1.42*1E
$GPGSV,5,1,17,05,48,156,32,06,07,028,09,11,39,019,20,12,20,350,21*77
$GPGSV,5,2,17,13,26,171,19,14,10,116,18,15,27,208,17,18,11,221,*7F
$GPGSV,5,3,17,20,51,095,23,22,21,098,16,24,61,283,24,29,11,283,*7B
$GPGSV,5,4,17,36,52,277,,40,86,350,,41,58,082,27,49,32,274,*78
$GPGSV,5,5,17,50,10,089,*4A
$GLGSV,3,1,09,69,11,140,,70,12,201,,73,39,004,21,74,02,341,*6D
$GLGSV,3,2,09,79,14,140,17,80,54,094,24,83,14,009,,84,48,316,25*63
$GLGSV,3,3,09,85,33,246,31*53
$GNGLL,0419.77960,S,05539.87915,E,042415.00,A,A*67
$GNGRS,042415.00,1,-6.5,5.4,-4.6,6.3,3.3,-8.3,28.9,10.8,16.7,,,*61
$GNGRS,042415.00,1,-0.6,-5.5,-6.1,-3.8,-35.0,,,,,,,*69
$GNGST,042415.00,3462,,,,6.4,6.2,15*60
$GNZDA,042415.00,21,05,2025,00,00*7D
$GNGBS,042415.00,6.4,6.2,15.1,,,,*6A
$GNTXT,01,01,01,More than 100 frame errors, UART RX was disabled*70
b0LKe0v'\^
t3_5bW=m{4V^:R 
Y^EF
I'JUO3P6^ST0<<U!*bKeO_$GNRMC,042416.00,A,0419.77994,S,05539.87911,E,0.745,,210525,,,A*75
$GNVTG,,T,,M,0.745,N,1.379,K,A*37
$GNGNS,042416.00,0419.77994,S,05539.87911,E,AA,14,0.77,19.4,-47.6,,*65
$GNGGA,042416.00,0419.77994,S,05539.87911,E,1,12,0.77,19.4,M,-47.6,M,,*49
$GNGSA,A,3,24,20,11,05,15,22,06,12,14,,,,1.61,0.77,1.42*18
$GNGSA,A,3,84,80,73,85,79,,,,,,,,1.61,0.77,1.42*1E
$GPGSV,5,1,17,05,48,156,31,06,07,028,11,11,39,019,22,12,20,350,20*7E
$GPGSV,5,2,17,13,26,171,21,14,10,116,17,15,27,208,17,18,11,221,*7B
$GPGSV,5,3,17,20,51,095,21,22,21,098,13,24,61,283,23,29,11,283,*7B
$GPGSV,5,4,17,36,52,277,,40,86,350,,41,58,082,,49,32,274,*7D
$GPGSV,5,5,17,50,10,089,*4A
$GLGSV,3,1,09,69,11,140,,70,12,201,,73,39,004,13,74,02,341,*6C
$GLGSV,3,2,09,79,14,140,16,80,54,094,21,83,14,009,,84,48,316,25*67
$GLGSV,3,3,09,85,33,246,30*52
$GNGLL,0419.77994,S,05539.87911,E,042416.00,A,A*6B
$GNGRS,042416.00,1,-6.6,5.7,-4.2,6.3,4.9,-9.4,30.9,9.3,12.2,,,*56
$GNGRS,042416.00,1,0.6,-6.1,-4.9,-4.7,-30.2,,,,,,,*45
$GNGST,042416.00,52,,,,6.4,6.1,15*64
$GNZDA,042416.00,21,05,2025,00,00*7E
$GNGBS,042416.00,6.4,6.1,15.3,,,,*68
$GNTXT,01,01,01,More than 100 frame errors, UART RX was disabled*70
b0LOe0y'^
t[k3_b={4V^:R 
Y^EF
I'JUOP6^ST0<U!NebOeOG$GNRMC,042417.00,A,0419.77988,S,05539.87921,E,0.118,,210525,,,A*74
$GNVTG,,T,,M,0.118,N,0.219,K,A*3F
$GNGNS,042417.00,0419.77988,S,05539.87921,E,AA,14,0.74,19.6,-47.6,,*6B
$GNGGA,042417.00,0419.77988,S,05539.87921,E,1,12,0.74,19.6,M,-47.6,M,,*47
$GNGSA,A,3,24,20,11,05,15,22,06,12,14,,,,1.44,0.74,1.23*1B
$GNGSA,A,3,84,80,73,85,79,,,,,,,,1.44,0.74,1.23*1D
$GPGSV,5,1,17,05,48,156,30,06,07,028,09,11,39,019,25,12,20,350,19*7B
$GPGSV,5,2,17,13,26,171,21,14,10,116,17,15,27,208,20,18,11,221,*7F
$GPGSV,5,3,17,20,51,095,25,22,21,098,14,24,61,283,21,29,11,283,*7A
$GPGSV,5,4,17,36,52,277,,40,86,350,,41,58,082,,49,32,274,*7D
$GPGSV,5,5,17,50,10,089,*4A
$GLGSV,3,1,09,69,11,140,,70,12,201,,73,39,004,17,74,02,341,*68
$GLGSV,3,2,09,79,14,140,14,80,54,094,22,83,14,009,,84,48,316,25*66
$GLGSV,3,3,09,85,33,246,30*52
$GNGLL,0419.77988,S,05539.87921,E,042417.00,A,A*64
$GNGRS,042417.00,1,-6.1,4.0,-5.2,1.3,3.6,-10.8,-3.9,11.7,8.6,,,*73
$GNGRS,042417.00,1,1.9,-5.5,-2.9,-6.2,-30.8,,,,,,,*46
$GNGST,042417.00,52,,,,6.3,6.0,15*63
$GNZDA,042417.00,21,05,2025,00,00*7F
$GNGBS,042417.00,6.3,6.0,15.4,,,,*68
$GNTXT,01,01,01,More than 100 frame errors, UART RX was disabled*70
b0LSe0L'^
t~:3_Zb=/{4V^:R 
Y^EF
I'^JUOP6^eST0<KU!sdbSeO/x$GNRMC,042418.00,A,0419.77977,S,05539.87915,E,0.297,,210525,,,A*78
$GNVTG,,T,,M,0.297,N,0.550,K,A*31
$GNGNS,042418.00,0419.77977,S,05539.87915,E,AA,14,0.71,19.4,-47.6,,*64
$GNGGA,042418.00,0419.77977,S,05539.87915,E,1,12,0.71,19.4,M,-47.6,M,,*48
$GNGSA,A,3,24,20,11,05,15,22,06,12,14,,,,1.37,0.71,1.17*1D
$GNGSA,A,3,84,80,73,85,79,,,,,,,,1.37,0.71,1.17*1B
$GPGSV,5,1,17,05,48,156,29,06,07,028,13,11,39,019,25,12,20,350,19*78
$GPGSV,5,2,17,13,26,171,22,14,10,116,19,15,27,208,22,18,11,221,*70
$GPGSV,5,3,17,20,51,095,29,22,21,098,12,24,61,282,18,29,11,283,*7B
$GPGSV,5,4,17,36,52,277,,40,86,350,,41,58,082,,49,32,274,*7D
$GPGSV,5,5,17,50,10,089,*4A
$GLGSV,3,1,09,69,11,140,,70,12,201,,73,39,004,18,74,02,341,*67
$GLGSV,3,2,09,79,14,140,15,80,54,094,22,83,14,009,,84,48,316,25*67
$GLGSV,3,3,09,85,33,246,30*52
$GNGLL,0419.77977,S,05539.87915,E,042418.00,A,A*6C
$GNGRS,042418.00,1,-7.2,-1.7,-8.4,1.9,3.1,-11.4,28.9,9.3,6.4,,,*7F
$GNGRS,042418.00,1,3.3,-6.7,-1.6,-1.4,-31.3,,,,,,,*47
$GNGST,042418.00,3180286,,,,6.1,5.8,15*54
$GNZDA,042418.00,21,05,2025,00,00*70
$GNGBS,042418.00,6.1,5.8,15.4,,,,*6E
$GNTXT,01,01,01,More than 100 frame errors, UART RX was disabled*70
b0LWe0xR'^a
ta3_Ab={4V^:R 
Y^BEF
I'nJUO\P6^'ST0<U!X|bWeO$GNRMC,042419.00,A,0419.77964,S,05539.87903,E,0.268,,210525,,,A*7C
$GNVTG,,T,,M,0.268,N,0.497,K,A*3B
$GNGNS,042419.00,0419.77964,S,05539.87903,E,AA,14,0.71,20.2,-47.6,,*6C
$GNGGA,042419.00,0419.77964,S,05539.87903,E,1,12,0.71,20.2,M,-47.6,M,,*40
$GNGSA,A,3,24,20,11,05,15,22,06,12,14,,,,1.37,0.71,1.17*1D
$GNGSA,A,3,84,80,73,85,79,,,,,,,,1.37,0.71,1.17*1B
$GPGSV,5,1,17,05,48,156,28,06,07,028,11,11,39,019,24,12,20,350,18*7B
$GPGSV,5,2,17,13,26,171,23,14,10,116,19,15,27,208,21,18,11,221,*72
$GPGSV,5,3,17,20,51,095,27,22,21,098,13,24,61,282,21,29,11,283,*7E
$GPGSV,5,4,17,36,52,277,,40,86,350,,41,58,082,,49,32,274,*7D
$GPGSV,5,5,17,50,10,089,*4A
$GLGSV,3,1,09,69,11,140,,70,12,201,,73,39,004,17,74,02,341,*68
$GLGSV,3,2,09,79,14,140,16,80,54,094,23,83,14,009,,84,48,316,25*65
$GLGSV,3,3,09,85,33,246,30*52
$GNGLL,0419.77964,S,05539.87903,E,042419.00,A,A*68
$GNGRS,042419.00,1,-8.4,-1.9,-8.1,-1.4,3.5,-11.4,29.0,8.7,5.1,,,*53
$GNGRS,042419.00,1,2.5,-7.3,1.1,-1.7,-32.4,,,,,,,*69
$GNGST,042419.00,3180286,,,,6.0,5.7,15*5B
$GNZDA,042419.00,21,05,2025,00,00*71
$GNGBS,042419.00,6.0,5.7,15.4,,,,*61
$GNTXT,01,01,01,More than 100 frame errors, UART RX was disabled*70
b0Lp[e!0@d'^
t3_b=K{4V^:R 
Y^$EF
I'&JUOP6^ST0<U!bp[eOuE$GNRMC,042420.00,A,0419.77960,S,05539.87900,E,0.141,,210525,,,A*79
$GNVTG,,T,,M,0.141,N,0.262,K,A*3F
$GNGNS,042420.00,0419.77960,S,05539.87900,E,AA,14,0.77,19.8,-47.6,,*67
$GNGGA,042420.00,0419.77960,S,05539.87900,E,1,12,0.77,19.8,M,-47.6,M,,*4B
$GNGSA,A,3,24,20,11,05,15,22,06,12,14,,,,1.61,0.77,1.42*18
$GNGSA,A,3,84,80,73,85,79,,,,,,,,1.61,0.77,1.42*1E
$GPGSV,5,1,17,05,48,156,33,06,07,028,12,11,39,019,25,12,20,350,16*7D
$GPGSV,5,2,17,13,26,171,24,14,10,116,19,15,27,208,20,18,11,221,*74
$GPGSV,5,3,17,20,51,095,28,22,21,098,15,24,61,282,23,29,11,283,*75
$GPGSV,5,4,17,36,52,277,,40,86,350,,41,58,082,27,49,32,274,*78
$GPGSV,5,5,17,50,10,089,*4A
$GLGSV,3,1,09,69,11,140,,70,12,201,,73,39,004,16,74,02,341,*69
$GLGSV,3,2,09,79,14,140,15,80,54,094,26,83,14,009,,84,48,316,24*62
$GLGSV,3,3,09,85,33,246,29*5A
$GNGLL,0419.77960,S,05539.87900,E,042420.00,A,A*65
$GNGRS,042420.00,1,-6.9,-3.0,-7.5,-1.9,2.7,2.5,21.5,7.0,2.5,,,*4C
$GNGRS,042420.00,1,2.4,-5.7,2.9,-5.2,-28.2,,,,,,,*63
$GNGST,042420.00,46,,,,5.9,5.6,15*6E
$GNZDA,042420.00,21,05,2025,00,00*7B
$GNGBS,042420.00,5.9,5.6,15.4,,,,*60
$GNTXT,01,01,01,More than 100 frame errors, UART RX was disabled*70
b0LX_e0[U'V^
tj3_cb={4V^:R 
Y^PEF
I'JUOP6^ST0<U!:bX_eOM$GNRMC,042421.00,A,0419.77964,S,05539.87898,E,0.113,,210525,,,A*7B
$GNVTG,,T,,M,0.113,N,0.210,K,A*3D
$GNGNS,042421.00,0419.77964,S,05539.87898,E,AA,14,0.77,19.1,-47.6,,*6B
$GNGGA,042421.00,0419.77964,S,05539.87898,E,1,12,0.77,19.1,M,-47.6,M,,*47
$GNGSA,A,3,24,20,11,05,15,22,06,12,14,,,,1.61,0.77,1.42*18
$GNGSA,A,3,84,80,73,85,79,,,,,,,,1.61,0.77,1.42*1E
$GPGSV,5,1,17,05,48,156,29,06,07,028,11,11,39,019,26,12,20,350,14*74
$GPGSV,5,2,17,13,26,171,23,14,10,116,19,15,27,208,19,18,11,221,*79
$GPGSV,5,3,17,20,51,095,29,22,21,098,16,24,61,282,25,29,11,283,*71
$GPGSV,5,4,17,36,52,277,,40,86,350,,41,58,082,,49,32,274,*7D
$GPGSV,5,5,17,50,10,089,*4A
$GLGSV,3,1,09,69,11,140,,70,12,201,,73,39,004,14,74,02,341,*6B
$GLGSV,3,2,09,79,14,140,17,80,54,094,25,83,14,009,,84,48,316,22*65
$GLGSV,3,3,09,85,33,246,28*5B
$GNGLL,0419.77964,S,05539.87898,E,042421.00,A,A*60
$GNGRS,042421.00,1,-5.9,-4.1,-6.8,-4.2,3.6,12.3,29.0,8.0,0.0,,,*78
$GNGRS,042421.00,1,2.2,-6.1,2.5,-7.1,-26.3,,,,,,,*63
$GNGST,042421.00,166162,,,,5.8,5.5,15*6B
$GNZDA,042421.00,21,05,2025,00,00*7A
$GNGBS,042421.00,5.8,5.5,15.5,,,,*62
$GNTXT,01,01,01,More than 100 frame errors, UART RX was disabled*70
b0L@ce0'^
t)3_zb=B{4V^:R 
Y^
EF
I'JUOP6^ST0<U!b@ceO%$GNRMC,042422.00,A,0419.77963,S,05539.87904,E,0.181,,210525,,,A*70
$GNVTG,,T,,M,0.181,N,0.335,K,A*30
$GNGNS,042422.00,0419.77963,S,05539.87904,E,AA,14,0.71,18.4,-47.6,,*69
$GNGGA,042422.00,0419.77963,S,05539.87904,E,1,12,0.71,18.4,M,-47.6,M,,*45
$GNGSA,A,3,24,20,11,05,15,22,06,12,14,,,,1.37,0.71,1.17*1D
$GNGSA,A,3,84,80,73,85,79,,,,,,,,1.37,0.71,1.17*1B
$GPGSV,5,1,17,05,48,156,21,06,07,028,14,11,39,019,24,12,20,350,12*7D
$GPGSV,5,2,17,13,26,171,25,14,10,116,19,15,27,208,21,18,11,221,*74
$GPGSV,5,3,17,20,51,095,28,22,21,098,15,24,61,282,23,29,11,283,*75
$GPGSV,5,4,17,36,52,277,,40,86,350,,41,58,082,,49,32,274,*7D
$GPGSV,5,5,17,50,10,089,*4A
$GLGSV,3,1,09,69,11,140,,70,12,201,,73,39,004,13,74,02,341,*6C
$GLGSV,3,2,09,79,14,140,18,80,54,094,21,83,14,009,,84,48,316,22*6E
$GLGSV,3,3,09,85,33,246,27*54
$GNGLL,0419.77963,S,05539.87904,E,042422.00,A,A*60
$GNGRS,042422.00,1,-4.5,1.2,-8.1,-5.2,4.9,11.9,28.4,9.9,-2.1,,,*79
$GNGRS,042422.00,1,2.4,-7.8,0.2,-8.0,-26.1,,,,,,,*67
$GNGST,042422.00,3181370,,,,5.8,5.5,16*50
$GNZDA,042422.00,21,05,2025,00,00*79
$GNGBS,042422.00,5.8,5.5,15.5,,,,*61
$GNTXT,01,01,01,More than 100 frame errors, UART RX was disabled*70
b0L(ge06'
^b
tU3_b={4V^:R 
Y^3EF
I'JUOP6^ST0<U!VHHb(geO}$GNRMC,042423.00,A,0419.77964,S,05539.87909,E,0.134,,210525,,,A*75
$GNVTG,,T,,M,0.134,N,0.247,K,A*3A
$GNGNS,042423.00,0419.77964,S,05539.87909,E,AA,12,0.79,18.5,-47.6,,*6D
$GNGGA,042423.00,0419.77964,S,05539.87909,E,1,12,0.79,18.5,M,-47.6,M,,*47
$GNGSA,A,3,24,20,11,05,15,22,06,14,,,,,1.56,0.79,1.34*10
$GNGSA,A,3,84,73,85,79,,,,,,,,,1.56,0.79,1.34*1D
$GPGSV,5,1,17,05,48,156,30,06,07,028,09,11,39,019,25,12,20,350,10*72
$GPGSV,5,2,17,13,26,171,24,14,10,116,17,15,27,208,22,18,11,221,*78
$GPGSV,5,3,17,20,51,095,29,22,21,098,18,24,61,282,22,29,11,284,*7F
$GPGSV,5,4,17,36,52,277,,40,86,350,,41,58,082,,49,32,274,*7D
$GPGSV,5,5,17,50,10,089,*4A
$GLGSV,3,1,09,69,11,140,,70,12,201,,73,39,004,17,74,02,341,*68
$GLGSV,3,2,09,79,14,140,19,80,54,094,,83,14,009,,84,48,316,22*6C
$GLGSV,3,3,09,85,33,246,27*54
$GNGLL,0419.77964,S,05539.87909,E,042423.00,A,A*6B
$GNGRS,042423.00,1,-2.7,1.3,-8.4,3.1,6.0,9.0,-22.8,-2.5,,,,*6A
$GNGRS,042423.00,1,4.3,2.8,-4.3,-23.6,,,,,,,,*6E
$GNGST,042423.00,55,,,,5.8,5.4,15*6C
$GNZDA,042423.00,21,05,2025,00,00*78
$GNGBS,042423.00,5.8,5.4,15.4,,,,*60
$GNTXT,01,01,01,More than 100 frame errors, UART RX was disabled*70
b0Lke0'Z^)
t@3_by=@{4V^:R 
Y^
EF
I'JUOP6^vST0<FU!ybkeO$GNRMC,042424.00,A,0419.77965,S,05539.87911,E,0.077,,210525,,,A*7C
$GNVTG,,T,,M,0.077,N,0.142,K,A*3A
$GNGNS,042424.00,0419.77965,S,05539.87911,E,AA,13,0.73,18.7,-47.6,,*6B
$GNGGA,042424.00,0419.77965,S,05539.87911,E,1,12,0.73,18.7,M,-47.6,M,,*40
$GNGSA,A,3,24,20,11,05,15,22,06,12,14,,,,1.46,0.73,1.27*1A
$GNGSA,A,3,84,73,85,79,,,,,,,,,1.46,0.73,1.27*14
$GPGSV,5,1,17,05,48,156,29,06,07,028,09,11,39,019,25,12,20,350,12*78
$GPGSV,5,2,17,13,26,171,23,14,10,116,14,15,27,208,21,18,11,221,*7F
$GPGSV,5,3,17,20,51,095,26,22,21,098,17,24,61,282,25,29,11,284,*78
$GPGSV,5,4,17,36,52,277,,40,86,350,,41,58,082,,49,32,274,*7D
$GPGSV,5,5,17,50,10,089,*4A
$GLGSV,3,1,09,69,11,140,,70,12,201,,73,39,004,17,74,02,341,*68
$GLGSV,3,2,09,79,14,140,17,80,54,094,24,83,14,009,,84,48,316,22*64
$GLGSV,3,3,09,85,33,246,27*54
$GNGLL,0419.77965,S,05539.87911,E,042424.00,A,A*64
$GNGRS,042424.00,1,0.6,-2.3,-9.3,5.0,5.8,6.3,29.4,15.8,-5.0,,,*51
$GNGRS,042424.00,1,5.8,4.0,-3.4,-23.1,,,,,,,,*6A
$GNGST,042424.00,3179277,,,,5.8,5.4,15*55
$GNZDA,042424.00,21,05,2025,00,00*7F
$GNGBS,042424.00,5.8,5.4,15.3,,,,*60
$GNTXT,01,01,01,More than 100 frame errors, UART RX was disabled*70
b0Lne08u'^
t3_bw=s{4V^:R 
Y^EF
I'9JUOP6^,ST0<U!8bneO>$GNRMC,042425.00,A,0419.77973,S,05539.87918,E,0.252,,210525,,,A*76
$GNVTG,,T,,M,0.252,N,0.467,K,A*3D
$GNGNS,042425.00,0419.77973,S,05539.87918,E,AA,13,0.73,18.5,-47.6,,*66
$GNGGA,042425.00,0419.77973,S,05539.87918,E,1,12,0.73,18.5,M,-47.6,M,,*4D
$GNGSA,A,3,24,20,11,05,15,22,06,12,14,,,,1.37,0.73,1.17*1F
$GNGSA,A,3,84,80,73,85,,,,,,,,,1.37,0.73,1.17*17
$GPGSV,5,1,17,05,48,156,30,06,07,028,14,11,39,019,25,12,20,350,14*7A
$GPGSV,5,2,17,13,26,171,22,14,10,116,11,15,27,208,22,18,11,221,*78
$GPGSV,5,3,17,20,51,095,24,22,21,098,17,24,61,282,25,29,11,284,*7A
$GPGSV,5,4,17,36,52,277,,40,86,350,,41,58,082,,49,32,274,*7D
$GPGSV,5,5,17,50,10,089,*4A
$GLGSV,3,1,09,69,11,140,,70,12,201,,73,39,004,17,74,02,341,*68
$GLGSV,3,2,09,79,14,140,,80,54,094,25,83,14,009,,84,48,316,22*63
$GLGSV,3,3,09,85,33,246,27*54
$GNGLL,0419.77973,S,05539.87918,E,042425.00,A,A*6B
$GNGRS,042425.00,1,1.2,1.5,-10.0,3.1,6.5,3.7,29.3,15.5,-8.2,,,*4B
$GNGRS,042425.00,1,4.2,-7.2,3.1,-2.7,,,,,,,,*51
$GNGST,042425.00,3179277,,,,5.7,5.3,15*5C
$GNZDA,042425.00,21,05,2025,00,00*7E
$GNGBS,042425.00,5.7,5.3,15.2,,,,*68
$GNTXT,01,01,01,More than 100 frame errors, UART RX was disabled*70
b0Lre0'^
t3_b={4V^:R 
Y^EF
I'JUOP6^ST0<CU!".breOo$GNRMC,042426.00,A,0419.77983,S,05539.87923,E,0.101,,210525,,,A*77
$GNVTG,,T,,M,0.101,N,0.186,K,A*32
$GNGNS,042426.00,0419.77983,S,05539.87923,E,AA,12,0.75,18.4,-47.6,,*64
$GNGGA,042426.00,0419.77983,S,05539.87923,E,1,12,0.75,18.4,M,-47.6,M,,*4E
$GNGSA,A,3,24,20,11,05,15,22,06,12,,,,,1.44,0.75,1.23*1F
$GNGSA,A,3,84,80,73,85,,,,,,,,,1.44,0.75,1.23*12
$GPGSV,5,1,17,05,48,156,30,06,07,028,11,11,39,019,24,12,20,350,15*7F
$GPGSV,5,2,17,13,26,171,21,14,10,116,08,15,27,208,20,18,11,221,*71
$GPGSV,5,3,17,20,51,095,25,22,21,098,17,24,61,282,22,29,11,284,*7C
$GPGSV,5,4,17,36,52,277,,40,86,350,,41,58,082,,49,32,274,*7D
$GPGSV,5,5,17,50,10,089,*4A
$GLGSV,3,1,09,69,11,140,,70,12,201,,73,39,004,15,74,02,341,*6A
$GLGSV,3,2,09,79,14,140,,80,54,094,25,83,14,009,,84,48,316,22*63
$GLGSV,3,3,09,85,33,246,27*54
$GNGLL,0419.77983,S,05539.87923,E,042426.00,A,A*6F
$GNGRS,042426.00,1,1.5,0.3,-11.5,4.5,5.3,5.3,-0.1,12.6,,,,*51
$GNGRS,042426.00,1,5.8,-1.2,4.6,-2.2,,,,,,,,*5A
$GNGST,042426.00,55,,,,5.7,5.2,15*60
$GNZDA,042426.00,21,05,2025,00,00*7D
$GNGBS,042426.00,5.7,5.2,15.3,,,,*6B
$GNTXT,01,01,01,More than 100 frame errors, UART RX was disabled*70
b0Lve0''b^f
tb3_b=k{4V^:R 
Y^D
EF
I'JUOP6^iST0<U!P4bveOW\$GNRMC,042427.00,A,0419.77978,S,05539.87940,E,0.382,,210525,,,A*7E
$GNVTG,,T,,M,0.382,N,0.708,K,A*3B
$GNGNS,042427.00,0419.77978,S,05539.87940,E,AA,13,0.73,17.6,-47.6,,*6E
$GNGGA,042427.00,0419.77978,S,05539.87940,E,1,12,0.73,17.6,M,-47.6,M,,*45
$GNGSA,A,3,24,20,11,05,15,22,06,12,14,,,,1.37,0.73,1.17*1F
$GNGSA,A,3,84,80,73,85,,,,,,,,,1.37,0.73,1.17*17
$GPGSV,5,1,17,05,48,156,29,06,07,028,11,11,39,019,21,12,20,350,12*75
$GPGSV,5,2,17,13,26,171,20,14,10,116,11,15,27,208,17,18,11,221,*7C
$GPGSV,5,3,17,20,51,095,25,22,21,098,16,24,61,282,19,29,11,284,*75
$GPGSV,5,4,17,36,52,277,,40,86,350,,41,58,082,,49,32,274,*7D
$GPGSV,5,5,17,50,10,089,*4A
$GLGSV,3,1,09,69,11,140,,70,12,201,,73,39,004,11,74,02,341,*6E
$GLGSV,3,2,09,79,14,140,,80,54,094,23,83,14,009,,84,48,316,21*66
$GLGSV,3,3,09,85,33,246,26*55
$GNGLL,0419.77978,S,05539.87940,E,042427.00,A,A*6F
$GNGRS,042427.00,1,1.1,-0.3,-9.3,6.9,4.4,0.2,28.6,11.3,-9.3,,,*55
$GNGRS,042427.00,1,4.3,6.2,5.3,-1.8,,,,,,,,*76
$GNGST,042427.00,3181295,,,,5.7,5.2,15*54
$GNZDA,042427.00,21,05,2025,00,00*7C
$GNGBS,042427.00,5.7,5.2,15.5,,,,*6C
$GNTXT,01,01,01,More than 100 frame errors, UART RX was disabled*70
b0Lze0'
^(

tA3_bt={4V^:R 
Y^EF
I'JUOP6^ST0< U!=>bzeO?4v$GNRMC,042428.00,A,0419.77993,S,05539.87952,E,0.258,,210525,,,A*71
$GNVTG,,T,,M,0.258,N,0.478,K,A*39
$GNGNS,042428.00,0419.77993,S,05539.87952,E,AA,12,0.77,17.2,-47.6,,*66
$GNGGA,042428.00,0419.77993,S,05539.87952,E,1,12,0.77,17.2,M,-47.6,M,,*4C
$GNGSA,A,3,24,20,11,05,15,22,06,14,,,,,1.44,0.77,1.22*1A
$GNGSA,A,3,84,80,73,85,,,,,,,,,1.44,0.77,1.22*11
$GPGSV,5,1,17,05,48,156,28,06,07,028,13,11,39,019,19,12,20,350,10*7F
$GPGSV,5,2,17,13,26,171,20,14,10,116,10,15,27,208,16,18,11,221,*7C
$GPGSV,5,3,17,20,51,095,27,22,21,098,15,24,61,282,18,29,11,284,*75
$GPGSV,5,4,17,36,52,277,,40,86,350,,41,58,082,,49,32,274,*7D
$GPGSV,5,5,17,50,10,089,*4A
$GLGSV,3,1,09,69,11,140,,70,12,201,,73,39,004,16,74,02,341,*69
$GLGSV,3,2,09,79,14,140,,80,54,094,23,83,14,009,,84,48,316,21*66
$GLGSV,3,3,09,85,33,246,26*55
$GNGLL,0419.77993,S,05539.87952,E,042428.00,A,A*66
$GNGRS,042428.00,1,1.6,-0.9,-8.2,9.9,4.6,1.2,28.3,-9.6,,,,*46
$GNGRS,042428.00,1,8.0,6.5,5.0,-3.3,,,,,,,,*7B
$GNGST,042428.00,3301386,,,,5.8,5.2,16*5E
$GNZDA,042428.00,21,05,2025,00,00*73
$GNGBS,042428.00,5.8,5.2,15.7,,,,*6E
$GNTXT,01,01,01,More than 100 frame errors, UART RX was disabled*70
b0L~e0'
^
tj3_b1={4V^:R 
Y^EF
I'JUOP6^/ST0<U!b~eO'$GNRMC,042429.00,A,0419.78012,S,05539.87958,E,0.641,,210525,,,A*79
$GNVTG,,T,,M,0.641,N,1.188,K,A*3E
$GNGNS,042429.00,0419.78012,S,05539.87958,E,AA,13,0.73,16.6,-47.6,,*62
$GNGGA,042429.00,0419.78012,S,05539.87958,E,1,12,0.73,16.6,M,-47.6,M,,*49
$GNGSA,A,3,24,20,11,05,15,22,06,12,14,,,,1.37,0.73,1.17*1F
$GNGSA,A,3,84,80,73,85,,,,,,,,,1.37,0.73,1.17*17
$GPGSV,5,1,17,05,48,156,29,06,07,028,12,11,39,019,15,12,20,350,10*73
$GPGSV,5,2,17,13,26,171,22,14,10,116,16,15,27,208,16,18,11,221,*78
$GPGSV,5,3,17,20,51,095,25,22,21,098,13,24,61,282,18,29,11,284,*71
$GPGSV,5,4,17,36,52,277,,40,86,350,,41,58,082,,49,32,274,*7D
$GPGSV,5,5,17,50,10,089,*4A
$GLGSV,3,1,09,69,11,140,,70,12,201,,73,39,004,18,74,02,341,*67
$GLGSV,3,2,09,79,14,140,,80,54,094,23,83,14,009,,84,48,316,21*66
$GLGSV,3,3,09,85,33,246,26*55
$GNGLL,0419.78012,S,05539.87958,E,042429.00,A,A*62
$GNGRS,042429.00,1,1.3,0.0,-11.0,7.4,5.1,0.5,-2.8,16.8,-34.8,,,*60
$GNGRS,042429.00,1,9.2,3.0,4.1,-3.7,,,,,,,,*7D
$GNGST,042429.00,61,,,,5.9,5.2,16*65
$GNZDA,042429.00,21,05,2025,00,00*72
$GNGBS,042429.00,5.9,5.2,15.7,,,,*6E
$GNTXT,01,01,01,More than 100 frame errors, UART RX was disabled*70
b0Le0m'#^B
tH3_
b={4V^:R 
Y^
EF
I'JUOP6^!ST0<bU!
beOF$GNRMC,042430.00,A,0419.78008,S,05539.87970,E,0.225,,210525,,,A*76
$GNVTG,,T,,M,0.225,N,0.417,K,A*3A
$GNGNS,042430.00,0419.78008,S,05539.87970,E,AA,13,0.73,15.4,-47.6,,*6A
$GNGGA,042430.00,0419.78008,S,05539.87970,E,1,12,0.73,15.4,M,-47.6,M,,*41
$GNGSA,A,3,24,20,11,05,15,22,06,12,14,,,,1.37,0.73,1.17*1F
$GNGSA,A,3,84,80,73,85,,,,,,,,,1.37,0.73,1.17*17
$GPGSV,5,1,17,05,48,156,31,06,07,028,13,11,39,019,17,12,20,350,16*7F
$GPGSV,5,2,17,13,26,171,22,14,10,116,16,15,27,208,16,18,11,221,*78
$GPGSV,5,3,17,20,51,095,24,22,21,098,10,24,61,282,21,29,11,284,*79
$GPGSV,5,4,17,36,52,277,,40,86,350,,41,58,082,,49,32,274,*7D
$GPGSV,5,5,17,50,10,089,*4A
$GLGSV,3,1,09,69,11,140,,70,12,201,,73,39,004,15,74,02,341,*6A
$GLGSV,3,2,09,79,14,140,,80,54,094,24,83,14,009,,84,48,316,21*61
$GLGSV,3,3,09,85,33,246,28*5B
$GNGLL,0419.78008,S,05539.87970,E,042430.00,A,A*6B
$GNGRS,042430.00,1,2.6,-1.0,-7.3,1.1,4.4,-0.4,28.3,16.0,21.2,,,*68
$GNGRS,042430.00,1,8.7,2.9,-5.4,-2.5,,,,,,,,*53
$GNGST,042430.00,4496890,,,,5.9,5.2,16*54
$GNZDA,042430.00,21,05,2025,00,00*7A
$GNGBS,042430.00,5.9,5.2,15.9,,,,*68
$GNTXT,01,01,01,More than 100 frame errors, UART RX was disabled*70
b0Lhe 0!

'%^
t%3_b={4V^:R 
Y^EF
I'JUOP6^ST0<U!CbheO$GNRMC,042431.00,A,0419.78000,S,05539.87981,E,0.159,,210525,,,A*79
$GNVTG,,T,,M,0.159,N,0.295,K,A*3E
$GNGNS,042431.00,0419.78000,S,05539.87981,E,AA,12,0.75,14.5,-47.6,,*6A
$GNGGA,042431.00,0419.78000,S,05539.87981,E,1,12,0.75,14.5,M,-47.6,M,,*40
$GNGSA,A,3,24,20,11,05,15,06,12,14,,,,,1.39,0.75,1.17*17
$GNGSA,A,3,84,80,73,85,,,,,,,,,1.39,0.75,1.17*1F
$GPGSV,5,1,17,05,48,156,32,06,07,028,10,11,39,019,15,12,20,350,15*7E
$GPGSV,5,2,17,13,26,171,22,14,10,116,17,15,27,208,17,18,11,221,*78
$GPGSV,5,3,17,20,51,095,23,22,21,098,,24,61,282,23,29,11,284,*7D
$GPGSV,5,4,17,36,52,277,,40,86,350,,41,58,082,,49,32,274,*7D
$GPGSV,5,5,17,50,10,089,*4A
$GLGSV,3,1,09,69,11,140,,70,12,201,,73,39,004,17,74,02,341,*68
$GLGSV,3,2,09,79,14,140,,80,54,094,24,83,14,009,,84,48,316,21*61
$GLGSV,3,3,09,85,33,246,27*54
$GNGLL,0419.78000,S,05539.87981,E,042431.00,A,A*6C
$GNGRS,042431.00,1,1.4,-3.3,-4.8,0.3,2.8,27.0,14.8,20.9,,,,*63
$GNGRS,042431.00,1,7.6,2.4,-5.1,-2.4,,,,,,,,*55
$GNGST,042431.00,4665903,,,,5.9,5.1,16*53
$GNZDA,042431.00,21,05,2025,00,00*7B
$GNGBS,042431.00,5.9,5.1,16.1,,,,*61
$GNTXT,01,01,01,More than 100 frame errors, UART RX was disabled*70
b0LPe 0f'^
tW3__b=B{4V^:R 
Y^EF
I'$JUOP6^ZST0<;U!LbPeO$GNRMC,042432.00,A,0419.77992,S,05539.87991,E,0.336,,210525,,,A*7D
$GNVTG,,T,,M,0.336,N,0.622,K,A*3D
$GNGNS,042432.00,0419.77992,S,05539.87991,E,AA,12,0.75,14.3,-47.6,,*63
$GNGGA,042432.00,0419.77992,S,05539.87991,E,1,12,0.75,14.3,M,-47.6,M,,*49
$GNGSA,A,3,24,20,11,05,15,06,12,14,,,,,1.39,0.75,1.17*17
$GNGSA,A,3,84,80,73,85,,,,,,,,,1.39,0.75,1.17*1F
$GPGSV,5,1,17,05,48,156,32,06,07,028,07,11,39,019,18,12,20,350,13*73
$GPGSV,5,2,17,13,26,171,22,14,10,116,13,15,27,208,19,18,11,221,*72
$GPGSV,5,3,17,20,51,095,24,22,21,098,,24,61,282,22,29,11,284,*7B
$GPGSV,5,4,17,36,52,277,,40,86,350,,41,58,082,,49,32,274,*7D
$GPGSV,5,5,17,50,10,089,*4A
$GLGSV,3,1,09,69,11,140,,70,12,201,,73,39,004,20,74,02,341,*6C
$GLGSV,3,2,09,79,14,140,,80,54,094,24,83,14,009,,84,48,316,20*60
$GLGSV,3,3,09,85,33,246,27*54
$GNGLL,0419.77992,S,05539.87991,E,042432.00,A,A*63
$GNGRS,042432.00,1,0.7,-6.7,-6.3,1.9,1.9,-34.8,12.9,-24.7,,,,*64
$GNGRS,042432.00,1,8.3,3.5,-7.3,-4.4,,,,,,,,*5A
$GNGST,042432.00,62,,,,5.9,5.1,16*6F
$GNZDA,042432.00,21,05,2025,00,00*78
$GNGBS,042432.00,5.9,5.1,16.1,,,,*62
$GNTXT,01,01,01,More than 100 frame errors, UART RX was disabled*70
b0L8e 0W'^G

t^3_[b=?{4V^:R 
Y^EF
I'JUOP6^ST0<U!n`b8eOl}$GNRMC,042433.00,A,0419.77980,S,05539.88012,E,0.551,,210525,,,A*75
$GNVTG,,T,,M,0.551,N,1.021,K,A*3E
$GNGNS,042433.00,0419.77980,S,05539.88012,E,AA,12,0.75,13.6,-47.6,,*6E
