b0L0`.G)j]
rJ4c|`X={4V^:R 
Y]EF
I%JTOP6YST
29U @b0`OM$GNRMC,041924.00,A,0419.78270,S,05539.87535,E,0.846,,210525,,,A*72
$GNVTG,,T,,M,0.846,N,1.567,K,A*32
$GNGNS,041924.00,0419.78270,S,05539.87535,E,AA,11,1.15,34.3,-47.6,,*66
$GNGGA,041924.00,0419.78270,S,05539.87535,E,1,11,1.15,34.3,M,-47.6,M,,*4C
$GNGSA,A,3,24,20,11,05,22,06,14,,,,,,2.00,1.15,1.64*1A
$GNGSA,A,3,84,80,73,79,,,,,,,,,2.00,1.15,1.64*16
$GPGSV,5,1,17,05,46,159,23,06,09,028,08,11,41,019,23,12,18,349,13*77
$GPGSV,5,2,17,13,27,173,18,14,10,114,11,15,27,210,07,18,09,220,*76
$GPGSV,5,3,17,20,52,099,22,22,21,096,19,24,61,287,19,29,11,281,*7C
$GPGSV,5,4,17,36,52,277,,40,86,350,,41,58,082,,49,32,274,*7D
$GPGSV,5,5,17,50,10,089,*4A
$GLGSV,3,1,09,69,11,142,,70,12,204,,73,37,003,15,74,00,340,*67
$GLGSV,3,2,09,79,15,138,12,80,54,089,28,83,16,008,,84,50,313,10*61
$GLGSV,3,3,09,85,32,243,*55
$GNGLL,0419.78270,S,05539.87535,E,041924.00,A,A*60
$GNGRS,041924.00,1,-5.8,1.2,3.6,2.3,-1.7,23.7,20.6,,,,,*7A
$GNGRS,041924.00,1,-0.6,1.8,-6.0,4.9,,,,,,,,*5E
$GNGST,041924.00,6515579,,,,9.3,12,21*75
$GNZDA,041924.00,21,05,2025,00,00*71
$GNGBS,041924.00,9.3,11.5,21.4,,,,*5D
$GNTXT,01,01,01,More than 100 frame errors, UART RX was disabled*70
b0L`.g<)]
r}
4c`g={4V^:R 
Y]EF
I%JTO;P6YST29*U b`OQ$GNRMC,041925.00,A,0419.78241,S,05539.87466,E,1.769,,210525,,,A*75
$GNVTG,,T,,M,1.769,N,3.277,K,A*35
$GNGNS,041925.00,0419.78241,S,05539.87466,E,AA,11,1.15,35.9,-47.6,,*69
$GNGGA,041925.00,0419.78241,S,05539.87466,E,1,11,1.15,35.9,M,-47.6,M,,*43
$GNGSA,A,3,24,20,11,05,22,06,14,,,,,,2.00,1.15,1.64*1A
$GNGSA,A,3,84,80,73,79,,,,,,,,,2.00,1.15,1.64*16
$GPGSV,5,1,17,05,46,159,21,06,09,028,11,11,41,019,22,12,18,349,11*7E
$GPGSV,5,2,17,13,27,173,16,14,10,114,08,15,27,210,10,18,09,220,*76
$GPGSV,5,3,17,20,52,099,20,22,21,096,17,24,61,287,19,29,11,281,*70
$GPGSV,5,4,17,36,52,277,,40,86,350,,41,58,082,,49,32,274,*7D
$GPGSV,5,5,17,50,10,089,*4A
$GLGSV,3,1,09,69,11,142,,70,12,204,,73,37,003,15,74,00,340,*67
$GLGSV,3,2,09,79,15,138,09,80,54,089,26,83,16,008,,84,50,313,11*64
$GLGSV,3,3,09,85,32,243,*55
$GNGLL,0419.78241,S,05539.87466,E,041925.00,A,A*64
$GNGRS,041925.00,1,-6.2,1.5,4.2,1.0,-4.1,23.6,21.7,,,,,*74
$GNGRS,041925.00,1,-2.1,2.6,-1.1,5.7,,,,,,,,*5E
$GNGST,041925.00,6515579,,,,9.5,12,22*71
$GNZDA,041925.00,21,05,2025,00,00*70
$GNGBS,041925.00,9.5,11.6,21.9,,,,*54
$GNTXT,01,01,01,More than 100 frame errors, UART RX was disabled*70
b0L`.)]
r6#4c`=i{4V^:R 
Y]fEF
I%JTOP6YST29yU bBb`OU$GNRMC,041926.00,A,0419.78249,S,05539.87434,E,1.031,,210525,,,A*73
$GNVTG,,T,,M,1.031,N,1.910,K,A*37
$GNGNS,041926.00,0419.78249,S,05539.87434,E,AA,12,1.28,36.1,-47.6,,*63
$GNGGA,041926.00,0419.78249,S,05539.87434,E,1,12,1.28,36.1,M,-47.6,M,,*49
$GNGSA,A,3,24,20,11,05,22,06,12,14,,,,,2.08,1.28,1.65*1E
$GNGSA,A,3,84,80,73,79,,,,,,,,,2.08,1.28,1.65*11
$GPGSV,5,1,17,05,46,159,23,06,09,028,08,11,41,019,24,12,18,349,07*75
$GPGSV,5,2,17,13,27,173,16,14,10,114,09,15,27,210,11,18,09,220,*76
$GPGSV,5,3,17,20,52,099,21,22,21,096,18,24,61,287,19,29,11,281,*7E
$GPGSV,5,4,17,36,52,277,,40,86,350,,41,58,082,,49,32,274,*7D
$GPGSV,5,5,17,50,10,089,*4A
$GLGSV,3,1,09,69,11,142,,70,12,204,,73,37,003,15,74,00,340,*67
$GLGSV,3,2,09,79,15,138,11,80,54,089,27,83,16,008,,84,50,313,07*6B
$GLGSV,3,3,09,85,32,243,*55
$GNGLL,0419.78249,S,05539.87434,E,041926.00,A,A*68
$GNGRS,041926.00,1,-6.6,-1.0,5.0,2.2,-3.1,-44.5,-25.6,90.1,,,,*4F
$GNGRS,041926.00,1,-78.2,1.9,-0.5,17.9,,,,,,,,*57
$GNGST,041926.00,69,,,,9.5,12,22*41
$GNZDA,041926.00,21,05,2025,00,00*73
$GNGBS,041926.00,9.5,11.7,22.1,,,,*5D
$GNTXT,01,01,01,More than 100 frame errors, UART RX was disabled*70
b0L`.
)]m
r[4c`={4V^:R 
Y]EF
I%JTOP6YST29U b`OwYk$GNRMC,041927.00,A,0419.78257,S,05539.87396,E,1.300,,210525,,,A*73
$GNVTG,,T,,M,1.300,N,2.407,K,A*3E
$GNGNS,041927.00,0419.78257,S,05539.87396,E,AA,12,1.09,37.2,-47.6,,*63
$GNGGA,041927.00,0419.78257,S,05539.87396,E,1,12,1.09,37.2,M,-47.6,M,,*49
$GNGSA,A,3,24,20,11,05,22,06,12,14,,,,,1.83,1.09,1.47*1D
$GNGSA,A,3,84,80,73,79,,,,,,,,,1.83,1.09,1.47*12
$GPGSV,5,1,17,05,46,159,23,06,09,028,10,11,41,019,24,12,18,349,12*78
$GPGSV,5,2,17,13,27,173,19,14,10,114,13,15,27,210,14,18,09,220,*77
$GPGSV,5,3,17,20,52,099,19,22,21,096,17,24,61,287,18,29,11,281,*7B
$GPGSV,5,4,17,36,52,277,,40,86,350,,41,58,082,,49,32,274,*7D
$GPGSV,5,5,17,50,10,089,*4A
$GLGSV,3,1,09,69,11,142,,70,12,204,,73,37,003,16,74,00,340,*64
$GLGSV,3,2,09,79,15,138,11,80,54,089,28,83,16,008,,84,50,313,09*6A
$GLGSV,3,3,09,85,32,243,*55
$GNGLL,0419.78257,S,05539.87396,E,041927.00,A,A*69
$GNGRS,041927.00,1,-6.4,-3.5,4.9,4.5,-1.3,24.8,13.9,20.6,,,,*4F
$GNGRS,041927.00,1,-0.2,-0.3,-0.3,4.9,,,,,,,,*7B
$GNGST,041927.00,5074948,,,,9.5,12,23*7D
$GNZDA,041927.00,21,05,2025,00,00*72
$GNGBS,041927.00,9.5,11.7,22.7,,,,*5A
$GNTXT,01,01,01,More than 100 frame errors, UART RX was disabled*70
b0L`.
Q)]r
rl4cF`P={4V^:R 
Y]EF
I%3JTOP6YST
29hU 
b`O_]C@$GNRMC,041928.00,A,0419.78266,S,05539.87416,E,0.514,,210525,,,A*73
$GNVTG,,T,,M,0.514,N,0.951,K,A*30
$GNGNS,041928.00,0419.78266,S,05539.87416,E,AA,13,0.82,36.1,-47.6,,*60
$GNGGA,041928.00,0419.78266,S,05539.87416,E,1,12,0.82,36.1,M,-47.6,M,,*4B
$GNGSA,A,3,24,20,11,05,15,22,06,12,14,,,,1.54,0.82,1.30*11
$GNGSA,A,3,84,80,73,79,,,,,,,,,1.54,0.82,1.30*1A
$GPGSV,5,1,17,05,46,159,24,06,09,028,10,11,41,019,24,12,18,349,08*74
$GPGSV,5,2,17,13,27,173,19,14,10,114,09,15,27,210,13,18,09,220,*7B
$GPGSV,5,3,17,20,52,099,18,22,21,096,17,24,61,287,17,29,11,281,*75
$GPGSV,5,4,17,36,52,277,,40,86,350,,41,58,082,,49,32,274,*7D
$GPGSV,5,5,17,50,10,089,*4A
$GLGSV,3,1,09,69,11,142,,70,12,204,,73,37,003,14,74,00,340,*66
$GLGSV,3,2,09,79,15,138,15,80,54,089,28,83,16,008,,84,50,313,10*66
$GLGSV,3,3,09,85,32,243,*55
$GNGLL,0419.78266,S,05539.87416,E,041928.00,A,A*6B
$GNGRS,041928.00,1,-6.2,-4.4,4.4,5.4,2.4,-1.8,23.8,13.9,19.0,,,*65
$GNGRS,041928.00,1,1.0,0.0,-2.0,3.9,,,,,,,,*72
$GNGST,041928.00,5948027,,,,9.4,12,23*75
$GNZDA,041928.00,21,05,2025,00,00*7D
$GNGBS,041928.00,9.4,11.6,22.9,,,,*5B
$GNTXT,01,01,01,More than 100 frame errors, UART RX was disabled*70
b0L`.)](
ru4c3`(={4V^:R 
Y
]^EF
I%5JTO
P6YST29X,U [b`OGa$GNRMC,041929.00,A,0419.78278,S,05539.87428,E,0.307,,210525,,,A*74
$GNVTG,,T,,M,0.307,N,0.569,K,A*33
$GNGNS,041929.00,0419.78278,S,05539.87428,E,AA,12,1.26,36.1,-47.6,,*6D
$GNGGA,041929.00,0419.78278,S,05539.87428,E,1,12,1.26,36.1,M,-47.6,M,,*47
$GNGSA,A,3,24,20,11,05,22,06,12,14,,,,,2.01,1.26,1.56*19
$GNGSA,A,3,84,80,73,79,,,,,,,,,2.01,1.26,1.56*16
$GPGSV,5,1,17,05,46,159,24,06,09,028,08,11,41,019,24,12,18,349,09*7C
$GPGSV,5,2,17,13,27,173,17,14,10,114,08,15,27,210,09,18,09,220,*7F
$GPGSV,5,3,17,20,52,099,19,22,21,096,19,24,61,287,18,29,11,281,*75
$GPGSV,5,4,17,36,52,277,,40,86,350,,41,58,082,,49,32,274,*7D
$GPGSV,5,5,17,50,10,089,*4A
$GLGSV,3,1,09,69,11,142,,70,12,204,,73,37,003,14,74,00,340,*66
$GLGSV,3,2,09,79,15,138,10,80,54,089,29,83,16,008,,84,50,313,08*6B
$GLGSV,3,3,09,85,32,243,*55
$GNGLL,0419.78278,S,05539.87428,E,041929.00,A,A*68
$GNGRS,041929.00,1,-8.8,-4.6,4.6,7.1,-2.2,-46.0,105,-50.0,,,,*61
$GNGRS,041929.00,1,114,-0.2,-2.0,-21.0,,,,,,,,*53
$GNGST,041929.00,72,,,,9.4,12,23*44
$GNZDA,041929.00,21,05,2025,00,00*7C
$GNGBS,041929.00,9.4,11.7,22.9,,,,*5B
$GNTXT,01,01,01,More than 100 frame errors, UART RX was disabled*70
b0L`.>q)]D
r4c|`={4V^:R 
Y]EF
I%`JTOP6YST29U b`O/e$GNRMC,041930.00,A,0419.78283,S,05539.87419,E,0.171,,210525,,,A*79
$GNVTG,,T,,M,0.171,N,0.317,K,A*3F
$GNGNS,041930.00,0419.78283,S,05539.87419,E,AA,13,0.82,36.3,-47.6,,*6F
$GNGGA,041930.00,0419.78283,S,05539.87419,E,1,12,0.82,36.3,M,-47.6,M,,*44
$GNGSA,A,3,24,20,11,05,15,22,06,12,14,,,,1.54,0.82,1.30*11
$GNGSA,A,3,84,80,73,79,,,,,,,,,1.54,0.82,1.30*1A
$GPGSV,5,1,17,05,46,159,24,06,09,028,08,11,41,019,23,12,18,349,07*75
$GPGSV,5,2,17,13,27,173,16,14,10,114,09,15,27,210,12,18,09,220,*75
$GPGSV,5,3,17,20,52,099,18,22,21,096,19,24,61,287,18,29,11,281,*74
$GPGSV,5,4,17,36,52,277,,40,86,350,,41,58,082,,49,32,274,*7D
$GPGSV,5,5,17,50,10,089,*4A
$GLGSV,3,1,09,69,11,142,,70,12,204,,73,37,003,12,74,00,340,*60
$GLGSV,3,2,09,79,15,138,13,80,54,089,28,83,16,008,,84,50,313,11*61
$GLGSV,3,3,09,85,32,243,*55
$GNGLL,0419.78283,S,05539.87419,E,041930.00,A,A*66
$GNGRS,041930.00,1,-7.9,-6.4,4.6,5.7,2.3,-2.5,24.2,13.5,20.4,,,*63
$GNGRS,041930.00,1,-0.5,-0.8,-4.2,4.8,,,,,,,,*75
$GNGST,041930.00,5951899,,,,9.5,12,23*78
$GNZDA,041930.00,21,05,2025,00,00*74
$GNGBS,041930.00,9.5,11.7,23.3,,,,*59
$GNTXT,01,01,01,More than 100 frame errors, UART RX was disabled*70
b0L`.&))]
r4c`=P{4V^:R 
Y]EF
I
%JTOP6YST29U $b`Oix$GNRMC,041931.00,A,0419.78299,S,05539.87416,E,0.279,,210525,,,A*77
$GNVTG,,T,,M,0.279,N,0.517,K,A*32
$GNGNS,041931.00,0419.78299,S,05539.87416,E,AA,13,0.82,35.4,-47.6,,*6E
$GNGGA,041931.00,0419.78299,S,05539.87416,E,1,12,0.82,35.4,M,-47.6,M,,*45
$GNGSA,A,3,24,20,11,05,15,22,06,12,14,,,,1.54,0.82,1.30*11
$GNGSA,A,3,84,80,73,79,,,,,,,,,1.54,0.82,1.30*1A
$GPGSV,5,1,17,05,46,159,21,06,09,028,08,11,41,019,22,12,18,349,09*7F
$GPGSV,5,2,17,13,27,173,20,14,10,114,12,15,27,210,08,18,09,220,*71
$GPGSV,5,3,17,20,52,099,19,22,21,096,18,24,61,287,16,29,11,281,*7A
$GPGSV,5,4,17,36,52,277,,40,86,350,,41,58,082,,49,32,274,*7D
$GPGSV,5,5,17,50,10,089,*4A
$GLGSV,3,1,09,69,11,142,,70,12,204,,73,37,003,10,74,00,340,*62
$GLGSV,3,2,09,79,15,138,08,80,54,089,28,83,16,008,,84,50,313,11*6B
$GLGSV,3,3,09,85,32,243,*55
$GNGLL,0419.78299,S,05539.87416,E,041931.00,A,A*63
$GNGRS,041931.00,1,-6.9,-6.0,3.0,5.4,1.4,-0.5,23.4,12.9,19.8,,,*69
$GNGRS,041931.00,1,-0.7,-0.5,-6.3,4.3,,,,,,,,*73
$GNGST,041931.00,6868568,,,,9.6,12,24*76
$GNZDA,041931.00,21,05,2025,00,00*75
$GNGBS,041931.00,9.6,11.9,23.7,,,,*51
$GNTXT,01,01,01,More than 100 frame errors, UART RX was disabled*70
b0Lp`.=0)]~
re4cA`M=r{4V^:R 
Y]XEF
I%JTOP6YST29PU Ubp`Ol$GNRMC,041932.00,A,0419.78260,S,05539.87409,E,0.372,,210525,,,A*76
$GNVTG,,T,,M,0.372,N,0.690,K,A*34
$GNGNS,041932.00,0419.78260,S,05539.87409,E,AA,13,0.84,34.8,-47.6,,*6E
$GNGGA,041932.00,0419.78260,S,05539.87409,E,1,12,0.84,34.8,M,-47.6,M,,*45
$GNGSA,A,3,24,20,11,05,15,22,06,12,14,,,,1.49,0.84,1.24*1E
$GNGSA,A,3,84,80,73,79,,,,,,,,,1.49,0.84,1.24*15
$GPGSV,5,1,17,05,46,159,20,06,09,028,09,11,41,019,22,12,18,349,09*7F
$GPGSV,5,2,17,13,27,173,22,14,10,114,09,15,27,210,11,18,09,220,*71
$GPGSV,5,3,17,20,52,099,20,22,21,096,19,24,61,287,16,29,11,281,*71
$GPGSV,5,4,17,36,52,277,,40,86,350,,41,58,082,,49,32,274,*7D
$GPGSV,5,5,17,50,10,089,*4A
$GLGSV,3,1,09,69,11,142,,70,12,204,,73,37,003,14,74,00,340,*66
$GLGSV,3,2,09,79,15,138,12,80,54,089,27,83,16,008,,84,50,313,11*6F
$GLGSV,3,3,09,85,32,243,*55
$GNGLL,0419.78260,S,05539.87409,E,041932.00,A,A*68
$GNGRS,041932.00,1,-6.5,-4.5,2.4,5.3,-8.3,0.8,123,-11.5,-4.1,,,*71
$GNGRS,041932.00,1,-22.2,0.0,-6.3,-142,,,,,,,,*5E
$GNGST,041932.00,91,,,,9.6,12,23*41
$GNZDA,041932.00,21,05,2025,00,00*76
$GNGBS,041932.00,9.6,11.8,23.4,,,,*50
$GNTXT,01,01,01,More than 100 frame errors, UART RX was disabled*70
b0LX`.g)
]
r4c`={4V^:R 
Y]-EF
I%@JTOP6YST29U bX`OpzE$GNRMC,041933.00,A,0419.78252,S,05539.87480,E,0.308,,210525,,,A*7A
$GNVTG,,T,,M,0.308,N,0.570,K,A*34
$GNGNS,041933.00,0419.78252,S,05539.87480,E,AA,13,0.82,33.8,-47.6,,*6E
$GNGGA,041933.00,0419.78252,S,05539.87480,E,1,12,0.82,33.8,M,-47.6,M,,*45
$GNGSA,A,3,24,20,11,05,15,22,06,12,14,,,,1.54,0.82,1.30*11
$GNGSA,A,3,84,80,73,79,,,,,,,,,1.54,0.82,1.30*1A
$GPGSV,5,1,17,05,46,159,17,06,09,028,09,11,41,019,24,12,18,349,10*75
$GPGSV,5,2,17,13,27,173,24,14,10,114,12,15,27,210,12,18,09,220,*7E
$GPGSV,5,3,17,20,52,099,22,22,21,096,20,24,61,287,16,29,11,281,*79
$GPGSV,5,4,17,36,52,277,,40,86,350,,41,58,082,,49,32,274,*7D
$GPGSV,5,5,17,50,10,089,*4A
$GLGSV,3,1,09,69,11,142,,70,12,204,,73,37,003,16,74,00,340,*64
$GLGSV,3,2,09,79,15,138,09,80,54,089,28,83,16,008,,84,50,313,11*6A
$GLGSV,3,3,09,85,32,243,*55
$GNGLL,0419.78252,S,05539.87480,E,041933.00,A,A*69
$GNGRS,041933.00,1,-6.2,-3.0,2.3,6.6,10.3,1.8,24.1,14.3,19.5,,,*73
$GNGRS,041933.00,1,1.4,-1.3,-7.0,4.3,,,,,,,,*5B
$GNGST,041933.00,5948915,,,,9.8,12,24*7C
$GNZDA,041933.00,21,05,2025,00,00*77
$GNGBS,041933.00,9.8,11.9,23.8,,,,*52
$GNTXT,01,01,01,More than 100 frame errors, UART RX was disabled*70
b0L@`.)]
r
K4c`=[{4V^:R 
Y]EF
I%FJTOP6YST29U Ob@`OtR$GNRMC,041934.00,A,0419.78258,S,05539.87497,E,0.129,,210525,,,A*70
$GNVTG,,T,,M,0.129,N,0.240,K,A*31
$GNGNS,041934.00,0419.78258,S,05539.87497,E,AA,12,0.80,34.6,-47.6,,*6F
$GNGGA,041934.00,0419.78258,S,05539.87497,E,1,12,0.80,34.6,M,-47.6,M,,*45
$GNGSA,A,3,24,20,11,05,15,22,06,12,,,,,1.46,0.80,1.22*16
$GNGSA,A,3,84,80,73,79,,,,,,,,,1.46,0.80,1.22*18
$GPGSV,5,1,17,05,46,159,18,06,09,028,09,11,41,019,25,12,18,349,12*79
$GPGSV,5,2,17,13,27,173,22,14,10,114,06,15,27,210,10,18,09,220,*7F
$GPGSV,5,3,17,20,52,099,22,22,21,096,20,24,61,287,19,29,11,281,*76
$GPGSV,5,4,17,36,52,277,,40,86,350,,41,58,082,,49,32,274,*7D
$GPGSV,5,5,17,50,10,089,*4A
$GLGSV,3,1,09,69,11,142,,70,12,204,,73,37,003,17,74,00,340,*65
$GLGSV,3,2,09,79,15,138,09,80,54,089,28,83,16,008,,84,50,313,11*6A
$GLGSV,3,3,09,85,32,243,*55
$GNGLL,0419.78258,S,05539.87497,E,041934.00,A,A*62
$GNGRS,041934.00,1,-6.8,-5.0,2.0,4.7,11.0,-1.0,24.8,15.2,,,,*45
$GNGRS,041934.00,1,2.0,-0.7,-7.0,4.6,,,,,,,,*5B
$GNGST,041934.00,5716772,,,,9.8,12,24*71
$GNZDA,041934.00,21,05,2025,00,00*70
$GNGBS,041934.00,9.8,12.0,23.8,,,,*5F
$GNTXT,01,01,01,More than 100 frame errors, UART RX was disabled*70
b0L(a.hf)
]q
r
4c`{={4V^:R 
Y]EF
I%dJTO;P6YbST29RU Jb(aOx+#$GNRMC,041935.00,A,0419.78275,S,05539.87481,E,0.168,,210525,,,A*7C
$GNVTG,,T,,M,0.168,N,0.311,K,A*31
$GNGNS,041935.00,0419.78275,S,05539.87481,E,AA,12,0.82,33.6,-47.6,,*63
$GNGGA,041935.00,0419.78275,S,05539.87481,E,1,12,0.82,33.6,M,-47.6,M,,*49
$GNGSA,A,3,24,20,11,05,15,22,12,14,,,,,1.52,0.82,1.28*18
$GNGSA,A,3,84,80,73,79,,,,,,,,,1.52,0.82,1.28*15
$GPGSV,5,1,17,05,46,159,17,06,09,028,07,11,41,019,24,12,18,349,10*7B
$GPGSV,5,2,17,13,27,173,21,14,10,114,11,15,27,210,10,18,09,220,*7A
$GPGSV,5,3,17,20,52,099,23,22,21,096,20,24,61,287,21,29,11,281,*7C
$GPGSV,5,4,17,36,52,277,,40,86,350,,41,58,082,,49,32,274,*7D
$GPGSV,5,5,17,50,10,089,*4A
$GLGSV,3,1,09,69,11,142,,70,12,204,,73,37,003,17,74,00,340,*65
$GLGSV,3,2,09,79,15,138,12,80,54,089,29,83,16,008,,84,50,313,11*61
$GLGSV,3,3,09,85,32,243,*55
$GNGLL,0419.78275,S,05539.87481,E,041935.00,A,A*6B
$GNGRS,041935.00,1,-5.9,-3.3,2.1,6.2,2.0,-1.3,-4.0,1.3,,,,*57
$GNGRS,041935.00,1,-9.4,-1.6,-6.7,41.6,,,,,,,,*4F
$GNGST,041935.00,73,,,,9.8,12,23*44
$GNZDA,041935.00,21,05,2025,00,00*71
$GNGBS,041935.00,9.8,11.7,23.2,,,,*50
$GNTXT,01,01,01,More than 100 frame errors, UART RX was disabled*70
b0La.U
T)]
rX4cS`={4V^:R 
Y]EF
I%JTOP6YST29U baO|$GNRMC,041936.00,A,0419.78266,S,05539.87475,E,0.429,,210525,,,A*76
$GNVTG,,T,,M,0.429,N,0.794,K,A*38
$GNGNS,041936.00,0419.78266,S,05539.87475,E,AA,12,0.82,32.7,-47.6,,*69
$GNGGA,041936.00,0419.78266,S,05539.87475,E,1,12,0.82,32.7,M,-47.6,M,,*43
$GNGSA,A,3,24,20,11,05,15,22,12,14,,,,,1.52,0.82,1.28*18
$GNGSA,A,3,84,80,73,79,,,,,,,,,1.52,0.82,1.28*15
$GPGSV,5,1,17,05,46,159,16,06,09,028,10,11,41,019,23,12,18,349,16*7D
$GPGSV,5,2,17,13,27,173,21,14,10,114,11,15,27,210,11,18,09,220,*7B
$GPGSV,5,3,17,20,52,099,24,22,21,096,18,24,61,287,21,29,11,281,*70
$GPGSV,5,4,17,36,52,277,,40,86,350,,41,58,082,,49,32,274,*7D
$GPGSV,5,5,17,50,10,089,*4A
$GLGSV,3,1,09,69,11,142,,70,12,204,,73,37,003,16,74,00,340,*64
$GLGSV,3,2,09,79,15,138,09,80,54,089,30,83,16,008,,84,50,313,11*63
$GLGSV,3,3,09,85,32,243,*55
$GNGLL,0419.78266,S,05539.87475,E,041936.00,A,A*61
$GNGRS,041936.00,1,-5.8,-4.3,2.2,8.5,8.6,0.3,13.1,20.0,,,,*52
$GNGRS,041936.00,1,-0.3,-5.5,-5.6,4.4,,,,,,,,*74
$GNGST,041936.00,4673280,,,,10,12,23*51
$GNZDA,041936.00,21,05,2025,00,00*72
$GNGBS,041936.00,10.0,11.7,23.3,,,,*62
$GNTXT,01,01,01,More than 100 frame errors, UART RX was disabled*70
b0La.g)
]"
r"4c`|=e{4V^:R 
Y]`EF
I%`JTOP6YST
29U baO$GNRMC,041937.00,A,0419.78278,S,05539.87474,E,0.211,,210525,,,A*74
$GNVTG,,T,,M,0.211,N,0.391,K,A*34
$GNGNS,041937.00,0419.78278,S,05539.87474,E,AA,12,0.82,33.0,-47.6,,*60
$GNGGA,041937.00,0419.78278,S,05539.87474,E,1,12,0.82,33.0,M,-47.6,M,,*4A
$GNGSA,A,3,24,20,11,05,15,22,12,14,,,,,1.52,0.82,1.28*18
$GNGSA,A,3,84,80,73,79,,,,,,,,,1.52,0.82,1.28*15
$GPGSV,5,1,17,05,46,159,19,06,09,028,06,11,41,019,24,12,18,349,10*74
$GPGSV,5,2,17,13,27,173,20,14,10,114,11,15,27,210,14,18,09,220,*7F
$GPGSV,5,3,17,20,52,099,24,22,21,096,17,24,61,287,21,29,11,281,*7F
$GPGSV,5,4,17,36,52,277,,40,86,350,,41,58,082,,49,32,274,*7D
$GPGSV,5,5,17,50,10,089,*4A
$GLGSV,3,1,09,69,11,142,,70,12,204,,73,37,003,16,74,00,340,*64
$GLGSV,3,2,09,79,15,138,13,80,54,089,30,83,16,008,,84,50,313,10*69
$GLGSV,3,3,09,85,32,243,*55
$GNGLL,0419.78278,S,05539.87474,E,041937.00,A,A*6E
$GNGRS,041937.00,1,-6.7,-3.3,1.6,7.5,8.0,1.2,13.1,19.9,,,,*55
$GNGRS,041937.00,1,-0.2,0.2,-4.2,4.1,,,,,,,,*5B
$GNGST,041937.00,5719730,,,,10,12,23*52
$GNZDA,041937.00,21,05,2025,00,00*73
$GNGBS,041937.00,10.1,11.8,23.3,,,,*6D
$GNTXT,01,01,01,More than 100 frame errors, UART RX was disabled*70
b0La.)]
r'4c`={4V^:R 
Y]EF
I%JTO
P6YST
29,*U mbaOoL$GNRMC,041938.00,A,0419.78354,S,05539.87458,E,0.495,,210525,,,A*70
$GNVTG,,T,,M,0.495,N,0.917,K,A*3A
$GNGNS,041938.00,0419.78354,S,05539.87458,E,AA,12,1.25,32.8,-47.6,,*6B
$GNGGA,041938.00,0419.78354,S,05539.87458,E,1,12,1.25,32.8,M,-47.6,M,,*41
$GNGSA,A,3,24,20,11,05,15,22,06,12,14,,,,1.95,1.25,1.50*16
$GNGSA,A,3,80,73,79,,,,,,,,,,1.95,1.25,1.50*11
$GPGSV,5,1,17,05,46,159,20,06,09,028,12,11,41,019,24,12,18,349,13*78
$GPGSV,5,2,17,13,27,173,21,14,10,114,08,15,27,210,11,18,09,220,*73
$GPGSV,5,3,17,20,52,099,24,22,21,096,17,24,61,287,22,29,11,281,*7C
$GPGSV,5,4,17,36,52,277,,40,86,350,,41,58,082,,49,32,274,*7D
$GPGSV,5,5,17,50,10,089,*4A
$GLGSV,3,1,09,69,11,142,,70,12,204,,73,37,003,16,74,00,340,*64
$GLGSV,3,2,09,79,15,138,10,80,54,089,29,83,16,008,,84,50,313,10*62
$GLGSV,3,3,09,85,32,243,*55
$GNGLL,0419.78354,S,05539.87458,E,041938.00,A,A*60
$GNGRS,041938.00,1,-5.3,-3.2,1.3,6.8,-28.7,1.6,-44.1,-44.2,8.1,,,*6F
$GNGRS,041938.00,1,2.7,-2.7,68.7,,,,,,,,,*6D
$GNGST,041938.00,75,,,,10,12,23*61
$GNZDA,041938.00,21,05,2025,00,00*7C
$GNGBS,041938.00,10.1,11.8,22.8,,,,*68
$GNTXT,01,01,01,More than 100 frame errors, UART RX was disabled*70
b0La.C)]Y
rq4c`h={4V^:R 
Y]EF
I%JTOP6YST
29-U ~baOW$GNRMC,041939.00,A,0419.78391,S,05539.87475,E,0.781,,210525,,,A*71
$GNVTG,,T,,M,0.781,N,1.447,K,A*35
$GNGNS,041939.00,0419.78391,S,05539.87475,E,AA,12,0.83,31.7,-47.6,,*6D
$GNGGA,041939.00,0419.78391,S,05539.87475,E,1,12,0.83,31.7,M,-47.6,M,,*47
$GNGSA,A,3,24,20,11,05,15,22,06,12,14,,,,1.48,0.83,1.23*1F
$GNGSA,A,3,80,73,79,,,,,,,,,,1.48,0.83,1.23*18
$GPGSV,5,1,17,05,46,159,21,06,09,028,12,11,41,019,25,12,18,349,13*78
$GPGSV,5,2,17,13,27,173,22,14,10,114,08,15,27,210,11,18,09,220,*70
$GPGSV,5,3,17,20,52,099,24,22,21,096,18,24,61,287,24,29,11,281,*75
$GPGSV,5,4,17,36,52,277,,40,86,350,,41,58,082,,49,32,274,*7D
$GPGSV,5,5,17,50,10,089,*4A
$GLGSV,3,1,09,69,11,142,,70,12,204,,73,37,003,16,74,00,340,*64
$GLGSV,3,2,09,79,15,138,08,80,54,089,29,83,16,008,,84,50,313,10*6B
$GLGSV,3,3,09,85,32,243,*55
$GNGLL,0419.78391,S,05539.87475,E,041939.00,A,A*67
$GNGRS,041939.00,1,-5.0,-0.5,1.9,5.8,8.8,1.0,24.4,13.7,19.6,,,*45
$GNGRS,041939.00,1,-0.5,-2.6,4.1,,,,,,,,,*7C
$GNGST,041939.00,6868023,,,,10,12,23*53
$GNZDA,041939.00,21,05,2025,00,00*7D
$GNGBS,041939.00,10.1,11.7,22.8,,,,*66
$GNTXT,01,01,01,More than 100 frame errors, UART RX was disabled*70
b0La.zz)](
r4c`={4V^:R 
Y]EF
I%JTO
P6Y,ST
29'U baO?b$GNRMC,041940.00,A,0419.78399,S,05539.87477,E,0.465,,210525,,,A*7C
$GNVTG,,T,,M,0.465,N,0.861,K,A*35
$GNGNS,041940.00,0419.78399,S,05539.87477,E,AA,11,0.85,31.7,-47.6,,*6C
$GNGGA,041940.00,0419.78399,S,05539.87477,E,1,11,0.85,31.7,M,-47.6,M,,*46
$GNGSA,A,3,24,20,11,05,15,06,12,14,,,,,1.46,0.85,1.19*1E
$GNGSA,A,3,80,73,79,,,,,,,,,,1.46,0.85,1.19*19
$GPGSV,5,1,17,05,46,159,21,06,09,028,12,11,41,019,25,12,18,349,13*78
$GPGSV,5,2,17,13,27,173,22,14,10,114,07,15,27,210,11,18,09,220,*7F
$GPGSV,5,3,17,20,52,099,26,22,21,096,,24,61,287,25,29,11,281,*7F
$GPGSV,5,4,17,36,52,277,,40,86,350,,41,58,082,,49,32,274,*7D
$GPGSV,5,5,17,50,10,089,*4A
$GLGSV,3,1,09,69,11,142,,70,12,204,,73,37,003,17,74,00,340,*65
$GLGSV,3,2,09,79,15,138,10,80,54,089,28,83,16,008,,84,50,313,10*63
$GLGSV,3,3,09,85,32,243,*55
$GNGLL,0419.78399,S,05539.87477,E,041940.00,A,A*63
$GNGRS,041940.00,1,-6.1,-1.1,2.8,6.3,9.0,24.3,13.2,19.6,,,,*62
$GNGRS,041940.00,1,0.4,-3.1,4.3,,,,,,,,,*5A
$GNGST,041940.00,6870758,,,,10,12,23*5F
$GNZDA,041940.00,21,05,2025,00,00*73
$GNGBS,041940.00,10.2,11.6,22.8,,,,*6A
$GNTXT,01,01,01,More than 100 frame errors, UART RX was disabled*70
b0La.)]
r4c`={4V^:R 
Y]hEF
I%JTO
P6YST
29U ebaO':$GNRMC,041941.00,A,0419.78391,S,05539.87503,E,0.078,,210525,,,A*7F
$GNVTG,,T,,M,0.078,N,0.145,K,A*32
$GNGNS,041941.00,0419.78391,S,05539.87503,E,AA,12,0.82,31.6,-47.6,,*62
$GNGGA,041941.00,0419.78391,S,05539.87503,E,1,12,0.82,31.6,M,-47.6,M,,*48
$GNGSA,A,3,24,20,11,05,15,06,12,14,,,,,1.44,0.82,1.18*1A
$GNGSA,A,3,84,80,73,79,,,,,,,,,1.44,0.82,1.18*11
$GPGSV,5,1,17,05,46,159,22,06,09,028,12,11,41,019,23,12,18,349,13*7D
$GPGSV,5,2,17,13,27,173,22,14,10,114,07,15,27,210,11,18,09,220,*7F
$GPGSV,5,3,17,20,52,099,26,22,21,096,19,24,61,287,25,29,11,281,*77
$GPGSV,5,4,17,36,52,277,,40,86,350,,41,58,082,,49,32,274,*7D
$GPGSV,5,5,17,50,10,089,*4A
$GLGSV,3,1,09,69,11,142,,70,12,204,,73,37,003,18,74,00,340,*6A
$GLGSV,3,2,09,79,15,138,10,80,54,089,27,83,16,008,,84,50,313,10*6C
$GLGSV,3,3,09,85,32,243,*55
$GNGLL,0419.78391,S,05539.87503,E,041941.00,A,A*68
$GNGRS,041941.00,1,-7.5,-2.4,2.2,7.2,-27.9,-40.7,-18.7,6.8,,,,*4A
$GNGRS,041941.00,1,24.4,-5.0,-3.5,7.9,,,,,,,,*66
$GNGST,041941.00,80,,,,10,11,22*67
$GNZDA,041941.00,21,05,2025,00,00*72
$GNGBS,041941.00,10.1,11.3,22.3,,,,*66
$GNTXT,01,01,01,More than 100 frame errors, UART RX was disabled*70
b0La.
)],
r 
c4c`r=?{4V^:R 
Y]EF
I%PJTOP6YST
29U -baO$GNRMC,041942.00,A,0419.78374,S,05539.87527,E,0.466,,210525,,,A*7A
$GNVTG,,T,,M,0.466,N,0.863,K,A*34
$GNGNS,041942.00,0419.78374,S,05539.87527,E,AA,11,0.83,36.3,-47.6,,*6C
$GNGGA,041942.00,0419.78374,S,05539.87527,E,1,11,0.83,36.3,M,-47.6,M,,*46
$GNGSA,A,3,24,20,11,05,15,06,12,,,,,,1.48,0.83,1.22*1B
$GNGSA,A,3,84,80,73,79,,,,,,,,,1.48,0.83,1.22*15
$GPGSV,5,1,17,05,46,159,22,06,09,028,11,11,41,019,22,12,18,349,13*7F
$GPGSV,5,2,17,13,27,173,22,14,10,114,07,15,27,210,10,18,09,220,*7E
$GPGSV,5,3,17,20,52,099,25,22,21,096,18,24,61,287,25,29,11,281,*75
$GPGSV,5,4,17,36,52,277,,40,86,350,,41,58,082,,49,32,274,*7D
$GPGSV,5,5,17,50,10,089,*4A
$GLGSV,3,1,09,69,11,142,,70,12,204,,73,37,003,19,74,00,340,*6B
$GLGSV,3,2,09,79,15,138,13,80,54,089,28,83,16,008,,84,50,313,10*60
$GLGSV,3,3,09,85,32,243,*55
$GNGLL,0419.78374,S,05539.87527,E,041942.00,A,A*66
$GNGRS,041942.00,1,-9.6,-1.0,4.9,7.1,11.2,27.4,15.8,,,,,*4E
$GNGRS,041942.00,1,0.2,2.2,-4.3,7.3,,,,,,,,*76
$GNGST,041942.00,6868110,,,,10,11,22*5C
$GNZDA,041942.00,21,05,2025,00,00*71
$GNGBS,041942.00,10.1,11.2,22.4,,,,*63
$GNTXT,01,01,01,More than 100 frame errors, UART RX was disabled*70
b0Lh!a.

)]1
r4c`q=0{4V^:R 
Y]bEF
I%JTONP6YHST29U =bh!aOQ$GNRMC,041943.00,A,0419.78328,S,05539.87540,E,0.814,,210525,,,A*7A
$GNVTG,,T,,M,0.814,N,1.507,K,A*33
$GNGNS,041943.00,0419.78328,S,05539.87540,E,AA,12,0.82,37.7,-47.6,,*62
$GNGGA,041943.00,0419.78328,S,05539.87540,E,1,12,0.82,37.7,M,-47.6,M,,*48
$GNGSA,A,3,24,20,11,05,15,06,12,14,,,,,1.44,0.82,1.18*1A
$GNGSA,A,3,84,80,73,79,,,,,,,,,1.44,0.82,1.18*11
$GPGSV,5,1,17,05,46,159,21,06,09,028,10,11,41,019,20,12,18,349,08*75
$GPGSV,5,2,17,13,27,173,24,14,10,114,11,15,27,210,14,18,09,220,*7B
$GPGSV,5,3,17,20,52,099,25,22,21,096,18,24,61,287,25,29,11,281,*75
$GPGSV,5,4,17,36,52,277,,40,86,350,,41,58,082,,49,32,274,*7D
$GPGSV,5,5,17,50,10,089,*4A
$GLGSV,3,1,09,69,11,142,,70,12,204,,73,37,003,17,74,00,340,*65
$GLGSV,3,2,09,79,15,138,13,80,54,089,29,83,16,008,,84,50,313,08*68
$GLGSV,3,3,09,85,32,243,*55
$GNGLL,0419.78328,S,05539.87540,E,041943.00,A,A*6F
$GNGRS,041943.00,1,-7.2,-0.1,2.9,7.2,12.6,27.6,15.8,24.6,,,,*5B
$GNGRS,041943.00,1,0.3,3.3,-2.7,8.5,,,,,,,,*7D
$GNGST,041943.00,7377609,,,,10,11,22*56
$GNZDA,041943.00,21,05,2025,00,00*70
$GNGBS,041943.00,10.2,11.2,22.5,,,,*60
$GNTXT,01,01,01,More than 100 frame errors, UART RX was disabled*70
b0LP%a.h)
]
rJ'4c`C=V{4V^:R 
Y]nEF
I%JTO
 P6YqST
29U tbP%aO$GNRMC,041944.00,A,0419.78287,S,05539.87611,E,0.757,,210525,,,A*76
$GNVTG,,T,,M,0.757,N,1.403,K,A*3E
$GNGNS,041944.00,0419.78287,S,05539.87611,E,AA,13,0.79,37.4,-47.6,,*60
$GNGGA,041944.00,0419.78287,S,05539.87611,E,1,12,0.79,37.4,M,-47.6,M,,*4B
$GNGSA,A,3,24,20,11,05,15,22,06,12,14,,,,1.42,0.79,1.18*18
$GNGSA,A,3,84,80,73,79,,,,,,,,,1.42,0.79,1.18*13
$GPGSV,5,1,17,05,46,159,20,06,09,028,09,11,41,019,19,12,18,349,10*7F
$GPGSV,5,2,17,13,27,173,24,14,10,114,12,15,27,210,12,18,09,220,*7E
$GPGSV,5,3,17,20,52,099,25,22,21,096,18,24,61,287,22,29,11,281,*72
$GPGSV,5,4,17,36,52,277,,40,86,350,,41,58,082,,49,32,274,*7D
$GPGSV,5,5,17,50,10,089,*4A
$GLGSV,3,1,09,69,11,142,,70,12,204,,73,37,003,17,74,00,340,*65
$GLGSV,3,2,09,79,15,138,10,80,54,089,28,83,16,008,,84,50,313,10*63
$GLGSV,3,3,09,85,32,243,*55
$GNGLL,0419.78287,S,05539.87611,E,041944.00,A,A*6B
$GNGRS,041944.00,1,-6.8,1.8,1.4,7.3,-32.9,-4.4,59.9,-20.6,18.7,,,*73
$GNGRS,041944.00,1,-123,3.7,-3.5,5.4,,,,,,,,*41
$GNGST,041944.00,87,,,,10,11,22*65
$GNZDA,041944.00,21,05,2025,00,00*77
$GNGBS,041944.00,10.2,11.0,22.0,,,,*60
$GNTXT,01,01,01,More than 100 frame errors, UART RX was disabled*70
b0L8)a.6)]}

r4c1`={4V^:R 
Y]EF
I%JTOP6YST
29+U b8)aO!$GNRMC,041945.00,A,0419.78283,S,05539.87637,E,0.627,,210525,,,A*71
$GNVTG,,T,,M,0.627,N,1.162,K,A*3A
$GNGNS,041945.00,0419.78283,S,05539.87637,E,AA,13,0.79,37.2,-47.6,,*67
$GNGGA,041945.00,0419.78283,S,05539.87637,E,1,12,0.79,37.2,M,-47.6,M,,*4C
$GNGSA,A,3,24,20,11,05,15,22,06,12,14,,,,1.42,0.79,1.18*18
$GNGSA,A,3,84,80,73,79,,,,,,,,,1.42,0.79,1.18*13
$GPGSV,5,1,17,05,46,159,21,06,09,028,09,11,41,019,20,12,18,349,15*71
$GPGSV,5,2,17,13,27,173,22,14,10,114,10,15,27,210,09,18,09,220,*70
$GPGSV,5,3,17,20,52,099,23,22,21,096,18,24,61,287,20,29,11,281,*76
$GPGSV,5,4,17,36,52,277,,40,86,350,,41,58,082,27,49,32,274,*78
$GPGSV,5,5,17,50,10,089,*4A
$GLGSV,3,1,09,69,11,142,,70,12,204,,73,37,003,16,74,00,340,*64
$GLGSV,3,2,09,79,15,138,12,80,54,089,28,83,16,008,,84,50,313,10*61
$GLGSV,3,3,09,85,32,243,*55
$GNGLL,0419.78283,S,05539.87637,E,041945.00,A,A*6A
$GNGRS,041945.00,1,-8.6,0.5,-0.9,5.7,9.0,-4.9,24.7,14.1,19.9,,,*6E
$GNGRS,041945.00,1,0.4,4.4,-3.4,4.3,,,,,,,,*74
$GNGST,041945.00,6358926,,,,10,11,22*5E
$GNZDA,041945.00,21,05,2025,00,00*76
$GNGBS,041945.00,10.3,11.1,22.1,,,,*60
$GNTXT,01,01,01,More than 100 frame errors, UART RX was disabled*70
b0L -a."x)]Y
rT4cy`=}{4V^:R 
Y]CEF
I%JJTOCP6Y)ST
29U 4.b -aOq$GNRMC,041946.00,A,0419.78282,S,05539.87638,E,0.690,,210525,,,A*70
$GNVTG,,T,,M,0.690,N,1.278,K,A*3E
$GNGNS,041946.00,0419.78282,S,05539.87638,E,AA,13,0.79,36.8,-47.6,,*61
$GNGGA,041946.00,0419.78282,S,05539.87638,E,1,12,0.79,36.8,M,-47.6,M,,*4A
$GNGSA,A,3,24,20,11,05,15,22,06,12,14,,,,1.42,0.79,1.18*18
$GNGSA,A,3,84,80,73,79,,,,,,,,,1.42,0.79,1.18*13
$GPGSV,5,1,17,05,46,159,25,06,09,028,09,11,41,019,23,12,18,349,11*72
$GPGSV,5,2,17,13,27,173,20,14,10,114,14,15,27,210,13,18,09,220,*7D
$GPGSV,5,3,17,20,52,099,22,22,21,096,16,24,61,287,21,29,11,281,*78
$GPGSV,5,4,17,36,52,277,,40,86,350,,41,58,082,,49,32,274,*7D
$GPGSV,5,5,17,50,10,089,*4A
$GLGSV,3,1,09,69,11,142,,70,12,204,,73,37,003,17,74,00,340,*65
$GLGSV,3,2,09,79,15,138,11,80,54,089,26,83,16,008,,84,50,313,10*6C
$GLGSV,3,3,09,85,32,243,*55
$GNGLL,0419.78282,S,05539.87638,E,041946.00,A,A*67
$GNGRS,041946.00,1,-9.0,1.2,-0.2,5.5,7.8,-0.7,24.2,13.7,18.8,,,*6D
$GNGRS,041946.00,1,0.3,5.5,-1.8,3.2,,,,,,,,*78
$GNGST,041946.00,6359369,,,,10,11,22*5D
$GNZDA,041946.00,21,05,2025,00,00*75
$GNGBS,041946.00,10.3,11.1,22.3,,,,*61
$GNTXT,01,01,01,More than 100 frame errors, UART RX was disabled*70
b0L1a.)]1
rI4ck`={4V^:R 
Y]jEF
I%]JTOP6YST
29U Mb1aOI$GNRMC,041947.00,A,0419.78316,S,05539.87656,E,0.421,,210525,,,A*7D
$GNVTG,,T,,M,0.421,N,0.780,K,A*35
$GNGNS,041947.00,0419.78316,S,05539.87656,E,AA,13,0.79,37.6,-47.6,,*6B
$GNGGA,041947.00,0419.78316,S,05539.87656,E,1,12,0.79,37.6,M,-47.6,M,,*40
$GNGSA,A,3,24,20,11,05,15,22,06,12,14,,,,1.42,0.79,1.18*18
$GNGSA,A,3,84,80,73,79,,,,,,,,,1.42,0.79,1.18*13
$GPGSV,5,1,17,05,46,159,26,06,09,028,07,11,41,019,24,12,18,349,11*78
$GPGSV,5,2,17,13,27,173,19,14,10,114,09,15,27,210,13,18,09,220,*7B
$GPGSV,5,3,17,20,52,099,22,22,21,096,16,24,61,287,24,29,11,281,*7D
$GPGSV,5,4,17,36,52,277,,40,86,350,,41,58,082,,49,32,274,*7D
$GPGSV,5,5,17,50,10,089,*4A
$GLGSV,3,1,09,69,11,142,,70,12,204,,73,37,003,16,74,00,340,*64
$GLGSV,3,2,09,79,15,138,11,80,54,089,26,83,16,008,,84,50,313,10*6C
$GLGSV,3,3,09,85,32,243,*55
$GNGLL,0419.78316,S,05539.87656,E,041947.00,A,A*62
$GNGRS,041947.00,1,-8.5,-1.5,-0.5,4.7,5.8,-0.9,-121,0.5,-14.0,,,*56
$GNGRS,041947.00,1,-5.9,7.1,-1.6,32.3,,,,,,,,*60
$GNGST,041947.00,90,,,,10,11,22*60
$GNZDA,041947.00,21,05,2025,00,00*74
$GNGBS,041947.00,9.9,10.9,21.9,,,,*52
$GNTXT,01,01,01,More than 100 frame errors, UART RX was disabled*70
b0L4a.2
)C
]K
r4c`= {4V^:R 
Y]EF
I%YJTO
P6YST
29U +b4aO J$GNRMC,041948.00,A,0419.78329,S,05539.87661,E,0.191,,210525,,,A*74
$GNVTG,,T,,M,0.191,N,0.353,K,A*31
$GNGNS,041948.00,0419.78329,S,05539.87661,E,AA,13,0.79,37.2,-47.6,,*68
$GNGGA,041948.00,0419.78329,S,05539.87661,E,1,12,0.79,37.2,M,-47.6,M,,*43
$GNGSA,A,3,24,20,11,05,15,22,06,12,14,,,,1.42,0.79,1.18*18
$GNGSA,A,3,84,80,73,79,,,,,,,,,1.42,0.79,1.18*13
$GPGSV,5,1,17,05,46,159,27,06,09,028,10,11,41,019,25,12,18,349,10*7F
$GPGSV,5,2,17,13,27,173,17,14,10,114,12,15,27,210,14,18,09,220,*78
$GPGSV,5,3,17,20,52,099,24,22,21,096,15,24,61,287,26,29,11,281,*7A
$GPGSV,5,4,17,36,52,277,,40,86,350,,41,58,082,,49,32,274,*7D
$GPGSV,5,5,17,50,10,089,*4A
$GLGSV,3,1,09,69,11,142,,70,12,204,,73,37,003,16,74,00,340,*64
$GLGSV,3,2,09,79,15,138,10,80,54,089,26,83,16,008,,84,50,313,10*6D
$GLGSV,3,3,09,85,32,243,*55
$GNGLL,0419.78329,S,05539.87661,E,041948.00,A,A*65
$GNGRS,041948.00,1,-9.9,-2.5,-1.9,3.1,4.9,2.3,24.7,13.5,20.2,,,*64
$GNGRS,041948.00,1,0.0,5.4,-1.7,4.3,,,,,,,,*7D
$GNGST,041948.00,4518296,,,,9.7,11,22*72
$GNZDA,041948.00,21,05,2025,00,00*7B
$GNGBS,041948.00,9.7,10.8,21.9,,,,*52
$GNTXT,01,01,01,More than 100 frame errors, UART RX was disabled*70
b0L8a.)d]1

r4cb`n={4V^:R 
Y]aEF
I%JTOP6YlST29U b8aOg$GNRMC,041949.00,A,0419.78326,S,05539.87673,E,0.228,,210525,,,A*78
$GNVTG,,T,,M,0.228,N,0.422,K,A*31
$GNGNS,041949.00,0419.78326,S,05539.87673,E,AA,13,0.79,37.5,-47.6,,*62
$GNGGA,041949.00,0419.78326,S,05539.87673,E,1,12,0.79,37.5,M,-47.6,M,,*49
$GNGSA,A,3,24,20,11,05,15,22,06,12,14,,,,1.42,0.79,1.18*18
$GNGSA,A,3,84,80,73,79,,,,,,,,,1.42,0.79,1.18*13
$GPGSV,5,1,17,05,46,159,28,06,09,028,12,11,41,019,25,12,18,349,12*70
$GPGSV,5,2,17,13,27,173,17,14,10,114,10,15,27,210,15,18,09,220,*7B
$GPGSV,5,3,17,20,52,099,26,22,21,096,13,24,61,287,26,29,11,281,*7E
$GPGSV,5,4,17,36,52,277,,40,86,350,,41,58,082,,49,32,274,*7D
$GPGSV,5,5,17,50,10,089,*4A
$GLGSV,3,1,09,69,11,142,,70,12,204,,73,37,003,16,74,00,340,*64
$GLGSV,3,2,09,79,15,138,14,80,54,089,26,83,16,008,,84,50,313,11*68
$GLGSV,3,3,09,85,32,243,*55
$GNGLL,0419.78326,S,05539.87673,E,041949.00,A,A*68
$GNGRS,041949.00,1,-8.2,-4.1,-1.6,2.0,1.3,3.7,24.8,13.3,20.4,,,*67
$GNGRS,041949.00,1,0.1,3.6,-0.3,4.3,,,,,,,,*7C
$GNGST,041949.00,5523003,,,,9.5,10,22*77
$GNZDA,041949.00,21,05,2025,00,00*7A
$GNGBS,041949.00,9.5,10.4,21.8,,,,*5C
$GNTXT,01,01,01,More than 100 frame errors, UART RX was disabled*70
b0L<a.X)]
rJ4c`=:{4V^:R 
Y]8EF
I%:JTOP6YST29U b<aOO$GNRMC,041950.00,A,0419.78325,S,05539.87670,E,0.101,,210525,,,A*78
$GNVTG,,T,,M,0.101,N,0.188,K,A*3C
$GNGNS,041950.00,0419.78325,S,05539.87670,E,AA,12,0.82,37.9,-47.6,,*63
$GNGGA,041950.00,0419.78325,S,05539.87670,E,1,12,0.82,37.9,M,-47.6,M,,*49
$GNGSA,A,3,24,20,11,05,15,22,12,14,,,,,1.52,0.82,1.28*18
$GNGSA,A,3,84,80,73,79,,,,,,,,,1.52,0.82,1.28*15
$GPGSV,5,1,17,05,46,159,27,06,09,028,06,11,41,019,25,12,18,349,14*7C
$GPGSV,5,2,17,13,27,173,18,14,10,114,11,15,27,210,13,18,09,220,*73
$GPGSV,5,3,17,20,52,099,27,22,21,096,14,24,61,287,26,29,11,281,*78
$GPGSV,5,4,17,36,52,277,,40,86,350,,41,58,082,,49,32,274,*7D
$GPGSV,5,5,17,50,10,089,*4A
$GLGSV,3,1,09,69,11,142,,70,12,204,,73,37,003,16,74,00,340,*64
$GLGSV,3,2,09,79,15,138,15,80,54,089,25,83,16,008,,84,50,313,12*69
$GLGSV,3,3,09,85,32,243,*55
$GNGLL,0419.78325,S,05539.87670,E,041950.00,A,A*60
$GNGRS,041950.00,1,-7.1,-5.3,-3.1,5.1,-1.0,4.0,22.2,-4.4,,,,*45
$GNGRS,041950.00,1,38.0,1.9,-2.0,-18.6,,,,,,,,*57
$GNGST,041950.00,75,,,,9.3,10,21*4A
$GNZDA,041950.00,21,05,2025,00,00*72
$GNGBS,041950.00,9.3,10.2,21.5,,,,*59
$GNTXT,01,01,01,More than 100 frame errors, UART RX was disabled*70
b0L@a.)L]_
r4cr`6={4V^:R 
Y
]EF
I%JTOP6Y%ST
29U Qb@aO7$GNRMC,041951.00,A,0419.78332,S,05539.87676,E,0.119,,210525,,,A*70
$GNVTG,,T,,M,0.119,N,0.220,K,A*34
$GNGNS,041951.00,0419.78332,S,05539.87676,E,AA,12,0.80,37.9,-47.6,,*60
$GNGGA,041951.00,0419.78332,S,05539.87676,E,1,12,0.80,37.9,M,-47.6,M,,*4A
$GNGSA,A,3,24,20,11,05,15,22,06,12,,,,,1.46,0.80,1.22*16
$GNGSA,A,3,84,80,73,79,,,,,,,,,1.46,0.80,1.22*18
$GPGSV,5,1,17,05,46,159,27,06,09,028,12,11,41,019,25,12,18,349,14*79
$GPGSV,5,2,17,13,27,173,19,14,10,114,06,15,27,210,14,18,09,220,*73
$GPGSV,5,3,17,20,52,099,24,22,21,096,13,24,61,287,26,29,11,281,*7C
$GPGSV,5,4,17,36,52,277,,40,86,350,,41,58,082,,49,32,274,*7D
$GPGSV,5,5,17,50,10,089,*4A
$GLGSV,3,1,09,69,11,142,,70,12,204,,73,37,003,18,74,00,340,*6A
$GLGSV,3,2,09,79,15,138,13,80,54,089,25,83,16,008,,84,50,313,10*6D
$GLGSV,3,3,09,85,32,243,*55
$GNGLL,0419.78332,S,05539.87676,E,041951.00,A,A*61
$GNGRS,041951.00,1,-5.4,-6.5,-4.4,3.9,0.1,3.1,24.7,13.7,,,,*7A
$GNGRS,041951.00,1,0.0,2.9,-2.4,4.8,,,,,,,,*74
$GNGST,041951.00,5715531,,,,9.1,10,21*7A
$GNZDA,041951.00,21,05,2025,00,00*73
$GNGBS,041951.00,9.1,10.0,21.5,,,,*58
$GNTXT,01,01,01,More than 100 frame errors, UART RX was disabled*70
b0LDa.Q)T]
r4c`@=`{4V^:R 
Y]EF
I%AJTOP6YAST29U @bDaO$GNRMC,041952.00,A,0419.78346,S,05539.87683,E,0.155,,210525,,,A*72
$GNVTG,,T,,M,0.155,N,0.288,K,A*3E
$GNGNS,041952.00,0419.78346,S,05539.87683,E,AA,12,0.80,38.5,-47.6,,*69
$GNGGA,041952.00,0419.78346,S,05539.87683,E,1,12,0.80,38.5,M,-47.6,M,,*43
$GNGSA,A,3,24,20,11,05,15,22,06,12,,,,,1.46,0.80,1.22*16
$GNGSA,A,3,84,80,73,79,,,,,,,,,1.46,0.80,1.22*18
$GPGSV,5,1,17,05,46,159,25,06,09,028,11,11,41,019,25,12,18,349,14*78
$GPGSV,5,2,17,13,27,173,18,14,10,114,07,15,27,210,14,18,09,220,*73
$GPGSV,5,3,17,20,52,099,22,22,21,096,13,24,61,287,25,29,11,281,*79
$GPGSV,5,4,17,36,52,277,,40,86,350,,41,58,082,,49,32,274,*7D
$GPGSV,5,5,17,50,10,089,*4A
$GLGSV,3,1,09,69,11,142,,70,12,203,,73,37,003,18,74,00,340,*6D
$GLGSV,3,2,09,79,15,138,14,80,54,089,25,83,16,008,,84,50,313,12*68
$GLGSV,3,3,09,85,32,243,*55
$GNGLL,0419.78346,S,05539.87683,E,041952.00,A,A*6B
$GNGRS,041952.00,1,-4.2,-6.1,-6.8,3.4,-0.5,3.2,25.0,14.1,,,,*54
$GNGRS,041952.00,1,0.1,3.2,-1.9,4.8,,,,,,,,*72
$GNGST,041952.00,5716770,,,,9.0,9.8,21*52
$GNZDA,041952.00,21,05,2025,00,00*70
$GNGBS,041952.00,9.0,9.8,21.5,,,,*6A
$GNTXT,01,01,01,More than 100 frame errors, UART RX was disabled*70
b0LxHa.):]`
r4c``={4V^:R 
Y]hEF
I%JTO=P6YST29 U nbxHaOXR$GNRMC,041953.00,A,0419.78352,S,05539.87685,E,0.255,,210525,,,A*73
$GNVTG,,T,,M,0.255,N,0.472,K,A*3E
$GNGNS,041953.00,0419.78352,S,05539.87685,E,AA,12,0.85,39.7,-47.6,,*6D
$GNGGA,041953.00,0419.78352,S,05539.87685,E,1,12,0.85,39.7,M,-47.6,M,,*47
$GNGSA,A,3,24,20,11,05,15,22,06,14,,,,,1.54,0.85,1.28*1C
$GNGSA,A,3,84,80,73,79,,,,,,,,,1.54,0.85,1.28*14
$GPGSV,5,1,17,05,46,159,23,06,09,028,08,11,41,019,26,12,18,349,14*75
$GPGSV,5,2,17,13,27,173,18,14,10,114,09,15,27,210,12,18,09,220,*7B
$GPGSV,5,3,17,20,52,099,22,22,21,096,17,24,61,287,24,29,11,281,*7C
$GPGSV,5,4,17,36,52,277,,40,86,350,,41,58,082,,49,32,274,*7D
$GPGSV,5,5,17,50,10,089,*4A
$GLGSV,3,1,09,69,11,142,,70,12,203,,73,37,003,19,74,00,340,*6C
$GLGSV,3,2,09,79,15,138,11,80,54,089,24,83,16,008,,84,50,313,11*6F
$GLGSV,3,3,09,85,32,243,*55
$GNGLL,0419.78352,S,05539.87685,E,041953.00,A,A*69
$GNGRS,041953.00,1,-3.6,-6.7,-7.1,2.3,-3.4,2.8,-5.9,-125,,,,*40
$GNGRS,041953.00,1,83.7,3.9,-1.0,5.7,,,,,,,,*42
$GNGST,041953.00,89,,,,8.8,9.7,21*61
$GNZDA,041953.00,21,05,2025,00,00*71
$GNGBS,041953.00,8.8,9.7,21.2,,,,*6A
$GNTXT,01,01,01,More than 100 frame errors, UART RX was disabled*70
b0L`La.[)p]D

r4c`f={4V^:R 
Y]EF
I%JTOP6YBST29U b`LaO/$GNRMC,041954.00,A,0419.78345,S,05539.87710,E,0.456,,210525,,,A*7A
$GNVTG,,T,,M,0.456,N,0.844,K,A*32
$GNGNS,041954.00,0419.78345,S,05539.87710,E,AA,12,0.86,39.8,-47.6,,*6D
$GNGGA,041954.00,0419.78345,S,05539.87710,E,1,12,0.86,39.8,M,-47.6,M,,*47
$GNGSA,A,3,24,20,11,05,15,22,06,14,,,,,1.58,0.86,1.33*19
$GNGSA,A,3,84,80,73,79,,,,,,,,,1.58,0.86,1.33*11
$GPGSV,5,1,17,05,46,159,24,06,09,028,11,11,41,019,25,12,18,349,14*79
$GPGSV,5,2,17,13,27,173,19,14,10,114,10,15,27,210,12,18,09,220,*72
$GPGSV,5,3,17,20,52,099,24,22,21,096,17,24,61,287,26,29,11,281,*78
$GPGSV,5,4,17,36,52,277,,40,86,350,,41,58,082,,49,32,274,*7D
$GPGSV,5,5,17,50,10,089,*4A
$GLGSV,3,1,09,69,11,142,,70,12,203,,73,37,003,18,74,00,340,*6D
$GLGSV,3,2,09,79,15,138,08,80,54,089,21,83,16,008,,84,50,313,08*6A
$GLGSV,3,3,09,85,32,243,*55
$GNGLL,0419.78345,S,05539.87710,E,041954.00,A,A*65
$GNGRS,041954.00,1,-3.5,-8.2,-6.6,0.9,-5.6,3.6,24.3,20.4,,,,*5D
$GNGRS,041954.00,1,-0.1,3.2,-1.0,4.8,,,,,,,,*50
$GNGST,041954.00,3464724,,,,8.8,9.6,21*52
$GNZDA,041954.00,21,05,2025,00,00*76
$GNGBS,041954.00,8.8,9.6,21.4,,,,*6A
$GNTXT,01,01,01,More than 100 frame errors, UART RX was disabled*70
b0LHPa.Oy)]=
rF4c%`=]{4V^:R 
Y]bEF
I&bJTOP6Y6ST
29U bHPaO$GNRMC,041955.00,A,0419.78364,S,05539.87709,E,0.201,,210525,,,A*74
$GNVTG,,T,,M,0.201,N,0.373,K,A*39
$GNGNS,041955.00,0419.78364,S,05539.87709,E,AA,12,0.86,39.4,-47.6,,*6B
$GNGGA,041955.00,0419.78364,S,05539.87709,E,1,12,0.86,39.4,M,-47.6,M,,*41
$GNGSA,A,3,24,20,11,05,15,22,06,14,,,,,1.58,0.86,1.33*19
$GNGSA,A,3,84,80,73,79,,,,,,,,,1.58,0.86,1.33*11
$GPGSV,5,1,17,05,46,159,25,06,09,028,09,11,41,019,24,12,18,349,12*76
$GPGSV,5,2,17,13,27,173,19,14,10,114,08,15,27,210,11,18,09,220,*78
$GPGSV,5,3,17,20,52,099,24,22,21,096,18,24,61,287,26,29,11,281,*77
$GPGSV,5,4,17,36,52,277,,40,86,350,,41,58,082,,49,32,274,*7D
$GPGSV,5,5,17,50,10,089,*4A
$GLGSV,3,1,09,69,11,142,,70,12,203,,73,38,003,17,74,00,340,*6D
$GLGSV,3,2,09,79,15,138,11,80,54,089,20,83,16,008,,84,50,313,10*6A
$GLGSV,3,3,09,85,32,243,*55
$GNGLL,0419.78364,S,05539.87709,E,041955.00,A,A*6F
$GNGRS,041955.00,1,-4.2,-7.3,-5.6,0.8,-1.9,5.1,24.2,20.2,,,,*5D
$GNGRS,041955.00,1,0.0,3.1,-1.6,4.6,,,,,,,,*76
$GNGST,041955.00,3467527,,,,8.8,9.5,22*51
$GNZDA,041955.00,21,05,2025,00,00*77
$GNGBS,041955.00,8.8,9.5,21.6,,,,*6A
$GNTXT,01,01,01,More than 100 frame errors, UART RX was disabled*70
b0L0Ta.i)
]
re4cd`={4V^:R 
Y]GEF
I&JUO:P6YST29U b0TaO$GNRMC,041956.00,A,0419.78391,S,05539.87732,E,0.500,,210525,,,A*73
$GNVTG,,T,,M,0.500,N,0.926,K,A*35
$GNGNS,041956.00,0419.78391,S,05539.87732,E,AA,11,0.86,38.5,-47.6,,*69
$GNGGA,041956.00,0419.78391,S,05539.87732,E,1,11,0.86,38.5,M,-47.6,M,,*43
$GNGSA,A,3,24,20,11,05,15,22,12,,,,,,1.72,0.86,1.50*14
$GNGSA,A,3,84,80,73,79,,,,,,,,,1.72,0.86,1.50*1C
$GPGSV,5,1,17,05,46,159,23,06,09,028,05,11,41,019,24,12,18,349,10*7E
$GPGSV,5,2,17,13,27,173,19,14,10,114,07,15,27,210,09,18,09,220,*7E
$GPGSV,5,3,17,20,52,099,23,22,21,096,17,24,61,287,24,29,11,281,*7D
$GPGSV,5,4,17,36,52,277,,40,86,350,,41,58,082,,49,32,274,*7D
$GPGSV,5,5,17,50,10,089,*4A
$GLGSV,3,1,09,69,11,142,,70,12,203,,73,38,003,17,74,00,341,*6C
$GLGSV,3,2,09,79,15,138,09,80,54,089,21,83,16,008,,84,50,313,09*6A
$GLGSV,3,3,09,85,32,243,*55
$GNGLL,0419.78391,S,05539.87732,E,041956.00,A,A*6E
$GNGRS,041956.00,1,-0.9,-9.2,-3.8,1.0,2.7,2.9,-11.0,,,,,*47
$GNGRS,041956.00,1,-146,4.2,-2.9,150,,,,,,,,*55
$GNGST,041956.00,98,,,,8.8,9.5,22*65
$GNZDA,041956.00,21,05,2025,00,00*74
$GNGBS,041956.00,8.8,9.5,21.6,,,,*69
$GNTXT,01,01,01,More than 100 frame errors, UART RX was disabled*70
b0LXa.)U]!
r.%4cg`={4V^:R 
Y]"EF
I&sJUOP6YST
29U *bXaO$GNRMC,041957.00,A,0419.78381,S,05539.87719,E,0.141,,210525,,,A*7B
$GNVTG,,T,,M,0.141,N,0.262,K,A*3F
$GNGNS,041957.00,0419.78381,S,05539.87719,E,AA,13,0.82,38.2,-47.6,,*61
$GNGGA,041957.00,0419.78381,S,05539.87719,E,1,12,0.82,38.2,M,-47.6,M,,*4A
$GNGSA,A,3,24,20,11,05,15,22,06,12,14,,,,1.52,0.82,1.28*1E
$GNGSA,A,3,84,80,73,79,,,,,,,,,1.52,0.82,1.28*15
$GPGSV,5,1,17,05,46,159,21,06,09,028,09,11,41,019,23,12,18,349,12*75
$GPGSV,5,2,17,13,27,173,18,14,10,114,09,15,27,210,11,18,09,220,*78
$GPGSV,5,3,17,20,52,099,21,22,21,096,17,24,61,287,22,29,11,281,*79
$GPGSV,5,4,17,36,52,277,,40,86,350,,41,58,082,,49,32,274,*7D
$GPGSV,5,5,17,50,10,089,*4A
$GLGSV,3,1,09,69,11,142,,70,12,203,,73,38,003,16,74,00,341,*6D
$GLGSV,3,2,09,79,15,138,08,80,54,089,21,83,16,008,,84,50,313,10*63
$GLGSV,3,3,09,85,32,243,*55
$GNGLL,0419.78381,S,05539.87719,E,041957.00,A,A*67
$GNGRS,041957.00,1,-0.3,-9.2,-4.3,-0.8,2.9,4.5,24.7,13.1,20.9,,,*44
$GNGRS,041957.00,1,-0.4,4.8,-1.4,5.3,,,,,,,,*55
$GNGST,041957.00,3300885,,,,8.9,9.6,22*52
$GNZDA,041957.00,21,05,2025,00,00*75
$GNGBS,041957.00,8.9,9.6,21.8,,,,*64
$GNTXT,01,01,01,More than 100 frame errors, UART RX was disabled*70
b0L\a.)i]
r4c`={4V^:R 
Y]EF
I&tJUOP6YuST29U Mb\aOW$GNRMC,041958.00,A,0419.78404,S,05539.87747,E,0.611,,210525,,,A*77
$GNVTG,,T,,M,0.611,N,1.132,K,A*3A
$GNGNS,041958.00,0419.78404,S,05539.87747,E,AA,12,0.82,37.9,-47.6,,*6A
$GNGGA,041958.00,0419.78404,S,05539.87747,E,1,12,0.82,37.9,M,-47.6,M,,*40
$GNGSA,A,3,24,20,11,05,15,22,12,14,,,,,1.52,0.82,1.28*18
$GNGSA,A,3,84,80,73,79,,,,,,,,,1.52,0.82,1.28*15
$GPGSV,5,1,17,05,46,159,19,06,09,028,06,11,41,019,21,12,18,349,11*70
$GPGSV,5,2,17,13,27,173,18,14,10,114,11,15,27,210,16,18,09,220,*76
$GPGSV,5,3,17,20,52,099,19,22,21,096,15,24,61,287,20,29,11,281,*72
$GPGSV,5,4,17,36,52,277,,40,86,350,,41,58,082,,49,32,274,*7D
$GPGSV,5,5,17,50,10,089,*4A
$GLGSV,3,1,09,69,11,142,,70,12,203,,73,38,003,15,74,00,341,*6E
$GLGSV,3,2,09,79,15,138,08,80,54,089,20,83,16,008,,84,50,313,11*63
$GLGSV,3,3,09,85,32,243,*55
$GNGLL,0419.78404,S,05539.87747,E,041958.00,A,A*69
$GNGRS,041958.00,1,0.3,-10.3,-4.1,-2.3,2.8,4.5,13.0,20.2,,,,*40
$GNGRS,041958.00,1,-0.3,3.7,-1.4,4.7,,,,,,,,*50
$GNGST,041958.00,3301568,,,,9.1,9.7,22*5A
$GNZDA,041958.00,21,05,2025,00,00*7A
$GNGBS,041958.00,9.1,9.7,22.0,,,,*68
$GNTXT,01,01,01,More than 100 frame errors, UART RX was disabled*70
b0L_a.f)c]T
r4c%`={4V^:R 
Y][EF
I&[JUOP6YST29AU Ib_aOwf$GNRMC,041959.00,A,0419.78396,S,05539.87707,E,0.263,,210525,,,A*7F
$GNVTG,,T,,M,0.263,N,0.487,K,A*31
$GNGNS,041959.00,0419.78396,S,05539.87707,E,AA,12,0.82,38.1,-47.6,,*64
$GNGGA,041959.00,0419.78396,S,05539.87707,E,1,12,0.82,38.1,M,-47.6,M,,*4E
$GNGSA,A,3,24,20,11,05,15,22,12,14,,,,,1.52,0.82,1.28*18
$GNGSA,A,3,84,80,73,79,,,,,,,,,1.52,0.82,1.28*15
$GPGSV,5,1,17,05,46,159,19,06,09,028,06,11,41,019,21,12,18,349,17*76
$GPGSV,5,2,17,13,27,173,19,14,10,114,15,15,27,210,17,18,09,220,*72
$GPGSV,5,3,17,20,52,099,17,22,21,096,14,24,61,287,19,29,11,281,*77
$GPGSV,5,4,17,36,52,277,,40,86,350,,41,58,082,,49,32,274,*7D
$GPGSV,5,5,17,50,10,089,*4A
$GLGSV,3,1,09,69,11,142,,70,12,203,,73,38,003,15,74,00,341,*6E
$GLGSV,3,2,09,79,15,138,11,80,54,089,20,83,16,008,,84,50,313,11*6B
$GLGSV,3,3,09,85,32,243,*55
$GNGLL,0419.78396,S,05539.87707,E,041959.00,A,A*60
$GNGRS,041959.00,1,1.5,-9.9,-1.6,-2.3,4.2,6.9,34.1,-28.9,,,,*5E
$GNGRS,041959.00,1,72.3,4.8,-4.2,-106,,,,,,,,*75
$GNGST,041959.00,84,,,,9.0,9.8,22*63
$GNZDA,041959.00,21,05,2025,00,00*7B
$GNGBS,041959.00,9.0,9.8,21.7,,,,*63
$GNTXT,01,01,01,More than 100 frame errors, UART RX was disabled*70
b0Lca.o)N
]R
r#4c`:=+{4V^:R 
Y]EF
I&JUOP6YLST29U kbcaO_>$GNRMC,042000.00,A,0419.78386,S,05539.87720,E,0.161,,210525,,,A*7C
$GNVTG,,T,,M,0.161,N,0.298,K,A*38
$GNGNS,042000.00,0419.78386,S,05539.87720,E,AA,13,0.79,38.1,-47.6,,*63
$GNGGA,042000.00,0419.78386,S,05539.87720,E,1,12,0.79,38.1,M,-47.6,M,,*48
$GNGSA,A,3,24,20,11,05,15,22,06,12,14,,,,1.42,0.79,1.18*18
$GNGSA,A,3,84,80,73,79,,,,,,,,,1.42,0.79,1.18*13
$GPGSV,5,1,17,05,46,159,19,06,09,028,08,11,41,019,20,12,18,349,10*7E
$GPGSV,5,2,17,13,27,173,17,14,10,114,11,15,27,210,12,18,09,220,*7D
$GPGSV,5,3,17,20,52,099,18,22,21,096,15,24,61,287,18,29,11,281,*78
$GPGSV,5,4,17,36,52,277,,40,86,350,,41,58,082,,49,32,274,*7D
$GPGSV,5,5,17,50,10,089,*4A
$GLGSV,3,1,09,69,11,142,,70,12,203,,73,38,003,11,74,00,341,*6A
$GLGSV,3,2,09,79,15,138,08,80,54,089,18,83,16,008,,84,50,313,07*6F
$GLGSV,3,3,09,85,32,243,*55
$GNGLL,0419.78386,S,05539.87720,E,042000.00,A,A*62
$GNGRS,042000.00,1,0.4,-11.4,-1.8,-1.4,9.7,5.7,24.8,13.6,20.8,,,*55
$GNGRS,042000.00,1,0.1,5.9,-0.6,5.2,,,,,,,,*77
$GNGST,042000.00,5521963,,,,9.3,10,22*7B
$GNZDA,042000.00,21,05,2025,00,00*7D
$GNGBS,042000.00,9.3,10.0,21.9,,,,*58
$GNTXT,01,01,01,More than 100 frame errors, UART RX was disabled*70
b0Lga.
)c]]
r4c`={4V^:R 
Y]EF
I&{JUO
P6Y.ST29*U bgaOG$GNRMC,042001.00,A,0419.78404,S,05539.87764,E,0.840,,210525,,,A*7A
$GNVTG,,T,,M,0.840,N,1.555,K,A*35
$GNGNS,042001.00,0419.78404,S,05539.87764,E,AA,12,0.85,38.1,-47.6,,*6D
$GNGGA,042001.00,0419.78404,S,05539.87764,E,1,12,0.85,38.1,M,-47.6,M,,*47
$GNGSA,A,3,24,20,11,05,15,22,06,14,,,,,1.53,0.85,1.28*1B
$GNGSA,A,3,84,80,73,79,,,,,,,,,1.53,0.85,1.28*13
$GPGSV,5,1,17,05,46,159,19,06,09,028,10,11,41,019,20,12,18,349,07*71
$GPGSV,5,2,17,13,27,173,19,14,10,114,14,15,27,210,15,18,09,220,*71
$GPGSV,5,3,17,20,52,099,19,22,21,096,16,24,61,287,16,29,11,281,*74
$GPGSV,5,4,17,36,52,277,,40,86,350,,41,58,082,,49,32,274,*7D
$GPGSV,5,5,17,50,10,089,*4A
$GLGSV,3,1,09,69,11,142,,70,12,203,,73,38,003,13,74,00,341,*68
$GLGSV,3,2,09,79,15,138,10,80,54,089,21,83,16,008,,84,50,313,07*6C
$GLGSV,3,3,09,85,32,243,*55
$GNGLL,0419.78404,S,05539.87764,E,042001.00,A,A*6E
$GNGRS,042001.00,1,2.8,-9.9,-1.6,-3.2,9.7,4.6,24.5,20.0,,,,*7B
$GNGRS,042001.00,1,0.4,5.6,1.2,4.3,,,,,,,,*54
$GNGST,042001.00,4685382,,,,9.5,10,22*75
$GNZDA,042001.00,21,05,2025,00,00*7C
$GNGBS,042001.00,9.5,10.3,22.1,,,,*57
$GNTXT,01,01,01,More than 100 frame errors, UART RX was disabled*70
b0Lka.
)]
r4c`={4V^:R 
Y]EEF
I&LJUOP6ZST29`
U 9bkaO/$GNRMC,042002.00,A,0419.78408,S,05539.87793,E,1.011,,210525,,,A*70
$GNVTG,,T,,M,1.011,N,1.872,K,A*30
$GNGNS,042002.00,0419.78408,S,05539.87793,E,AA,13,0.79,37.9,-47.6,,*6F
$GNGGA,042002.00,0419.78408,S,05539.87793,E,1,12,0.79,37.9,M,-47.6,M,,*44
$GNGSA,A,3,24,20,11,05,15,22,06,12,14,,,,1.42,0.79,1.18*18
$GNGSA,A,3,84,80,73,79,,,,,,,,,1.42,0.79,1.18*13
$GPGSV,5,1,17,05,46,159,18,06,09,028,10,11,41,019,18,12,18,349,11*7C
$GPGSV,5,2,17,13,27,173,19,14,10,114,11,15,27,210,09,18,09,220,*79
$GPGSV,5,3,17,20,52,099,17,22,21,096,16,24,61,287,14,29,11,281,*78
$GPGSV,5,4,17,36,52,277,,40,86,350,,41,58,082,,49,32,274,*7D
$GPGSV,5,5,17,50,10,089,*4A
$GLGSV,3,1,09,69,11,142,,70,12,203,,73,38,003,16,74,00,341,*6D
$GLGSV,3,2,09,79,15,138,11,80,54,090,19,83,16,008,,84,50,313,07*6E
$GLGSV,3,3,09,85,32,243,*55
$GNGLL,0419.78408,S,05539.87793,E,042002.00,A,A*69
$GNGRS,042002.00,1,1.6,-10.6,-1.2,-0.7,12.7,4.3,81.7,-60.1,-31.2,,,*69
$GNGRS,042002.00,1,26.6,6.8,0.8,30.3,,,,,,,,*50
$GNGST,042002.00,86,,,,9.6,10,22*4D
$GNZDA,042002.00,21,05,2025,00,00*7F
$GNGBS,042002.00,9.6,10.5,21.9,,,,*5A
$GNTXT,01,01,01,More than 100 frame errors, UART RX was disabled*70
b0Loa.
)]a
r4c`%={4V^:R 
Y]EF
I&JUOP6ZST29U uboaOP$GNRMC,042003.00,A,0419.78412,S,05539.87867,E,1.653,,210525,,,A*7E
$GNVTG,,T,,M,1.653,N,3.062,K,A*3B
$GNGNS,042003.00,0419.78412,S,05539.87867,E,AA,13,0.79,38.9,-47.6,,*6E
$GNGGA,042003.00,0419.78412,S,05539.87867,E,1,12,0.79,38.9,M,-47.6,M,,*45
$GNGSA,A,3,24,20,11,05,15,22,06,12,14,,,,1.42,0.79,1.18*18
$GNGSA,A,3,84,80,73,79,,,,,,,,,1.42,0.79,1.18*13
$GPGSV,5,1,17,05,46,159,19,06,09,028,10,11,41,019,20,12,18,349,11*76
$GPGSV,5,2,17,13,27,173,20,14,10,114,11,15,27,210,09,18,09,220,*73
$GPGSV,5,3,17,20,52,099,15,22,21,096,14,24,61,287,12,29,11,281,*7E
$GPGSV,5,4,17,36,52,277,,40,86,350,,41,58,082,,49,32,274,*7D
$GPGSV,5,5,17,50,10,089,*4A
$GLGSV,3,1,09,69,11,142,,70,12,203,,73,38,003,14,74,00,341,*6F
$GLGSV,3,2,09,79,15,138,08,80,54,090,16,83,16,008,,84,50,313,07*69
$GLGSV,3,3,09,85,32,243,*55
$GNGLL,0419.78412,S,05539.87867,E,042003.00,A,A*67
$GNGRS,042003.00,1,2.8,-8.5,-1.1,-3.3,9.2,2.9,24.8,13.8,20.1,,,*66
$GNGRS,042003.00,1,-0.3,6.9,-0.6,4.6,,,,,,,,*5D
$GNGST,042003.00,6361942,,,,10,11,22*5E
$GNZDA,042003.00,21,05,2025,00,00*7E
$GNGBS,042003.00,9.9,10.9,22.1,,,,*53
$GNTXT,01,01,01,More than 100 frame errors, UART RX was disabled*70
b0Lpsa.W
)]
r {4c`={4V^:R 
Y]EF
I&JUOP6ZST29U bpsaO$GNRMC,042004.00,A,0419.78394,S,05539.87861,E,0.997,,210525,,,A*70
$GNVTG,,T,,M,0.997,N,1.846,K,A*31
$GNGNS,042004.00,0419.78394,S,05539.87861,E,AA,13,0.79,38.6,-47.6,,*69
$GNGGA,042004.00,0419.78394,S,05539.87861,E,1,12,0.79,38.6,M,-47.6,M,,*42
$GNGSA,A,3,24,20,11,05,15,22,06,12,14,,,,1.42,0.79,1.18*18
$GNGSA,A,3,84,80,73,79,,,,,,,,,1.42,0.79,1.18*13
$GPGSV,5,1,17,05,46,159,22,06,09,028,10,11,41,019,22,12,18,349,11*7C
$GPGSV,5,2,17,13,27,173,19,14,10,114,11,15,27,210,09,18,09,220,*79
$GPGSV,5,3,17,20,52,099,16,22,21,096,11,24,61,287,09,29,11,281,*72
$GPGSV,5,4,17,36,52,277,,40,86,350,,41,58,082,,49,32,274,*7D
$GPGSV,5,5,17,50,10,089,*4A
$GLGSV,3,1,09,69,11,142,,70,12,203,,73,38,003,13,74,00,341,*68
$GLGSV,3,2,09,79,15,138,14,80,54,090,17,83,16,008,,84,50,313,07*65
$GLGSV,3,3,09,85,32,243,*55
$GNGLL,0419.78394,S,05539.87861,E,042004.00,A,A*6F
$GNGRS,042004.00,1,1.6,-10.2,-2.3,-4.2,8.9,1.3,24.3,12.9,20.8,,,*54
$GNGRS,042004.00,1,-1.0,4.7,-1.2,5.1,,,,,,,,*57
$GNGST,042004.00,6362043,,,,10,11,22*52
$GNZDA,042004.00,21,05,2025,00,00*79
$GNGBS,042004.00,10.2,11.3,22.3,,,,*6E
$GNTXT,01,01,01,More than 100 frame errors, UART RX was disabled*70
b0LXwa.v
cB)].
r
J4c`~={4V^:R 
Y]EF
I&JUOP6ZST29AU cbXwaOu$GNRMC,042005.00,A,0419.78361,S,05539.87868,E,1.009,,210525,,,A*7D
$GNVTG,,T,,M,1.009,N,1.869,K,A*33
$GNGNS,042005.00,0419.78361,S,05539.87868,E,AA,09,0.96,38.3,-47.6,,*64
$GNGGA,042005.00,0419.78361,S,05539.87868,E,1,09,0.96,38.3,M,-47.6,M,,*4E
$GNGSA,A,3,24,20,11,05,15,,,,,,,,1.86,0.96,1.60*1E
$GNGSA,A,3,84,80,73,79,,,,,,,,,1.86,0.96,1.60*15
$GPGSV,5,1,17,05,46,159,22,06,09,028,10,11,41,019,22,12,18,349,12*7F
$GPGSV,5,2,17,13,27,173,20,14,10,114,12,15,27,210,10,18,09,220,*78
$GPGSV,5,3,17,20,52,099,18,22,21,096,09,24,61,287,13,29,11,281,*7E
$GPGSV,5,4,17,36,52,277,,40,86,350,,41,58,082,,49,32,274,*7D
$GPGSV,5,5,17,50,10,089,*4A
$GLGSV,3,1,09,69,11,142,,70,12,203,,73,38,003,13,74,00,341,*68
$GLGSV,3,2,09,79,15,138,11,80,54,090,16,83,16,008,,84,50,313,11*66
$GLGSV,3,3,09,85,32,243,*55
$GNGLL,0419.78361,S,05539.87868,E,042005.00,A,A*6D
$GNGRS,042005.00,1,2.0,-8.1,-2.6,-3.9,5.9,,,,,,,*59
$GNGRS,042005.00,1,-22.4,5.2,-1.0,-3.8,,,,,,,,*47
$GNGST,042005.00,70,,,,10,11,22*62
$GNZDA,042005.00,21,05,2025,00,00*78
$GNGBS,042005.00,10.2,11.5,22.1,,,,*6B
$GNTXT,01,01,01,More than 100 frame errors, UART RX was disabled*70
b0L@{a.

)]p
rO
@4c`={4V^:R 
Y]hEF
I&JUOP6ZST2:U b@{aOM$GNRMC,042006.00,A,0419.78372,S,05539.87841,E,0.238,,210525,,,A*76
$GNVTG,,T,,M,0.238,N,0.442,K,A*36
$GNGNS,042006.00,0419.78372,S,05539.87841,E,AA,09,0.96,38.1,-47.6,,*6C
$GNGGA,042006.00,0419.78372,S,05539.87841,E,1,09,0.96,38.1,M,-47.6,M,,*46
$GNGSA,A,3,24,20,11,05,15,,,,,,,,1.86,0.96,1.60*1E
$GNGSA,A,3,84,80,73,79,,,,,,,,,1.86,0.96,1.60*15
$GPGSV,5,1,17,05,46,159,27,06,09,028,10,11,41,019,25,12,18,349,12*7D
$GPGSV,5,2,17,13,27,173,22,14,10,114,12,15,27,210,10,18,09,220,*7A
$GPGSV,5,3,17,20,52,099,21,22,21,096,08,24,61,287,16,29,11,281,*70
$GPGSV,5,4,17,36,52,277,,40,86,350,,41,58,082,,49,32,274,*7D
$GPGSV,5,5,17,50,10,089,*4A
$GLGSV,3,1,09,69,11,142,,70,12,203,,73,38,003,14,74,00,341,*6F
$GLGSV,3,2,09,79,15,138,15,80,54,090,19,83,16,008,,84,50,314,11*6A
$GLGSV,3,3,09,85,32,243,*55
$GNGLL,0419.78372,S,05539.87841,E,042006.00,A,A*67
$GNGRS,042006.00,1,1.7,-9.0,-0.9,-5.5,8.3,,,,,,,*5E
$GNGRS,042006.00,1,0.0,7.1,-0.2,5.1,,,,,,,,*7D
$GNGST,042006.00,3763882,,,,10,12,22*56
$GNZDA,042006.00,21,05,2025,00,00*7B
$GNGBS,042006.00,10.1,11.8,22.1,,,,*66
$GNTXT,01,01,01,More than 100 frame errors, UART RX was disabled*70
b0L(a.H0
)]
rB"4c`={4V^:R 
Y]1EF
I&+JUOP6ZST2:3U S_b(aO%$GNRMC,042007.00,A,0419.78375,S,05539.87865,E,0.403,,210525,,,A*78
$GNVTG,,T,,M,0.403,N,0.747,K,A*3E
$GNGNS,042007.00,0419.78375,S,05539.87865,E,AA,10,0.93,38.1,-47.6,,*61
$GNGGA,042007.00,0419.78375,S,05539.87865,E,1,10,0.93,38.1,M,-47.6,M,,*4B
$GNGSA,A,3,24,20,11,05,15,22,,,,,,,1.84,0.93,1.59*13
$GNGSA,A,3,84,80,73,79,,,,,,,,,1.84,0.93,1.59*18
$GPGSV,5,1,17,05,46,159,26,06,09,028,07,11,41,019,25,12,18,349,09*70
$GPGSV,5,2,17,13,27,173,22,14,10,114,08,15,27,210,16,18,09,220,*77
$GPGSV,5,3,17,20,52,099,22,22,21,096,13,24,61,287,19,29,11,281,*76
$GPGSV,5,4,17,36,52,277,,40,86,350,,41,58,082,,49,32,274,*7D
$GPGSV,5,5,17,50,10,089,*4A
$GLGSV,3,1,09,69,11,142,,70,12,203,,73,38,003,16,74,00,341,*6D
$GLGSV,3,2,09,79,15,138,16,80,54,090,19,83,16,008,,84,50,314,09*60
$GLGSV,3,3,09,85,32,243,*55
$GNGLL,0419.78375,S,05539.87865,E,042007.00,A,A*67
$GNGRS,042007.00,1,1.9,-8.3,-2.3,-7.0,8.0,1.3,,,,,,*73
$GNGRS,042007.00,1,0.5,7.7,-2.1,4.6,,,,,,,,*78
$GNGST,042007.00,5075574,,,,9.8,12,22*7B
$GNZDA,042007.00,21,05,2025,00,00*7A
$GNGBS,042007.00,9.8,11.9,22.2,,,,*54
$GNTXT,01,01,01,More than 100 frame errors, UART RX was disabled*70
b0La.+|C)]Q
rr4c{`=m{4V^:R 
Y]\EF
I&JUOoP6ZST2:U baOU$GNRMC,042008.00,A,0419.78360,S,05539.87848,E,0.294,,210525,,,A*74
$GNVTG,,T,,M,0.294,N,0.545,K,A*36
$GNGNS,042008.00,0419.78360,S,05539.87848,E,AA,13,0.79,38.1,-47.6,,*62
$GNGGA,042008.00,0419.78360,S,05539.87848,E,1,12,0.79,38.1,M,-47.6,M,,*49
$GNGSA,A,3,24,20,11,05,15,22,06,12,14,,,,1.42,0.79,1.18*18
$GNGSA,A,3,84,80,73,79,,,,,,,,,1.42,0.79,1.18*13
$GPGSV,5,1,17,05,46,159,26,06,09,028,09,11,41,019,23,12,18,349,12*72
$GPGSV,5,2,17,13,27,173,21,14,10,114,14,15,27,210,18,18,09,220,*77
$GPGSV,5,3,17,20,52,099,22,22,21,096,11,24,61,287,21,29,11,281,*7F
$GPGSV,5,4,17,36,52,277,,40,86,350,,41,58,082,,49,32,274,*7D
$GPGSV,5,5,17,50,10,089,*4A
$GLGSV,3,1,09,69,11,142,,70,12,203,,73,38,003,16,74,00,341,*6D
$GLGSV,3,2,09,79,15,138,09,80,54,090,21,83,16,008,,84,50,314,09*65
$GLGSV,3,3,09,85,32,243,*55
$GNGLL,0419.78360,S,05539.87848,E,042008.00,A,A*63
$GNGRS,042008.00,1,1.1,-9.0,-2.4,-7.2,6.3,-29.0,173,-132,9.5,,,*60
$GNGRS,042008.00,1,-26.5,9.0,-0.3,-1.4,,,,,,,,*4D
$GNGST,042008.00,96,,,,9.6,12,22*44
$GNZDA,042008.00,21,05,2025,00,00*75
$GNGBS,042008.00,9.6,11.7,21.7,,,,*5D
$GNTXT,01,01,01,More than 100 frame errors, UART RX was disabled*70
b0La .)]3
r4c`=_{4V^:R 
Y]EF
I&LJUOP6ZST2:U WbaO$GNRMC,042009.00,A,0419.78335,S,05539.87872,E,0.547,,210525,,,A*75
$GNVTG,,T,,M,0.547,N,1.013,K,A*38
$GNGNS,042009.00,0419.78335,S,05539.87872,E,AA,12,0.82,38.1,-47.6,,*6F
$GNGGA,042009.00,0419.78335,S,05539.87872,E,1,12,0.82,38.1,M,-47.6,M,,*45
$GNGSA,A,3,24,20,11,05,15,22,06,12,14,,,,1.47,0.82,1.22*10
$GNGSA,A,3,84,80,73,,,,,,,,,,1.47,0.82,1.22*15
$GPGSV,5,1,17,05,46,159,32,06,09,028,09,11,41,019,22,12,18,349,12*76
$GPGSV,5,2,17,13,27,173,19,14,10,114,14,15,27,210,18,18,09,220,*7C
$GPGSV,5,3,17,20,52,099,22,22,21,096,11,24,61,287,21,29,11,281,*7F
$GPGSV,5,4,17,36,52,277,,40,86,350,,41,58,082,,49,32,274,*7D
$GPGSV,5,5,17,50,10,089,*4A
$GLGSV,3,1,09,69,11,142,,70,12,203,,73,38,003,15,74,00,341,*6E
$GLGSV,3,2,09,79,15,138,06,80,54,090,21,83,16,008,,84,50,314,09*6A
$GLGSV,3,3,09,85,32,243,*55
$GNGLL,0419.78335,S,05539.87872,E,042009.00,A,A*6B
$GNGRS,042009.00,1,1.0,-10.1,-4.9,-5.3,9.5,12.0,24.5,13.3,20.3,,,*6A
$GNGRS,042009.00,1,-0.1,10.3,0.8,,,,,,,,,*67
$GNGST,042009.00,4706476,,,,9.4,12,22*78
$GNZDA,042009.00,21,05,2025,00,00*74
$GNGBS,042009.00,9.4,11.8,21.8,,,,*5E
$GNTXT,01,01,01,More than 100 frame errors, UART RX was disabled*70
b0La.4)]
r4c`e={4V^:R 
Y]EF
I&JUOP6ZST2:"U ^baOo$GNRMC,042010.00,A,0419.78306,S,05539.87926,E,1.081,,210525,,,A*73
$GNVTG,,T,,M,1.081,N,2.002,K,A*35
$GNGNS,042010.00,0419.78306,S,05539.87926,E,AA,13,0.79,37.7,-47.6,,*6B
$GNGGA,042010.00,0419.78306,S,05539.87926,E,1,12,0.79,37.7,M,-47.6,M,,*40
$GNGSA,A,3,24,20,11,05,15,22,06,12,14,,,,1.42,0.79,1.18*18
$GNGSA,A,3,84,80,73,79,,,,,,,,,1.42,0.79,1.18*13
$GPGSV,5,1,17,05,46,159,31,06,09,028,09,11,41,019,22,12,18,349,12*75
$GPGSV,5,2,17,13,27,173,17,14,10,114,14,15,27,210,18,18,09,220,*72
$GPGSV,5,3,17,20,52,099,22,22,21,096,11,24,61,287,21,29,11,281,*7F
$GPGSV,5,4,17,36,52,277,,40,86,350,,41,58,082,,49,32,274,*7D
$GPGSV,5,5,17,50,10,089,*4A
$GLGSV,3,1,09,69,11,142,,70,12,203,,73,38,003,14,74,00,341,*6F
$GLGSV,3,2,09,79,15,138,13,80,54,090,20,83,16,008,,84,50,314,09*6F
$GLGSV,3,3,09,85,32,243,*55
$GNGLL,0419.78306,S,05539.87926,E,042010.00,A,A*63
$GNGRS,042010.00,1,0.3,-10.7,-5.6,-6.3,10.4,11.3,23.6,12.9,19.4,,,*50
$GNGRS,042010.00,1,0.3,7.6,0.0,4.6,,,,,,,,*57
$GNGST,042010.00,4538569,,,,9.3,12,22*77
$GNZDA,042010.00,21,05,2025,00,00*7C
$GNGBS,042010.00,9.3,12.0,21.9,,,,*5B
$GNTXT,01,01,01,More than 100 frame errors, UART RX was disabled*70
b0La.a
)r]
r)4c`={4V^:R 
Y]EF
I&RJUOP6ZST2:U baOW$GNRMC,042011.00,A,0419.78292,S,05539.87930,E,0.802,,210525,,,A*7B
$GNVTG,,T,,M,0.802,N,1.485,K,A*3F
$GNGNS,042011.00,0419.78292,S,05539.87930,E,AA,11,0.93,38.3,-47.6,,*6C
$GNGGA,042011.00,0419.78292,S,05539.87930,E,1,11,0.93,38.3,M,-47.6,M,,*46
$GNGSA,A,3,24,20,11,05,15,22,14,,,,,,1.78,0.93,1.52*1E
$GNGSA,A,3,84,80,73,79,,,,,,,,,1.78,0.93,1.52*10
$GPGSV,5,1,17,05,46,159,31,06,09,028,09,11,41,019,23,12,18,349,12*74
$GPGSV,5,2,17,13,27,173,20,14,10,114,14,15,27,210,18,18,09,220,*76
$GPGSV,5,3,17,20,52,099,23,22,21,096,11,24,61,287,20,29,11,281,*7F
$GPGSV,5,4,17,36,52,277,,40,86,350,,41,58,082,,49,32,274,*7D
$GPGSV,5,5,17,50,10,089,*4A
$GLGSV,3,1,09,69,11,142,,70,12,203,,73,38,003,17,74,00,341,*6C
$GLGSV,3,2,09,79,15,138,18,80,54,090,19,83,16,008,,84,50,314,12*64
$GLGSV,3,3,09,85,32,243,*55
$GNGLL,0419.78292,S,05539.87930,E,042011.00,A,A*69
$GNGRS,042011.00,1,-2.8,-10.3,-6.5,-4.1,5.5,4.9,-40.8,,,,,*5A
$GNGRS,042011.00,1,-2.9,7.9,3.4,-8.3,,,,,,,,*5F
$GNGST,042011.00,71,,,,9.1,12,22*42
$GNZDA,042011.00,21,05,2025,00,00*7D
$GNGBS,042011.00,9.1,11.8,21.6,,,,*5C
$GNTXT,01,01,01,More than 100 frame errors, UART RX was disabled*70
b0La.z)]
rd04c`"={4V^:R 
Y]EF
I&uJUO&P6ZST
2:U baO?]$GNRMC,042012.00,A,0419.78275,S,05539.87883,E,0.717,,210525,,,A*73
$GNVTG,,T,,M,0.717,N,1.328,K,A*34
$GNGNS,042012.00,0419.78275,S,05539.87883,E,AA,11,0.93,38.4,-47.6,,*68
$GNGGA,042012.00,0419.78275,S,05539.87883,E,1,11,0.93,38.4,M,-47.6,M,,*42
$GNGSA,A,3,24,20,11,05,15,22,14,,,,,,1.78,0.93,1.52*1E
$GNGSA,A,3,84,80,73,79,,,,,,,,,1.78,0.93,1.52*10
$GPGSV,5,1,17,05,46,159,30,06,09,028,09,11,41,019,24,12,18,349,12*72
$GPGSV,5,2,17,13,27,173,21,14,10,114,14,15,27,210,18,18,09,220,*77
