$GNRMC,060847.00,A,0419.79282,S,05539.74563,E,0.361,,270525,,,A*7E
$GNVTG,,T,,M,0.361,N,0.669,K,A*30
$GNGGA,060847.00,0419.79282,S,05539.74563,E,1,11,0.87,36.8,M,-47.6,M,,*4B
$GNGSA,A,3,12,05,25,24,15,23,18,20,,,,,1.87,0.87,1.65*16
$GNGSA,A,3,80,68,69,,,,,,,,,,1.87,0.87,1.65*16
$GPGSV,4,1,16,05,49,044,29,12,69,048,29,13,14,117,09,15,37,149,15*72
$GPGSV,4,2,16,18,34,278,22,20,16,035,13,23,36,207,22,24,38,185,18*73
$GPGSV,4,3,16,25,48,343,28,28,01,300,,29,12,338,,36,52,277,*74
$GPGSV,4,4,16,40,86,351,,41,58,082,,49,32,274,,50,10,089,*79
$GLGSV,3,1,10,67,17,075,13,68,33,126,15,69,20,181,14,73,06,331,*6D
$GLGSV,3,2,10,78,08,155,,79,59,164,06,80,60,323,31,82,03,011,*63
$GLGSV,3,3,10,83,18,325,,84,12,271,*69
$GNGLL,0419.79282,S,05539.74563,E,060847.00,A,A*64
$GNRMC,060848.00,A,0419.79305,S,05539.74569,E,0.820,,270525,,,A*7B
$GNVTG,,T,,M,0.820,N,1.519,K,A*3B
$GNGGA,060848.00,0419.79305,S,05539.74569,E,1,10,1.16,36.5,M,-47.6,M,,*45
$GNGSA,A,3,12,05,25,24,15,23,18,,,,,,3.22,1.16,3.00*11
$GNGSA,A,3,80,68,69,,,,,,,,,,3.22,1.16,3.00*13
$GPGSV,4,1,16,05,49,044,27,12,69,048,28,13,14,117,08,15,37,149,15*7C
$GPGSV,4,2,16,18,34,278,22,20,16,035,10,23,36,207,20,24,38,185,16*7C
$GPGSV,4,3,16,25,48,343,26,28,01,300,,29,12,338,,36,52,277,*7A
$GPGSV,4,4,16,40,86,351,,41,58,082,,49,32,274,,50,10,089,*79
$GLGSV,3,1,10,67,17,075,11,68,33,126,15,69,20,181,14,73,06,331,*6F
$GLGSV,3,2,10,78,08,155,,79,59,164,,80,60,323,26,82,03,011,*63
$GLGSV,3,3,10,83,18,325,,84,12,271,*69
$GNGLL,0419.79305,S,05539.74569,E,060848.00,A,A*6F
$GNRMC,060849.00,A,0419.79327,S,05539.74564,E,0.782,,270525,,,A*70
$GNVTG,,T,,M,0.782,N,1.448,K,A*39
$GNGGA,060849.00,0419.79327,S,05539.74564,E,1,10,0.89,36.2,M,-47.6,M,,*49
$GNGSA,A,3,12,05,25,24,15,23,18,20,,,,,2.01,0.89,1.80*1E
$GNGSA,A,3,80,68,,,,,,,,,,,2.01,0.89,1.80*11
$GPGSV,4,1,16,05,49,044,27,12,69,048,31,13,14,117,09,15,37,149,15*75
$GPGSV,4,2,16,18,34,278,22,20,16,035,10,23,36,207,18,24,38,185,15*74
$GPGSV,4,3,16,25,48,343,27,28,01,300,,29,12,338,,36,52,277,*7B
$GPGSV,4,4,16,40,86,351,,41,58,082,,49,32,274,,50,10,089,*79
$GLGSV,3,1,10,67,17,075,09,68,33,126,13,69,20,181,,73,06,331,*65
$GLGSV,3,2,10,78,08,155,,79,59,164,,80,60,323,32,82,03,011,*66
$GLGSV,3,3,10,83,18,325,,84,12,271,*69
$GNGLL,0419.79327,S,05539.74564,E,060849.00,A,A*63
$GNRMC,060850.00,A,0419.79350,S,05539.74564,E,0.606,,270525,,,A*75
$GNVTG,,T,,M,0.606,N,1.122,K,A*3D
$GNGGA,060850.00,0419.79350,S,05539.74564,E,1,11,0.86,36.3,M,-47.6,M,,*4E
$GNGSA,A,3,12,05,25,24,15,23,18,20,13,,,,1.83,0.86,1.61*15
$GNGSA,A,3,80,68,,,,,,,,,,,1.83,0.86,1.61*18
$GPGSV,4,1,16,05,49,044,28,12,69,048,30,13,14,117,10,15,37,149,15*73
$GPGSV,4,2,16,18,34,278,21,20,16,035,14,23,36,207,15,24,38,185,11*7A
$GPGSV,4,3,16,25,48,343,27,28,01,300,,29,12,338,,36,52,277,*7B
$GPGSV,4,4,16,40,86,351,,41,58,082,,49,32,274,,50,10,089,*79
$GLGSV,3,1,10,67,17,075,08,68,33,126,13,69,20,181,,73,06,331,*64
$GLGSV,3,2,10,78,08,155,,79,59,164,24,80,60,323,32,82,03,011,*60
$GLGSV,3,3,10,83,18,325,,84,12,271,*69
$GNGLL,0419.79350,S,05539.74564,E,060850.00,A,A*6B
$GNRMC,060851.00,A,0419.79340,S,05539.74562,E,0.222,,270525,,,A*71
$GNVTG,,T,,M,0.222,N,0.412,K,A*38
$GNGGA,060851.00,0419.79340,S,05539.74562,E,1,10,0.90,36.7,M,-47.6,M,,*4A
$GNGSA,A,3,12,05,25,15,23,18,20,13,,,,,1.85,0.90,1.62*11
$GNGSA,A,3,80,68,,,,,,,,,,,1.85,0.90,1.62*1A
$GPGSV,4,1,16,05,49,044,28,12,69,048,34,13,14,117,10,15,37,149,15*77
$GPGSV,4,2,16,18,34,278,23,20,16,035,16,23,36,207,15,24,38,185,08*72
$GPGSV,4,3,16,25,48,343,27,28,01,300,,29,12,338,,36,52,277,*7B
$GPGSV,4,4,16,40,86,351,,41,58,082,,49,32,274,,50,10,089,*79
$GLGSV,3,1,10,67,17,075,11,68,33,126,17,69,20,181,,73,07,330,*68
$GLGSV,3,2,10,78,08,155,,79,59,164,24,80,60,323,31,82,03,011,*63
$GLGSV,3,3,10,83,18,325,,84,12,271,*69
$GNGLL,0419.79340,S,05539.74562,E,060851.00,A,A*6D
$GNRMC,060852.00,A,0419.79358,S,05539.74551,E,0.390,,270525,,,A*73
$GNVTG,,T,,M,0.390,N,0.722,K,A*30
$GNGGA,060852.00,0419.79358,S,05539.74551,E,1,10,0.90,37.0,M,-47.6,M,,*46
$GNGSA,A,3,12,05,25,15,23,18,20,13,,,,,1.85,0.90,1.61*12
$GNGSA,A,3,80,68,,,,,,,,,,,1.85,0.90,1.61*19
$GPGSV,4,1,16,05,49,044,29,12,69,048,34,13,14,117,11,15,37,149,22*73
$GPGSV,4,2,16,18,34,278,22,20,16,035,16,23,36,207,12,24,38,185,07*7B
$GPGSV,4,3,16,25,48,343,28,28,01,300,,29,12,338,,36,52,277,*74
$GPGSV,4,4,16,40,86,351,,41,58,082,,49,32,274,,50,10,089,*79
$GLGSV,3,1,10,67,17,075,09,68,33,126,17,69,20,181,,73,07,330,*61
$GLGSV,3,2,10,78,08,155,,79,59,164,22,80,60,323,32,82,03,011,*66
$GLGSV,3,3,10,83,18,325,,84,12,271,*69
$GNGLL,0419.79358,S,05539.74551,E,060852.00,A,A*67
$GNRMC,060853.00,A,0419.79359,S,05539.74547,E,0.181,,270525,,,A*76
$GNVTG,,T,,M,0.181,N,0.335,K,A*30
$GNGGA,060853.00,0419.79359,S,05539.74547,E,1,11,0.88,37.4,M,-47.6,M,,*4D
$GNGSA,A,3,12,05,25,15,23,18,20,13,,,,,1.74,0.88,1.50*17
$GNGSA,A,3,80,79,68,,,,,,,,,,1.74,0.88,1.50*12
$GPGSV,4,1,16,05,49,044,28,12,69,048,34,13,14,117,11,15,37,149,25*75
$GPGSV,4,2,16,18,34,278,22,20,16,035,16,23,36,207,11,24,38,185,07*78
$GPGSV,4,3,16,25,48,343,29,28,01,300,,29,12,338,,36,52,277,*75
$GPGSV,4,4,16,40,86,351,,41,58,082,,49,32,274,,50,10,089,*79
$GLGSV,3,1,10,67,17,075,09,68,33,126,17,69,20,181,,73,07,330,*61
$GLGSV,3,2,10,78,08,155,,79,59,164,21,80,60,323,32,82,03,011,*65
$GLGSV,3,3,10,83,18,325,,84,12,271,*69
$GNGLL,0419.79359,S,05539.74547,E,060853.00,A,A*60
$GNRMC,060854.00,A,0419.79363,S,05539.74559,E,0.040,,270525,,,A*7B
$GNVTG,,T,,M,0.040,N,0.073,K,A*3D
$GNGGA,060854.00,0419.79363,S,05539.74559,E,1,11,0.88,37.5,M,-47.6,M,,*4D
$GNGSA,A,3,12,05,25,15,23,18,20,13,,,,,1.74,0.88,1.50*17
$GNGSA,A,3,80,79,68,,,,,,,,,,1.74,0.88,1.50*12
$GPGSV,4,1,16,05,49,044,28,12,69,048,32,13,14,117,10,15,37,149,25*72
$GPGSV,4,2,16,18,34,278,22,20,16,035,14,23,36,207,10,24,38,185,07*7B
$GPGSV,4,3,16,25,48,343,28,28,01,300,,29,12,338,,36,52,277,*74
$GPGSV,4,4,16,40,86,351,,41,58,082,,49,32,274,,50,10,089,*79
$GLGSV,3,1,10,67,17,075,09,68,33,126,17,69,20,181,,73,07,330,*61
$GLGSV,3,2,10,78,08,155,,79,59,164,19,80,60,323,33,82,03,011,*6F
$GLGSV,3,3,10,83,18,325,,84,12,271,*69
$GNGLL,0419.79363,S,05539.74559,E,060854.00,A,A*61
$GNRMC,060855.00,A,0419.79361,S,05539.74569,E,0.287,,270525,,,A*72
$GNVTG,,T,,M,0.287,N,0.531,K,A*37
$GNGGA,060855.00,0419.79361,S,05539.74569,E,1,10,0.91,37.4,M,-47.6,M,,*45
$GNGSA,A,3,12,05,25,15,23,18,20,,,,,,1.93,0.91,1.70*16
$GNGSA,A,3,80,79,68,,,,,,,,,,1.93,0.91,1.70*11
$GPGSV,4,1,16,05,49,044,28,12,69,048,33,13,14,117,,15,37,149,24*73
$GPGSV,4,2,16,18,34,278,23,20,16,035,13,23,36,207,10,24,38,185,07*7D
$GPGSV,4,3,16,25,48,343,26,28,01,300,,29,12,338,,36,52,277,*7A
$GPGSV,4,4,16,40,86,351,,41,58,082,,49,32,274,,50,10,089,*79
$GLGSV,3,1,10,67,17,075,10,68,33,126,16,69,20,181,,73,07,330,*68
$GLGSV,3,2,10,78,08,155,,79,59,164,17,80,60,323,32,82,03,011,*60
$GLGSV,3,3,10,83,18,325,,84,12,271,*69
$GNGLL,0419.79361,S,05539.74569,E,060855.00,A,A*61
$GNRMC,060856.00,A,0419.79353,S,05539.74577,E,0.190,,270525,,,A*7A
$GNVTG,,T,,M,0.190,N,0.352,K,A*31
$GNGGA,060856.00,0419.79353,S,05539.74577,E,1,10,0.91,37.7,M,-47.6,M,,*4B
$GNGSA,A,3,12,05,25,15,23,18,20,,,,,,1.93,0.91,1.70*16
$GNGSA,A,3,80,79,68,,,,,,,,,,1.93,0.91,1.70*11
$GPGSV,4,1,16,05,49,044,28,12,69,048,33,13,14,117,21,15,37,149,23*77
$GPGSV,4,2,16,18,34,278,24,20,16,035,12,23,36,207,10,24,38,185,07*7B
$GPGSV,4,3,16,25,48,343,26,28,01,300,,29,12,338,,36,52,277,*7A
$GPGSV,4,4,16,40,86,351,,41,58,082,,49,32,274,,50,10,089,*79
$GLGSV,3,1,10,67,17,075,08,68,33,126,19,69,20,181,,73,07,330,*6E
$GLGSV,3,2,10,78,07,156,,79,59,164,17,80,60,323,32,82,03,011,*6C
$GLGSV,3,3,10,83,18,325,,84,12,271,*69
$GNGLL,0419.79353,S,05539.74577,E,060856.00,A,A*6C
$GNRMC,060857.00,A,0419.79333,S,05539.74569,E,0.312,,270525,,,A*7A
$GNVTG,,T,,M,0.312,N,0.578,K,A*37
$GNGGA,060857.00,0419.79333,S,05539.74569,E,1,10,0.91,37.9,M,-47.6,M,,*4D
$GNGSA,A,3,12,05,25,15,23,18,20,,,,,,1.93,0.91,1.70*16
$GNGSA,A,3,80,79,68,,,,,,,,,,1.93,0.91,1.70*11
$GPGSV,4,1,16,05,49,044,27,12,69,048,32,13,14,117,20,15,37,149,24*7F
$GPGSV,4,2,16,18,34,278,23,20,16,035,11,23,36,207,10,24,38,185,07*7F
$GPGSV,4,3,16,25,48,343,26,28,01,300,,29,12,338,,36,52,277,*7A
$GPGSV,4,4,16,40,86,351,35,41,58,082,,49,32,274,,50,10,089,*7F
$GLGSV,3,1,10,67,17,075,08,68,33,126,20,69,20,181,,73,07,330,*64
$GLGSV,3,2,10,78,07,156,,79,58,164,18,80,60,323,33,82,03,011,*63
$GLGSV,3,3,10,83,18,325,,84,12,271,*69
$GNGLL,0419.79333,S,05539.74569,E,060857.00,A,A*64
$GNRMC,060858.00,A,0419.79303,S,05539.74562,E,0.952,,270525,,,A*73
$GNVTG,,T,,M,0.952,N,1.762,K,A*31
$GNGGA,060858.00,0419.79303,S,05539.74562,E,1,10,0.91,38.3,M,-47.6,M,,*4F
$GNGSA,A,3,12,05,25,15,23,18,20,,,,,,1.93,0.91,1.70*16
$GNGSA,A,3,80,79,68,,,,,,,,,,1.93,0.91,1.70*11
$GPGSV,4,1,16,05,49,044,26,12,69,048,32,13,14,117,18,15,37,149,22*73
$GPGSV,4,2,16,18,34,278,22,20,16,035,13,23,36,207,10,24,38,185,07*7C
$GPGSV,4,3,16,25,48,343,25,28,01,300,,29,12,338,,36,52,277,*79
$GPGSV,4,4,16,40,86,351,30,41,58,082,,49,32,274,,50,10,089,*7A
$GLGSV,3,1,10,67,17,075,09,68,33,126,20,69,20,181,,73,07,330,*65
$GLGSV,3,2,10,78,07,156,,79,58,164,16,80,61,322,28,82,03,011,*67
$GLGSV,3,3,10,83,18,325,,84,12,271,*69
$GNGLL,0419.79303,S,05539.74562,E,060858.00,A,A*63
$GNRMC,060859.00,A,0419.79296,S,05539.74555,E,0.191,,270525,,,A*7C
$GNVTG,,T,,M,0.191,N,0.354,K,A*36
$GNGGA,060859.00,0419.79296,S,05539.74555,E,1,11,0.88,40.0,M,-47.6,M,,*42
$GNGSA,A,3,12,05,25,15,23,18,20,13,,,,,1.74,0.88,1.50*17
$GNGSA,A,3,80,79,68,,,,,,,,,,1.74,0.88,1.50*12
$GPGSV,4,1,16,05,49,044,24,12,69,048,33,13,14,117,19,15,37,149,23*70
$GPGSV,4,2,16,18,34,278,24,20,16,035,13,23,36,207,10,24,38,185,07*7A
$GPGSV,4,3,16,25,48,343,26,28,01,300,,29,12,338,,36,52,277,*7A
$GPGSV,4,4,16,40,86,351,31,41,58,082,,49,32,274,,50,10,089,*7B
$GLGSV,3,1,10,67,17,075,08,68,33,126,19,69,20,181,,73,07,330,*6E
$GLGSV,3,2,10,78,07,156,,79,58,164,14,80,61,322,29,82,03,011,*64
$GLGSV,3,3,10,83,18,325,,84,12,271,*69
$GNGLL,0419.79296,S,05539.74555,E,060859.00,A,A*6B
$GNRMC,060900.00,A,0419.79302,S,05539.74542,E,0.615,,270525,,,A*70
$GNVTG,,T,,M,0.615,N,1.139,K,A*35
$GNGGA,060900.00,0419.79302,S,05539.74542,E,1,11,0.88,40.7,M,-47.6,M,,*42
$GNGSA,A,3,12,05,25,15,23,18,20,13,,,,,1.74,0.88,1.50*17
$GNGSA,A,3,80,79,68,,,,,,,,,,1.74,0.88,1.50*12
$GPGSV,4,1,16,05,49,044,24,12,69,048,29,13,14,117,19,15,37,149,22*7A
$GPGSV,4,2,16,18,34,278,24,20,16,035,12,23,36,207,10,24,38,185,07*7B
$GPGSV,4,3,16,25,48,343,24,28,01,300,,29,12,338,,36,52,277,*78
$GPGSV,4,4,16,40,86,351,30,41,58,082,,49,32,274,,50,10,089,*7A
$GLGSV,3,1,10,67,17,075,08,68,33,126,19,69,20,181,,73,07,330,*6E
$GLGSV,3,2,10,78,07,156,,79,58,164,14,80,61,322,28,82,03,011,*65
$GLGSV,3,3,10,83,18,325,,84,12,271,*69
$GNGLL,0419.79302,S,05539.74542,E,060900.00,A,A*6C
$GNRMC,060901.00,A,0419.79299,S,05539.74547,E,0.482,,270525,,,A*7B
$GNVTG,,T,,M,0.482,N,0.893,K,A*31
$GNGGA,060901.00,0419.79299,S,05539.74547,E,1,11,0.88,41.8,M,-47.6,M,,*4B
$GNGSA,A,3,12,05,25,15,23,18,20,13,,,,,1.74,0.88,1.50*17
$GNGSA,A,3,80,79,68,,,,,,,,,,1.74,0.88,1.50*12
$GPGSV,4,1,16,05,49,044,24,12,69,048,29,13,14,117,19,15,37,149,23*7B
$GPGSV,4,2,16,18,34,278,23,20,16,035,13,23,36,207,10,24,38,185,07*7D
$GPGSV,4,3,16,25,48,343,24,28,01,300,,29,12,338,,36,52,277,*78
$GPGSV,4,4,16,40,86,351,29,41,58,082,,49,32,274,,50,10,089,*72
$GLGSV,3,1,10,67,17,075,08,68,33,126,20,69,20,181,,73,07,330,*64
$GLGSV,3,2,10,78,07,156,,79,58,164,11,80,61,322,27,82,03,011,*6F
$GLGSV,3,3,10,83,18,325,,84,12,271,*69
$GNGLL,0419.79299,S,05539.74547,E,060901.00,A,A*6B
$GNRMC,060902.00,A,0419.79300,S,05539.74545,E,0.159,,270525,,,A*78
$GNVTG,,T,,M,0.159,N,0.295,K,A*3E
$GNGGA,060902.00,0419.79300,S,05539.74545,E,1,10,0.90,43.0,M,-47.6,M,,*49
$GNGSA,A,3,12,05,25,15,23,18,20,13,,,,,1.85,0.90,1.61*12
$GNGSA,A,3,80,68,,,,,,,,,,,1.85,0.90,1.61*19
$GPGSV,4,1,16,05,49,044,25,12,69,048,30,13,14,117,19,15,37,149,23*72
$GPGSV,4,2,16,18,34,278,23,20,16,035,14,23,36,207,10,24,38,185,07*7A
$GPGSV,4,3,16,25,48,343,25,28,01,300,,29,12,338,,36,52,277,*79
$GPGSV,4,4,16,40,86,351,29,41,58,082,,49,32,274,,50,10,089,*72
$GLGSV,3,1,10,67,17,075,,68,33,126,20,69,20,181,,73,07,330,*6C
$GLGSV,3,2,10,78,07,156,,79,58,164,08,80,61,322,33,82,03,011,*62
$GLGSV,3,3,10,83,18,325,,84,12,272,*6A
$GNGLL,0419.79300,S,05539.74545,E,060902.00,A,A*6B
$GNRMC,060903.00,A,0419.79302,S,05539.74547,E,0.178,,270525,,,A*7A
$GNVTG,,T,,M,0.178,N,0.330,K,A*33
$GNGGA,060903.00,0419.79302,S,05539.74547,E,1,11,0.88,43.6,M,-47.6,M,,*46
$GNGSA,A,3,12,05,25,15,23,18,20,13,,,,,1.74,0.88,1.50*17
$GNGSA,A,3,80,79,68,,,,,,,,,,1.74,0.88,1.50*12
$GPGSV,4,1,16,05,49,044,24,12,69,048,30,13,14,117,17,15,37,149,24*7A
$GPGSV,4,2,16,18,34,278,22,20,16,035,15,23,36,207,10,24,38,185,07*7A
$GPGSV,4,3,16,25,48,343,27,28,01,300,,29,12,338,,36,52,277,*7B
$GPGSV,4,4,16,40,86,351,28,41,58,082,,49,32,274,,50,10,089,*73
$GLGSV,3,1,10,67,17,075,,68,33,126,21,69,20,181,,73,07,330,*6D
$GLGSV,3,2,10,78,07,156,,79,58,164,13,80,61,322,30,82,03,011,*6B
$GLGSV,3,3,10,83,18,325,,84,12,272,*6A
$GNGLL,0419.79302,S,05539.74547,E,060903.00,A,A*6A
$GNRMC,060904.00,A,0419.79300,S,05539.74555,E,0.158,,270525,,,A*7E
$GNVTG,,T,,M,0.158,N,0.292,K,A*38
$GNGGA,060904.00,0419.79300,S,05539.74555,E,1,11,0.88,44.2,M,-47.6,M,,*43
$GNGSA,A,3,12,05,25,15,23,18,20,13,,,,,1.74,0.88,1.50*17
$GNGSA,A,3,80,79,68,,,,,,,,,,1.74,0.88,1.50*12
$GPGSV,4,1,16,05,49,044,23,12,69,048,30,13,14,117,16,15,37,149,26*7E
$GPGSV,4,2,16,18,34,278,21,20,16,035,15,23,36,207,10,24,38,185,07*79
$GPGSV,4,3,16,25,48,343,25,28,01,300,,29,12,338,,36,52,277,*79
$GPGSV,4,4,16,40,86,351,28,41,58,082,,49,32,274,,50,10,089,*73
$GLGSV,3,1,10,67,17,075,,68,33,126,22,69,20,181,,73,07,330,*6E
$GLGSV,3,2,10,78,07,156,,79,58,164,20,80,61,322,33,82,03,011,*68
$GLGSV,3,3,10,83,18,325,,84,12,272,*6A
$GNGLL,0419.79300,S,05539.74555,E,060904.00,A,A*6C
$GNRMC,060905.00,A,0419.79299,S,05539.74556,E,0.218,,270525,,,A*7A
$GNVTG,,T,,M,0.218,N,0.403,K,A*31
$GNGGA,060905.00,0419.79299,S,05539.74556,E,1,11,0.88,43.9,M,-47.6,M,,*4C
$GNGSA,A,3,12,05,25,15,23,18,20,13,,,,,1.74,0.88,1.50*17
$GNGSA,A,3,80,79,68,,,,,,,,,,1.74,0.88,1.50*12
$GPGSV,4,1,16,05,49,044,21,12,69,048,31,13,14,117,16,15,37,149,25*7E
$GPGSV,4,2,16,18,34,278,21,20,16,035,14,23,36,207,10,24,38,185,07*78
$GPGSV,4,3,16,25,48,343,24,28,01,300,,29,12,338,,36,52,277,*78
$GPGSV,4,4,16,40,86,351,28,41,58,082,,49,32,274,,50,10,089,*73
$GLGSV,3,1,10,67,17,075,,68,33,126,22,69,20,181,,73,07,330,*6E
$GLGSV,3,2,10,78,07,156,,79,58,164,22,80,61,322,33,82,03,011,*6A
$GLGSV,3,3,10,83,18,325,,84,12,272,*6A
$GNGLL,0419.79299,S,05539.74556,E,060905.00,A,A*6F
$GNRMC,060906.00,A,0419.79339,S,05539.74534,E,1.541,,270525,,,A*7C
$GNVTG,,T,,M,1.541,N,2.854,K,A*37
$GNGGA,060906.00,0419.79339,S,05539.74534,E,1,11,0.88,43.9,M,-47.6,M,,*40
$GNGSA,A,3,12,05,25,15,23,18,20,13,,,,,1.74,0.88,1.50*17
$GNGSA,A,3,80,79,68,,,,,,,,,,1.74,0.88,1.50*12
$GPGSV,4,1,16,05,49,044,19,12,69,048,35,13,14,117,16,15,37,149,23*77
$GPGSV,4,2,16,18,34,278,21,20,16,035,15,23,36,207,10,24,38,185,07*79
$GPGSV,4,3,16,25,48,343,20,28,01,300,,29,12,338,,36,52,277,*7C
$GPGSV,4,4,16,40,86,351,28,41,58,082,,49,32,274,,50,10,089,*73
$GLGSV,3,1,10,67,17,075,,68,33,126,21,69,20,181,,73,07,330,*6D
$GLGSV,3,2,10,78,07,156,,79,58,164,21,80,61,322,33,82,03,011,*69
$GLGSV,3,3,10,83,18,325,,84,12,272,*6A
$GNGLL,0419.79339,S,05539.74534,E,060906.00,A,A*63
$GNRMC,060907.00,A,0419.79340,S,05539.74533,E,0.225,,270525,,,A*70
$GNVTG,,T,,M,0.225,N,0.417,K,A*3A
$GNGGA,060907.00,0419.79340,S,05539.74533,E,1,11,0.88,44.6,M,-47.6,M,,*40
$GNGSA,A,3,12,05,25,15,23,18,20,13,,,,,1.74,0.88,1.50*17
$GNGSA,A,3,80,79,68,,,,,,,,,,1.74,0.88,1.50*12
$GPGSV,4,1,16,05,49,044,18,12,69,048,34,13,14,117,17,15,37,149,25*70
$GPGSV,4,2,16,18,34,278,19,20,16,035,14,23,36,207,10,24,38,185,*74
$GPGSV,4,3,16,25,48,343,19,28,01,300,,29,12,338,,36,52,277,*76
$GPGSV,4,4,16,40,86,351,29,41,58,082,,49,32,274,,50,10,089,*72
$GLGSV,3,1,10,67,17,075,,68,33,126,22,69,20,181,,73,07,330,*6E
$GLGSV,3,2,10,78,07,156,,79,58,164,22,80,61,322,34,82,03,011,*6D
$GLGSV,3,3,10,83,18,325,,84,12,272,*6A
$GNGLL,0419.79340,S,05539.74533,E,060907.00,A,A*6B
$GNRMC,060908.00,A,0419.79333,S,05539.74545,E,0.616,,270525,,,A*7E
$GNVTG,,T,,M,0.616,N,1.141,K,A*39
$GNGGA,060908.00,0419.79333,S,05539.74545,E,1,11,0.88,44.3,M,-47.6,M,,*4F
$GNGSA,A,3,12,05,25,15,23,18,20,13,,,,,1.74,0.88,1.50*17
$GNGSA,A,3,80,79,68,,,,,,,,,,1.74,0.88,1.50*12
$GPGSV,4,1,16,05,49,044,16,12,69,048,29,13,14,117,16,15,37,149,26*70
$GPGSV,4,2,16,18,34,278,17,20,16,035,12,23,36,207,10,24,38,185,*7C
$GPGSV,4,3,16,25,48,343,28,28,01,300,,29,12,338,,36,52,277,*74
$GPGSV,4,4,16,40,86,351,27,41,58,082,,49,32,274,,50,10,089,*7C
$GLGSV,3,1,10,67,17,075,,68,33,126,21,69,20,181,,73,07,330,*6D
$GLGSV,3,2,10,78,07,156,,79,58,164,21,80,61,322,28,82,03,011,*63
$GLGSV,3,3,10,83,18,325,,84,12,272,*6A
$GNGLL,0419.79333,S,05539.74545,E,060908.00,A,A*61
$GNRMC,060909.00,A,0419.79325,S,05539.74549,E,0.194,,270525,,,A*79
$GNVTG,,T,,M,0.194,N,0.359,K,A*3E
$GNGGA,060909.00,0419.79325,S,05539.74549,E,1,10,1.01,44.0,M,-47.6,M,,*47
$GNGSA,A,3,12,05,25,15,23,18,13,,,,,,2.15,1.01,1.90*1D
$GNGSA,A,3,80,79,68,,,,,,,,,,2.15,1.01,1.90*1A
$GPGSV,4,1,16,05,49,044,18,12,69,048,31,13,14,117,16,15,37,149,26*77
$GPGSV,4,2,16,18,34,278,11,20,16,035,10,23,36,207,10,24,38,185,*78
$GPGSV,4,3,16,25,48,343,29,28,01,300,,29,12,338,,36,52,277,*75
$GPGSV,4,4,16,40,86,351,28,41,58,082,,49,32,274,,50,10,089,*73
$GLGSV,3,1,10,67,17,075,,68,33,126,19,69,20,181,,73,07,330,*66
$GLGSV,3,2,10,78,07,156,,79,58,164,20,80,61,322,28,82,03,011,*62
$GLGSV,3,3,10,83,18,325,,84,12,272,*6A
$GNGLL,0419.79325,S,05539.74549,E,060909.00,A,A*6B
$GNRMC,060910.00,A,0419.79324,S,05539.74537,E,0.226,,270525,,,A*73
$GNVTG,,T,,M,0.226,N,0.419,K,A*37
$GNGGA,060910.00,0419.79324,S,05539.74537,E,1,09,1.03,44.2,M,-47.6,M,,*4F
$GNGSA,A,3,12,05,25,15,18,20,,,,,,,2.04,1.03,1.76*16
$GNGSA,A,3,80,79,68,,,,,,,,,,2.04,1.03,1.76*10
$GPGSV,4,1,16,05,49,044,17,12,69,048,30,13,14,117,,15,37,149,25*7D
$GPGSV,4,2,16,18,34,278,13,20,16,035,09,23,36,207,,24,38,185,22*73
$GPGSV,4,3,16,25,48,343,28,28,01,300,,29,12,338,,36,52,277,*74
$GPGSV,4,4,16,40,86,351,30,41,58,082,,49,32,274,,50,10,089,*7A
$GLGSV,3,1,10,67,17,075,,68,33,126,19,69,20,181,,73,07,330,*66
$GLGSV,3,2,10,78,07,156,,79,58,164,18,80,61,322,28,82,03,011,*69
$GLGSV,3,3,10,83,18,325,,84,12,272,*6A
$GNGLL,0419.79324,S,05539.74537,E,060910.00,A,A*6B
$GNRMC,060911.00,A,0419.79333,S,05539.74534,E,0.243,,270525,,,A*74
$GNVTG,,T,,M,0.243,N,0.451,K,A*38
$GNGGA,060911.00,0419.79333,S,05539.74534,E,1,08,1.12,44.4,M,-47.6,M,,*4C
$GNGSA,A,3,12,25,15,18,20,,,,,,,,2.14,1.12,1.83*18
$GNGSA,A,3,80,79,68,,,,,,,,,,2.14,1.12,1.83*1B
$GPGSV,4,1,16,05,48,044,,12,69,048,29,13,14,117,,15,37,149,23*74
$GPGSV,4,2,16,18,34,278,16,20,16,035,11,23,36,207,,24,38,185,23*7E
$GPGSV,4,3,16,25,48,343,27,28,01,300,,29,12,338,,36,52,277,*7B
$GPGSV,4,4,16,40,86,351,29,41,58,082,,49,32,274,,50,10,089,*72
$GLGSV,3,1,10,67,17,075,,68,33,126,18,69,20,181,,73,07,330,*67
$GLGSV,3,2,10,78,07,156,,79,58,164,19,80,61,322,27,82,03,011,*67
$GLGSV,3,3,10,83,18,325,,84,12,272,*6A
$GNGLL,0419.79333,S,05539.74534,E,060911.00,A,A*6F
$GNRMC,060912.00,A,0419.79335,S,05539.74518,E,0.385,,270525,,,A*74
$GNVTG,,T,,M,0.385,N,0.712,K,A*37
$GNGGA,060912.00,0419.79335,S,05539.74518,E,1,09,1.01,44.6,M,-47.6,M,,*46
$GNGSA,A,3,12,25,24,15,18,20,,,,,,,2.04,1.01,1.77*16
$GNGSA,A,3,80,79,68,,,,,,,,,,2.04,1.01,1.77*13
$GPGSV,4,1,16,05,48,044,19,12,69,048,29,13,14,117,07,15,37,149,21*79
$GPGSV,4,2,16,18,34,278,18,20,16,035,12,23,36,207,18,24,38,185,22*7B
$GPGSV,4,3,16,25,48,343,27,28,01,300,,29,12,338,,36,52,277,*7B
$GPGSV,4,4,16,40,86,351,29,41,58,082,,49,32,274,,50,10,089,*72
$GLGSV,3,1,10,67,17,075,,68,33,126,19,69,20,181,,73,07,330,*66
$GLGSV,3,2,10,78,07,156,,79,58,164,20,80,61,322,31,82,03,011,*6A
$GLGSV,3,3,10,83,18,325,,84,12,272,*6A
$GNGLL,0419.79335,S,05539.74518,E,060912.00,A,A*64
$GNRMC,060913.00,A,0419.79329,S,05539.74511,E,0.664,,270525,,,A*7B
$GNVTG,,T,,M,0.664,N,1.230,K,A*39
$GNGGA,060913.00,0419.79329,S,05539.74511,E,1,09,1.01,44.7,M,-47.6,M,,*42
$GNGSA,A,3,12,25,24,15,18,20,,,,,,,2.04,1.01,1.77*16
$GNGSA,A,3,80,79,68,,,,,,,,,,2.04,1.01,1.77*13
$GPGSV,4,1,16,05,48,044,23,12,69,048,29,13,14,117,13,15,37,149,21*75
$GPGSV,4,2,16,18,34,278,19,20,16,035,13,23,36,207,20,24,38,185,19*78
$GPGSV,4,3,16,25,48,343,27,28,01,300,,29,12,338,,36,52,277,*7B
$GPGSV,4,4,16,40,86,351,31,41,58,082,,49,32,274,,50,10,089,*7B
$GLGSV,3,1,10,67,17,075,,68,33,126,20,69,20,181,,73,07,330,*6C
$GLGSV,3,2,10,78,07,156,,79,58,164,20,80,61,322,29,82,03,011,*63
$GLGSV,3,3,10,83,18,325,,84,12,272,*6A
$GNGLL,0419.79329,S,05539.74511,E,060913.00,A,A*61
$GNRMC,060914.00,A,0419.79357,S,05539.74483,E,1.267,,270525,,,A*79
$GNVTG,,T,,M,1.267,N,2.347,K,A*3D
$GNGGA,060914.00,0419.79357,S,05539.74483,E,1,11,1.06,44.9,M,-47.6,M,,*46
$GNGSA,A,3,12,05,25,24,15,23,18,20,,,,,3.02,1.06,2.83*1A
$GNGSA,A,3,80,79,68,,,,,,,,,,3.02,1.06,2.83*1B
$GPGSV,4,1,16,05,48,044,21,12,69,048,22,13,14,117,16,15,37,149,20*78
$GPGSV,4,2,16,18,34,278,16,20,16,035,13,23,36,207,20,24,38,185,16*78
$GPGSV,4,3,16,25,48,343,27,28,01,300,,29,12,338,,36,52,277,*7B
$GPGSV,4,4,16,40,86,351,27,41,58,082,,49,32,274,,50,10,089,*7C
$GLGSV,3,1,10,67,17,075,,68,33,126,21,69,20,181,,73,07,330,*6D
$GLGSV,3,2,10,78,07,156,,79,58,164,22,80,61,322,26,82,03,011,*6E
$GLGSV,3,3,10,83,18,325,,84,12,272,*6A
$GNGLL,0419.79357,S,05539.74483,E,060914.00,A,A*65
$GNRMC,060915.00,A,0419.79370,S,05539.74483,E,0.532,,270525,,,A*7B
$GNVTG,,T,,M,0.532,N,0.985,K,A*3D
$GNGGA,060915.00,0419.79370,S,05539.74483,E,1,11,0.88,45.5,M,-47.6,M,,*48
$GNGSA,A,3,12,05,25,24,15,23,18,20,,,,,1.90,0.88,1.68*12
$GNGSA,A,3,80,79,68,,,,,,,,,,1.90,0.88,1.68*13
$GPGSV,4,1,16,05,48,044,21,12,69,048,24,13,14,117,16,15,37,149,21*7F
$GPGSV,4,2,16,18,34,278,16,20,16,035,13,23,36,207,22,24,38,185,16*7A
$GPGSV,4,3,16,25,48,343,29,28,01,300,,29,12,338,,36,52,277,*75
$GPGSV,4,4,16,40,86,351,,41,58,082,,49,32,274,,50,10,089,*79
$GLGSV,3,1,10,67,17,075,,68,33,126,22,69,20,181,,73,07,330,*6E
$GLGSV,3,2,10,78,07,156,,79,58,164,22,80,61,322,30,82,03,011,*69
$GLGSV,3,3,10,83,18,325,,84,12,272,*6A
$GNGLL,0419.79370,S,05539.74483,E,060915.00,A,A*61
$GNRMC,060916.00,A,0419.79372,S,05539.74475,E,0.292,,270525,,,A*7E
$GNVTG,,T,,M,0.292,N,0.542,K,A*37
$GNGGA,060916.00,0419.79372,S,05539.74475,E,1,11,0.95,45.6,M,-47.6,M,,*4F
$GNGSA,A,3,12,05,25,24,15,23,18,13,,,,,2.12,0.95,1.89*18
$GNGSA,A,3,80,79,68,,,,,,,,,,2.12,0.95,1.89*19
$GPGSV,4,1,16,05,48,044,18,12,69,048,31,13,14,117,16,15,37,149,19*7A
$GPGSV,4,2,16,18,34,278,15,20,16,035,13,23,36,207,22,24,38,185,17*78
$GPGSV,4,3,16,25,48,343,29,28,01,300,,29,12,338,,36,52,277,*75
$GPGSV,4,4,16,40,86,351,,41,58,082,,49,32,274,,50,10,089,*79
$GLGSV,3,1,10,67,17,075,,68,33,126,22,69,20,181,,73,07,330,*6E
$GLGSV,3,2,10,78,07,156,,79,58,164,21,80,61,322,31,82,03,011,*6B
$GLGSV,3,3,10,83,18,325,,84,12,272,*6A
$GNGLL,0419.79372,S,05539.74475,E,060916.00,A,A*69
$GNRMC,060917.00,A,0419.79373,S,05539.74456,E,0.283,,270525,,,A*7F
$GNVTG,,T,,M,0.283,N,0.524,K,A*37
$GNGGA,060917.00,0419.79373,S,05539.74456,E,1,11,0.95,46.1,M,-47.6,M,,*4A
$GNGSA,A,3,12,05,25,24,15,23,18,13,,,,,2.12,0.95,1.89*18
$GNGSA,A,3,80,79,68,,,,,,,,,,2.12,0.95,1.89*19
$GPGSV,4,1,16,05,48,044,18,12,69,048,30,13,14,117,17,15,37,149,21*71
$GPGSV,4,2,16,18,34,278,14,20,16,035,13,23,36,207,20,24,38,185,16*7A
$GPGSV,4,3,16,25,48,343,28,28,01,300,,29,12,338,,36,52,277,*74
$GPGSV,4,4,16,40,86,351,,41,58,082,,49,32,274,,50,10,089,*79
$GLGSV,3,1,10,67,17,075,,68,33,126,22,69,20,181,,73,07,330,*6E
$GLGSV,3,2,10,78,07,156,,79,58,164,21,80,61,322,30,82,03,011,*6A
$GLGSV,3,3,10,83,18,325,,84,12,272,*6A
$GNGLL,0419.79373,S,05539.74456,E,060917.00,A,A*68
$GNRMC,060918.00,A,0419.79381,S,05539.74453,E,0.290,,270525,,,A*7A
$GNVTG,,T,,M,0.290,N,0.538,K,A*38
$GNGGA,060918.00,0419.79381,S,05539.74453,E,1,11,0.95,46.1,M,-47.6,M,,*4D
$GNGSA,A,3,12,05,25,24,15,23,18,13,,,,,2.12,0.95,1.89*18
$GNGSA,A,3,80,79,68,,,,,,,,,,2.12,0.95,1.89*19
$GPGSV,4,1,16,05,48,044,19,12,69,049,30,13,14,117,20,15,37,149,20*74
$GPGSV,4,2,16,18,34,278,16,20,16,035,13,23,36,207,20,24,38,185,15*7B
$GPGSV,4,3,16,25,48,343,28,28,01,300,,29,12,338,,36,52,277,*74
$GPGSV,4,4,16,40,86,351,,41,58,082,,49,32,274,,50,10,089,*79
$GLGSV,3,1,10,67,17,075,,68,33,126,23,69,20,181,,73,07,330,*6F
$GLGSV,3,2,10,78,07,156,,79,58,164,23,80,61,322,30,82,03,011,*68
$GLGSV,3,3,10,83,18,325,,84,12,272,*6A
$GNGLL,0419.79381,S,05539.74453,E,060918.00,A,A*6F
$GNRMC,060919.00,A,0419.79384,S,05539.74480,E,0.845,,270525,,,A*72
$GNVTG,,T,,M,0.845,N,1.565,K,A*33
$GNGGA,060919.00,0419.79384,S,05539.74480,E,1,11,0.95,45.1,M,-47.6,M,,*44
$GNGSA,A,3,12,05,25,24,15,23,18,13,,,,,2.12,0.95,1.89*18
$GNGSA,A,3,80,79,68,,,,,,,,,,2.12,0.95,1.89*19
$GPGSV,4,1,16,05,48,044,20,12,69,049,29,13,14,117,19,15,37,149,18*77
$GPGSV,4,2,16,18,34,278,16,20,16,035,13,23,36,207,22,24,38,185,13*7F
$GPGSV,4,3,16,25,48,343,31,28,01,300,,29,12,338,,36,52,277,*7C
$GPGSV,4,4,16,40,86,351,,41,58,082,,49,32,274,,50,10,089,*79
$GLGSV,3,1,10,67,17,075,,68,33,126,22,69,20,181,,73,07,330,*6E
$GLGSV,3,2,10,78,07,156,,79,58,164,24,80,61,322,28,82,03,011,*66
$GLGSV,3,3,10,83,18,325,,84,12,272,*6A
$GNGLL,0419.79384,S,05539.74480,E,060919.00,A,A*65
$GNRMC,060920.00,A,0419.79393,S,05539.74466,E,0.662,,270525,,,A*7D
$GNVTG,,T,,M,0.662,N,1.227,K,A*39
$GNGGA,060920.00,0419.79393,S,05539.74466,E,1,11,0.95,47.0,M,-47.6,M,,*43
$GNGSA,A,3,12,05,25,24,15,23,18,13,,,,,2.12,0.95,1.89*18
$GNGSA,A,3,80,79,68,,,,,,,,,,2.12,0.95,1.89*19
$GPGSV,4,1,16,05,48,044,22,12,69,049,30,13,14,117,18,15,37,149,17*73
$GPGSV,4,2,16,18,34,278,15,20,16,035,13,23,36,207,22,24,38,185,15*7A
$GPGSV,4,3,16,25,48,343,30,28,01,300,,29,12,338,,36,52,277,*7D
$GPGSV,4,4,16,40,86,351,,41,58,082,,49,32,274,,50,10,089,*79
$GLGSV,3,1,10,67,17,075,,68,33,126,21,69,20,181,,73,07,330,*6D
$GLGSV,3,2,10,78,07,156,,79,58,164,23,80,61,322,27,82,03,011,*6E
$GLGSV,3,3,10,83,18,325,,84,12,272,*6A
$GNGLL,0419.79393,S,05539.74466,E,060920.00,A,A*61
$GNRMC,060921.00,A,0419.79378,S,05539.74474,E,0.353,,270525,,,A*7D
$GNVTG,,T,,M,0.353,N,0.654,K,A*3F
$GNGGA,060921.00,0419.79378,S,05539.74474,E,1,11,0.95,45.7,M,-47.6,M,,*41
$GNGSA,A,3,12,05,25,24,15,23,18,13,,,,,2.12,0.95,1.89*18
$GNGSA,A,3,80,79,68,,,,,,,,,,2.12,0.95,1.89*19
$GPGSV,4,1,16,05,48,044,22,12,69,049,31,13,14,117,17,15,37,148,16*7D
$GPGSV,4,2,16,18,34,278,15,20,16,035,13,23,36,207,22,24,38,185,15*7A
$GPGSV,4,3,16,25,48,343,30,28,01,300,,29,12,338,,36,52,277,*7D
$GPGSV,4,4,16,40,86,351,,41,58,082,,49,32,274,,50,10,089,*79
$GLGSV,3,1,10,67,17,075,,68,33,126,23,69,20,181,,73,07,330,*6F
$GLGSV,3,2,10,78,07,156,,79,58,164,25,80,61,322,27,82,03,011,*68
$GLGSV,3,3,10,83,18,325,,84,12,272,*6A
$GNGLL,0419.79378,S,05539.74474,E,060921.00,A,A*66
$GNRMC,060922.00,A,0419.79353,S,05539.74492,E,0.236,,270525,,,A*7D
$GNVTG,,T,,M,0.236,N,0.436,K,A*3B
$GNGGA,060922.00,0419.79353,S,05539.74492,E,1,12,0.84,44.4,M,-47.6,M,,*42
$GNGSA,A,3,12,05,25,24,15,23,18,20,13,,,,1.71,0.84,1.49*10
$GNGSA,A,3,80,79,68,,,,,,,,,,1.71,0.84,1.49*13
$GPGSV,4,1,16,05,48,044,24,12,69,049,31,13,14,117,18,15,37,148,18*7A
$GPGSV,4,2,16,18,34,278,17,20,16,035,13,23,36,207,23,24,38,185,14*78
$GPGSV,4,3,16,25,48,343,31,28,01,300,,29,12,338,,36,52,277,*7C
$GPGSV,4,4,16,40,86,351,,41,58,082,,49,32,274,,50,10,089,*79
$GLGSV,3,1,10,67,17,075,,68,33,126,24,69,20,181,,73,07,330,*68
$GLGSV,3,2,10,78,07,156,,79,58,164,25,80,61,322,27,82,03,011,*68
$GLGSV,3,3,10,83,18,325,,84,12,272,*6A
$GNGLL,0419.79353,S,05539.74492,E,060922.00,A,A*64
$GNRMC,060923.00,A,0419.79328,S,05539.74500,E,0.548,,270525,,,A*74
$GNVTG,,T,,M,0.548,N,1.015,K,A*31
$GNGGA,060923.00,0419.79328,S,05539.74500,E,1,12,0.84,43.4,M,-47.6,M,,*42
$GNGSA,A,3,12,05,25,24,15,23,18,20,13,,,,1.71,0.84,1.49*10
$GNGSA,A,3,80,79,68,,,,,,,,,,1.71,0.84,1.49*13
$GPGSV,4,1,16,05,48,044,24,12,69,049,32,13,14,117,19,15,37,148,20*73
$GPGSV,4,2,16,18,34,278,16,20,16,035,13,23,36,207,23,24,38,185,14*79
$GPGSV,4,3,16,25,48,343,32,28,01,300,,29,12,338,,36,52,277,*7F
$GPGSV,4,4,16,40,86,351,,41,58,082,,49,32,274,,50,10,089,*79
$GLGSV,3,1,10,67,17,075,,68,33,126,24,69,20,181,,73,07,330,*68
$GLGSV,3,2,10,78,07,156,,79,58,164,23,80,61,322,25,82,03,011,*6C
$GLGSV,3,3,10,83,18,325,,84,12,272,*6A
$GNGLL,0419.79328,S,05539.74500,E,060923.00,A,A*63
$GNRMC,060924.00,A,0419.79344,S,05539.74519,E,1.188,,270525,,,A*78
$GNVTG,,T,,M,1.188,N,2.201,K,A*3C
$GNGGA,060924.00,0419.79344,S,05539.74519,E,1,12,0.84,43.1,M,-47.6,M,,*42
$GNGSA,A,3,12,05,25,24,15,23,18,20,13,,,,1.71,0.84,1.49*10
$GNGSA,A,3,80,79,68,,,,,,,,,,1.71,0.84,1.49*13
$GPGSV,4,1,16,05,48,044,24,12,69,049,27,13,14,117,20,15,37,148,21*7C
$GPGSV,4,2,16,18,34,279,16,20,16,035,13,23,36,207,25,24,38,185,15*7F
$GPGSV,4,3,16,25,48,343,27,28,01,300,18,29,12,338,,36,52,277,*72
$GPGSV,4,4,16,40,86,351,,41,58,082,,49,32,274,,50,10,089,*79
$GLGSV,3,1,10,67,17,075,,68,33,126,23,69,20,181,18,73,07,330,*66
$GLGSV,3,2,10,78,07,156,,79,58,164,23,80,61,322,25,82,03,011,*6C
$GLGSV,3,3,10,83,18,325,,84,12,272,*6A
$GNGLL,0419.79344,S,05539.74519,E,060924.00,A,A*66
$GNRMC,060925.00,A,0419.79361,S,05539.74530,E,0.392,,270525,,,A*7D
$GNVTG,,T,,M,0.392,N,0.725,K,A*35
$GNGGA,060925.00,0419.79361,S,05539.74530,E,1,12,0.84,43.4,M,-47.6,M,,*4A
$GNGSA,A,3,12,05,25,24,15,23,18,20,13,,,,1.71,0.84,1.49*10
$GNGSA,A,3,80,79,68,,,,,,,,,,1.71,0.84,1.49*13
$GPGSV,4,1,16,05,48,044,22,12,69,049,27,13,14,117,19,15,37,148,19*7B
$GPGSV,4,2,16,18,34,279,11,20,16,035,13,23,36,207,25,24,38,185,16*7B
$GPGSV,4,3,16,25,48,343,29,28,01,300,15,29,12,338,,36,52,277,*71
$GPGSV,4,4,16,40,86,351,,41,58,082,,49,32,274,,50,10,089,*79
$GLGSV,3,1,10,67,17,075,,68,33,126,23,69,20,181,19,73,07,330,*67
$GLGSV,3,2,10,78,07,156,,79,58,164,23,80,61,322,30,82,03,011,*68
$GLGSV,3,3,10,83,18,325,,84,12,272,*6A
$GNGLL,0419.79361,S,05539.74530,E,060925.00,A,A*6B
$GNRMC,060926.00,A,0419.79404,S,05539.74483,E,3.004,276.74,270525,,,A*62
$GNVTG,276.74,T,,M,3.004,N,5.564,K,A*26
$GNGGA,060926.00,0419.79404,S,05539.74483,E,1,12,0.84,42.7,M,-47.6,M,,*46
$GNGSA,A,3,12,05,25,24,15,23,18,20,13,,,,1.71,0.84,1.49*10
$GNGSA,A,3,80,79,68,,,,,,,,,,1.71,0.84,1.49*13
$GPGSV,4,1,16,05,48,044,19,12,69,049,28,13,14,117,19,15,37,148,18*7D
$GPGSV,4,2,16,18,34,279,09,20,15,035,13,23,36,207,23,24,38,185,19*78
$GPGSV,4,3,16,25,48,343,33,28,01,300,11,29,12,338,,36,52,277,*7E
$GPGSV,4,4,16,40,86,351,,41,58,082,,49,32,274,,50,10,089,*79
$GLGSV,3,1,10,67,17,075,,68,33,126,23,69,20,181,18,73,07,330,*66
$GLGSV,3,2,10,78,07,156,,79,58,164,20,80,61,322,28,82,03,011,*62
$GLGSV,3,3,10,83,18,325,,84,12,272,*6A
$GNGLL,0419.79404,S,05539.74483,E,060926.00,A,A*65
$GNRMC,060927.00,A,0419.79425,S,05539.74475,E,0.446,,270525,,,A*76
$GNVTG,,T,,M,0.446,N,0.826,K,A*37
$GNGGA,060927.00,0419.79425,S,05539.74475,E,1,12,0.81,42.3,M,-47.6,M,,*4C
$GNGSA,A,3,12,05,25,24,15,23,18,20,13,,,,1.62,0.81,1.40*1E
$GNGSA,A,3,80,79,68,69,,,,,,,,,1.62,0.81,1.40*12
$GPGSV,4,1,16,05,48,044,15,12,69,049,32,13,14,117,19,15,37,148,18*7A
$GPGSV,4,2,16,18,34,279,09,20,15,035,13,23,36,207,24,24,38,185,18*7E
$GPGSV,4,3,16,25,48,343,28,28,01,300,09,29,12,338,,36,52,277,*7D
$GPGSV,4,4,16,40,86,351,,41,58,082,,49,32,274,,50,10,089,*79
$GLGSV,3,1,10,67,17,075,,68,33,126,24,69,20,181,18,73,07,330,*61
$GLGSV,3,2,10,78,07,156,,79,58,164,19,80,61,322,26,82,03,011,*66
$GLGSV,3,3,10,83,18,325,,84,12,272,*6A
$GNGLL,0419.79425,S,05539.74475,E,060927.00,A,A*6E
$GNRMC,060928.00,A,0419.79419,S,05539.74471,E,0.084,,270525,,,A*78
$GNVTG,,T,,M,0.084,N,0.156,K,A*33
$GNGGA,060928.00,0419.79419,S,05539.74471,E,1,12,0.95,42.4,M,-47.6,M,,*4A
$GNGSA,A,3,12,05,25,24,15,23,18,13,,,,,2.12,0.95,1.89*18
$GNGSA,A,3,80,79,68,69,,,,,,,,,2.12,0.95,1.89*16
$GPGSV,4,1,16,05,48,044,18,12,69,049,30,13,14,117,20,15,37,148,19*7E
$GPGSV,4,2,16,18,34,279,12,20,15,035,,23,37,207,27,24,38,185,20*7F
$GPGSV,4,3,16,25,48,343,32,28,01,300,08,29,12,338,,36,52,277,*77
$GPGSV,4,4,16,40,86,351,,41,58,082,,49,32,274,,50,10,089,*79
$GLGSV,3,1,10,67,17,075,,68,33,126,26,69,20,181,20,73,07,330,*68
$GLGSV,3,2,10,78,07,156,,79,58,164,20,80,61,322,28,82,03,011,*62
$GLGSV,3,3,10,83,18,325,,84,12,272,*6A
$GNGLL,0419.79419,S,05539.74471,E,060928.00,A,A*6A
$GNRMC,060929.00,A,0419.79426,S,05539.74465,E,0.127,,270525,,,A*78
$GNVTG,,T,,M,0.127,N,0.235,K,A*3D
$GNGGA,060929.00,0419.79426,S,05539.74465,E,1,12,0.93,42.5,M,-47.6,M,,*45
$GNGSA,A,3,12,05,25,24,15,23,18,13,,,,,2.02,0.93,1.79*10
$GNGSA,A,3,80,79,68,69,,,,,,,,,2.02,0.93,1.79*1E
$GPGSV,4,1,16,05,48,044,23,12,69,049,30,13,14,117,20,15,37,148,20*7C
$GPGSV,4,2,16,18,34,279,16,20,15,035,,23,37,207,26,24,38,185,19*70
$GPGSV,4,3,16,25,48,343,33,28,01,300,08,29,12,338,,36,52,277,*76
$GPGSV,4,4,16,40,86,351,,41,58,082,,49,32,274,,50,10,089,*79
$GLGSV,3,1,10,67,17,075,,68,33,126,26,69,20,181,22,73,07,330,*6A
$GLGSV,3,2,10,78,07,156,,79,58,164,25,80,61,322,31,82,03,011,*6F
$GLGSV,3,3,10,83,18,325,,84,12,272,*6A
$GNGLL,0419.79426,S,05539.74465,E,060929.00,A,A*62
$GNRMC,060930.00,A,0419.79426,S,05539.74460,E,0.113,,270525,,,A*72
$GNVTG,,T,,M,0.113,N,0.210,K,A*3D
$GNGGA,060930.00,0419.79426,S,05539.74460,E,1,12,0.93,42.1,M,-47.6,M,,*4C
$GNGSA,A,3,12,05,25,24,15,23,18,13,,,,,2.02,0.93,1.79*10
$GNGSA,A,3,80,79,68,69,,,,,,,,,2.02,0.93,1.79*1E
$GPGSV,4,1,16,05,48,044,25,12,69,049,31,13,14,117,18,15,37,148,20*70
$GPGSV,4,2,16,18,34,279,15,20,15,035,,23,37,207,27,24,38,185,18*73
$GPGSV,4,3,16,25,48,343,33,28,01,300,08,29,12,338,,36,52,277,*76
$GPGSV,4,4,16,40,86,351,,41,58,082,,49,32,274,,50,10,089,*79
$GLGSV,3,1,10,67,17,075,,68,33,126,25,69,20,181,22,73,07,330,*69
$GLGSV,3,2,10,78,07,156,,79,58,164,24,80,61,322,31,82,03,011,17*68
$GLGSV,3,3,10,83,18,325,,84,12,272,*6A
$GNGLL,0419.79426,S,05539.74460,E,060930.00,A,A*6F
$GNRMC,060931.00,A,0419.79419,S,05539.74463,E,0.213,,270525,,,A*7F
$GNVTG,,T,,M,0.213,N,0.394,K,A*33
$GNGGA,060931.00,0419.79419,S,05539.74463,E,1,12,1.13,41.9,M,-47.6,M,,*40
$GNGSA,A,3,12,05,25,24,15,23,18,13,,,,,2.36,1.13,2.07*14
$GNGSA,A,3,80,79,68,69,,,,,,,,,2.36,1.13,2.07*1A
$GPGSV,4,1,16,05,48,044,26,12,69,049,33,13,14,117,18,15,37,148,18*7A
$GPGSV,4,2,16,18,34,279,15,20,15,035,,23,37,207,27,24,38,185,18*73
$GPGSV,4,3,16,25,48,343,32,28,01,300,11,29,12,338,,36,52,277,*7F
$GPGSV,4,4,16,40,86,351,,41,58,082,,49,32,274,,50,10,089,*79
$GLGSV,3,1,10,67,17,075,,68,33,126,26,69,20,181,19,73,07,330,*62
$GLGSV,3,2,10,78,07,156,,79,58,164,21,80,61,322,32,82,03,011,*68
$GLGSV,3,3,10,83,18,325,,84,12,272,*6A
$GNGLL,0419.79419,S,05539.74463,E,060931.00,A,A*61
$GNRMC,060932.00,A,0419.79412,S,05539.74478,E,0.217,,270525,,,A*79
$GNVTG,,T,,M,0.217,N,0.402,K,A*3F
$GNGGA,060932.00,0419.79412,S,05539.74478,E,1,12,0.93,41.6,M,-47.6,M,,*44
$GNGSA,A,3,12,05,25,24,15,23,18,13,,,,,2.02,0.93,1.79*10
$GNGSA,A,3,80,79,68,69,,,,,,,,,2.02,0.93,1.79*1E
$GPGSV,4,1,16,05,48,044,22,12,69,049,32,13,14,117,18,15,37,148,18*7F
$GPGSV,4,2,16,18,34,279,15,20,15,035,,23,37,207,26,24,38,185,18*72
$GPGSV,4,3,16,25,48,343,27,28,01,300,10,29,12,338,,36,52,277,*7A
$GPGSV,4,4,16,40,86,351,,41,58,082,,49,32,274,,50,10,089,*79
$GLGSV,3,1,10,67,17,075,,68,33,126,25,69,20,181,16,73,07,330,*6E
$GLGSV,3,2,10,78,07,156,,79,58,164,17,80,61,322,31,82,03,011,*6E
$GLGSV,3,3,10,83,18,325,,84,12,272,*6A
$GNGLL,0419.79412,S,05539.74478,E,060932.00,A,A*63
$GNRMC,060933.00,A,0419.79407,S,05539.74481,E,0.165,,270525,,,A*7C
$GNVTG,,T,,M,0.165,N,0.305,K,A*39
$GNGGA,060933.00,0419.79407,S,05539.74481,E,1,12,0.93,41.2,M,-47.6,M,,*43
$GNGSA,A,3,12,05,25,24,15,23,18,13,,,,,2.02,0.93,1.79*10
$GNGSA,A,3,80,79,68,69,,,,,,,,,2.02,0.93,1.79*1E
$GPGSV,4,1,16,05,48,044,20,12,69,049,32,13,14,117,17,15,37,148,19*73
$GPGSV,4,2,16,18,34,279,15,20,15,035,,23,37,207,25,24,38,185,17*7E
$GPGSV,4,3,16,25,48,343,27,28,01,300,07,29,12,338,,36,52,277,*7C
$GPGSV,4,4,16,40,86,351,,41,58,082,,49,32,274,,50,10,089,*79
$GLGSV,3,1,10,67,17,075,,68,33,126,24,69,20,181,17,73,07,330,*6E
$GLGSV,3,2,10,78,07,156,,79,58,164,17,80,61,322,32,82,03,011,*6D
$GLGSV,3,3,10,83,18,325,,84,12,272,*6A
$GNGLL,0419.79407,S,05539.74481,E,060933.00,A,A*60
$GNRMC,060934.00,A,0419.79413,S,05539.74502,E,0.577,,270525,,,A*73
$GNVTG,,T,,M,0.577,N,1.069,K,A*36
$GNGGA,060934.00,0419.79413,S,05539.74502,E,1,12,0.93,41.0,M,-47.6,M,,*49
$GNGSA,A,3,12,05,25,24,15,23,18,13,,,,,2.02,0.93,1.79*10
$GNGSA,A,3,80,79,68,69,,,,,,,,,2.02,0.93,1.79*1E
$GPGSV,4,1,16,05,48,044,18,12,69,049,30,13,14,117,16,15,37,148,21*70
$GPGSV,4,2,16,18,34,279,15,20,15,035,,23,37,207,24,24,38,185,17*7F
$GPGSV,4,3,16,25,48,343,27,28,01,300,08,29,12,338,,36,52,277,*73
$GPGSV,4,4,16,40,86,351,,41,58,082,,49,32,274,,50,10,089,*79
$GLGSV,3,1,10,67,17,075,,68,33,126,22,69,20,181,16,73,07,330,*69
$GLGSV,3,2,10,78,07,156,,79,58,164,16,80,61,322,26,82,03,011,*69
$GLGSV,3,3,10,83,18,325,,84,12,272,*6A
$GNGLL,0419.79413,S,05539.74502,E,060934.00,A,A*68
$GNRMC,060935.00,A,0419.79404,S,05539.74526,E,0.429,,270525,,,A*78
$GNVTG,,T,,M,0.429,N,0.794,K,A*38
$GNGGA,060935.00,0419.79404,S,05539.74526,E,1,12,0.93,40.3,M,-47.6,M,,*4A
$GNGSA,A,3,12,05,25,24,15,23,18,13,,,,,2.02,0.93,1.79*10
$GNGSA,A,3,80,79,68,69,,,,,,,,,2.02,0.93,1.79*1E
$GPGSV,4,1,16,05,48,044,18,12,69,049,29,13,14,117,16,15,37,148,22*7B
$GPGSV,4,2,16,18,34,279,15,20,15,035,,23,37,207,25,24,38,185,15*7C
$GPGSV,4,3,16,25,48,343,27,28,01,300,,29,12,338,,36,52,277,*7B
$GPGSV,4,4,16,40,86,351,,41,58,082,,49,32,274,,50,10,089,*79
$GLGSV,3,1,10,67,17,075,,68,33,126,20,69,20,181,14,73,07,330,*69
$GLGSV,3,2,10,78,07,156,,79,58,164,15,80,61,322,25,82,03,011,*69
$GLGSV,3,3,10,83,18,325,,84,12,272,*6A
$GNGLL,0419.79404,S,05539.74526,E,060935.00,A,A*69
$GNRMC,060936.00,A,0419.79387,S,05539.74546,E,0.382,,270525,,,A*77
$GNVTG,,T,,M,0.382,N,0.707,K,A*34
$GNGGA,060936.00,0419.79387,S,05539.74546,E,1,12,0.93,40.0,M,-47.6,M,,*40
$GNGSA,A,3,12,05,25,24,15,23,18,13,,,,,2.02,0.93,1.79*10
$GNGSA,A,3,80,79,68,69,,,,,,,,,2.02,0.93,1.79*1E
$GPGSV,4,1,16,05,48,044,16,12,69,049,29,13,14,117,15,15,37,148,20*74
$GPGSV,4,2,16,18,34,279,16,20,15,035,,23,37,207,25,24,38,185,16*7C
$GPGSV,4,3,16,25,48,343,26,28,01,300,,29,12,338,,36,52,277,*7A
$GPGSV,4,4,16,40,86,351,,41,58,082,,49,32,274,,50,10,089,*79
$GLGSV,3,1,10,67,17,075,,68,33,126,18,69,20,181,12,73,07,330,*64
$GLGSV,3,2,10,78,07,156,,79,58,164,17,80,61,322,25,82,03,011,*6B
$GLGSV,3,3,10,83,18,325,,84,12,272,*6A
$GNGLL,0419.79387,S,05539.74546,E,060936.00,A,A*60
$GNRMC,060937.00,A,0419.79374,S,05539.74554,E,0.320,,270525,,,A*71
$GNVTG,,T,,M,0.320,N,0.593,K,A*33
$GNGGA,060937.00,0419.79374,S,05539.74554,E,1,12,0.93,39.1,M,-47.6,M,,*41
$GNGSA,A,3,12,05,25,24,15,23,18,13,,,,,2.02,0.93,1.79*10
$GNGSA,A,3,80,79,68,69,,,,,,,,,2.02,0.93,1.79*1E
$GPGSV,4,1,16,05,48,044,17,12,69,049,36,13,14,117,14,15,37,148,21*7B
$GPGSV,4,2,16,18,34,279,17,20,15,035,,23,37,207,24,24,38,185,17*7D
$GPGSV,4,3,16,25,48,343,27,28,01,300,,29,12,338,,36,52,277,*7B
$GPGSV,4,4,16,40,86,351,,41,58,082,,49,32,274,,50,10,089,*79
$GLGSV,3,1,10,67,17,075,,68,33,126,19,69,20,181,13,73,07,330,*64
$GLGSV,3,2,10,78,07,156,,79,58,164,22,80,61,322,26,82,03,011,*6E
$GLGSV,3,3,10,83,18,325,,84,12,272,*6A
$GNGLL,0419.79374,S,05539.74554,E,060937.00,A,A*6E
$GNRMC,060938.00,A,0419.79373,S,05539.74562,E,0.338,,270525,,,A*75
$GNVTG,,T,,M,0.338,N,0.625,K,A*34
$GNGGA,060938.00,0419.79373,S,05539.74562,E,1,12,0.93,38.6,M,-47.6,M,,*4A
$GNGSA,A,3,12,05,25,24,15,23,18,13,,,,,2.02,0.93,1.79*10
$GNGSA,A,3,80,79,68,69,,,,,,,,,2.02,0.93,1.79*1E
$GPGSV,4,1,16,05,48,044,16,12,69,049,31,13,14,117,15,15,37,148,20*7D
$GPGSV,4,2,16,18,34,279,18,20,15,035,,23,37,207,25,24,38,185,14*70
$GPGSV,4,3,16,25,48,343,27,28,01,300,,29,12,338,,36,52,277,*7B
$GPGSV,4,4,16,40,86,351,,41,58,082,,49,32,274,,50,10,089,*79
$GLGSV,3,1,10,67,17,075,,68,33,126,20,69,20,181,13,73,07,330,*6E
$GLGSV,3,2,10,78,07,156,,79,58,164,23,80,61,322,27,82,03,011,*6E
$GLGSV,3,3,10,83,18,325,,84,12,272,*6A
$GNGLL,0419.79373,S,05539.74562,E,060938.00,A,A*63
$GNRMC,060939.00,A,0419.79371,S,05539.74542,E,0.701,,270525,,,A*7A
$GNVTG,,T,,M,0.701,N,1.299,K,A*38
$GNGGA,060939.00,0419.79371,S,05539.74542,E,1,12,0.93,39.3,M,-47.6,M,,*4F
$GNGSA,A,3,12,05,25,24,15,23,18,13,,,,,2.02,0.93,1.79*10
$GNGSA,A,3,80,79,68,69,,,,,,,,,2.02,0.93,1.79*1E
$GPGSV,4,1,16,05,48,044,15,12,69,049,33,13,14,117,14,15,37,148,20*7D
$GPGSV,4,2,16,18,34,279,19,20,15,035,05,23,37,207,26,24,38,185,14*77
$GPGSV,4,3,16,25,48,343,27,28,01,300,,29,12,338,,36,52,277,*7B
$GPGSV,4,4,16,40,86,351,,41,58,082,,49,32,274,,50,10,089,*79
$GLGSV,3,1,10,67,17,075,,68,33,126,20,69,20,181,13,73,07,330,*6E
$GLGSV,3,2,10,78,07,156,,79,58,164,22,80,61,322,26,82,03,011,*6E
$GLGSV,3,3,10,83,18,325,,84,12,272,*6A
$GNGLL,0419.79371,S,05539.74542,E,060939.00,A,A*62
$GNRMC,060940.00,A,0419.79360,S,05539.74526,E,0.661,,270525,,,A*71
$GNVTG,,T,,M,0.661,N,1.225,K,A*38
$GNGGA,060940.00,0419.79360,S,05539.74526,E,1,12,0.93,40.1,M,-47.6,M,,*4F
$GNGSA,A,3,12,05,25,24,15,23,18,13,,,,,2.02,0.93,1.79*10
$GNGSA,A,3,80,79,68,69,,,,,,,,,2.02,0.93,1.79*1E
$GPGSV,4,1,16,05,48,044,13,12,69,049,32,13,14,117,17,15,37,148,20*79
$GPGSV,4,2,16,18,34,279,19,20,15,035,08,23,37,207,27,24,38,185,15*7A
$GPGSV,4,3,16,25,48,343,31,28,01,300,,29,12,338,,36,52,277,*7C
$GPGSV,4,4,16,40,86,351,,41,58,082,,49,32,274,,50,10,089,*79
$GLGSV,3,1,10,67,17,075,,68,33,126,19,69,20,181,13,73,07,330,*64
$GLGSV,3,2,10,78,07,156,,79,58,164,22,80,61,322,27,82,03,011,*6F
$GLGSV,3,3,10,83,18,325,,84,12,272,*6A
$GNGLL,0419.79360,S,05539.74526,E,060940.00,A,A*6E
$GNRMC,060941.00,A,0419.79359,S,05539.74524,E,0.270,,270525,,,A*7C
$GNVTG,,T,,M,0.270,N,0.500,K,A*3D
$GNGGA,060941.00,0419.79359,S,05539.74524,E,1,12,0.93,40.5,M,-47.6,M,,*42
$GNGSA,A,3,12,05,25,24,15,23,18,13,,,,,2.02,0.93,1.79*10
$GNGSA,A,3,80,79,68,69,,,,,,,,,2.02,0.93,1.79*1E
$GPGSV,4,1,16,05,48,044,13,12,69,049,32,13,14,117,18,15,37,148,22*74
$GPGSV,4,2,16,18,34,279,18,20,15,035,11,23,37,207,27,24,38,185,13*75
$GPGSV,4,3,16,25,48,343,32,28,01,300,,29,12,338,,36,52,277,*7F
$GPGSV,4,4,16,40,86,351,,41,58,082,,49,32,274,,50,10,089,*79
$GLGSV,3,1,10,67,17,075,,68,33,126,21,69,20,181,13,73,07,330,*6F
$GLGSV,3,2,10,78,07,156,,79,58,164,22,80,61,322,29,82,03,011,*61
$GLGSV,3,3,10,83,18,325,,84,12,272,*6A
$GNGLL,0419.79359,S,05539.74524,E,060941.00,A,A*67
$GNRMC,060942.00,A,0419.79352,S,05539.74531,E,0.252,,270525,,,A*70
$GNVTG,,T,,M,0.252,N,0.467,K,A*3D
$GNGGA,060942.00,0419.79352,S,05539.74531,E,1,12,0.93,40.9,M,-47.6,M,,*42
$GNGSA,A,3,12,05,25,24,15,23,18,13,,,,,2.02,0.93,1.79*10
$GNGSA,A,3,80,79,68,69,,,,,,,,,2.02,0.93,1.79*1E
$GPGSV,4,1,16,05,48,044,12,12,69,049,32,13,14,117,19,15,37,148,24*72
$GPGSV,4,2,16,18,34,279,19,20,15,035,11,23,37,207,30,24,38,185,13*72
$GPGSV,4,3,16,25,48,343,31,28,01,300,,29,12,338,,36,52,277,*7C
$GPGSV,4,4,16,40,86,351,,41,58,082,,49,32,274,,50,10,089,*79
$GLGSV,3,1,10,67,17,075,,68,33,126,25,69,20,181,17,73,07,330,*6F
$GLGSV,3,2,10,78,07,156,,79,58,164,24,80,61,322,30,82,03,011,*6F
$GLGSV,3,3,10,83,18,325,,84,12,272,*6A
$GNGLL,0419.79352,S,05539.74531,E,060942.00,A,A*6B
$GNRMC,060943.00,A,0419.79353,S,05539.74534,E,0.034,,270525,,,A*77
$GNVTG,,T,,M,0.034,N,0.062,K,A*3E
$GNGGA,060943.00,0419.79353,S,05539.74534,E,1,12,0.93,40.9,M,-47.6,M,,*47
$GNGSA,A,3,12,05,25,24,15,23,18,13,,,,,2.02,0.93,1.79*10
$GNGSA,A,3,80,79,68,69,,,,,,,,,2.02,0.93,1.79*1E
$GPGSV,4,1,16,05,48,044,13,12,69,049,33,13,14,117,19,15,37,148,20*76
$GPGSV,4,2,16,18,34,279,18,20,15,035,12,23,37,207,30,24,38,185,14*77
$GPGSV,4,3,16,25,48,343,30,28,01,300,,29,12,338,,36,52,277,*7D
$GPGSV,4,4,16,40,86,351,,41,58,082,,49,32,274,,50,10,089,*79
$GLGSV,3,1,10,67,17,075,,68,33,126,26,69,20,181,19,73,07,330,*62
$GLGSV,3,2,10,78,07,156,,79,58,164,26,80,61,322,30,82,03,011,*6D
$GLGSV,3,3,10,83,18,325,,84,12,272,*6A
$GNGLL,0419.79353,S,05539.74534,E,060943.00,A,A*6E
$GNRMC,060944.00,A,0419.79350,S,05539.74543,E,0.121,,270525,,,A*76
$GNVTG,,T,,M,0.121,N,0.224,K,A*3B
$GNGGA,060944.00,0419.79350,S,05539.74543,E,1,12,0.93,40.3,M,-47.6,M,,*49
$GNGSA,A,3,12,05,25,24,15,23,18,13,,,,,2.02,0.93,1.79*10
$GNGSA,A,3,80,79,68,69,,,,,,,,,2.02,0.93,1.79*1E
$GPGSV,4,1,16,05,48,044,15,12,69,049,33,13,14,117,20,15,37,148,20*7A
$GPGSV,4,2,16,18,34,279,21,20,15,035,09,23,37,207,31,24,38,185,16*74
$GPGSV,4,3,16,25,48,343,31,28,01,300,,29,12,338,,36,52,277,*7C
$GPGSV,4,4,16,40,86,351,,41,58,082,,49,32,274,,50,10,089,*79
$GLGSV,3,1,10,67,17,075,,68,33,126,27,69,20,181,18,73,07,330,*62
$GLGSV,3,2,10,78,07,156,,79,58,164,28,80,61,322,29,82,03,011,*6B
$GLGSV,3,3,10,83,18,325,,84,12,272,*6A
$GNGLL,0419.79350,S,05539.74543,E,060944.00,A,A*6A
$GNRMC,060945.00,A,0419.79347,S,05539.74551,E,0.067,,270525,,,A*71
$GNVTG,,T,,M,0.067,N,0.124,K,A*3B
$GNGGA,060945.00,0419.79347,S,05539.74551,E,1,12,0.93,40.1,M,-47.6,M,,*4F
$GNGSA,A,3,12,05,25,24,15,23,18,13,,,,,2.02,0.93,1.79*10
$GNGSA,A,3,80,79,68,69,,,,,,,,,2.02,0.93,1.79*1E
$GPGSV,4,1,16,05,48,044,17,12,69,049,33,13,14,117,19,15,37,148,21*73
$GPGSV,4,2,16,18,34,279,22,20,15,035,07,23,37,207,32,24,38,185,18*74
$GPGSV,4,3,16,25,48,343,32,28,01,300,,29,12,338,,36,52,277,*7F
$GPGSV,4,4,16,40,86,351,,41,58,082,,49,32,274,,50,10,089,*79
$GLGSV,3,1,10,67,17,075,,68,33,126,28,69,20,181,18,73,07,330,*6D
$GLGSV,3,2,10,78,07,156,,79,58,164,29,80,61,322,30,82,03,011,*62
$GLGSV,3,3,10,83,18,325,,84,12,272,*6A
$GNGLL,0419.79347,S,05539.74551,E,060945.00,A,A*6E
$GNRMC,060946.00,A,0419.79350,S,05539.74562,E,0.183,,270525,,,A*7F
$GNVTG,,T,,M,0.183,N,0.339,K,A*3E
$GNGGA,060946.00,0419.79350,S,05539.74562,E,1,12,0.93,39.6,M,-47.6,M,,*43
$GNGSA,A,3,12,05,25,24,15,23,18,13,,,,,2.02,0.93,1.79*10
$GNGSA,A,3,80,79,68,69,,,,,,,,,2.02,0.93,1.79*1E
$GPGSV,4,1,16,05,48,044,18,12,69,049,34,13,14,117,18,15,37,148,21*7A
$GPGSV,4,2,16,18,34,279,21,20,15,035,06,23,37,207,31,24,38,185,20*7E
$GPGSV,4,3,16,25,48,343,32,28,01,300,,29,12,338,,36,52,277,*7F
$GPGSV,4,4,16,40,86,351,,41,58,082,,49,32,274,,50,10,089,*79
$GLGSV,3,1,10,67,17,075,,68,33,126,29,69,20,181,19,73,07,330,*6D
$GLGSV,3,2,10,78,07,156,,79,58,164,29,80,61,322,31,82,03,011,*63
$GLGSV,3,3,10,83,18,325,,84,12,272,*6A
$GNGLL,0419.79350,S,05539.74562,E,060946.00,A,A*6B
$GNRMC,060947.00,A,0419.79362,S,05539.74561,E,0.119,,270525,,,A*7F
$GNVTG,,T,,M,0.119,N,0.220,K,A*34
$GNGGA,060947.00,0419.79362,S,05539.74561,E,1,12,0.93,39.8,M,-47.6,M,,*4E
$GNGSA,A,3,12,05,25,24,15,23,18,13,,,,,2.02,0.93,1.79*10
$GNGSA,A,3,80,79,68,69,,,,,,,,,2.02,0.93,1.79*1E
$GPGSV,4,1,16,05,48,044,21,12,69,049,32,13,14,117,19,15,37,148,21*77
$GPGSV,4,2,16,18,34,279,22,20,15,035,06,23,37,207,31,24,38,185,20*7D
$GPGSV,4,3,16,25,48,343,32,28,01,300,,29,12,338,,36,52,277,*7F
$GPGSV,4,4,16,40,86,351,,41,58,082,,49,32,274,,50,10,089,*79
$GLGSV,3,1,10,67,17,075,,68,33,126,28,69,20,181,18,73,07,330,*6D
$GLGSV,3,2,10,78,07,156,,79,58,164,29,80,61,322,31,82,03,011,*63
$GLGSV,3,3,10,83,18,325,,84,12,272,*6A
$GNGLL,0419.79362,S,05539.74561,E,060947.00,A,A*68
$GNRMC,060948.00,A,0419.79368,S,05539.74561,E,0.084,,270525,,,A*7F
$GNVTG,,T,,M,0.084,N,0.155,K,A*30
$GNGGA,060948.00,0419.79368,S,05539.74561,E,1,12,0.93,39.9,M,-47.6,M,,*4A
$GNGSA,A,3,12,05,25,24,15,23,18,13,,,,,2.02,0.93,1.79*10
$GNGSA,A,3,80,79,68,69,,,,,,,,,2.02,0.93,1.79*1E
$GPGSV,4,1,16,05,48,044,21,12,69,049,33,13,14,117,19,15,37,148,20*77
$GPGSV,4,2,16,18,34,279,23,20,15,035,06,23,37,207,31,24,38,185,20*7C
$GPGSV,4,3,16,25,48,343,31,28,01,300,,29,12,338,,36,52,277,*7C
$GPGSV,4,4,16,40,86,351,,41,58,082,,49,32,274,,50,10,089,*79
$GLGSV,3,1,10,67,17,075,,68,33,126,27,69,20,181,19,73,07,330,*63
$GLGSV,3,2,10,78,07,156,,79,58,164,29,80,61,322,30,82,03,011,*62
$GLGSV,3,3,10,83,18,325,,84,12,272,*6A
$GNGLL,0419.79368,S,05539.74561,E,060948.00,A,A*6D
$GNRMC,060949.00,A,0419.79377,S,05539.74561,E,0.249,,270525,,,A*73
$GNVTG,,T,,M,0.249,N,0.462,K,A*32
$GNGGA,060949.00,0419.79377,S,05539.74561,E,1,12,0.93,40.1,M,-47.6,M,,*43
$GNGSA,A,3,12,05,25,24,15,23,18,13,,,,,2.02,0.93,1.79*10
$GNGSA,A,3,80,79,68,69,,,,,,,,,2.02,0.93,1.79*1E
$GPGSV,4,1,16,05,48,044,20,12,69,049,33,13,14,117,18,15,37,148,19*7D
$GPGSV,4,2,16,18,34,279,22,20,15,035,06,23,37,207,31,24,38,185,20*7D
$GPGSV,4,3,16,25,48,343,32,28,01,300,,29,12,338,,36,52,277,*7F
$GPGSV,4,4,16,40,86,351,,41,58,082,,49,32,274,,50,10,089,*79
$GLGSV,3,1,10,67,17,075,,68,33,126,25,69,20,181,19,73,07,330,*61
$GLGSV,3,2,10,78,07,156,,79,58,164,29,80,61,322,31,82,03,011,*63
$GLGSV,3,3,10,83,18,325,05,84,12,272,*6F
$GNGLL,0419.79377,S,05539.74561,E,060949.00,A,A*62
$GNRMC,060950.00,A,0419.79394,S,05539.74565,E,0.094,,270525,,,A*70
$GNVTG,,T,,M,0.094,N,0.174,K,A*32
$GNGGA,060950.00,0419.79394,S,05539.74565,E,1,12,0.93,40.2,M,-47.6,M,,*41
$GNGSA,A,3,12,05,25,24,15,23,18,13,,,,,2.02,0.93,1.79*10
$GNGSA,A,3,80,79,68,69,,,,,,,,,2.02,0.93,1.79*1E
$GPGSV,4,1,16,05,48,044,21,12,69,049,33,13,14,117,17,15,37,148,18*72
$GPGSV,4,2,16,18,34,279,22,20,15,035,06,23,37,207,31,24,38,185,18*76
$GPGSV,4,3,16,25,48,343,34,28,01,300,,29,12,338,,36,52,277,*79
$GPGSV,4,4,16,40,86,351,,41,58,082,,49,32,274,,50,10,089,*79
$GLGSV,3,1,10,67,17,075,,68,33,126,25,69,20,181,20,73,07,330,*6B
$GLGSV,3,2,10,78,07,156,,79,58,164,29,80,61,322,31,82,03,011,*63
$GLGSV,3,3,10,83,18,325,,84,12,272,*6A
$GNGLL,0419.79394,S,05539.74565,E,060950.00,A,A*63
$GNRMC,060951.00,A,0419.79403,S,05539.74564,E,0.024,,270525,,,A*72
$GNVTG,,T,,M,0.024,N,0.044,K,A*3B
$GNGGA,060951.00,0419.79403,S,05539.74564,E,1,12,0.93,40.4,M,-47.6,M,,*4E
$GNGSA,A,3,12,05,25,24,15,23,18,13,,,,,2.02,0.93,1.79*10
$GNGSA,A,3,80,79,68,69,,,,,,,,,2.02,0.93,1.79*1E
$GPGSV,4,1,16,05,48,044,22,12,69,049,34,13,14,117,16,15,37,148,21*7D
$GPGSV,4,2,16,18,34,279,21,20,15,035,06,23,37,207,30,24,38,185,18*74
$GPGSV,4,3,16,25,48,343,33,28,01,300,,29,12,338,,36,52,277,*7E
$GPGSV,4,4,16,40,86,351,,41,58,082,,49,32,274,,50,10,089,*79
$GLGSV,3,1,10,67,17,075,,68,33,126,26,69,20,181,21,73,07,330,*69
$GLGSV,3,2,10,78,07,156,,79,58,164,29,80,61,322,31,82,03,011,*63
$GLGSV,3,3,10,83,18,325,,84,12,272,*6A
$GNGLL,0419.79403,S,05539.74564,E,060951.00,A,A*6A
$GNRMC,060952.00,A,0419.79399,S,05539.74579,E,0.069,,270525,,,A*70
$GNVTG,,T,,M,0.069,N,0.128,K,A*39
$GNGGA,060952.00,0419.79399,S,05539.74579,E,1,12,1.00,39.8,M,-47.6,M,,*4C
$GNGSA,A,3,12,05,25,24,15,23,18,13,,,,,2.06,1.00,1.79*1F
$GNGSA,A,3,80,79,68,69,,,,,,,,,2.06,1.00,1.79*11
$GPGSV,4,1,16,05,48,044,22,12,69,049,33,13,14,117,15,15,37,148,24*7C
$GPGSV,4,2,16,18,34,279,21,20,15,035,06,23,37,207,31,24,38,185,18*75
$GPGSV,4,3,16,25,48,343,33,28,01,300,,29,12,338,,36,52,277,*7E
$GPGSV,4,4,16,40,86,351,,41,58,082,,49,32,274,,50,10,089,*79
$GLGSV,3,1,10,67,17,075,,68,33,126,27,69,20,181,21,73,07,330,*68
$GLGSV,3,2,10,78,07,156,,79,58,164,29,80,61,322,31,82,03,011,*63
$GLGSV,3,3,10,83,18,325,18,84,12,272,*63
$GNGLL,0419.79399,S,05539.74579,E,060952.00,A,A*61
$GNRMC,060953.00,A,0419.79406,S,05539.74593,E,0.155,,270525,,,A*7A
$GNVTG,,T,,M,0.155,N,0.287,K,A*31
$GNGGA,060953.00,0419.79406,S,05539.74593,E,1,12,1.00,39.6,M,-47.6,M,,*46
$GNGSA,A,3,12,05,25,24,15,23,18,13,,,,,2.06,1.00,1.79*1F
$GNGSA,A,3,80,79,68,69,,,,,,,,,2.06,1.00,1.79*11
$GPGSV,4,1,16,05,48,044,21,12,69,049,32,13,14,117,15,15,37,148,24*7E
$GPGSV,4,2,16,18,34,279,21,20,15,035,06,23,37,207,33,24,38,185,18*77
$GPGSV,4,3,16,25,48,343,34,28,01,300,,29,12,338,,36,52,277,*79
$GPGSV,4,4,16,40,86,351,,41,58,082,,49,32,274,,50,10,089,*79
$GLGSV,3,1,10,67,17,075,,68,33,126,27,69,20,181,20,73,07,330,*69
$GLGSV,3,2,10,78,07,156,,79,58,164,29,80,61,322,31,82,03,011,*63
$GLGSV,3,3,10,83,18,325,16,84,12,272,*6D
$GNGLL,0419.79406,S,05539.74593,E,060953.00,A,A*65
$GNRMC,060954.00,A,0419.79412,S,05539.74599,E,0.081,,270525,,,A*7A
$GNVTG,,T,,M,0.081,N,0.150,K,A*30
$GNGGA,060954.00,0419.79412,S,05539.74599,E,1,12,0.93,39.4,M,-47.6,M,,*47
$GNGSA,A,3,12,05,25,24,15,23,18,13,,,,,2.02,0.93,1.79*10
$GNGSA,A,3,80,79,68,69,,,,,,,,,2.02,0.93,1.79*1E
$GPGSV,4,1,16,05,48,044,21,12,69,049,31,13,14,117,14,15,37,148,24*7C
$GPGSV,4,2,16,18,34,279,19,20,15,035,06,23,37,207,31,24,38,185,18*7E
$GPGSV,4,3,16,25,48,343,33,28,01,300,,29,12,338,,36,52,277,*7E
$GPGSV,4,4,16,40,86,351,,41,58,082,,49,32,274,,50,10,089,*79
$GLGSV,3,1,10,67,17,075,,68,33,126,27,69,20,181,18,73,07,330,*62
$GLGSV,3,2,10,78,07,156,,79,58,164,29,80,61,322,31,82,03,011,*63
$GLGSV,3,3,10,83,18,325,14,84,12,272,*6F
$GNGLL,0419.79412,S,05539.74599,E,060954.00,A,A*6D
$GNRMC,060955.00,A,0419.79418,S,05539.74600,E,0.070,,270525,,,A*7C
$GNVTG,,T,,M,0.070,N,0.130,K,A*38
$GNGGA,060955.00,0419.79418,S,05539.74600,E,1,12,0.93,39.5,M,-47.6,M,,*4E
$GNGSA,A,3,12,05,25,24,15,23,18,13,,,,,2.02,0.93,1.79*10
$GNGSA,A,3,80,79,68,69,,,,,,,,,2.02,0.93,1.79*1E
$GPGSV,4,1,16,05,48,044,22,12,69,049,31,13,14,117,14,15,37,148,21*7A
$GPGSV,4,2,16,18,34,279,18,20,15,035,06,23,37,207,33,24,38,185,17*72
$GPGSV,4,3,16,25,48,343,33,28,01,300,,29,12,338,,36,52,277,*7E
$GPGSV,4,4,16,40,86,351,,41,58,082,,49,32,274,,50,10,089,*79
$GLGSV,3,1,10,67,17,075,,68,33,126,28,69,20,181,18,73,07,330,*6D
$GLGSV,3,2,10,78,07,156,,79,58,164,29,80,61,322,31,82,03,011,*63
$GLGSV,3,3,10,83,18,325,15,84,12,272,*6E
$GNGLL,0419.79418,S,05539.74600,E,060955.00,A,A*65
$GNRMC,060956.00,A,0419.79426,S,05539.74602,E,0.045,,270525,,,A*76
$GNVTG,,T,,M,0.045,N,0.083,K,A*37
$GNGGA,060956.00,0419.79426,S,05539.74602,E,1,12,0.93,39.6,M,-47.6,M,,*41
$GNGSA,A,3,12,05,25,24,15,23,18,13,,,,,2.02,0.93,1.79*10
$GNGSA,A,3,80,79,68,69,83,,,,,,,,2.02,0.93,1.79*15
$GPGSV,4,1,16,05,48,044,25,12,69,049,32,13,14,117,16,15,37,148,22*7F
$GPGSV,4,2,16,18,34,279,18,20,15,035,06,23,37,207,33,24,38,185,15*70
$GPGSV,4,3,16,25,48,343,33,28,01,300,,29,12,338,,36,52,277,*7E
$GPGSV,4,4,16,40,86,351,,41,58,082,,49,32,274,,50,10,089,*79
$GLGSV,3,1,10,67,17,075,,68,33,126,28,69,20,181,19,73,07,330,*6C
$GLGSV,3,2,10,78,07,156,,79,58,164,29,80,61,322,30,82,03,011,*62
$GLGSV,3,3,10,83,18,325,17,84,12,272,*6C
$GNGLL,0419.79426,S,05539.74602,E,060956.00,A,A*69
$GNRMC,060957.00,A,0419.79427,S,05539.74598,E,0.076,,270525,,,A*76
$GNVTG,,T,,M,0.076,N,0.141,K,A*38
$GNGGA,060957.00,0419.79427,S,05539.74598,E,1,12,0.81,39.5,M,-47.6,M,,*41
$GNGSA,A,3,12,05,25,24,15,23,18,13,,,,,1.59,0.81,1.37*14
$GNGSA,A,3,80,79,68,69,83,,,,,,,,1.59,0.81,1.37*11
$GPGSV,4,1,16,05,48,044,25,12,69,049,32,13,14,117,15,15,37,148,21*7F
$GPGSV,4,2,16,18,34,279,20,20,15,035,06,23,37,207,33,24,38,185,14*7A
$GPGSV,4,3,16,25,48,343,33,28,01,300,,29,12,338,,36,52,277,*7E
$GPGSV,4,4,16,40,86,351,,41,58,082,,49,32,274,,50,10,089,*79
$GLGSV,3,1,10,67,17,075,,68,33,126,28,69,20,181,18,73,07,330,*6D
$GLGSV,3,2,10,78,07,156,,79,58,164,29,80,61,322,30,82,03,011,*62
$GLGSV,3,3,10,83,18,325,17,84,12,272,*6C
$GNGLL,0419.79427,S,05539.74598,E,060957.00,A,A*69
$GNRMC,060958.00,A,0419.79431,S,05539.74595,E,0.134,,270525,,,A*74
$GNVTG,,T,,M,0.134,N,0.249,K,A*34
$GNGGA,060958.00,0419.79431,S,05539.74595,E,1,12,0.81,39.5,M,-47.6,M,,*44
$GNGSA,A,3,12,05,25,24,15,23,18,13,,,,,1.59,0.81,1.36*15
$GNGSA,A,3,80,79,68,69,83,,,,,,,,1.59,0.81,1.36*10
$GPGSV,4,1,16,05,48,044,24,12,69,049,34,13,14,117,14,15,37,148,21*79
$GPGSV,4,2,16,18,34,279,20,20,15,035,06,23,37,207,33,24,38,185,14*7A
$GPGSV,4,3,16,25,48,343,32,28,01,300,,29,12,338,,36,52,277,*7F
$GPGSV,4,4,16,40,86,351,,41,58,082,,49,32,274,,50,10,089,*79
$GLGSV,3,1,10,67,17,075,,68,33,126,28,69,20,181,17,73,07,330,*62
$GLGSV,3,2,10,78,07,156,,79,58,164,33,80,61,322,29,82,03,011,*61
$GLGSV,3,3,10,83,18,325,16,84,12,272,*6D
$GNGLL,0419.79431,S,05539.74595,E,060958.00,A,A*6C
$GNRMC,060959.00,A,0419.79430,S,05539.74595,E,0.115,,270525,,,A*77
$GNVTG,,T,,M,0.115,N,0.213,K,A*38
$GNGGA,060959.00,0419.79430,S,05539.74595,E,1,12,0.81,39.2,M,-47.6,M,,*43
$GNGSA,A,3,12,05,25,24,15,23,18,13,,,,,1.59,0.81,1.36*15
$GNGSA,A,3,80,79,68,69,83,,,,,,,,1.59,0.81,1.36*10
$GPGSV,4,1,16,05,48,044,25,12,69,049,34,13,14,117,15,15,37,148,21*79
$GPGSV,4,2,16,18,34,279,21,20,15,035,06,23,37,207,32,24,38,185,15*7B
$GPGSV,4,3,16,25,48,343,32,28,01,300,,29,12,338,,36,52,277,*7F
$GPGSV,4,4,16,40,86,351,,41,58,082,,49,32,274,,50,10,089,*79
$GLGSV,3,1,10,67,17,075,,68,33,126,28,69,20,181,19,73,07,330,*6C
$GLGSV,3,2,10,78,07,156,,79,58,164,27,80,61,322,30,82,03,011,*6C
$GLGSV,3,3,10,83,18,325,16,84,12,272,*6D
$GNGLL,0419.79430,S,05539.74595,E,060959.00,A,A*6C
$GNRMC,061000.00,A,0419.79429,S,05539.74594,E,0.042,,270525,,,A*79
$GNVTG,,T,,M,0.042,N,0.079,K,A*35
$GNGGA,061000.00,0419.79429,S,05539.74594,E,1,12,0.81,39.0,M,-47.6,M,,*4C
$GNGSA,A,3,12,05,25,24,15,23,18,13,,,,,1.59,0.81,1.36*15
$GNGSA,A,3,80,79,68,69,83,,,,,,,,1.59,0.81,1.36*10
$GPGSV,4,1,16,05,48,044,26,12,69,049,34,13,14,117,16,15,37,148,21*79
$GPGSV,4,2,16,18,34,279,20,20,15,035,06,23,37,207,32,24,38,185,17*78
$GPGSV,4,3,16,25,48,343,31,28,01,300,,29,12,338,,36,52,277,*7C
$GPGSV,4,4,16,40,86,351,,41,58,082,,49,32,274,,50,10,089,*79
$GLGSV,3,1,10,67,16,074,,68,33,126,27,69,20,181,20,73,07,330,*69
$GLGSV,3,2,10,78,07,156,,79,58,164,27,80,61,322,30,82,03,011,*6C
$GLGSV,3,3,10,83,18,325,17,84,12,272,*6C
$GNGLL,0419.79429,S,05539.74594,E,061000.00,A,A*61
$GNRMC,061001.00,A,0419.79427,S,05539.74594,E,0.157,,270525,,,A*73
$GNVTG,,T,,M,0.157,N,0.290,K,A*35
$GNGGA,061001.00,0419.79427,S,05539.74594,E,1,12,0.81,38.5,M,-47.6,M,,*47
$GNGSA,A,3,12,05,25,24,15,23,18,13,,,,,1.59,0.81,1.36*15
$GNGSA,A,3,80,79,68,69,83,,,,,,,,1.59,0.81,1.36*10
$GPGSV,4,1,16,05,48,044,26,12,69,049,34,13,14,117,15,15,37,148,23*78
$GPGSV,4,2,16,18,34,279,19,20,15,035,,23,37,207,32,24,38,185,19*7A
$GPGSV,4,3,16,25,48,343,32,28,01,300,,29,12,338,,36,52,277,*7F
$GPGSV,4,4,16,40,86,351,,41,58,082,,49,32,274,,50,10,089,*79
$GLGSV,3,1,10,67,16,074,,68,34,126,27,69,20,181,21,73,07,330,*6F
$GLGSV,3,2,10,78,07,156,,79,58,164,27,80,61,322,30,82,03,011,*6C
$GLGSV,3,3,10,83,18,325,16,84,12,272,*6D
$GNGLL,0419.79427,S,05539.74594,E,061001.00,A,A*6E
$GNRMC,061002.00,A,0419.79431,S,05539.74590,E,0.078,,270525,,,A*7F
$GNVTG,,T,,M,0.078,N,0.145,K,A*32
$GNGGA,061002.00,0419.79431,S,05539.74590,E,1,12,0.81,38.7,M,-47.6,M,,*45
$GNGSA,A,3,12,05,25,24,15,23,18,13,,,,,1.59,0.81,1.36*15
$GNGSA,A,3,80,79,68,69,83,,,,,,,,1.59,0.81,1.36*10
$GPGSV,4,1,16,05,48,044,26,12,69,049,34,13,14,117,13,15,37,148,23*7E
$GPGSV,4,2,16,18,34,279,20,20,15,035,,23,37,207,31,24,38,185,21*78
$GPGSV,4,3,16,25,48,343,32,28,01,300,,29,12,338,,36,52,277,*7F
$GPGSV,4,4,16,40,86,351,,41,58,082,,49,32,274,,50,10,089,*79
$GLGSV,3,1,10,67,16,074,,68,34,126,27,69,20,180,22,73,07,330,*6D
$GLGSV,3,2,10,78,07,156,,79,58,164,29,80,61,322,30,82,03,011,*62
$GLGSV,3,3,10,83,18,325,16,84,12,272,*6D
$GNGLL,0419.79431,S,05539.74590,E,061002.00,A,A*6E
$GNRMC,061003.00,A,0419.79432,S,05539.74583,E,0.032,,270525,,,A*71
$GNVTG,,T,,M,0.032,N,0.059,K,A*30
$GNGGA,061003.00,0419.79432,S,05539.74583,E,1,12,0.93,38.7,M,-47.6,M,,*46
$GNGSA,A,3,12,05,25,24,15,23,18,,,,,,1.93,0.93,1.68*19
$GNGSA,A,3,80,79,68,69,83,,,,,,,,1.93,0.93,1.68*1E
$GPGSV,4,1,16,05,48,044,28,12,69,049,33,13,14,117,09,15,37,148,25*7A
$GPGSV,4,2,16,18,34,279,20,20,15,035,,23,37,207,32,24,38,185,23*79
$GPGSV,4,3,16,25,48,343,32,28,01,300,,29,12,338,,36,52,277,*7F
$GPGSV,4,4,16,40,86,351,,41,58,082,,49,32,274,,50,10,089,*79
$GLGSV,3,1,10,67,16,074,,68,34,126,28,69,20,180,20,73,07,330,*60
$GLGSV,3,2,10,78,07,156,,79,58,164,28,80,61,322,31,82,03,011,*62
$GLGSV,3,3,10,83,18,325,15,84,12,272,*6E
$GNGLL,0419.79432,S,05539.74583,E,061003.00,A,A*6E
$GNRMC,061004.00,A,0419.79436,S,05539.74576,E,0.041,,270525,,,A*7C
$GNVTG,,T,,M,0.041,N,0.076,K,A*39
$GNGGA,061004.00,0419.79436,S,05539.74576,E,1,12,0.93,39.2,M,-47.6,M,,*4B
$GNGSA,A,3,12,05,25,24,15,23,18,,,,,,1.93,0.93,1.68*19
$GNGSA,A,3,80,79,68,69,83,,,,,,,,1.93,0.93,1.68*1E
