$GNRMC,061301.00,A,0419.78829,S,05539.74607,E,0.095,,270525,,,A*75
$GNVTG,,T,,M,0.095,N,0.175,K,A*32
$GNGGA,061301.00,0419.78829,S,05539.74607,E,1,11,1.06,24.2,M,-47.6,M,,*49
$GNGSA,A,3,12,05,25,24,15,23,20,,,,,,2.10,1.06,1.81*10
$GNGSA,A,3,80,79,68,83,,,,,,,,,2.10,1.06,1.81*13
$GPGSV,4,1,16,05,47,042,36,12,70,052,15,13,14,115,,15,37,147,18*70
$GPGSV,4,2,16,18,33,281,14,20,14,034,12,23,38,207,26,24,37,184,25*7F
$GPGSV,4,3,16,25,50,343,33,28,02,299,,29,12,339,,36,52,277,*74
$GPGSV,4,4,16,40,86,351,,41,58,082,,49,32,274,,50,10,089,*79
$GLGSV,3,1,10,67,16,073,,68,34,124,10,69,21,179,07,73,08,330,*63
$GLGSV,3,2,10,78,06,156,,79,56,165,20,80,63,319,29,82,02,013,*64
$GLGSV,3,3,10,83,17,327,07,84,11,274,*65
$GNGLL,0419.78829,S,05539.74607,E,061301.00,A,A*67
$GNRMC,061302.00,A,0419.78823,S,05539.74599,E,0.289,,270525,,,A*77
$GNVTG,,T,,M,0.289,N,0.535,K,A*3D
$GNGGA,061302.00,0419.78823,S,05539.74599,E,1,11,0.84,24.1,M,-47.6,M,,*4C
$GNGSA,A,3,05,25,24,15,23,18,20,,,,,,1.86,0.84,1.65*17
$GNGSA,A,3,80,79,68,83,,,,,,,,,1.86,0.84,1.65*1E
$GPGSV,4,1,16,05,47,042,34,12,70,052,,13,14,115,04,15,37,147,17*7D
$GPGSV,4,2,16,18,33,281,13,20,14,034,10,23,38,207,23,24,37,184,22*78
$GPGSV,4,3,16,25,50,343,27,28,02,299,,29,12,339,,36,52,277,*71
$GPGSV,4,4,16,40,86,351,,41,58,082,,49,32,274,,50,10,089,*79
$GLGSV,3,1,10,67,16,073,,68,34,124,10,69,21,179,07,73,08,330,*63
$GLGSV,3,2,10,78,06,156,,79,56,165,20,80,63,319,28,82,02,013,*65
$GLGSV,3,3,10,83,17,327,07,84,11,274,*65
$GNGLL,0419.78823,S,05539.74599,E,061302.00,A,A*6A
$GNRMC,061303.00,A,0419.78803,S,05539.74593,E,0.654,,270525,,,A*7A
$GNVTG,,T,,M,0.654,N,1.212,K,A*3A
$GNGGA,061303.00,0419.78803,S,05539.74593,E,1,11,0.96,24.3,M,-47.6,M,,*44
$GNGSA,A,3,05,25,24,15,23,18,20,,,,,,2.24,0.96,2.02*1D
$GNGSA,A,3,80,79,68,83,,,,,,,,,2.24,0.96,2.02*14
$GPGSV,4,1,16,05,47,042,35,12,70,054,18,13,14,115,08,15,37,147,15*7D
$GPGSV,4,2,16,18,33,281,15,20,14,034,10,23,38,207,21,24,37,184,22*7C
$GPGSV,4,3,16,25,50,343,32,28,02,299,,29,12,339,,36,52,277,*75
$GPGSV,4,4,16,40,86,351,,41,58,082,,49,32,274,,50,10,089,*79
$GLGSV,3,1,10,67,16,073,,68,34,124,12,69,21,179,07,73,08,330,*61
$GLGSV,3,2,10,78,06,156,,79,56,165,21,80,63,319,29,82,02,013,*65
$GLGSV,3,3,10,83,17,327,07,84,11,274,*65
$GNGLL,0419.78803,S,05539.74593,E,061303.00,A,A*63
$GNRMC,061304.00,A,0419.78797,S,05539.74587,E,0.160,,270525,,,A*7A
$GNVTG,,T,,M,0.160,N,0.296,K,A*37
$GNGGA,061304.00,0419.78797,S,05539.74587,E,1,11,0.96,24.0,M,-47.6,M,,*47
$GNGSA,A,3,05,25,24,15,23,18,20,,,,,,2.24,0.96,2.02*1D
$GNGSA,A,3,80,79,68,83,,,,,,,,,2.24,0.96,2.02*14
$GPGSV,4,1,16,05,47,042,35,12,70,054,19,13,14,115,12,15,37,147,17*75
$GPGSV,4,2,16,18,33,281,17,20,14,034,10,23,38,207,20,24,37,184,20*7D
$GPGSV,4,3,16,25,50,343,34,28,02,299,,29,12,339,,36,52,277,*73
$GPGSV,4,4,16,40,86,351,,41,58,082,,49,32,274,,50,10,089,*79
$GLGSV,3,1,10,67,16,073,,68,34,124,10,69,21,179,07,73,08,330,*63
$GLGSV,3,2,10,78,06,156,,79,56,165,22,80,63,319,30,82,02,013,*6E
$GLGSV,3,3,10,83,17,327,07,84,11,274,*65
$GNGLL,0419.78797,S,05539.74587,E,061304.00,A,A*63
$GNRMC,061305.00,A,0419.78790,S,05539.74582,E,0.081,,270525,,,A*77
$GNVTG,,T,,M,0.081,N,0.149,K,A*38
$GNGGA,061305.00,0419.78790,S,05539.74582,E,1,12,0.87,22.9,M,-47.6,M,,*48
$GNGSA,A,3,05,25,24,15,23,18,20,,,,,,1.92,0.87,1.71*14
$GNGSA,A,3,80,79,68,69,83,,,,,,,,1.92,0.87,1.71*12
$GPGSV,4,1,16,05,47,042,36,12,70,054,19,13,14,115,14,15,37,147,19*7E
$GPGSV,4,2,16,18,33,281,19,20,14,034,10,23,38,207,20,24,37,184,18*78
$GPGSV,4,3,16,25,50,343,35,28,02,299,,29,12,339,,36,52,277,*72
$GPGSV,4,4,16,40,86,351,,41,58,082,,49,32,274,,50,10,089,*79
$GLGSV,3,1,10,67,16,073,,68,34,124,08,69,21,179,16,73,08,330,*6A
$GLGSV,3,2,10,78,06,156,,79,56,165,25,80,63,319,34,82,02,013,*6D
$GLGSV,3,3,10,83,17,327,13,84,11,274,*60
$GNGLL,0419.78790,S,05539.74582,E,061305.00,A,A*60
$GNRMC,061306.00,A,0419.78781,S,05539.74576,E,0.106,,270525,,,A*71
$GNVTG,,T,,M,0.106,N,0.196,K,A*34
$GNGGA,061306.00,0419.78781,S,05539.74576,E,1,12,0.92,21.7,M,-47.6,M,,*49
$GNGSA,A,3,12,05,25,24,15,23,18,20,,,,,1.89,0.92,1.65*1C
$GNGSA,A,3,80,79,68,69,83,,,,,,,,1.89,0.92,1.65*19
$GPGSV,4,1,16,05,47,042,37,12,70,054,22,13,14,115,13,15,37,147,19*70
$GPGSV,4,2,16,18,33,281,23,20,14,034,10,23,38,207,21,24,37,184,21*7A
$GPGSV,4,3,16,25,50,343,35,28,02,299,,29,12,339,,36,52,277,*72
$GPGSV,4,4,16,40,86,351,,41,58,082,,49,32,274,,50,10,089,*79
$GLGSV,3,1,10,67,16,073,,68,34,124,11,69,21,179,16,73,08,330,*62
$GLGSV,3,2,10,78,06,156,,79,56,165,25,80,63,319,33,82,02,013,*6A
$GLGSV,3,3,10,83,17,327,13,84,11,274,*60
$GNGLL,0419.78781,S,05539.74576,E,061306.00,A,A*68
$GNRMC,061307.00,A,0419.78786,S,05539.74568,E,0.443,,270525,,,A*7C
$GNVTG,,T,,M,0.443,N,0.821,K,A*35
$GNGGA,061307.00,0419.78786,S,05539.74568,E,1,12,0.78,20.5,M,-47.6,M,,*47
$GNGSA,A,3,12,05,25,24,15,23,18,20,13,,,,1.53,0.78,1.32*1F
$GNGSA,A,3,80,79,68,69,83,,,,,,,,1.53,0.78,1.32*18
$GPGSV,4,1,16,05,47,042,36,12,70,054,21,13,14,115,13,15,37,147,18*73
$GPGSV,4,2,16,18,33,281,26,20,14,034,10,23,38,207,21,24,37,184,23*7D
$GPGSV,4,3,16,25,50,343,36,28,02,299,,29,12,339,,36,52,277,*71
$GPGSV,4,4,16,40,86,351,,41,58,082,,49,32,274,,50,10,089,*79
$GLGSV,3,1,10,67,16,073,,68,34,124,15,69,21,179,15,73,08,330,*65
$GLGSV,3,2,10,78,06,156,,79,56,165,26,80,63,319,33,82,02,013,*69
$GLGSV,3,3,10,83,17,327,16,84,11,274,*65
$GNGLL,0419.78786,S,05539.74568,E,061307.00,A,A*61
$GNRMC,061308.00,A,0419.78782,S,05539.74565,E,0.279,,270525,,,A*75
$GNVTG,,T,,M,0.279,N,0.517,K,A*32
$GNGGA,061308.00,0419.78782,S,05539.74565,E,1,12,0.78,19.7,M,-47.6,M,,*49
$GNGSA,A,3,12,05,25,24,15,23,18,20,,,,,1.53,0.78,1.32*1D
$GNGSA,A,3,80,79,68,69,83,,,,,,,,1.53,0.78,1.32*18
$GPGSV,4,1,16,05,47,042,36,12,70,054,20,13,14,115,12,15,37,147,14*7F
$GPGSV,4,2,16,18,33,281,26,20,14,034,17,23,38,207,21,24,37,184,24*7D
$GPGSV,4,3,16,25,50,343,37,28,02,299,,29,12,339,,36,52,277,*70
$GPGSV,4,4,16,40,86,351,,41,58,082,,49,32,274,,50,10,089,*79
$GLGSV,3,1,10,67,16,073,,68,34,124,19,69,21,179,15,73,08,330,*69
$GLGSV,3,2,10,78,06,156,,79,56,165,27,80,63,319,34,82,02,013,*6F
$GLGSV,3,3,10,83,17,327,16,84,11,274,*65
$GNGLL,0419.78782,S,05539.74565,E,061308.00,A,A*67
$GNRMC,061309.00,A,0419.78775,S,05539.74559,E,0.253,,270525,,,A*7B
$GNVTG,,T,,M,0.253,N,0.468,K,A*33
$GNGGA,061309.00,0419.78775,S,05539.74559,E,1,12,0.74,17.7,M,-47.6,M,,*4D
$GNGSA,A,3,12,05,25,24,15,23,18,20,13,,,,1.41,0.74,1.21*12
$GNGSA,A,3,80,79,68,69,83,,,,,,,,1.41,0.74,1.21*15
$GPGSV,4,1,16,05,47,042,36,12,70,054,20,13,14,115,11,15,37,147,14*7C
$GPGSV,4,2,16,18,33,281,25,20,14,034,17,23,38,207,20,24,37,184,25*7E
$GPGSV,4,3,16,25,50,343,37,28,02,299,,29,12,339,,36,52,277,*70
$GPGSV,4,4,16,40,86,351,,41,58,082,,49,32,274,,50,10,089,*79
$GLGSV,3,1,10,67,16,073,,68,34,124,15,69,21,179,15,73,08,330,*65
$GLGSV,3,2,10,78,06,156,,79,56,165,29,80,63,319,35,82,02,013,*60
$GLGSV,3,3,10,83,17,327,15,84,11,274,*66
$GNGLL,0419.78775,S,05539.74559,E,061309.00,A,A*61
$GNRMC,061310.00,A,0419.78772,S,05539.74555,E,0.069,,270525,,,A*73
$GNVTG,,T,,M,0.069,N,0.127,K,A*36
$GNGGA,061310.00,0419.78772,S,05539.74555,E,1,12,0.74,16.9,M,-47.6,M,,*41
$GNGSA,A,3,12,05,25,24,15,23,18,20,13,,,,1.41,0.74,1.21*12
$GNGSA,A,3,80,79,68,69,83,,,,,,,,1.41,0.74,1.21*15
$GPGSV,4,1,16,05,47,042,35,12,70,054,20,13,14,115,11,15,37,147,16*7D
$GPGSV,4,2,16,18,33,281,22,20,14,034,17,23,38,207,20,24,37,184,24*78
$GPGSV,4,3,16,25,50,343,36,28,02,299,,29,12,339,,36,52,277,*71
$GPGSV,4,4,16,40,86,351,,41,58,082,,49,32,274,,50,10,089,*79
$GLGSV,3,1,10,67,16,073,,68,34,124,15,69,21,179,15,73,08,330,*65
$GLGSV,3,2,10,78,06,156,,79,56,165,29,80,63,319,35,82,02,013,*60
$GLGSV,3,3,10,83,17,327,15,84,11,274,*66
$GNGLL,0419.78772,S,05539.74555,E,061310.00,A,A*62
$GNRMC,061311.00,A,0419.78776,S,05539.74557,E,0.075,,270525,,,A*79
$GNVTG,,T,,M,0.075,N,0.140,K,A*3A
$GNGGA,061311.00,0419.78776,S,05539.74557,E,1,12,1.05,16.6,M,-47.6,M,,*4E
$GNGSA,A,3,12,05,25,24,15,23,18,13,,,,,2.63,1.05,2.42*12
$GNGSA,A,3,80,79,68,69,83,,,,,,,,2.63,1.05,2.42*17
$GPGSV,4,1,16,05,47,042,34,12,70,054,22,13,14,115,10,15,37,147,17*7E
$GPGSV,4,2,16,18,33,281,22,20,14,034,,23,38,207,22,24,37,184,24*7C
$GPGSV,4,3,16,25,50,343,36,28,02,299,,29,12,339,,36,52,277,*71
$GPGSV,4,4,16,40,86,351,,41,58,082,,49,32,274,,50,10,089,*79
$GLGSV,3,1,10,67,16,073,,68,34,124,16,69,21,179,27,73,08,330,*67
$GLGSV,3,2,10,78,06,156,,79,56,165,29,80,63,319,35,82,02,013,*60
$GLGSV,3,3,10,83,17,327,16,84,11,274,*65
$GNGLL,0419.78776,S,05539.74557,E,061311.00,A,A*65
$GNRMC,061312.00,A,0419.78769,S,05539.74557,E,0.116,,270525,,,A*70
$GNVTG,,T,,M,0.116,N,0.214,K,A*3C
$GNGGA,061312.00,0419.78769,S,05539.74557,E,1,12,0.92,16.1,M,-47.6,M,,*4B
$GNGSA,A,3,12,05,25,24,15,23,18,13,,,,,1.89,0.92,1.65*1C
$GNGSA,A,3,80,79,68,69,83,,,,,,,,1.89,0.92,1.65*19
$GPGSV,4,1,16,05,47,042,35,12,70,054,23,13,14,115,10,15,37,147,15*7C
$GPGSV,4,2,16,18,33,281,22,20,14,034,18,23,38,207,25,24,37,184,23*75
$GPGSV,4,3,16,25,50,343,35,28,02,299,,29,12,339,,36,52,277,*72
$GPGSV,4,4,16,40,86,351,,41,58,082,,49,32,274,,50,10,089,*79
$GLGSV,3,1,10,67,16,073,,68,34,124,16,69,21,179,26,73,08,330,*66
$GLGSV,3,2,10,78,06,156,,79,56,165,30,80,63,319,30,82,02,013,*6D
$GLGSV,3,3,10,83,17,327,16,84,11,274,*65
$GNGLL,0419.78769,S,05539.74557,E,061312.00,A,A*68
$GNRMC,061313.00,A,0419.78759,S,05539.74557,E,0.159,,270525,,,A*79
$GNVTG,,T,,M,0.159,N,0.295,K,A*3E
$GNGGA,061313.00,0419.78759,S,05539.74557,E,1,12,0.92,15.8,M,-47.6,M,,*43
$GNGSA,A,3,12,05,25,24,15,23,18,,,,,,1.89,0.92,1.65*1E
$GNGSA,A,3,80,79,68,69,83,,,,,,,,1.89,0.92,1.65*19
$GPGSV,4,1,16,05,47,042,35,12,70,054,26,13,14,115,10,15,37,147,16*7A
$GPGSV,4,2,16,18,33,281,22,20,14,034,16,23,38,208,24,24,37,184,24*72
$GPGSV,4,3,16,25,50,343,36,28,02,299,,29,12,339,,36,52,277,*71
$GPGSV,4,4,16,40,86,351,,41,58,082,,49,32,274,,50,10,089,*79
$GLGSV,3,1,10,67,16,073,,68,34,124,16,69,21,179,23,73,08,330,*63
$GLGSV,3,2,10,78,06,156,,79,56,165,30,80,63,319,32,82,02,013,*6F
$GLGSV,3,3,10,83,17,327,14,84,11,274,*67
$GNGLL,0419.78759,S,05539.74557,E,061313.00,A,A*6A
$GNRMC,061314.00,A,0419.78753,S,05539.74575,E,0.611,,270525,,,A*7F
$GNVTG,,T,,M,0.611,N,1.131,K,A*39
$GNGGA,061314.00,0419.78753,S,05539.74575,E,1,11,1.05,16.2,M,-47.6,M,,*4B
$GNGSA,A,3,12,05,25,24,15,23,18,,,,,,2.63,1.05,2.42*10
$GNGSA,A,3,80,79,68,69,,,,,,,,,2.63,1.05,2.42*1C
$GPGSV,4,1,16,05,47,042,34,12,70,054,26,13,14,115,,15,37,147,19*75
$GPGSV,4,2,16,18,33,281,24,20,14,034,15,23,38,208,20,24,37,183,26*76
$GPGSV,4,3,16,25,50,343,36,28,02,299,,29,12,339,,36,52,277,*71
$GPGSV,4,4,16,40,86,351,,41,58,082,,49,32,274,,50,10,089,*79
$GLGSV,3,1,10,67,16,073,,68,34,124,15,69,21,179,25,73,08,330,*66
$GLGSV,3,2,10,78,06,156,,79,56,165,31,80,63,319,34,82,02,013,*68
$GLGSV,3,3,10,83,17,327,10,84,11,274,*63
$GNGLL,0419.78753,S,05539.74575,E,061314.00,A,A*67
$GNRMC,061315.00,A,0419.78747,S,05539.74580,E,0.214,,270525,,,A*70
$GNVTG,,T,,M,0.214,N,0.396,K,A*36
$GNGGA,061315.00,0419.78747,S,05539.74580,E,1,11,1.05,15.1,M,-47.6,M,,*45
$GNGSA,A,3,12,05,25,24,15,23,18,,,,,,2.63,1.05,2.42*10
$GNGSA,A,3,80,79,68,69,,,,,,,,,2.63,1.05,2.42*1C
$GPGSV,4,1,16,05,47,042,34,12,70,054,27,13,14,115,,15,37,147,21*7F
$GPGSV,4,2,16,18,33,281,24,20,14,034,15,23,38,208,18,24,37,183,26*7D
$GPGSV,4,3,16,25,50,343,36,28,02,299,,29,12,339,,36,52,277,*71
$GPGSV,4,4,16,40,86,351,,41,58,082,,49,32,274,,50,10,089,*79
$GLGSV,3,1,10,67,16,073,,68,34,124,11,69,21,179,24,73,08,330,*63
$GLGSV,3,2,10,78,06,156,,79,56,165,31,80,63,319,33,82,02,013,*6F
$GLGSV,3,3,10,83,17,327,09,84,11,274,*6B
$GNGLL,0419.78747,S,05539.74580,E,061315.00,A,A*69
$GNRMC,061316.00,A,0419.78748,S,05539.74586,E,0.029,,270525,,,A*76
$GNVTG,,T,,M,0.029,N,0.054,K,A*37
$GNGGA,061316.00,0419.78748,S,05539.74586,E,1,12,1.16,14.4,M,-47.6,M,,*4A
$GNGSA,A,3,12,05,25,24,15,23,18,20,,,,,2.81,1.16,2.56*19
$GNGSA,A,3,80,79,68,69,,,,,,,,,2.81,1.16,2.56*17
$GPGSV,4,1,16,05,47,042,34,12,70,054,27,13,14,115,,15,37,147,23*7D
$GPGSV,4,2,16,18,33,281,23,20,14,034,15,23,38,208,25,24,37,183,26*74
$GPGSV,4,3,16,25,50,343,36,28,02,299,,29,12,339,,36,52,277,*71
$GPGSV,4,4,16,40,86,351,,41,58,082,,49,32,274,,50,10,089,*79
$GLGSV,3,1,10,67,16,073,,68,34,124,13,69,21,179,23,73,08,330,*66
$GLGSV,3,2,10,78,06,156,,79,56,165,30,80,63,319,33,82,02,013,*6E
$GLGSV,3,3,10,83,17,327,09,84,11,274,*6B
$GNGLL,0419.78748,S,05539.74586,E,061316.00,A,A*63
$GNRMC,061317.00,A,0419.78747,S,05539.74583,E,0.032,,270525,,,A*77
$GNVTG,,T,,M,0.032,N,0.060,K,A*3A
$GNGGA,061317.00,0419.78747,S,05539.74583,E,1,12,0.92,13.8,M,-47.6,M,,*47
$GNGSA,A,3,12,05,25,24,15,23,18,20,,,,,1.76,0.92,1.50*1A
$GNGSA,A,3,80,79,68,69,,,,,,,,,1.76,0.92,1.50*14
$GPGSV,4,1,16,05,47,042,32,12,70,054,25,13,14,115,,15,37,147,22*78
$GPGSV,4,2,16,18,33,281,22,20,14,034,14,23,38,208,26,24,37,183,25*74
$GPGSV,4,3,16,25,50,343,35,28,02,299,,29,12,339,,36,52,277,*72
$GPGSV,4,4,16,40,86,351,,41,58,082,,49,32,274,,50,10,089,*79
$GLGSV,3,1,10,67,16,073,,68,34,124,13,69,21,179,23,73,08,330,*66
$GLGSV,3,2,10,78,06,156,,79,56,165,30,80,63,319,34,82,02,013,*69
$GLGSV,3,3,10,83,17,327,09,84,11,274,*6B
$GNGLL,0419.78747,S,05539.74583,E,061317.00,A,A*68
$GNRMC,061318.00,A,0419.78747,S,05539.74585,E,0.093,,270525,,,A*75
$GNVTG,,T,,M,0.093,N,0.172,K,A*33
$GNGGA,061318.00,0419.78747,S,05539.74585,E,1,12,0.92,13.5,M,-47.6,M,,*43
$GNGSA,A,3,12,05,25,24,15,23,18,20,,,,,1.76,0.92,1.50*1A
$GNGSA,A,3,80,79,68,69,,,,,,,,,1.76,0.92,1.50*14
$GPGSV,4,1,16,05,47,042,31,12,70,054,24,13,14,115,,15,37,147,21*79
$GPGSV,4,2,16,18,33,281,22,20,14,034,15,23,38,208,27,24,37,183,25*74
$GPGSV,4,3,16,25,50,343,35,28,02,298,,29,12,339,,36,52,277,*73
$GPGSV,4,4,16,40,86,351,,41,58,082,,49,32,274,,50,10,089,*79
$GLGSV,3,1,10,67,16,073,,68,34,124,12,69,21,179,22,73,08,330,*66
$GLGSV,3,2,10,78,06,156,,79,56,165,30,80,63,319,34,82,02,013,*69
$GLGSV,3,3,10,83,17,327,10,84,11,274,*63
$GNGLL,0419.78747,S,05539.74585,E,061318.00,A,A*61
$GNRMC,061319.00,A,0419.78747,S,05539.74588,E,0.109,,270525,,,A*7B
$GNVTG,,T,,M,0.109,N,0.203,K,A*34
$GNGGA,061319.00,0419.78747,S,05539.74588,E,1,12,0.79,13.2,M,-47.6,M,,*4D
$GNGSA,A,3,12,05,25,24,15,23,18,20,,,,,1.53,0.79,1.32*1C
$GNGSA,A,3,80,79,68,69,83,,,,,,,,1.53,0.79,1.32*19
$GPGSV,4,1,16,05,47,042,31,12,70,054,25,13,14,115,,15,37,147,21*78
$GPGSV,4,2,16,18,33,281,23,20,14,034,13,23,38,208,28,24,37,183,25*7C
$GPGSV,4,3,16,25,50,343,35,28,02,298,,29,12,340,,36,52,277,*7D
$GPGSV,4,4,16,40,86,351,,41,58,082,,49,32,274,,50,10,089,*79
$GLGSV,3,1,10,67,16,073,,68,34,124,15,69,21,179,20,73,08,330,*63
$GLGSV,3,2,10,78,06,156,,79,56,165,30,80,63,319,34,82,02,013,*69
$GLGSV,3,3,10,83,17,327,12,84,11,274,*61
$GNGLL,0419.78747,S,05539.74588,E,061319.00,A,A*6D
$GNRMC,061320.00,A,0419.78745,S,05539.74590,E,0.036,,270525,,,A*77
$GNVTG,,T,,M,0.036,N,0.066,K,A*38
$GNGGA,061320.00,0419.78745,S,05539.74590,E,1,12,0.92,12.3,M,-47.6,M,,*49
$GNGSA,A,3,12,05,25,24,15,23,18,20,,,,,1.89,0.92,1.65*1C
$GNGSA,A,3,80,79,68,69,83,,,,,,,,1.89,0.92,1.65*19
$GPGSV,4,1,16,05,47,042,32,12,70,054,26,13,14,115,,15,37,147,24*7D
$GPGSV,4,2,16,18,33,281,23,20,14,034,12,23,38,208,29,24,37,183,26*7F
$GPGSV,4,3,16,25,50,343,36,28,02,298,,29,12,340,,36,52,277,*7E
$GPGSV,4,4,16,40,86,351,,41,58,082,,49,32,274,,50,10,089,*79
$GLGSV,3,1,10,67,16,073,,68,34,124,14,69,21,179,20,73,08,330,*62
$GLGSV,3,2,10,78,06,156,,79,56,165,28,80,63,319,34,82,02,013,*60
$GLGSV,3,3,10,83,17,327,13,84,11,274,*60
$GNGLL,0419.78745,S,05539.74590,E,061320.00,A,A*6C
$GNRMC,061321.00,A,0419.78745,S,05539.74590,E,0.105,,270525,,,A*77
$GNVTG,,T,,M,0.105,N,0.195,K,A*34
$GNGGA,061321.00,0419.78745,S,05539.74590,E,1,12,0.79,11.7,M,-47.6,M,,*4A
$GNGSA,A,3,12,05,25,24,15,23,18,20,,,,,1.53,0.79,1.32*1C
$GNGSA,A,3,80,79,68,69,83,,,,,,,,1.53,0.79,1.32*19
$GPGSV,4,1,16,05,47,042,31,12,70,054,27,13,14,115,,15,37,147,22*79
$GPGSV,4,2,16,18,33,281,24,20,14,034,11,23,38,208,28,24,37,183,25*79
$GPGSV,4,3,16,25,50,343,35,28,02,298,,29,12,340,,36,52,277,*7D
$GPGSV,4,4,16,40,86,351,,41,58,082,,49,32,274,,50,10,089,*79
$GLGSV,3,1,10,67,16,073,,68,34,124,15,69,21,179,21,73,08,330,*62
$GLGSV,3,2,10,78,06,156,,79,56,165,27,80,63,319,35,82,02,013,*6E
$GLGSV,3,3,10,83,17,327,13,84,11,274,*60
$GNGLL,0419.78745,S,05539.74590,E,061321.00,A,A*6D
$GNRMC,061322.00,A,0419.78742,S,05539.74590,E,0.083,,270525,,,A*7C
$GNVTG,,T,,M,0.083,N,0.154,K,A*36
$GNGGA,061322.00,0419.78742,S,05539.74590,E,1,12,0.79,11.0,M,-47.6,M,,*49
$GNGSA,A,3,12,05,25,24,15,23,18,20,,,,,1.53,0.79,1.32*1C
$GNGSA,A,3,80,79,68,69,83,,,,,,,,1.53,0.79,1.32*19
$GPGSV,4,1,16,05,47,042,31,12,70,054,27,13,14,115,,15,37,147,22*79
$GPGSV,4,2,16,18,33,281,24,20,14,034,12,23,38,208,28,24,37,183,25*7A
$GPGSV,4,3,16,25,50,343,36,28,02,298,,29,12,340,,36,52,277,*7E
$GPGSV,4,4,16,40,86,351,,41,58,082,,49,32,274,,50,10,089,*79
$GLGSV,3,1,10,67,16,073,,68,34,124,17,69,21,179,22,73,08,330,*63
$GLGSV,3,2,10,78,06,156,,79,56,165,27,80,63,319,34,82,02,013,*6F
$GLGSV,3,3,10,83,17,327,14,84,11,274,*67
$GNGLL,0419.78742,S,05539.74590,E,061322.00,A,A*69
$GNRMC,061323.00,A,0419.78742,S,05539.74596,E,0.108,,270525,,,A*79
$GNVTG,,T,,M,0.108,N,0.200,K,A*36
$GNGGA,061323.00,0419.78742,S,05539.74596,E,1,12,0.92,10.8,M,-47.6,M,,*42
$GNGSA,A,3,12,05,25,24,15,23,18,,,,,,1.89,0.92,1.65*1E
$GNGSA,A,3,80,79,68,69,83,,,,,,,,1.89,0.92,1.65*19
$GPGSV,4,1,16,05,47,042,33,12,70,054,26,13,14,115,,15,37,147,22*7A
$GPGSV,4,2,16,18,33,281,24,20,14,034,10,23,38,208,27,24,37,183,26*74
$GPGSV,4,3,16,25,50,343,36,28,02,298,,29,12,340,,36,52,277,*7E
$GPGSV,4,4,16,40,86,351,,41,58,082,,49,32,274,,50,10,089,*79
$GLGSV,3,1,10,67,16,073,,68,34,124,19,69,21,179,24,73,08,330,*6B
$GLGSV,3,2,10,78,06,156,,79,56,165,28,80,63,319,34,82,02,013,*60
$GLGSV,3,3,10,83,17,327,13,84,11,274,*60
$GNGLL,0419.78742,S,05539.74596,E,061323.00,A,A*6E
$GNRMC,061324.00,A,0419.78739,S,05539.74603,E,0.071,,270525,,,A*72
$GNVTG,,T,,M,0.071,N,0.132,K,A*3B
$GNGGA,061324.00,0419.78739,S,05539.74603,E,1,12,0.92,10.3,M,-47.6,M,,*4D
$GNGSA,A,3,12,05,25,24,15,23,18,,,,,,1.89,0.92,1.65*1E
$GNGSA,A,3,80,79,68,69,83,,,,,,,,1.89,0.92,1.65*19
$GPGSV,4,1,16,05,47,042,34,12,70,054,26,13,14,115,,15,37,147,21*7E
$GPGSV,4,2,16,18,33,281,24,20,14,034,07,23,38,208,26,24,37,183,24*71
$GPGSV,4,3,16,25,50,343,36,28,02,298,,29,12,340,,36,52,277,*7E
$GPGSV,4,4,16,40,86,351,,41,58,082,,49,32,274,,50,10,089,*79
$GLGSV,3,1,10,67,16,073,,68,34,124,21,69,21,179,24,73,08,330,*60
$GLGSV,3,2,10,78,06,156,,79,56,165,27,80,63,319,34,82,02,013,*6F
$GLGSV,3,3,10,83,17,327,14,84,11,274,*67
$GNGLL,0419.78739,S,05539.74603,E,061324.00,A,A*6A
$GNRMC,061325.00,A,0419.78736,S,05539.74613,E,0.205,,270525,,,A*7C
$GNVTG,,T,,M,0.205,N,0.379,K,A*37
$GNGGA,061325.00,0419.78736,S,05539.74613,E,1,12,0.92,10.1,M,-47.6,M,,*40
$GNGSA,A,3,12,05,25,24,15,23,18,,,,,,1.89,0.92,1.65*1E
$GNGSA,A,3,80,79,68,69,83,,,,,,,,1.89,0.92,1.65*19
$GPGSV,4,1,16,05,47,042,34,12,70,054,25,13,14,115,,15,37,147,19*76
$GPGSV,4,2,16,18,33,281,24,20,14,034,09,23,38,208,26,24,37,183,21*7A
$GPGSV,4,3,16,25,50,343,36,28,02,298,,29,12,340,,36,52,277,*7E
$GPGSV,4,4,16,40,86,351,,41,58,082,,49,32,274,,50,10,089,*79
$GLGSV,3,1,10,67,16,073,,68,34,124,21,69,21,179,24,73,08,330,*60
$GLGSV,3,2,10,78,06,156,,79,56,165,28,80,63,319,34,82,02,013,*60
$GLGSV,3,3,10,83,17,327,15,84,11,274,*66
$GNGLL,0419.78736,S,05539.74613,E,061325.00,A,A*65
$GNRMC,061326.00,A,0419.78728,S,05539.74619,E,0.100,,270525,,,A*7C
$GNVTG,,T,,M,0.100,N,0.185,K,A*30
$GNGGA,061326.00,0419.78728,S,05539.74619,E,1,12,0.79,9.8,M,-47.6,M,,*72
$GNGSA,A,3,12,05,25,24,15,23,18,20,,,,,1.53,0.79,1.32*1C
$GNGSA,A,3,80,79,68,69,83,,,,,,,,1.53,0.79,1.32*19
$GPGSV,4,1,16,05,47,042,34,12,70,054,24,13,14,115,,15,37,147,21*7C
$GPGSV,4,2,16,18,33,281,23,20,14,034,13,23,38,208,27,24,37,183,17*72
$GPGSV,4,3,16,25,50,343,37,28,02,298,,29,12,340,,36,52,277,*7F
$GPGSV,4,4,16,40,86,351,,41,58,082,,49,32,274,,50,10,089,*79
$GLGSV,3,1,10,67,16,073,,68,34,124,21,69,21,179,24,73,08,330,*60
$GLGSV,3,2,10,78,06,156,,79,56,165,28,80,63,319,33,82,02,013,*67
$GLGSV,3,3,10,83,17,327,15,84,11,274,*66
$GNGLL,0419.78728,S,05539.74619,E,061326.00,A,A*63
$GNRMC,061327.00,A,0419.78724,S,05539.74629,E,0.223,,270525,,,A*70
$GNVTG,,T,,M,0.223,N,0.412,K,A*39
$GNGGA,061327.00,0419.78724,S,05539.74629,E,1,12,0.79,10.1,M,-47.6,M,,*4D
$GNGSA,A,3,12,05,25,24,15,23,18,20,,,,,1.53,0.79,1.32*1C
$GNGSA,A,3,80,79,68,69,83,,,,,,,,1.53,0.79,1.32*19
$GPGSV,4,1,16,05,47,042,34,12,70,054,22,13,14,115,,15,37,147,23*78
$GPGSV,4,2,16,18,33,281,22,20,14,034,14,23,38,208,26,24,37,183,18*7A
$GPGSV,4,3,16,25,50,343,38,28,02,298,,29,12,340,,36,52,277,*70
$GPGSV,4,4,16,40,86,351,,41,58,082,,49,32,274,,50,10,089,*79
$GLGSV,3,1,10,67,16,073,,68,34,124,22,69,21,179,25,73,08,330,*62
$GLGSV,3,2,10,78,06,156,,79,56,165,30,80,63,319,33,82,02,013,*6E
$GLGSV,3,3,10,83,17,327,13,84,11,274,*60
$GNGLL,0419.78724,S,05539.74629,E,061327.00,A,A*6D
$GNRMC,061328.00,A,0419.78719,S,05539.74632,E,0.094,,270525,,,A*75
$GNVTG,,T,,M,0.094,N,0.174,K,A*32
$GNGGA,061328.00,0419.78719,S,05539.74632,E,1,12,0.79,10.2,M,-47.6,M,,*45
$GNGSA,A,3,12,05,25,24,15,23,18,20,,,,,1.53,0.79,1.32*1C
$GNGSA,A,3,80,79,68,69,83,,,,,,,,1.53,0.79,1.32*19
$GPGSV,4,1,16,05,47,042,33,12,70,054,25,13,14,115,,15,37,147,24*7F
$GPGSV,4,2,16,18,33,281,22,20,14,034,15,23,38,208,27,24,37,183,20*71
$GPGSV,4,3,16,25,50,343,38,28,02,298,,29,12,340,,36,52,277,*70
$GPGSV,4,4,16,40,86,351,,41,58,082,,49,32,274,,50,10,089,*79
$GLGSV,3,1,10,67,16,073,,68,34,124,20,69,21,179,22,73,08,330,*67
$GLGSV,3,2,10,78,06,156,,79,56,165,29,80,63,319,34,82,02,013,*61
$GLGSV,3,3,10,83,17,327,11,84,11,274,*62
$GNGLL,0419.78719,S,05539.74632,E,061328.00,A,A*66
$GNRMC,061329.00,A,0419.78714,S,05539.74638,E,0.125,,270525,,,A*78
$GNVTG,,T,,M,0.125,N,0.231,K,A*3B
$GNGGA,061329.00,0419.78714,S,05539.74638,E,1,12,0.85,10.2,M,-47.6,M,,*40
$GNGSA,A,3,12,05,25,24,15,23,18,20,,,,,1.72,0.85,1.50*18
$GNGSA,A,3,80,79,68,69,,,,,,,,,1.72,0.85,1.50*16
$GPGSV,4,1,16,05,47,042,33,12,70,054,25,13,14,115,,15,37,147,23*78
$GPGSV,4,2,16,18,33,281,20,20,14,034,13,23,38,208,28,24,37,183,19*70
$GPGSV,4,3,16,25,50,343,37,28,02,298,,29,12,340,,36,52,277,*7F
$GPGSV,4,4,16,40,86,351,,41,58,082,,49,32,274,,50,10,089,*79
$GLGSV,3,1,10,67,16,073,,68,34,124,18,69,21,179,21,73,08,330,*6F
$GLGSV,3,2,10,78,06,156,,79,56,165,28,80,63,319,33,82,02,013,*67
$GLGSV,3,3,10,83,17,327,10,84,11,274,*63
$GNGLL,0419.78714,S,05539.74638,E,061329.00,A,A*60
$GNRMC,061330.00,A,0419.78711,S,05539.74639,E,0.073,,270525,,,A*76
$GNVTG,,T,,M,0.073,N,0.135,K,A*3E
$GNGGA,061330.00,0419.78711,S,05539.74639,E,1,12,0.79,9.8,M,-47.6,M,,*7D
$GNGSA,A,3,12,05,25,24,15,23,18,20,,,,,1.53,0.79,1.31*1F
$GNGSA,A,3,80,79,68,69,83,,,,,,,,1.53,0.79,1.31*1A
$GPGSV,4,1,16,05,47,042,33,12,70,054,26,13,14,115,,15,37,147,26*7E
$GPGSV,4,2,16,18,33,281,23,20,14,034,12,23,38,208,27,24,37,183,18*7C
$GPGSV,4,3,16,25,50,343,37,28,02,298,,29,12,340,,36,52,277,*7F
$GPGSV,4,4,16,40,86,351,,41,58,082,,49,32,274,,50,10,089,*79
$GLGSV,3,1,10,67,16,073,,68,34,124,17,69,21,179,18,73,08,330,*6A
$GLGSV,3,2,10,78,06,156,,79,56,165,28,80,63,319,31,82,02,013,*65
$GLGSV,3,3,10,83,17,327,14,84,11,274,*67
$GNGLL,0419.78711,S,05539.74639,E,061330.00,A,A*6C
$GNRMC,061331.00,A,0419.78708,S,05539.74634,E,0.141,,270525,,,A*72
$GNVTG,,T,,M,0.141,N,0.261,K,A*3C
$GNGGA,061331.00,0419.78708,S,05539.74634,E,1,12,0.79,9.3,M,-47.6,M,,*72
$GNGSA,A,3,12,05,25,24,15,23,18,20,,,,,1.53,0.79,1.31*1F
$GNGSA,A,3,80,79,68,69,83,,,,,,,,1.53,0.79,1.31*1A
$GPGSV,4,1,16,05,47,042,32,12,70,054,26,13,14,115,,15,37,147,26*7F
$GPGSV,4,2,16,18,33,281,22,20,14,034,13,23,38,208,26,24,37,183,24*72
$GPGSV,4,3,16,25,50,343,36,28,02,298,,29,12,340,,36,52,277,*7E
$GPGSV,4,4,16,40,86,351,,41,58,082,,49,32,274,,50,10,089,*79
$GLGSV,3,1,10,67,16,073,,68,34,124,17,69,21,179,18,73,08,330,*6A
$GLGSV,3,2,10,78,06,156,,79,56,165,28,80,63,319,30,82,02,013,*64
$GLGSV,3,3,10,83,17,327,15,84,11,274,*66
$GNGLL,0419.78708,S,05539.74634,E,061331.00,A,A*68
$GNRMC,061332.00,A,0419.78705,S,05539.74632,E,0.006,,270525,,,A*78
$GNVTG,,T,,M,0.006,N,0.010,K,A*3A
$GNGGA,061332.00,0419.78705,S,05539.74632,E,1,12,0.79,8.9,M,-47.6,M,,*71
$GNGSA,A,3,12,05,25,24,15,23,18,20,,,,,1.53,0.79,1.31*1F
$GNGSA,A,3,80,79,68,69,83,,,,,,,,1.53,0.79,1.31*1A
$GPGSV,4,1,16,05,47,042,33,12,70,054,25,13,14,115,,15,37,147,26*7D
$GPGSV,4,2,16,18,33,281,21,20,14,034,11,23,38,208,25,24,37,183,26*72
$GPGSV,4,3,16,25,50,343,36,28,02,298,,29,12,340,,36,52,277,*7E
$GPGSV,4,4,16,40,86,351,,41,58,082,,49,32,274,,50,10,089,*79
$GLGSV,3,1,10,67,16,073,,68,34,124,17,69,21,179,20,73,08,330,*61
$GLGSV,3,2,10,78,06,156,,79,56,165,29,80,63,319,32,82,02,013,*67
$GLGSV,3,3,10,83,17,327,14,84,11,274,*67
$GNGLL,0419.78705,S,05539.74632,E,061332.00,A,A*60
$GNRMC,061333.00,A,0419.78704,S,05539.74635,E,0.115,,270525,,,A*7C
$GNVTG,,T,,M,0.115,N,0.213,K,A*38
$GNGGA,061333.00,0419.78704,S,05539.74635,E,1,12,0.92,8.8,M,-47.6,M,,*72
$GNGSA,A,3,12,05,25,24,15,23,18,,,,,,1.89,0.92,1.65*1E
$GNGSA,A,3,80,79,68,69,83,,,,,,,,1.89,0.92,1.65*19
$GPGSV,4,1,16,05,47,042,34,12,70,054,25,13,14,115,,15,37,147,25*79
$GPGSV,4,2,16,18,33,281,18,20,14,034,10,23,38,208,25,24,37,183,26*79
$GPGSV,4,3,16,25,50,343,37,28,02,298,,29,12,340,,36,52,277,*7F
$GPGSV,4,4,16,40,86,351,,41,58,082,,49,32,274,,50,10,089,*79
$GLGSV,3,1,10,67,16,073,,68,34,124,15,69,21,179,21,73,08,330,*62
$GLGSV,3,2,10,78,06,156,,79,56,165,30,80,63,319,32,82,02,013,*6F
$GLGSV,3,3,10,83,17,327,10,84,11,274,*63
$GNGLL,0419.78704,S,05539.74635,E,061333.00,A,A*67
$GNRMC,061334.00,A,0419.78701,S,05539.74635,E,0.036,,270525,,,A*7E
$GNVTG,,T,,M,0.036,N,0.066,K,A*38
$GNGGA,061334.00,0419.78701,S,05539.74635,E,1,12,0.85,8.0,M,-47.6,M,,*7E
$GNGSA,A,3,12,05,25,24,15,23,18,20,,,,,1.72,0.85,1.50*18
$GNGSA,A,3,80,79,68,69,,,,,,,,,1.72,0.85,1.50*16
$GPGSV,4,1,16,05,47,042,33,12,70,054,26,13,14,115,,15,37,147,25*7D
$GPGSV,4,2,16,18,33,281,16,20,14,034,10,23,38,208,22,24,37,183,24*72
$GPGSV,4,3,16,25,50,343,36,28,02,298,,29,12,340,,36,52,277,*7E
$GPGSV,4,4,16,40,86,351,,41,58,082,,49,32,274,,50,10,089,*79
$GLGSV,3,1,10,67,16,073,,68,34,124,15,69,21,179,20,73,08,330,*63
$GLGSV,3,2,10,78,06,156,,79,56,165,30,80,63,319,31,82,02,013,*6C
$GLGSV,3,3,10,83,17,327,08,84,11,274,*6A
$GNGLL,0419.78701,S,05539.74635,E,061334.00,A,A*65
$GNRMC,061335.00,A,0419.78699,S,05539.74632,E,0.056,,270525,,,A*7E
$GNVTG,,T,,M,0.056,N,0.104,K,A*3B
$GNGGA,061335.00,0419.78699,S,05539.74632,E,1,12,0.85,7.7,M,-47.6,M,,*70
$GNGSA,A,3,12,05,25,24,15,23,18,20,,,,,1.72,0.85,1.50*18
$GNGSA,A,3,80,79,68,69,83,,,,,,,,1.72,0.85,1.50*1D
$GPGSV,4,1,16,05,47,042,32,12,70,054,24,13,14,115,,15,37,147,26*7D
$GPGSV,4,2,16,18,33,281,12,20,14,034,14,23,38,208,23,24,37,183,25*72
$GPGSV,4,3,16,25,50,343,36,28,02,298,,29,12,340,,36,52,277,*7E
$GPGSV,4,4,16,40,86,351,,41,58,082,,49,32,274,,50,10,089,*79
$GLGSV,3,1,10,67,16,073,,68,34,124,15,69,21,179,18,73,08,330,*68
$GLGSV,3,2,10,78,06,156,,79,56,165,30,80,63,319,32,82,02,013,*6F
$GLGSV,3,3,10,83,17,327,08,84,11,274,*6A
$GNGLL,0419.78699,S,05539.74632,E,061335.00,A,A*63
$GNRMC,061336.00,A,0419.78699,S,05539.74632,E,0.039,,270525,,,A*74
$GNVTG,,T,,M,0.039,N,0.071,K,A*31
$GNGGA,061336.00,0419.78699,S,05539.74632,E,1,12,0.89,7.7,M,-47.6,M,,*7F
$GNGSA,A,3,12,05,25,24,15,23,20,,,,,,1.59,0.89,1.32*10
$GNGSA,A,3,80,79,68,69,83,,,,,,,,1.59,0.89,1.32*1C
$GPGSV,4,1,16,05,47,042,31,12,70,054,23,13,14,115,,15,37,147,26*79
$GPGSV,4,2,16,18,33,281,10,20,14,034,15,23,38,208,22,24,37,183,25*70
$GPGSV,4,3,16,25,50,343,36,28,02,298,,29,12,340,,36,52,277,*7E
$GPGSV,4,4,16,40,86,351,,41,58,082,,49,32,274,,50,10,089,*79
$GLGSV,3,1,10,67,16,073,,68,34,124,13,69,21,179,17,73,08,330,*61
$GLGSV,3,2,10,78,06,156,,79,56,165,31,80,63,319,31,82,02,013,*6D
$GLGSV,3,3,10,83,17,327,08,84,11,274,*6A
$GNGLL,0419.78699,S,05539.74632,E,061336.00,A,A*60
$GNRMC,061337.00,A,0419.78698,S,05539.74629,E,0.236,,270525,,,A*73
$GNVTG,,T,,M,0.236,N,0.438,K,A*35
$GNGGA,061337.00,0419.78698,S,05539.74629,E,1,12,0.79,7.1,M,-47.6,M,,*7C
$GNGSA,A,3,12,05,25,24,15,23,18,20,,,,,1.53,0.79,1.31*1F
$GNGSA,A,3,80,79,68,69,83,,,,,,,,1.53,0.79,1.31*1A
$GPGSV,4,1,16,05,47,042,33,12,70,054,21,13,14,115,,15,37,147,27*78
$GPGSV,4,2,16,18,33,281,13,20,14,034,14,23,38,208,22,24,37,183,23*74
$GPGSV,4,3,16,25,50,343,36,28,02,298,,29,12,340,,36,52,277,*7E
$GPGSV,4,4,16,40,86,351,,41,58,082,,49,32,274,,50,10,089,*79
$GLGSV,3,1,10,67,16,073,,68,34,124,16,69,21,179,16,73,08,330,*65
$GLGSV,3,2,10,78,06,156,,79,56,165,31,80,63,319,31,82,02,013,*6D
$GLGSV,3,3,10,83,17,327,16,84,11,274,*65
$GNGLL,0419.78698,S,05539.74629,E,061337.00,A,A*6A
$GNRMC,061338.00,A,0419.78701,S,05539.74622,E,0.238,,270525,,,A*78
$GNVTG,,T,,M,0.238,N,0.440,K,A*34
$GNGGA,061338.00,0419.78701,S,05539.74622,E,1,12,0.79,7.1,M,-47.6,M,,*79
$GNGSA,A,3,12,05,25,24,15,23,18,20,,,,,1.53,0.79,1.31*1F
$GNGSA,A,3,80,79,68,69,83,,,,,,,,1.53,0.79,1.31*1A
$GPGSV,4,1,16,05,47,042,32,12,70,054,18,13,14,115,21,15,37,147,27*70
$GPGSV,4,2,16,18,33,281,13,20,14,034,12,23,38,208,21,24,37,183,21*73
$GPGSV,4,3,16,25,50,343,35,28,02,298,,29,12,340,,36,52,277,*7D
$GPGSV,4,4,16,40,86,351,,41,58,082,,49,32,274,,50,10,089,*79
$GLGSV,3,1,10,67,16,073,,68,34,124,19,69,21,179,15,73,08,330,*69
$GLGSV,3,2,10,78,06,156,,79,56,165,31,80,63,319,31,82,02,013,*6D
$GLGSV,3,3,10,83,17,327,16,84,11,274,*65
$GNGLL,0419.78701,S,05539.74622,E,061338.00,A,A*6F
$GNRMC,061339.00,A,0419.78700,S,05539.74624,E,0.076,,270525,,,A*76
$GNVTG,,T,,M,0.076,N,0.140,K,A*39
$GNGGA,061339.00,0419.78700,S,05539.74624,E,1,12,0.79,7.5,M,-47.6,M,,*7B
$GNGSA,A,3,12,05,25,24,15,23,18,20,,,,,1.53,0.79,1.31*1F
$GNGSA,A,3,80,79,68,69,83,,,,,,,,1.53,0.79,1.31*1A
$GPGSV,4,1,16,05,47,042,31,12,70,054,15,13,14,115,18,15,37,147,28*7B
$GPGSV,4,2,16,18,33,281,14,20,14,034,13,23,38,208,21,24,37,183,20*74
$GPGSV,4,3,16,25,50,343,35,28,02,298,,29,12,340,,36,52,277,*7D
$GPGSV,4,4,16,40,86,351,,41,58,082,,49,32,274,,50,10,089,*79
$GLGSV,3,1,10,67,16,073,,68,34,124,22,69,21,179,13,73,08,330,*67
$GLGSV,3,2,10,78,06,156,,79,56,165,29,80,63,319,31,82,02,013,*64
$GLGSV,3,3,10,83,17,327,16,84,11,274,*65
$GNGLL,0419.78700,S,05539.74624,E,061339.00,A,A*69
$GNRMC,061340.00,A,0419.78703,S,05539.74625,E,0.049,,270525,,,A*76
$GNVTG,,T,,M,0.049,N,0.090,K,A*39
$GNGGA,061340.00,0419.78703,S,05539.74625,E,1,12,0.79,7.7,M,-47.6,M,,*75
$GNGSA,A,3,12,05,25,24,15,23,18,20,,,,,1.53,0.79,1.31*1F
$GNGSA,A,3,80,79,68,69,83,,,,,,,,1.53,0.79,1.31*1A
$GPGSV,4,1,16,05,47,042,31,12,70,054,13,13,14,115,16,15,37,147,28*73
$GPGSV,4,2,16,18,33,281,13,20,14,034,14,23,38,208,22,24,37,183,22*75
$GPGSV,4,3,16,25,50,343,34,28,02,298,,29,12,340,,36,52,277,*7C
$GPGSV,4,4,16,40,86,351,,41,58,082,,49,32,274,,50,10,089,*79
$GLGSV,3,1,10,67,16,073,,68,34,124,20,69,21,179,15,73,08,330,*63
$GLGSV,3,2,10,78,06,156,,79,56,165,29,80,63,319,30,82,02,013,*65
$GLGSV,3,3,10,83,17,327,16,84,11,274,*65
$GNGLL,0419.78703,S,05539.74625,E,061340.00,A,A*65
$GNRMC,061341.00,A,0419.78705,S,05539.74623,E,0.031,,270525,,,A*78
$GNVTG,,T,,M,0.031,N,0.057,K,A*3D
$GNGGA,061341.00,0419.78705,S,05539.74623,E,1,12,0.85,7.8,M,-47.6,M,,*78
$GNGSA,A,3,12,05,25,24,15,23,18,20,,,,,1.72,0.85,1.50*18
$GNGSA,A,3,80,79,68,69,83,,,,,,,,1.72,0.85,1.50*1D
$GPGSV,4,1,16,05,47,042,31,12,70,054,12,13,14,115,16,15,37,147,29*73
$GPGSV,4,2,16,18,33,281,15,20,14,034,13,23,38,208,22,24,37,183,22*74
$GPGSV,4,3,16,25,50,343,35,28,02,298,,29,12,340,,36,52,277,*7D
$GPGSV,4,4,16,40,86,351,,41,58,082,,49,32,274,,50,10,089,*79
$GLGSV,3,1,10,67,16,073,,68,34,124,19,69,21,179,15,73,08,330,*69
$GLGSV,3,2,10,78,06,156,,79,56,165,29,80,63,319,30,82,02,013,*65
$GLGSV,3,3,10,83,17,327,10,84,11,274,*63
$GNGLL,0419.78705,S,05539.74623,E,061341.00,A,A*64
$GNRMC,061342.00,A,0419.78700,S,05539.74626,E,0.249,,270525,,,A*76
$GNVTG,,T,,M,0.249,N,0.461,K,A*31
$GNGGA,061342.00,0419.78700,S,05539.74626,E,1,12,0.92,8.8,M,-47.6,M,,*72
$GNGSA,A,3,12,05,25,24,15,23,18,13,,,,,2.01,0.92,1.78*13
$GNGSA,A,3,80,79,68,69,,,,,,,,,2.01,0.92,1.78*1D
$GPGSV,4,1,16,05,47,042,32,12,70,054,11,13,14,115,15,15,37,147,30*78
$GPGSV,4,2,16,18,33,281,19,20,14,034,09,23,38,208,22,24,37,183,22*73
$GPGSV,4,3,16,25,50,343,35,28,02,298,,29,12,340,,36,52,277,*7D
$GPGSV,4,4,16,40,86,351,,41,58,082,,49,32,274,,50,10,089,*79
$GLGSV,3,1,10,67,16,073,,68,34,124,19,69,21,179,14,73,08,330,*68
$GLGSV,3,2,10,78,06,156,,79,56,165,29,80,63,319,31,82,02,013,*64
$GLGSV,3,3,10,83,17,327,07,84,11,274,*65
$GNGLL,0419.78700,S,05539.74626,E,061342.00,A,A*67
$GNRMC,061343.00,A,0419.78695,S,05539.74631,E,0.258,,270525,,,A*7C
$GNVTG,,T,,M,0.258,N,0.477,K,A*36
$GNGGA,061343.00,0419.78695,S,05539.74631,E,1,12,0.85,9.0,M,-47.6,M,,*77
$GNGSA,A,3,12,05,25,24,15,23,18,13,,,,,1.64,0.85,1.41*1F
$GNGSA,A,3,80,79,68,69,83,,,,,,,,1.64,0.85,1.41*1A
$GPGSV,4,1,16,05,47,042,32,12,70,054,18,13,14,115,13,15,37,147,29*7F
$GPGSV,4,2,16,18,33,281,18,20,14,034,07,23,38,208,20,24,37,183,23*7F
$GPGSV,4,3,16,25,50,343,35,28,02,298,,29,12,340,,36,52,277,*7D
$GPGSV,4,4,16,40,86,351,,41,58,082,,49,32,274,,50,10,089,*79
$GLGSV,3,1,10,67,16,073,,68,34,124,19,69,21,179,15,73,08,330,*69
$GLGSV,3,2,10,78,06,156,,79,56,165,28,80,63,319,31,82,02,013,*65
$GLGSV,3,3,10,83,17,327,09,84,11,274,*6B
$GNGLL,0419.78695,S,05539.74631,E,061343.00,A,A*6D
$GNRMC,061344.00,A,0419.78693,S,05539.74628,E,0.060,,270525,,,A*7C
$GNVTG,,T,,M,0.060,N,0.110,K,A*3B
$GNGGA,061344.00,0419.78693,S,05539.74628,E,1,12,0.85,8.9,M,-47.6,M,,*76
$GNGSA,A,3,12,05,25,24,15,23,18,13,,,,,1.64,0.85,1.40*1E
$GNGSA,A,3,80,79,68,69,83,,,,,,,,1.64,0.85,1.40*1B
$GPGSV,4,1,16,05,47,042,31,12,70,054,17,13,14,115,14,15,37,147,28*75
$GPGSV,4,2,16,18,33,281,17,20,14,034,08,23,38,208,20,24,37,183,23*7F
$GPGSV,4,3,16,25,50,343,35,28,02,298,,29,12,340,,36,52,277,*7D
$GPGSV,4,4,16,40,86,351,,41,58,082,,49,32,274,,50,10,089,*79
$GLGSV,3,1,10,67,16,073,,68,34,124,21,69,21,179,15,73,08,330,*62
$GLGSV,3,2,10,78,06,156,,79,56,165,28,80,63,319,30,82,02,013,*64
$GLGSV,3,3,10,83,17,327,08,84,11,274,*6A
$GNGLL,0419.78693,S,05539.74628,E,061344.00,A,A*64
$GNRMC,061345.00,A,0419.78688,S,05539.74627,E,0.007,,270525,,,A*79
$GNVTG,,T,,M,0.007,N,0.013,K,A*38
$GNGGA,061345.00,0419.78688,S,05539.74627,E,1,12,0.85,9.0,M,-47.6,M,,*7A
$GNGSA,A,3,12,05,25,24,15,23,18,13,,,,,1.64,0.85,1.40*1E
$GNGSA,A,3,80,79,68,69,83,,,,,,,,1.64,0.85,1.40*1B
$GPGSV,4,1,16,05,47,042,31,12,70,054,19,13,14,115,13,15,37,147,30*75
$GPGSV,4,2,16,18,33,281,19,20,14,034,08,23,38,208,21,24,37,183,22*71
$GPGSV,4,3,16,25,50,343,36,28,02,298,,29,12,340,,36,52,277,*7E
$GPGSV,4,4,16,40,86,351,,41,58,082,,49,32,274,,50,10,089,*79
$GLGSV,3,1,10,67,16,072,,68,34,124,22,69,21,179,14,73,08,330,*61
$GLGSV,3,2,10,78,06,156,,79,56,165,28,80,63,319,29,82,02,013,*6C
$GLGSV,3,3,10,83,17,327,09,84,11,274,*6B
$GNGLL,0419.78688,S,05539.74627,E,061345.00,A,A*60
$GNRMC,061346.00,A,0419.78682,S,05539.74621,E,0.050,,270525,,,A*74
$GNVTG,,T,,M,0.050,N,0.093,K,A*32
$GNGGA,061346.00,0419.78682,S,05539.74621,E,1,12,0.85,9.3,M,-47.6,M,,*76
$GNGSA,A,3,12,05,25,24,15,23,18,13,,,,,1.64,0.85,1.40*1E
$GNGSA,A,3,80,79,68,69,83,,,,,,,,1.64,0.85,1.40*1B
$GPGSV,4,1,16,05,47,042,31,12,70,054,19,13,14,115,12,15,37,147,32*76
$GPGSV,4,2,16,18,33,281,20,20,14,034,08,23,38,208,22,24,37,183,21*7B
$GPGSV,4,3,16,25,50,343,35,28,02,298,,29,12,340,,36,52,277,*7D
$GPGSV,4,4,16,40,86,351,,41,58,082,,49,32,274,,50,10,089,*79
$GLGSV,3,1,10,67,16,072,,68,34,123,22,69,21,179,13,73,08,330,*61
$GLGSV,3,2,10,78,06,156,,79,56,165,29,80,63,319,30,82,02,013,*65
$GLGSV,3,3,10,83,17,327,09,84,11,274,*6B
$GNGLL,0419.78682,S,05539.74621,E,061346.00,A,A*6F
$GNRMC,061347.00,A,0419.78681,S,05539.74617,E,0.170,,270525,,,A*70
$GNVTG,,T,,M,0.170,N,0.314,K,A*3D
$GNGGA,061347.00,0419.78681,S,05539.74617,E,1,12,0.94,9.2,M,-47.6,M,,*70
$GNGSA,A,3,12,05,25,24,15,23,18,20,,,,,2.03,0.94,1.80*10
$GNGSA,A,3,80,79,68,69,83,,,,,,,,2.03,0.94,1.80*15
$GPGSV,4,1,16,05,47,042,32,12,70,054,20,13,14,115,09,15,37,147,26*70
$GPGSV,4,2,16,18,33,281,21,20,14,034,08,23,38,208,20,24,37,183,22*7B
$GPGSV,4,3,16,25,50,343,36,28,02,298,,29,12,340,,36,52,277,*7E
$GPGSV,4,4,16,40,86,351,,41,58,082,,49,32,274,,50,10,089,*79
$GLGSV,3,1,10,67,16,072,,68,34,123,21,69,22,179,12,73,08,330,*60
$GLGSV,3,2,10,78,06,156,,79,56,165,29,80,63,319,30,82,02,013,*65
$GLGSV,3,3,10,83,17,327,09,84,11,274,*6B
$GNGLL,0419.78681,S,05539.74617,E,061347.00,A,A*68
$GNRMC,061348.00,A,0419.78676,S,05539.74616,E,0.049,,270525,,,A*7D
$GNVTG,,T,,M,0.049,N,0.091,K,A*38
$GNGGA,061348.00,0419.78676,S,05539.74616,E,1,12,0.94,8.8,M,-47.6,M,,*7D
$GNGSA,A,3,12,05,25,24,15,23,18,20,,,,,2.03,0.94,1.80*10
$GNGSA,A,3,80,79,68,69,83,,,,,,,,2.03,0.94,1.80*15
$GPGSV,4,1,16,05,47,042,35,12,70,054,23,13,14,115,09,15,37,147,25*77
$GPGSV,4,2,16,18,33,281,21,20,14,034,08,23,38,208,20,24,37,183,22*7B
$GPGSV,4,3,16,25,50,343,35,28,02,298,,29,12,340,,36,52,277,*7D
$GPGSV,4,4,16,40,86,351,,41,58,082,,49,32,274,,50,10,089,*79
$GLGSV,3,1,10,67,16,072,,68,34,123,23,69,22,179,14,73,08,330,*64
$GLGSV,3,2,10,78,06,156,,79,56,165,28,80,63,319,28,82,02,013,*6D
$GLGSV,3,3,10,83,17,327,09,84,11,274,*6B
$GNGLL,0419.78676,S,05539.74616,E,061348.00,A,A*6E
$GNRMC,061349.00,A,0419.78673,S,05539.74618,E,0.170,,270525,,,A*7C
$GNVTG,,T,,M,0.170,N,0.314,K,A*3D
$GNGGA,061349.00,0419.78673,S,05539.74618,E,1,12,0.92,7.8,M,-47.6,M,,*7E
$GNGSA,A,3,12,05,25,24,15,23,18,20,,,,,1.89,0.92,1.64*1D
$GNGSA,A,3,80,79,68,69,83,,,,,,,,1.89,0.92,1.64*18
$GPGSV,4,1,16,05,47,042,34,12,70,054,22,13,14,115,09,15,37,147,27*75
$GPGSV,4,2,16,18,33,281,21,20,14,034,08,23,38,208,21,24,37,183,23*7B
$GPGSV,4,3,16,25,50,343,35,28,02,298,,29,12,340,,36,52,277,*7D
$GPGSV,4,4,16,40,86,351,,41,58,082,,49,32,274,,50,10,089,*79
$GLGSV,3,1,10,67,16,072,,68,34,123,23,69,22,179,12,73,08,330,*62
$GLGSV,3,2,10,78,06,156,,79,56,165,27,80,63,319,28,82,02,013,*62
$GLGSV,3,3,10,83,17,327,08,84,11,274,*6A
$GNGLL,0419.78673,S,05539.74618,E,061349.00,A,A*64
$GNRMC,061350.00,A,0419.78669,S,05539.74625,E,0.048,,270525,,,A*7B
$GNVTG,,T,,M,0.048,N,0.089,K,A*30
$GNGGA,061350.00,0419.78669,S,05539.74625,E,1,12,0.92,7.9,M,-47.6,M,,*72
$GNGSA,A,3,12,05,25,24,15,23,18,20,13,,,,2.01,0.92,1.78*11
$GNGSA,A,3,80,79,68,69,83,,,,,,,,2.01,0.92,1.78*16
$GPGSV,4,1,16,05,47,042,34,12,70,054,18,13,14,115,10,15,37,147,30*72
$GPGSV,4,2,16,18,33,281,23,20,14,034,16,23,38,208,20,24,37,183,23*77
$GPGSV,4,3,16,25,50,343,36,28,02,298,,29,12,340,,36,52,277,*7E
$GPGSV,4,4,16,40,86,351,,41,58,082,,49,32,274,,50,10,089,*79
$GLGSV,3,1,10,67,16,072,,68,34,123,22,69,22,179,12,73,08,330,*63
$GLGSV,3,2,10,78,06,156,,79,56,165,27,80,63,319,26,82,02,013,*6C
$GLGSV,3,3,10,83,17,327,09,84,11,274,*6B
$GNGLL,0419.78669,S,05539.74625,E,061350.00,A,A*69
$GNRMC,061351.00,A,0419.78663,S,05539.74630,E,0.163,,270525,,,A*7C
$GNVTG,,T,,M,0.163,N,0.302,K,A*38
$GNGGA,061351.00,0419.78663,S,05539.74630,E,1,12,0.81,7.6,M,-47.6,M,,*70
$GNGSA,A,3,12,05,25,24,15,23,18,20,13,,,,1.57,0.81,1.35*1A
$GNGSA,A,3,80,79,68,69,83,,,,,,,,1.57,0.81,1.35*1D
$GPGSV,4,1,16,05,47,042,34,12,70,054,15,13,14,115,10,15,37,147,29*77
$GPGSV,4,2,16,18,33,281,24,20,14,034,16,23,38,208,17,24,37,183,22*75
$GPGSV,4,3,16,25,50,343,35,28,02,298,,29,12,340,,36,52,277,*7D
$GPGSV,4,4,16,40,86,351,,41,58,082,,49,32,274,,50,10,089,*79
$GLGSV,3,1,10,67,16,072,,68,34,123,22,69,22,179,16,73,09,329,*6E
$GLGSV,3,2,10,78,06,156,,79,56,165,26,80,63,319,26,82,02,013,*6D
$GLGSV,3,3,10,83,17,327,08,84,11,274,*6A
$GNGLL,0419.78663,S,05539.74630,E,061351.00,A,A*66
$GNRMC,061352.00,A,0419.78656,S,05539.74645,E,0.216,,270525,,,A*7A
$GNVTG,,T,,M,0.216,N,0.399,K,A*3B
$GNGGA,061352.00,0419.78656,S,05539.74645,E,1,12,0.92,8.2,M,-47.6,M,,*7E
$GNGSA,A,3,12,05,25,24,15,23,18,20,,,,,1.88,0.92,1.64*1C
$GNGSA,A,3,80,79,68,69,83,,,,,,,,1.88,0.92,1.64*19
$GPGSV,4,1,16,05,47,042,35,12,70,054,18,13,14,115,09,15,37,147,29*73
$GPGSV,4,2,16,18,33,281,25,20,14,034,16,23,38,208,13,24,37,183,19*78
$GPGSV,4,3,16,25,50,343,36,28,02,298,,29,12,340,,36,52,277,*7E
$GPGSV,4,4,16,40,86,351,,41,58,082,,49,32,274,,50,10,089,*79
$GLGSV,3,1,10,67,16,072,,68,34,123,20,69,22,179,17,73,09,329,*6D
$GLGSV,3,2,10,78,06,156,,79,56,165,25,80,63,319,26,82,02,013,*6E
$GLGSV,3,3,10,83,17,327,10,84,11,274,*63
$GNGLL,0419.78656,S,05539.74645,E,061352.00,A,A*61
$GNRMC,061353.00,A,0419.78653,S,05539.74651,E,0.165,,270525,,,A*7C
$GNVTG,,T,,M,0.165,N,0.306,K,A*3A
$GNGGA,061353.00,0419.78653,S,05539.74651,E,1,12,0.92,8.1,M,-47.6,M,,*7C
$GNGSA,A,3,12,05,25,24,15,23,18,20,13,,,,2.01,0.92,1.78*11
$GNGSA,A,3,80,79,68,69,83,,,,,,,,2.01,0.92,1.78*16
$GPGSV,4,1,16,05,47,042,34,12,70,054,19,13,14,115,09,15,37,147,29*73
$GPGSV,4,2,16,18,33,281,24,20,14,034,16,23,38,208,11,24,37,183,20*71
$GPGSV,4,3,16,25,50,343,36,28,02,298,,29,12,340,,36,52,277,*7E
$GPGSV,4,4,16,40,86,351,,41,58,082,,49,32,274,,50,10,089,*79
$GLGSV,3,1,10,67,16,072,,68,34,123,18,69,22,179,10,73,09,329,*61
$GLGSV,3,2,10,78,06,156,,79,56,165,25,80,63,319,24,82,02,013,*6C
$GLGSV,3,3,10,83,17,327,10,84,11,274,*63
$GNGLL,0419.78653,S,05539.74651,E,061353.00,A,A*60
$GNRMC,061354.00,A,0419.78654,S,05539.74665,E,0.123,,270525,,,A*79
$GNVTG,,T,,M,0.123,N,0.229,K,A*34
$GNGGA,061354.00,0419.78654,S,05539.74665,E,1,12,0.92,9.2,M,-47.6,M,,*79
$GNGSA,A,3,12,05,25,24,15,23,18,20,,,,,1.88,0.92,1.64*1C
$GNGSA,A,3,80,79,68,69,83,,,,,,,,1.88,0.92,1.64*19
$GPGSV,4,1,16,05,47,042,34,12,70,054,18,13,14,115,08,15,37,147,29*73
$GPGSV,4,2,16,18,33,281,26,20,14,034,16,23,38,208,21,24,37,183,21*71
$GPGSV,4,3,16,25,50,343,37,28,02,298,,29,12,340,,36,52,277,*7F
$GPGSV,4,4,16,40,86,351,,41,58,082,,49,32,274,,50,10,089,*79
$GLGSV,3,1,10,67,16,072,,68,34,123,16,69,22,179,17,73,09,329,*68
$GLGSV,3,2,10,78,06,156,,79,56,165,32,80,63,319,25,82,02,013,*6B
$GLGSV,3,3,10,83,17,327,09,84,11,274,*6B
$GNGLL,0419.78654,S,05539.74665,E,061354.00,A,A*67
$GNRMC,061355.00,A,0419.78651,S,05539.74680,E,0.068,,270525,,,A*78
$GNVTG,,T,,M,0.068,N,0.126,K,A*36
$GNGGA,061355.00,0419.78651,S,05539.74680,E,1,12,0.92,9.8,M,-47.6,M,,*7C
$GNGSA,A,3,12,05,25,24,15,23,18,20,,,,,1.88,0.92,1.64*1C
$GNGSA,A,3,80,79,68,69,83,,,,,,,,1.88,0.92,1.64*19
$GPGSV,4,1,16,05,47,042,34,12,70,054,16,13,14,115,08,15,37,147,29*7D
$GPGSV,4,2,16,18,33,281,27,20,14,034,16,23,38,208,10,24,37,183,20*73
$GPGSV,4,3,16,25,50,343,37,28,02,298,,29,12,340,,36,52,277,*7F
$GPGSV,4,4,16,40,86,351,,41,58,082,,49,32,274,,50,10,089,*79
$GLGSV,3,1,10,67,16,072,,68,34,123,18,69,22,179,17,73,09,329,*66
$GLGSV,3,2,10,78,06,156,,79,56,165,31,80,63,319,24,82,02,013,*69
$GLGSV,3,3,10,83,17,327,13,84,11,274,*60
$GNGLL,0419.78651,S,05539.74680,E,061355.00,A,A*68
$GNRMC,061356.00,A,0419.78651,S,05539.74695,E,0.023,,270525,,,A*70
$GNVTG,,T,,M,0.023,N,0.042,K,A*3A
$GNGGA,061356.00,0419.78651,S,05539.74695,E,1,12,0.83,10.9,M,-47.6,M,,*42
$GNGSA,A,3,12,05,25,24,15,18,20,13,,,,,1.55,0.83,1.31*1F
$GNGSA,A,3,80,79,68,69,83,,,,,,,,1.55,0.83,1.31*19
$GPGSV,4,1,16,05,47,042,34,12,70,054,17,13,14,115,13,15,37,147,29*76
$GPGSV,4,2,16,18,33,281,28,20,14,034,12,23,38,208,06,24,37,183,20*7F
$GPGSV,4,3,16,25,50,343,37,28,02,298,,29,12,340,,36,52,277,*7F
$GPGSV,4,4,16,40,86,351,,41,58,082,,49,32,274,,50,10,089,*79
$GLGSV,3,1,10,67,16,072,,68,34,123,17,69,22,179,19,73,09,329,*67
$GLGSV,3,2,10,78,05,156,,79,56,165,31,80,63,319,23,82,02,013,*6D
$GLGSV,3,3,10,83,17,327,11,84,11,274,*62
$GNGLL,0419.78651,S,05539.74695,E,061356.00,A,A*6F
$GNRMC,061357.00,A,0419.78650,S,05539.74701,E,0.078,,270525,,,A*72
$GNVTG,,T,,M,0.078,N,0.145,K,A*32
$GNGGA,061357.00,0419.78650,S,05539.74701,E,1,12,0.92,11.0,M,-47.6,M,,*46
$GNGSA,A,3,12,05,25,24,15,23,18,20,13,,,,1.88,0.92,1.64*1E
$GNGSA,A,3,80,79,68,69,83,,,,,,,,1.88,0.92,1.64*19
$GPGSV,4,1,16,05,47,042,33,12,70,054,19,13,14,115,13,15,37,147,29*7F
$GPGSV,4,2,16,18,33,281,27,20,14,034,12,23,38,208,12,24,37,183,19*7F
$GPGSV,4,3,16,25,50,343,36,28,02,298,,29,12,340,,36,52,277,*7E
$GPGSV,4,4,16,40,86,351,,41,58,082,,49,32,274,,50,10,089,*79
$GLGSV,3,1,10,67,16,072,,68,34,123,16,69,22,179,19,73,09,329,*66
$GLGSV,3,2,10,78,05,156,,79,55,165,32,80,63,319,25,82,02,013,*6B
$GLGSV,3,3,10,83,17,327,10,84,11,274,*63
$GNGLL,0419.78650,S,05539.74701,E,061357.00,A,A*63
$GNRMC,061358.00,A,0419.78651,S,05539.74709,E,0.079,,270525,,,A*75
$GNVTG,,T,,M,0.079,N,0.146,K,A*30
$GNGGA,061358.00,0419.78651,S,05539.74709,E,1,12,0.92,11.7,M,-47.6,M,,*47
$GNGSA,A,3,12,05,25,24,15,23,18,20,13,,,,1.88,0.92,1.64*1E
$GNGSA,A,3,80,79,68,69,83,,,,,,,,1.88,0.92,1.64*19
$GPGSV,4,1,16,05,47,042,34,12,70,054,22,13,14,115,13,15,37,147,28*71
$GPGSV,4,2,16,18,33,281,27,20,14,034,12,23,38,208,16,24,37,183,21*70
$GPGSV,4,3,16,25,50,343,36,28,02,298,,29,12,340,,36,52,277,*7E
$GPGSV,4,4,16,40,86,351,,41,58,082,,49,32,274,,50,10,089,*79
$GLGSV,3,1,10,67,16,072,,68,34,123,15,69,22,179,21,73,09,329,*6E
$GLGSV,3,2,10,78,05,156,,79,55,165,33,80,63,318,27,82,02,013,*69
$GLGSV,3,3,10,83,17,327,13,84,11,274,*60
$GNGLL,0419.78651,S,05539.74709,E,061358.00,A,A*65
$GNRMC,061359.00,A,0419.78658,S,05539.74713,E,0.051,,270525,,,A*7C
$GNVTG,,T,,M,0.051,N,0.094,K,A*34
$GNGGA,061359.00,0419.78658,S,05539.74713,E,1,12,0.92,12.5,M,-47.6,M,,*45
$GNGSA,A,3,12,05,25,24,15,23,18,,,,,,1.88,0.92,1.64*1E
$GNGSA,A,3,80,79,68,69,83,,,,,,,,1.88,0.92,1.64*19
$GPGSV,4,1,16,05,47,042,33,12,70,054,23,13,14,115,13,15,37,147,29*76
$GPGSV,4,2,16,18,33,281,27,20,14,034,,23,38,208,17,24,37,183,22*71
$GPGSV,4,3,16,25,50,343,37,28,02,298,,29,12,340,,36,52,277,*7F
$GPGSV,4,4,16,40,86,351,,41,58,082,,49,32,274,,50,10,089,*79
$GLGSV,3,1,10,67,16,072,,68,34,123,14,69,22,179,20,73,09,329,*6E
$GLGSV,3,2,10,78,05,156,,79,55,165,33,80,63,318,28,82,02,013,*66
$GLGSV,3,3,10,83,17,327,14,84,11,274,*67
$GNGLL,0419.78658,S,05539.74713,E,061359.00,A,A*66
$GNRMC,061400.00,A,0419.78666,S,05539.74721,E,0.079,,270525,,,A*71
$GNVTG,,T,,M,0.079,N,0.147,K,A*31
$GNGGA,061400.00,0419.78666,S,05539.74721,E,1,12,0.92,13.6,M,-47.6,M,,*40
$GNGSA,A,3,12,05,25,24,15,23,18,,,,,,1.88,0.92,1.64*1E
$GNGSA,A,3,80,79,68,69,83,,,,,,,,1.88,0.92,1.64*19
$GPGSV,4,1,16,05,47,042,32,12,70,054,21,13,14,115,13,15,37,147,28*74
$GPGSV,4,2,16,18,33,281,30,20,14,034,,23,38,208,21,24,37,183,22*72
$GPGSV,4,3,16,25,50,343,37,28,02,298,,29,12,340,,36,52,277,*7F
$GPGSV,4,4,16,40,86,351,,41,58,082,,49,32,274,,50,10,089,*79
$GLGSV,3,1,10,67,16,072,,68,34,123,18,69,22,179,19,73,09,329,*68
$GLGSV,3,2,10,78,05,156,,79,55,165,33,80,63,318,28,82,02,013,*66
$GLGSV,3,3,10,83,17,327,09,84,11,274,*6B
$GNGLL,0419.78666,S,05539.74721,E,061400.00,A,A*61
$GNRMC,061401.00,A,0419.78669,S,05539.74724,E,0.126,,270525,,,A*71
$GNVTG,,T,,M,0.126,N,0.234,K,A*3D
$GNGGA,061401.00,0419.78669,S,05539.74724,E,1,12,0.92,14.1,M,-47.6,M,,*4B
$GNGSA,A,3,12,05,25,24,15,23,18,,,,,,1.88,0.92,1.64*1E
$GNGSA,A,3,80,79,68,69,83,,,,,,,,1.88,0.92,1.64*19
$GPGSV,4,1,16,05,47,042,32,12,70,054,18,13,14,115,13,15,37,147,27*71
$GPGSV,4,2,16,18,33,281,31,20,14,034,,23,38,208,20,24,37,183,22*72
$GPGSV,4,3,16,25,50,343,36,28,02,298,,29,12,340,,36,52,277,*7E
$GPGSV,4,4,16,40,86,351,,41,58,082,,49,32,274,,50,10,089,*79
$GLGSV,3,1,10,67,16,072,,68,34,123,22,69,22,179,17,73,09,329,*6F
$GLGSV,3,2,10,78,05,156,,79,55,165,32,80,63,318,27,82,02,013,*68
$GLGSV,3,3,10,83,17,327,09,84,11,274,*6B
$GNGLL,0419.78669,S,05539.74724,E,061401.00,A,A*6A
$GNRMC,061402.00,A,0419.78671,S,05539.74722,E,0.221,,270525,,,A*79
$GNVTG,,T,,M,0.221,N,0.409,K,A*31
$GNGGA,061402.00,0419.78671,S,05539.74722,E,1,12,0.81,14.2,M,-47.6,M,,*46
$GNGSA,A,3,12,05,25,24,15,23,18,13,,,,,1.57,0.81,1.34*19
$GNGSA,A,3,80,79,68,69,83,,,,,,,,1.57,0.81,1.34*1C
$GPGSV,4,1,16,05,47,042,33,12,70,054,17,13,14,115,12,15,37,147,29*70
$GPGSV,4,2,16,18,33,281,30,20,14,034,06,23,38,208,20,24,37,183,22*75
$GPGSV,4,3,16,25,50,343,35,28,02,298,,29,12,340,,36,52,277,*7D
$GPGSV,4,4,16,40,86,351,,41,58,082,,49,32,274,,50,10,089,*79
$GLGSV,3,1,10,67,16,072,,68,34,123,24,69,22,179,16,73,09,329,*68
$GLGSV,3,2,10,78,05,156,,79,55,165,25,80,63,318,29,82,02,013,*60
$GLGSV,3,3,10,83,17,327,09,84,11,274,*6B
$GNGLL,0419.78671,S,05539.74722,E,061402.00,A,A*66
$GNRMC,061403.00,A,0419.78673,S,05539.74729,E,0.060,,270525,,,A*76
$GNVTG,,T,,M,0.060,N,0.111,K,A*3A
$GNGGA,061403.00,0419.78673,S,05539.74729,E,1,12,0.92,14.6,M,-47.6,M,,*48
$GNGSA,A,3,12,05,25,24,15,23,18,13,,,,,1.88,0.92,1.64*1C
$GNGSA,A,3,80,79,68,69,83,,,,,,,,1.88,0.92,1.64*19
$GPGSV,4,1,16,05,47,042,34,12,70,054,19,13,14,115,12,15,37,147,30*71
$GPGSV,4,2,16,18,33,281,30,20,14,034,07,23,38,208,19,24,37,183,23*7F
$GPGSV,4,3,16,25,50,343,36,28,02,298,,29,12,340,,36,52,277,*7E
$GPGSV,4,4,16,40,86,351,,41,58,082,,49,32,274,,50,10,089,*79
$GLGSV,3,1,10,67,16,072,,68,34,123,22,69,22,179,14,73,09,329,*6C
$GLGSV,3,2,10,78,05,156,,79,55,165,23,80,63,318,31,82,02,013,*6F
$GLGSV,3,3,10,83,17,327,09,84,11,274,*6B
$GNGLL,0419.78673,S,05539.74729,E,061403.00,A,A*6E
$GNRMC,061404.00,A,0419.78671,S,05539.74732,E,0.032,,270525,,,A*7E
$GNVTG,,T,,M,0.032,N,0.060,K,A*3A
$GNGGA,061404.00,0419.78671,S,05539.74732,E,1,12,0.92,14.4,M,-47.6,M,,*45
$GNGSA,A,3,12,05,25,24,15,23,18,13,,,,,1.88,0.92,1.64*1C
$GNGSA,A,3,80,79,68,69,83,,,,,,,,1.88,0.92,1.64*19
$GPGSV,4,1,16,05,47,042,35,12,70,054,21,13,14,115,12,15,37,147,30*7B
$GPGSV,4,2,16,18,33,281,30,20,14,034,13,23,38,208,20,24,37,183,23*70
$GPGSV,4,3,16,25,50,343,36,28,02,298,,29,12,340,,36,52,277,*7E
$GPGSV,4,4,16,40,86,351,,41,58,082,,49,32,274,,50,10,089,*79
$GLGSV,3,1,10,67,16,072,,68,34,123,19,69,22,179,15,73,09,329,*65
$GLGSV,3,2,10,78,05,156,,79,55,165,25,80,63,318,33,82,02,013,*6B
$GLGSV,3,3,10,83,17,327,09,84,11,274,*6B
$GNGLL,0419.78671,S,05539.74732,E,061404.00,A,A*61
$GNRMC,061405.00,A,0419.78670,S,05539.74722,E,0.055,,270525,,,A*7E
$GNVTG,,T,,M,0.055,N,0.102,K,A*3E
$GNGGA,061405.00,0419.78670,S,05539.74722,E,1,12,0.92,14.5,M,-47.6,M,,*45
$GNGSA,A,3,12,05,25,24,15,23,18,13,,,,,1.88,0.92,1.64*1C
$GNGSA,A,3,80,79,68,69,83,,,,,,,,1.88,0.92,1.64*19
$GPGSV,4,1,16,05,47,042,30,12,70,054,21,13,14,115,12,15,37,147,31*7F
$GPGSV,4,2,16,18,33,281,29,20,14,034,16,23,38,208,24,24,37,183,21*7B
$GPGSV,4,3,16,25,50,343,37,28,02,298,,29,12,340,,36,52,277,*7F
$GPGSV,4,4,16,40,86,351,,41,58,082,,49,32,274,,50,10,089,*79
$GLGSV,3,1,10,67,16,072,,68,34,123,18,69,22,179,18,73,09,329,*69
$GLGSV,3,2,10,78,05,156,,79,55,165,22,80,63,318,32,82,02,013,*6D
$GLGSV,3,3,10,83,17,327,14,84,11,274,*67
$GNGLL,0419.78670,S,05539.74722,E,061405.00,A,A*60
$GNRMC,061406.00,A,0419.78673,S,05539.74723,E,0.122,,270525,,,A*7E
$GNVTG,,T,,M,0.122,N,0.226,K,A*3A
$GNGGA,061406.00,0419.78673,S,05539.74723,E,1,12,0.92,14.7,M,-47.6,M,,*46
$GNGSA,A,3,12,05,25,24,15,23,18,20,13,,,,1.88,0.92,1.64*1E
$GNGSA,A,3,80,79,68,69,83,,,,,,,,1.88,0.92,1.64*19
$GPGSV,4,1,16,05,47,042,32,12,70,054,20,13,14,115,12,15,37,147,31*7C
$GPGSV,4,2,16,18,33,281,29,20,14,034,16,23,38,208,25,24,37,183,19*71
$GPGSV,4,3,16,25,50,343,38,28,02,298,,29,12,340,,36,52,277,*70
$GPGSV,4,4,16,40,86,351,,41,58,082,,49,32,274,,50,10,089,*79
$GLGSV,3,1,10,67,16,072,,68,34,123,18,69,22,179,18,73,09,329,*69
$GLGSV,3,2,10,78,05,156,,79,55,165,22,80,63,318,32,82,02,013,*6D
$GLGSV,3,3,10,83,17,327,14,84,11,274,*67
$GNGLL,0419.78673,S,05539.74723,E,061406.00,A,A*61
$GNRMC,061407.00,A,0419.78665,S,05539.74732,E,0.176,,270525,,,A*79
$GNVTG,,T,,M,0.176,N,0.327,K,A*3B
$GNGGA,061407.00,0419.78665,S,05539.74732,E,1,12,0.92,14.5,M,-47.6,M,,*42
$GNGSA,A,3,12,05,25,24,15,23,18,20,13,,,,1.88,0.92,1.64*1E
$GNGSA,A,3,80,79,68,69,83,,,,,,,,1.88,0.92,1.64*19
$GPGSV,4,1,16,05,47,042,36,12,70,054,19,13,14,115,12,15,37,147,30*73
$GPGSV,4,2,16,18,33,281,29,20,14,034,16,23,38,208,23,24,37,183,19*77
$GPGSV,4,3,16,25,50,343,36,28,02,298,,29,12,340,,36,52,277,*7E
$GPGSV,4,4,16,40,86,351,,41,58,082,,49,32,274,,50,10,089,*79
$GLGSV,3,1,10,67,16,072,,68,34,123,16,69,22,179,19,73,09,329,*66
$GLGSV,3,2,10,78,05,156,,79,55,165,22,80,63,318,31,82,02,013,*6E
$GLGSV,3,3,10,83,17,327,11,84,11,274,*62
$GNGLL,0419.78665,S,05539.74732,E,061407.00,A,A*67
$GNRMC,061408.00,A,0419.78663,S,05539.74740,E,0.023,,270525,,,A*74
$GNVTG,,T,,M,0.023,N,0.042,K,A*3A
$GNGGA,061408.00,0419.78663,S,05539.74740,E,1,12,0.92,14.6,M,-47.6,M,,*4D
$GNGSA,A,3,12,05,25,24,15,23,18,20,13,,,,2.01,0.92,1.78*11
$GNGSA,A,3,80,79,68,69,83,,,,,,,,2.01,0.92,1.78*16
$GPGSV,4,1,16,05,47,042,37,12,70,054,19,13,14,115,16,15,37,147,28*7F
$GPGSV,4,2,16,18,33,281,30,20,14,034,15,23,38,208,19,24,37,183,22*7D
$GPGSV,4,3,16,25,50,343,37,28,02,298,,29,12,340,,36,52,277,*7F
$GPGSV,4,4,16,40,86,351,,41,58,082,,49,32,274,,50,10,089,*79
$GLGSV,3,1,10,67,16,072,,68,34,123,16,69,22,179,16,73,09,329,*69
$GLGSV,3,2,10,78,05,156,,79,55,165,19,80,63,318,30,82,02,013,*67
$GLGSV,3,3,10,83,17,327,11,84,11,274,*62
$GNGLL,0419.78663,S,05539.74740,E,061408.00,A,A*6B
$GNRMC,061409.00,A,0419.78662,S,05539.74742,E,0.069,,270525,,,A*78
$GNVTG,,T,,M,0.069,N,0.128,K,A*39
$GNGGA,061409.00,0419.78662,S,05539.74742,E,1,12,0.92,14.4,M,-47.6,M,,*4D
$GNGSA,A,3,12,05,25,24,15,23,18,20,13,,,,1.88,0.92,1.64*1E
$GNGSA,A,3,80,79,68,69,83,,,,,,,,1.88,0.92,1.64*19
$GPGSV,4,1,16,05,47,042,35,12,70,054,22,13,14,115,16,15,37,147,29*74
$GPGSV,4,2,16,18,33,281,29,20,14,034,12,23,38,208,17,24,37,183,25*7B
$GPGSV,4,3,16,25,50,343,37,28,02,298,,29,12,340,,36,52,277,*7F
$GPGSV,4,4,16,40,86,351,,41,58,082,,49,32,274,,50,10,089,*79
$GLGSV,3,1,10,67,16,072,,68,34,123,16,69,22,179,15,73,09,329,*6A
$GLGSV,3,2,10,78,05,156,,79,55,165,21,80,63,318,30,82,02,013,*6C
$GLGSV,3,3,10,83,17,327,11,84,11,274,*62
$GNGLL,0419.78662,S,05539.74742,E,061409.00,A,A*69
$GNRMC,061410.00,A,0419.78663,S,05539.74743,E,0.109,,270525,,,A*77
$GNVTG,,T,,M,0.109,N,0.202,K,A*35
$GNGGA,061410.00,0419.78663,S,05539.74743,E,1,12,1.04,14.2,M,-47.6,M,,*4D
$GNGSA,A,3,12,05,25,24,15,23,18,20,13,,,,2.01,1.04,1.72*15
$GNGSA,A,3,80,79,68,69,83,,,,,,,,2.01,1.04,1.72*12
$GPGSV,4,1,16,05,47,042,36,12,70,054,25,13,14,115,16,15,37,147,28*71
$GPGSV,4,2,16,18,33,281,29,20,14,034,11,23,38,208,23,24,37,183,25*7F
$GPGSV,4,3,16,25,50,343,37,28,02,298,,29,12,340,,36,52,277,*7F
$GPGSV,4,4,16,40,86,351,,41,58,082,,49,32,274,,50,10,089,*79
$GLGSV,3,1,10,67,16,072,,68,34,123,14,69,22,179,13,73,09,329,*6E
$GLGSV,3,2,10,78,05,156,,79,55,165,26,80,63,318,31,82,02,013,*6A
$GLGSV,3,3,10,83,17,327,11,84,11,274,*62
$GNGLL,0419.78663,S,05539.74743,E,061410.00,A,A*61
$GNRMC,061411.00,A,0419.78659,S,05539.74746,E,0.055,,270525,,,A*72
$GNVTG,,T,,M,0.055,N,0.103,K,A*3F
$GNGGA,061411.00,0419.78659,S,05539.74746,E,1,12,1.04,14.0,M,-47.6,M,,*42
$GNGSA,A,3,12,05,25,24,15,23,18,20,,,,,2.01,1.04,1.72*17
$GNGSA,A,3,80,79,68,69,83,,,,,,,,2.01,1.04,1.72*12
$GPGSV,4,1,16,05,46,041,37,12,70,054,26,13,14,115,,15,37,147,30*7F
$GPGSV,4,2,16,18,33,281,28,20,14,034,10,23,38,208,27,24,37,183,26*78
$GPGSV,4,3,16,25,50,343,36,28,02,298,,29,12,340,,36,52,277,*7E
$GPGSV,4,4,16,40,86,351,,41,58,082,,49,32,274,,50,10,089,*79
$GLGSV,3,1,10,67,16,072,,68,34,123,13,69,22,179,14,73,09,329,*6E
$GLGSV,3,2,10,78,05,156,,79,55,165,28,80,63,318,32,82,02,013,*67
$GLGSV,3,3,10,83,17,327,13,84,11,274,*60
$GNGLL,0419.78659,S,05539.74746,E,061411.00,A,A*6C
$GNRMC,061412.00,A,0419.78656,S,05539.74750,E,0.001,,270525,,,A*78
$GNVTG,,T,,M,0.001,N,0.003,K,A*3F
$GNGGA,061412.00,0419.78656,S,05539.74750,E,1,12,1.04,13.4,M,-47.6,M,,*4A
$GNGSA,A,3,12,05,25,24,15,23,18,20,,,,,2.01,1.04,1.72*17
$GNGSA,A,3,80,79,68,69,83,,,,,,,,2.01,1.04,1.72*12
$GPGSV,4,1,16,05,46,041,37,12,70,054,27,13,14,115,,15,37,147,32*7C
$GPGSV,4,2,16,18,33,281,27,20,14,034,10,23,38,208,29,24,37,183,29*76
$GPGSV,4,3,16,25,50,343,36,28,02,298,,29,12,340,,36,52,277,*7E
$GPGSV,4,4,16,40,86,351,,41,58,082,,49,32,274,,50,10,089,*79
$GLGSV,3,1,10,67,16,072,,68,34,123,13,69,22,179,15,73,09,329,*6F
$GLGSV,3,2,10,78,05,156,,79,55,165,27,80,63,318,32,82,02,013,*68
$GLGSV,3,3,10,83,17,327,10,84,11,274,*63
$GNGLL,0419.78656,S,05539.74750,E,061412.00,A,A*67
$GNRMC,061413.00,A,0419.78650,S,05539.74753,E,0.020,,270525,,,A*7F
$GNVTG,,T,,M,0.020,N,0.037,K,A*3B
$GNGGA,061413.00,0419.78650,S,05539.74753,E,1,12,1.04,13.3,M,-47.6,M,,*49
$GNGSA,A,3,12,05,25,24,15,23,18,20,,,,,2.01,1.04,1.72*17
$GNGSA,A,3,80,79,68,69,83,,,,,,,,2.01,1.04,1.72*12
$GPGSV,4,1,16,05,46,041,37,12,70,054,31,13,14,115,16,15,37,147,32*7C
$GPGSV,4,2,16,18,33,281,26,20,14,034,10,23,38,208,31,24,37,183,29*7E
$GPGSV,4,3,16,25,50,343,37,28,02,298,,29,12,340,,36,52,277,*7F
$GPGSV,4,4,16,40,86,351,,41,58,082,,49,32,274,,50,10,089,*79
$GLGSV,3,1,10,67,16,072,,68,34,123,16,69,22,179,16,73,09,329,*69
$GLGSV,3,2,10,78,05,156,,79,55,165,26,80,63,318,31,82,02,013,*6A
$GLGSV,3,3,10,83,17,327,11,84,11,274,*62
$GNGLL,0419.78650,S,05539.74753,E,061413.00,A,A*63
$GNRMC,061414.00,A,0419.78648,S,05539.74755,E,0.047,,270525,,,A*76
$GNVTG,,T,,M,0.047,N,0.088,K,A*3E
$GNGGA,061414.00,0419.78648,S,05539.74755,E,1,12,0.85,13.3,M,-47.6,M,,*49
$GNGSA,A,3,12,05,25,24,15,23,18,20,,,,,1.57,0.85,1.32*1B
$GNGSA,A,3,80,79,68,69,83,,,,,,,,1.57,0.85,1.32*1E
$GPGSV,4,1,16,05,46,041,37,12,70,054,30,13,14,115,16,15,37,147,31*7E
$GPGSV,4,2,16,18,33,281,27,20,14,034,10,23,38,208,30,24,37,183,27*70
$GPGSV,4,3,16,25,50,343,37,28,02,298,,29,12,340,,36,52,277,*7F
$GPGSV,4,4,16,40,86,351,,41,58,082,,49,32,274,,50,10,089,*79
$GLGSV,3,1,10,67,16,072,,68,34,123,14,69,22,179,15,73,09,329,*68
$GLGSV,3,2,10,78,05,156,,79,55,165,27,80,63,318,30,82,02,013,*6A
$GLGSV,3,3,10,83,17,327,14,84,11,274,*67
$GNGLL,0419.78648,S,05539.74755,E,061414.00,A,A*6B
$GNRMC,061415.00,A,0419.78648,S,05539.74756,E,0.014,,270525,,,A*72
$GNVTG,,T,,M,0.014,N,0.026,K,A*3C
$GNGGA,061415.00,0419.78648,S,05539.74756,E,1,12,1.04,13.6,M,-47.6,M,,*46
$GNGSA,A,3,12,05,25,24,15,23,18,20,,,,,2.01,1.04,1.72*17
$GNGSA,A,3,80,79,68,69,83,,,,,,,,2.01,1.04,1.72*12
$GPGSV,4,1,16,05,46,041,37,12,70,054,30,13,14,115,15,15,37,147,29*74
$GPGSV,4,2,16,18,33,281,26,20,14,034,10,23,38,208,29,24,37,183,26*78
$GPGSV,4,3,16,25,50,343,38,28,02,298,,29,12,340,,36,52,277,*70
$GPGSV,4,4,16,40,86,351,,41,58,082,,49,32,274,,50,10,089,*79
$GLGSV,3,1,10,67,16,072,,68,34,123,12,69,22,179,15,73,09,329,*6E
$GLGSV,3,2,10,78,05,156,,79,55,165,26,80,63,318,30,82,02,013,*6B
$GLGSV,3,3,10,83,17,327,18,84,11,274,*6B
$GNGLL,0419.78648,S,05539.74756,E,061415.00,A,A*69
$GNRMC,061416.00,A,0419.78649,S,05539.74754,E,0.074,,270525,,,A*74
$GNVTG,,T,,M,0.074,N,0.136,K,A*3A
$GNGGA,061416.00,0419.78649,S,05539.74754,E,1,12,1.04,13.9,M,-47.6,M,,*49
$GNGSA,A,3,12,05,25,24,15,23,18,20,,,,,2.01,1.04,1.72*17
$GNGSA,A,3,80,79,68,69,83,,,,,,,,2.01,1.04,1.72*12
$GPGSV,4,1,16,05,46,041,37,12,70,054,29,13,14,115,16,15,37,147,30*77
$GPGSV,4,2,16,18,33,281,24,20,14,034,10,23,38,208,31,24,37,183,28*7D
$GPGSV,4,3,16,25,50,343,35,28,02,298,,29,12,340,,36,52,277,*7D
$GPGSV,4,4,16,40,86,351,,41,58,082,,49,32,274,,50,10,089,*79
$GLGSV,3,1,10,67,16,072,,68,34,123,12,69,22,179,18,73,09,329,*63
$GLGSV,3,2,10,78,05,156,,79,55,165,26,80,63,318,27,82,02,013,*6D
$GLGSV,3,3,10,83,17,327,11,84,11,274,*62
$GNGLL,0419.78649,S,05539.74754,E,061416.00,A,A*69
$GNRMC,061417.00,A,0419.78650,S,05539.74753,E,0.075,,270525,,,A*7B
$GNVTG,,T,,M,0.075,N,0.139,K,A*34
$GNGGA,061417.00,0419.78650,S,05539.74753,E,1,12,1.04,14.1,M,-47.6,M,,*48
$GNGSA,A,3,12,05,25,24,15,23,18,20,13,,,,2.01,1.04,1.72*15
$GNGSA,A,3,80,79,68,69,83,,,,,,,,2.01,1.04,1.72*12
$GPGSV,4,1,16,05,46,041,37,12,70,054,20,13,14,115,15,15,37,147,29*75
$GPGSV,4,2,16,18,33,281,24,20,14,034,10,23,38,208,30,24,37,183,27*73
$GPGSV,4,3,16,25,50,343,35,28,02,298,,29,12,340,,36,52,277,*7D
$GPGSV,4,4,16,40,86,351,,41,58,082,,49,32,274,,50,10,089,*79
$GLGSV,3,1,10,67,16,072,,68,34,123,13,69,22,179,20,73,09,329,*69
$GLGSV,3,2,10,78,05,156,,79,55,165,28,80,63,318,28,82,02,013,*6C
$GLGSV,3,3,10,83,17,327,13,84,11,274,*60
$GNGLL,0419.78650,S,05539.74753,E,061417.00,A,A*67
