$GNRMC,103704.00,A,0420.13306,S,05539.62698,E,2.426,228.60,220525,,,D*6F
$GNVTG,228.60,T,,M,2.426,N,4.493,K,D*20
$GNGGA,103704.00,0420.13306,S,05539.62698,E,2,12,0.57,11.4,M,-47.6,M,,0000*48
$GNGSA,A,3,29,10,32,26,23,25,18,28,16,31,41,,1.12,0.57,0.97*18
$GNGSA,A,3,65,86,87,72,66,76,77,,,,,,1.12,0.57,0.97*14
$GPGSV,5,1,17,10,36,321,36,16,19,291,30,18,21,032,28,23,20,005,30*78
$GPGSV,5,2,17,24,08,084,,25,19,156,36,26,30,261,31,27,04,328,25*7D
$GPGSV,5,3,17,28,24,195,31,29,51,119,33,31,11,220,18,32,68,197,40*73
$GPGSV,5,4,17,36,52,277,33,40,85,353,37,41,58,082,34,49,32,274,*7E
$GPGSV,5,5,17,50,10,089,*4A
$GLGSV,2,1,08,65,72,328,28,66,44,217,26,72,21,018,21,76,20,190,33*6C
$GLGSV,2,2,08,77,19,238,24,85,01,129,24,86,25,079,20,87,25,030,21*67
$GNGLL,0420.13306,S,05539.62698,E,103704.00,A,D*66
$GNRMC,103705.00,A,0420.13354,S,05539.62655,E,2.370,222.57,220525,,,D*62
$GNVTG,222.57,T,,M,2.370,N,4.389,K,D*26
$GNGGA,103705.00,0420.13354,S,05539.62655,E,2,12,0.57,11.5,M,-47.6,M,,0000*4E
$GNGSA,A,3,29,10,32,26,23,25,18,28,16,31,41,,1.12,0.57,0.97*18
$GNGSA,A,3,65,86,87,72,66,76,77,,,,,,1.12,0.57,0.97*14
$GPGSV,5,1,17,10,36,321,40,16,19,291,34,18,21,032,33,23,20,005,37*70
$GPGSV,5,2,17,24,08,084,,25,19,156,37,26,30,261,34,27,04,328,32*7F
$GPGSV,5,3,17,28,24,195,42,29,51,119,39,31,11,220,23,32,68,197,45*70
$GPGSV,5,4,17,36,52,277,40,40,85,353,42,41,58,082,40,49,32,274,*7B
$GPGSV,5,5,17,50,10,089,*4A
$GLGSV,2,1,08,65,71,329,32,66,44,217,31,72,21,018,20,76,20,190,39*68
$GLGSV,2,2,08,77,19,238,23,85,01,129,24,86,25,079,19,87,25,030,20*6B
$GNGLL,0420.13354,S,05539.62655,E,103705.00,A,D*61
$GNRMC,103706.00,A,0420.13388,S,05539.62613,E,1.837,232.05,220525,,,D*6F
$GNVTG,232.05,T,,M,1.837,N,3.402,K,D*28
$GNGGA,103706.00,0420.13388,S,05539.62613,E,2,12,0.58,11.8,M,-47.6,M,,0000*4C
$GNGSA,A,3,29,10,32,26,23,25,18,28,16,31,41,,1.14,0.58,0.98*1E
$GNGSA,A,3,65,86,87,72,66,76,77,,,,,,1.14,0.58,0.98*12
$GPGSV,5,1,17,10,36,321,42,16,19,291,33,18,21,032,36,23,20,005,39*7E
$GPGSV,5,2,17,24,08,084,33,25,19,156,39,26,30,261,33,27,04,328,36*72
$GPGSV,5,3,17,28,24,195,41,29,51,119,41,31,11,220,28,32,68,197,45*77
$GPGSV,5,4,17,36,52,277,36,40,85,353,40,41,58,082,37,49,32,274,*78
$GPGSV,5,5,17,50,10,089,*4A
$GLGSV,2,1,08,65,71,329,35,66,44,218,32,72,21,018,29,76,20,190,43*67
$GLGSV,2,2,08,77,19,238,31,85,01,129,27,86,25,079,34,87,25,030,25*61
$GNGLL,0420.13388,S,05539.62613,E,103706.00,A,D*61
$GNRMC,103707.00,A,0420.13413,S,05539.62583,E,1.331,231.77,220525,,,D*6A
$GNVTG,231.77,T,,M,1.331,N,2.466,K,D*20
$GNGGA,103707.00,0420.13413,S,05539.62583,E,2,12,0.57,11.8,M,-47.6,M,,0000*4D
$GNGSA,A,3,29,10,32,26,23,25,18,24,28,16,31,41,1.10,0.57,0.94*1F
$GNGSA,A,3,65,86,87,72,66,76,77,,,,,,1.10,0.57,0.94*15
$GPGSV,5,1,17,10,36,321,42,16,19,291,34,18,21,032,32,23,20,005,34*70
$GPGSV,5,2,17,24,08,084,32,25,19,156,37,26,30,261,36,27,04,328,33*7D
$GPGSV,5,3,17,28,24,195,34,29,51,119,40,31,11,220,33,32,68,197,40*7B
$GPGSV,5,4,17,36,52,277,37,40,85,353,41,41,58,082,37,49,32,274,*78
$GPGSV,5,5,17,50,10,089,*4A
$GLGSV,2,1,08,65,71,329,32,66,44,218,39,72,21,018,28,76,20,190,41*68
$GLGSV,2,2,08,77,19,238,31,85,01,129,32,86,25,079,34,87,25,030,26*66
$GNGLL,0420.13413,S,05539.62583,E,103707.00,A,D*6F
$GNRMC,103708.00,A,0420.13434,S,05539.62547,E,1.514,241.76,220525,,,D*6F
$GNVTG,241.76,T,,M,1.514,N,2.803,K,D*28
$GNGGA,103708.00,0420.13434,S,05539.62547,E,2,12,0.55,11.8,M,-47.6,M,,0000*4D
$GNGSA,A,3,29,10,32,26,23,25,18,24,28,16,31,41,1.08,0.55,0.93*13
$GNGSA,A,3,65,86,87,72,66,76,77,,,,,,1.08,0.55,0.93*19
$GPGSV,5,1,17,10,36,321,43,16,19,291,36,18,21,032,27,23,20,005,34*77
$GPGSV,5,2,17,24,08,084,31,25,19,156,34,26,30,261,37,27,04,328,34*7B
$GPGSV,5,3,17,28,24,195,35,29,51,119,37,31,11,220,33,32,68,197,44*7E
$GPGSV,5,4,17,36,52,277,39,40,85,353,42,41,58,082,35,49,32,274,*77
$GPGSV,5,5,17,50,10,089,*4A
$GLGSV,2,1,08,65,71,329,32,66,44,218,35,72,21,018,30,76,20,190,40*6C
$GLGSV,2,2,08,77,19,238,30,85,01,129,33,86,25,079,30,87,25,030,25*61
$GNGLL,0420.13434,S,05539.62547,E,103708.00,A,D*6D
$GNRMC,103709.00,A,0420.13449,S,05539.62512,E,1.059,243.63,220525,,,D*6E
$GNVTG,243.63,T,,M,1.059,N,1.962,K,D*27
$GNGGA,103709.00,0420.13449,S,05539.62512,E,2,12,0.56,11.7,M,-47.6,M,,0000*4A
$GNGSA,A,3,29,10,32,26,23,25,18,24,28,16,31,41,1.16,0.56,1.01*15
$GNGSA,A,3,65,86,87,72,66,76,77,,,,,,1.16,0.56,1.01*1F
$GPGSV,5,1,17,10,36,321,42,16,19,291,36,18,21,032,27,23,20,005,36*74
$GPGSV,5,2,17,24,08,084,31,25,19,156,39,26,30,261,34,27,04,328,34*75
$GPGSV,5,3,17,28,24,195,37,29,51,119,43,31,11,220,33,32,68,197,44*7F
$GPGSV,5,4,17,36,52,277,38,40,85,353,41,41,58,082,40,49,32,274,*77
$GPGSV,5,5,17,50,10,089,*4A
$GLGSV,2,1,08,65,71,329,33,66,44,218,37,72,21,018,29,76,20,190,39*69
$GLGSV,2,2,08,77,19,238,30,85,01,129,33,86,25,079,28,87,25,030,24*69
$GNGLL,0420.13449,S,05539.62512,E,103709.00,A,D*66
$GNRMC,103710.00,A,0420.13472,S,05539.62484,E,1.387,233.67,220525,,,D*63
$GNVTG,233.67,T,,M,1.387,N,2.570,K,D*28
$GNGGA,103710.00,0420.13472,S,05539.62484,E,2,12,0.55,11.6,M,-47.6,M,,0000*46
$GNGSA,A,3,29,10,32,26,23,25,18,24,28,16,31,41,1.08,0.55,0.93*13
$GNGSA,A,3,65,86,87,72,66,76,77,,,,,,1.08,0.55,0.93*19
$GPGSV,5,1,17,10,36,321,41,16,19,291,37,18,21,032,27,23,20,005,36*76
$GPGSV,5,2,17,24,08,084,32,25,19,156,42,26,30,261,32,27,04,328,34*7C
$GPGSV,5,3,17,28,24,195,33,29,51,119,42,31,11,220,33,32,68,197,44*7A
$GPGSV,5,4,17,36,52,277,39,40,85,353,43,41,58,082,36,49,32,274,*75
$GPGSV,5,5,17,50,10,089,*4A
$GLGSV,2,1,08,65,71,329,33,66,44,218,34,72,21,018,30,76,20,190,34*6F
$GLGSV,2,2,08,77,19,238,31,85,01,129,27,86,25,079,29,87,25,030,23*6B
$GNGLL,0420.13472,S,05539.62484,E,103710.00,A,D*68
$GNRMC,103711.00,A,0420.13505,S,05539.62452,E,1.517,226.12,220525,,,D*61
$GNVTG,226.12,T,,M,1.517,N,2.809,K,D*22
$GNGGA,103711.00,0420.13505,S,05539.62452,E,2,12,0.55,11.8,M,-47.6,M,,0000*43
$GNGSA,A,3,29,10,32,26,23,25,18,24,28,16,31,41,1.08,0.55,0.93*13
$GNGSA,A,3,65,86,87,72,66,76,77,,,,,,1.08,0.55,0.93*19
$GPGSV,5,1,17,10,36,321,42,16,19,291,38,18,21,032,32,23,20,005,40*7F
$GPGSV,5,2,17,24,08,084,35,25,19,156,41,26,30,261,27,27,04,328,29*70
$GPGSV,5,3,17,28,24,195,31,29,51,119,40,31,11,220,36,32,68,197,42*79
$GPGSV,5,4,17,36,52,277,36,40,85,353,43,41,58,082,38,49,32,274,*74
$GPGSV,5,5,17,50,10,089,*4A
$GLGSV,2,1,08,65,71,329,33,66,44,218,30,72,21,018,29,76,20,190,34*63
$GLGSV,2,2,08,77,19,238,31,85,01,129,32,86,25,079,29,87,25,030,21*6D
$GNGLL,0420.13505,S,05539.62452,E,103711.00,A,D*63
$GNRMC,103712.00,A,0420.13531,S,05539.62421,E,1.279,228.55,220525,,,D*63
$GNVTG,228.55,T,,M,1.279,N,2.369,K,D*2D
$GNGGA,103712.00,0420.13531,S,05539.62421,E,2,12,0.56,12.0,M,-47.6,M,,0000*4B
$GNGSA,A,3,29,10,32,26,23,25,18,24,28,16,31,41,1.16,0.56,1.01*15
$GNGSA,A,3,65,86,87,72,66,76,77,,,,,,1.16,0.56,1.01*1F
$GPGSV,5,1,17,10,36,321,37,16,19,291,36,18,21,032,27,23,20,005,37*77
$GPGSV,5,2,17,24,08,084,35,25,19,156,39,26,30,261,36,27,04,328,29*7F
$GPGSV,5,3,17,28,24,195,34,29,51,119,40,31,11,220,35,32,68,197,44*79
$GPGSV,5,4,17,36,52,277,37,40,85,353,42,41,58,082,36,49,32,274,*7A
$GPGSV,5,5,17,50,10,089,*4A
$GLGSV,2,1,08,65,71,329,33,66,44,218,34,72,20,018,28,76,20,190,35*66
$GLGSV,2,2,08,77,19,238,24,85,01,129,36,86,25,079,29,87,25,030,19*66
$GNGLL,0420.13531,S,05539.62421,E,103712.00,A,D*63
$GNRMC,103713.00,A,0420.13545,S,05539.62378,E,1.540,248.04,220525,,,D*65
$GNVTG,248.04,T,,M,1.540,N,2.851,K,D*22
$GNGGA,103713.00,0420.13545,S,05539.62378,E,2,12,0.55,12.2,M,-47.6,M,,0000*43
$GNGSA,A,3,29,10,32,26,23,25,18,24,28,16,31,41,1.08,0.55,0.93*13
$GNGSA,A,3,65,86,87,72,66,76,77,,,,,,1.08,0.55,0.93*19
$GPGSV,5,1,17,10,36,321,43,16,19,291,38,18,21,032,29,23,20,005,35*76
$GPGSV,5,2,17,24,08,084,33,25,19,156,42,26,30,261,37,27,04,328,27*7A
$GPGSV,5,3,17,28,24,195,37,29,51,119,41,31,11,220,38,32,68,197,43*71
$GPGSV,5,4,17,36,52,277,37,40,85,353,42,41,58,082,39,49,32,274,*75
$GPGSV,5,5,17,50,10,089,*4A
$GLGSV,2,1,08,65,71,329,36,66,44,218,37,72,20,018,26,76,20,190,34*6F
$GLGSV,2,2,08,77,19,238,21,85,01,129,35,86,25,079,39,87,25,030,22*69
$GNGLL,0420.13545,S,05539.62378,E,103713.00,A,D*6A
$GNRMC,103714.00,A,0420.13560,S,05539.62357,E,0.721,244.36,220525,,,D*61
$GNVTG,244.36,T,,M,0.721,N,1.335,K,D*21
$GNGGA,103714.00,0420.13560,S,05539.62357,E,2,12,0.55,12.4,M,-47.6,M,,0000*48
$GNGSA,A,3,29,10,32,26,23,25,18,24,28,16,31,41,1.08,0.55,0.93*13
$GNGSA,A,3,65,86,87,72,66,76,77,,,,,,1.08,0.55,0.93*19
$GPGSV,5,1,17,10,36,321,34,16,19,291,37,18,21,032,30,23,20,005,32*76
$GPGSV,5,2,17,24,08,084,34,25,19,156,38,26,30,261,34,27,04,328,24*70
$GPGSV,5,3,17,28,24,195,30,29,51,119,42,31,11,220,35,32,68,197,41*7A
$GPGSV,5,4,17,36,52,277,35,40,85,353,40,41,58,082,38,49,32,274,*74
$GPGSV,5,5,17,50,10,089,*4A
$GLGSV,2,1,08,65,71,329,31,66,44,218,39,72,20,018,26,76,20,190,32*60
$GLGSV,2,2,08,77,19,238,20,85,01,129,34,86,25,079,24,87,25,030,23*64
$GNGLL,0420.13560,S,05539.62357,E,103714.00,A,D*67
$GNRMC,103715.00,A,0420.13576,S,05539.62340,E,0.892,232.36,220525,,,D*67
$GNVTG,232.36,T,,M,0.892,N,1.652,K,D*23
$GNGGA,103715.00,0420.13576,S,05539.62340,E,2,12,0.55,12.6,M,-47.6,M,,0000*4A
$GNGSA,A,3,29,10,32,26,23,25,18,24,28,16,31,41,1.08,0.55,0.93*13
$GNGSA,A,3,65,86,87,72,66,76,77,,,,,,1.08,0.55,0.93*19
$GPGSV,5,1,17,10,36,321,42,16,19,291,37,18,21,032,29,23,20,005,37*7A
$GPGSV,5,2,17,24,08,084,32,25,19,156,40,26,30,261,37,27,04,328,31*7E
$GPGSV,5,3,17,28,24,195,31,29,51,119,43,31,11,220,39,32,68,197,41*76
$GPGSV,5,4,17,36,52,277,37,40,85,353,44,41,58,082,35,49,32,274,*7F
$GPGSV,5,5,17,50,10,089,*4A
$GLGSV,2,1,08,65,71,329,34,66,44,218,36,72,20,018,22,76,20,190,35*69
$GLGSV,2,2,08,77,19,238,22,85,01,129,34,86,25,079,25,87,25,030,24*60
$GNGLL,0420.13576,S,05539.62340,E,103715.00,A,D*67
$GNRMC,103716.00,A,0420.13587,S,05539.62321,E,0.887,238.44,220525,,,D*66
$GNVTG,238.44,T,,M,0.887,N,1.642,K,D*29
$GNGGA,103716.00,0420.13587,S,05539.62321,E,2,12,0.55,12.6,M,-47.6,M,,0000*40
$GNGSA,A,3,29,10,32,26,23,25,18,24,28,16,31,41,1.08,0.55,0.93*13
$GNGSA,A,3,65,86,87,72,66,76,77,,,,,,1.08,0.55,0.93*19
$GPGSV,5,1,17,10,36,321,43,16,19,291,38,18,21,032,30,23,20,005,34*7F
$GPGSV,5,2,17,24,08,084,12,25,19,156,37,26,30,261,34,27,04,328,22*7D
$GPGSV,5,3,17,28,24,195,36,29,51,119,40,31,11,220,34,32,68,197,44*7A
$GPGSV,5,4,17,36,52,277,35,40,85,353,36,41,58,082,33,49,32,274,*7E
$GPGSV,5,5,17,50,10,089,*4A
$GLGSV,2,1,08,65,71,329,34,66,44,218,39,72,20,018,24,76,20,190,28*6C
$GLGSV,2,2,08,77,19,238,24,85,01,129,31,86,25,079,30,87,25,030,22*61
$GNGLL,0420.13587,S,05539.62321,E,103716.00,A,D*6D
$GNRMC,103717.00,A,0420.13593,S,05539.62305,E,0.451,242.45,220525,,,D*6F
$GNVTG,242.45,T,,M,0.451,N,0.835,K,D*2D
$GNGGA,103717.00,0420.13593,S,05539.62305,E,2,12,0.55,12.6,M,-47.6,M,,0000*42
$GNGSA,A,3,29,10,32,26,23,25,18,24,28,16,31,41,1.08,0.55,0.93*13
$GNGSA,A,3,65,86,87,72,66,76,77,,,,,,1.08,0.55,0.93*19
$GPGSV,5,1,17,10,36,321,47,16,19,291,40,18,21,032,29,23,20,005,32*7A
$GPGSV,5,2,17,24,08,084,35,25,19,156,42,26,30,261,37,27,04,328,25*7E
$GPGSV,5,3,17,28,24,195,34,29,51,119,37,31,11,220,37,32,68,197,45*7A
$GPGSV,5,4,17,36,52,277,35,40,85,353,40,41,58,082,38,49,32,274,*74
$GPGSV,5,5,17,50,10,089,*4A
$GLGSV,2,1,08,65,71,329,34,66,44,218,35,72,20,018,22,76,20,190,30*6F
$GLGSV,2,2,08,77,19,238,31,85,01,129,31,86,25,079,29,87,25,030,22*6D
$GNGLL,0420.13593,S,05539.62305,E,103717.00,A,D*6F
$GNRMC,103718.00,A,0420.13596,S,05539.62289,E,0.523,256.91,220525,,,D*68
$GNVTG,256.91,T,,M,0.523,N,0.969,K,D*2D
$GNGGA,103718.00,0420.13596,S,05539.62289,E,2,12,0.55,12.4,M,-47.6,M,,0000*4F
$GNGSA,A,3,29,10,32,26,23,25,18,24,28,16,31,41,1.08,0.55,0.93*13
$GNGSA,A,3,65,86,87,72,66,76,77,,,,,,1.08,0.55,0.93*19
$GPGSV,5,1,17,10,36,321,46,16,19,291,38,18,21,032,31,23,20,005,35*7A
$GPGSV,5,2,17,24,08,084,33,25,19,156,43,26,30,261,35,27,04,328,28*76
$GPGSV,5,3,17,28,24,195,30,29,51,119,39,31,11,220,38,32,68,197,45*7F
$GPGSV,5,4,17,36,52,277,35,40,85,353,41,41,58,082,40,49,32,274,*7A
$GPGSV,5,5,17,50,10,089,*4A
$GLGSV,2,1,08,65,71,329,34,66,44,218,33,72,20,018,23,76,20,190,34*6C
$GLGSV,2,2,08,77,19,238,30,85,01,129,33,86,25,079,29,87,25,030,21*6D
$GNGLL,0420.13596,S,05539.62289,E,103718.00,A,D*60
$GNRMC,103719.00,A,0420.13601,S,05539.62275,E,0.594,250.84,220525,,,D*69
$GNVTG,250.84,T,,M,0.594,N,1.100,K,D*25
$GNGGA,103719.00,0420.13601,S,05539.62275,E,2,12,0.55,12.3,M,-47.6,M,,0000*47
$GNGSA,A,3,29,10,32,26,23,25,18,24,28,16,31,41,1.08,0.55,0.93*13
$GNGSA,A,3,65,86,87,72,66,76,77,,,,,,1.08,0.55,0.93*19
$GPGSV,5,1,17,10,36,321,40,16,19,291,33,18,21,032,31,23,20,005,25*76
$GPGSV,5,2,17,24,08,084,33,25,19,156,39,26,30,261,37,27,04,328,*73
$GPGSV,5,3,17,28,24,195,35,29,51,119,39,31,11,220,37,32,68,197,45*75
$GPGSV,5,4,17,36,52,277,33,40,85,353,43,41,58,082,38,49,32,274,*71
$GPGSV,5,5,17,50,10,089,*4A
$GLGSV,2,1,08,65,71,329,33,66,44,218,38,72,20,018,24,76,20,190,36*65
$GLGSV,2,2,08,77,19,238,27,85,01,129,32,86,25,079,29,87,25,030,20*6B
$GNGLL,0420.13601,S,05539.62275,E,103719.00,A,D*6F
$GNRMC,103720.00,A,0420.13608,S,05539.62260,E,0.506,249.52,220525,,,D*66
$GNVTG,249.52,T,,M,0.506,N,0.936,K,D*21
$GNGGA,103720.00,0420.13608,S,05539.62260,E,2,12,0.56,12.3,M,-47.6,M,,0000*43
$GNGSA,A,3,29,10,32,26,23,25,18,24,28,16,31,41,1.16,0.56,1.01*15
$GNGSA,A,3,65,86,87,72,66,76,77,,,,,,1.16,0.56,1.01*1F
$GPGSV,5,1,17,10,36,321,43,16,19,291,28,18,21,032,31,23,20,005,33*78
$GPGSV,5,2,17,24,08,084,32,25,19,156,41,26,30,261,37,27,04,328,*7D
$GPGSV,5,3,17,28,24,195,33,29,51,119,37,31,11,220,34,32,68,197,43*78
$GPGSV,5,4,17,36,52,277,35,40,85,353,43,41,58,082,37,49,32,274,*78
$GPGSV,5,5,17,50,10,089,*4A
$GLGSV,2,1,08,65,71,329,35,66,44,218,37,72,20,018,22,76,20,190,36*6A
$GLGSV,2,2,08,77,19,238,26,85,01,129,30,86,25,079,33,87,25,030,23*60
$GNGLL,0420.13608,S,05539.62260,E,103720.00,A,D*68
$GNRMC,103721.00,A,0420.13616,S,05539.62238,E,0.941,248.79,220525,,,D*62
$GNVTG,248.79,T,,M,0.941,N,1.742,K,D*2A
$GNGGA,103721.00,0420.13616,S,05539.62238,E,2,12,0.55,12.1,M,-47.6,M,,0000*41
$GNGSA,A,3,29,10,32,26,23,25,18,24,28,16,31,41,1.08,0.55,0.93*13
$GNGSA,A,3,65,86,87,72,66,76,77,,,,,,1.08,0.55,0.93*19
$GPGSV,5,1,17,10,36,321,43,16,19,291,32,18,21,032,24,23,20,005,32*76
$GPGSV,5,2,17,24,08,084,35,25,19,156,38,26,30,261,39,27,04,328,*7A
$GPGSV,5,3,17,28,24,195,34,29,51,119,41,31,11,220,39,32,68,197,39*7E
$GPGSV,5,4,17,36,52,277,33,40,85,353,43,41,58,082,37,49,32,274,*7E
$GPGSV,5,5,17,50,10,089,*4A
$GLGSV,2,1,08,65,71,329,33,66,44,218,39,72,20,018,19,76,20,190,32*6E
$GLGSV,2,2,08,77,19,238,27,85,01,129,29,86,25,079,28,87,25,030,24*64
$GNGLL,0420.13616,S,05539.62238,E,103721.00,A,D*6B
$GNRMC,103722.00,A,0420.13621,S,05539.62216,E,0.775,254.68,220525,,,D*6D
$GNVTG,254.68,T,,M,0.775,N,1.435,K,D*2D
$GNGGA,103722.00,0420.13621,S,05539.62216,E,2,12,0.55,12.1,M,-47.6,M,,0000*4A
$GNGSA,A,3,29,10,32,26,23,25,18,24,28,16,31,41,1.08,0.55,0.93*13
$GNGSA,A,3,65,86,87,72,66,76,77,,,,,,1.08,0.55,0.93*19
$GPGSV,5,1,17,10,36,321,42,16,19,291,36,18,21,032,34,23,20,005,31*71
$GPGSV,5,2,17,24,08,084,32,25,19,156,40,26,30,261,38,27,04,328,*73
$GPGSV,5,3,17,28,24,195,38,29,51,119,41,31,11,220,33,32,68,197,44*72
$GPGSV,5,4,17,36,52,277,38,40,85,353,39,41,58,082,35,49,32,274,*7A
$GPGSV,5,5,17,50,10,089,*4A
$GLGSV,2,1,08,65,71,329,31,66,44,218,27,72,20,018,19,76,20,190,32*63
$GLGSV,2,2,08,77,19,238,28,85,01,129,22,86,25,079,29,87,25,030,23*66
$GNGLL,0420.13621,S,05539.62216,E,103722.00,A,D*60
$GNRMC,103723.00,A,0420.13612,S,05539.62184,E,1.454,281.08,220525,,,D*6B
$GNVTG,281.08,T,,M,1.454,N,2.692,K,D*2E
$GNGGA,103723.00,0420.13612,S,05539.62184,E,2,12,0.56,12.5,M,-47.6,M,,0000*44
$GNGSA,A,3,29,10,32,26,23,25,18,24,28,16,31,41,1.16,0.56,1.01*15
$GNGSA,A,3,65,86,87,72,66,76,77,,,,,,1.16,0.56,1.01*1F
$GPGSV,5,1,17,10,36,321,44,16,19,291,32,18,21,032,33,23,20,005,32*77
$GPGSV,5,2,17,24,08,084,31,25,19,156,43,26,30,261,35,27,04,328,32*7F
$GPGSV,5,3,17,28,24,195,37,29,51,119,36,31,11,220,36,32,68,197,43*7F
$GPGSV,5,4,17,36,52,277,37,40,85,353,43,41,58,082,36,49,32,274,*7B
$GPGSV,5,5,17,50,10,089,*4A
$GLGSV,2,1,08,65,71,329,33,66,44,218,37,72,20,018,15,76,20,190,37*69
$GLGSV,2,2,08,77,19,238,28,85,01,129,24,86,25,079,30,87,25,030,22*69
$GNGLL,0420.13612,S,05539.62184,E,103723.00,A,D*69
$GNRMC,103724.00,A,0420.13602,S,05539.62162,E,0.545,286.09,220525,,,D*63
$GNVTG,286.09,T,,M,0.545,N,1.009,K,D*2F
$GNGGA,103724.00,0420.13602,S,05539.62162,E,2,12,0.55,12.2,M,-47.6,M,,0000*4E
$GNGSA,A,3,29,10,32,26,23,25,18,24,28,16,31,41,1.08,0.55,0.93*13
$GNGSA,A,3,65,86,87,72,66,76,77,,,,,,1.08,0.55,0.93*19
$GPGSV,5,1,17,10,36,321,44,16,19,291,41,18,21,032,27,23,20,005,29*7C
$GPGSV,5,2,17,24,08,084,26,25,19,156,41,26,30,261,29,27,04,328,26*73
$GPGSV,5,3,17,28,24,195,35,29,51,119,38,31,11,220,37,32,68,197,45*74
$GPGSV,5,4,17,36,52,277,38,40,85,353,41,41,58,082,41,49,32,274,*76
$GPGSV,5,5,17,50,10,089,*4A
$GLGSV,2,1,08,65,71,329,29,66,44,218,34,72,20,018,11,76,20,190,33*61
$GLGSV,2,2,08,77,19,238,32,85,01,129,33,86,25,079,31,87,25,030,19*6D
$GNGLL,0420.13602,S,05539.62162,E,103724.00,A,D*67
$GNRMC,103725.00,A,0420.13604,S,05539.62151,E,0.399,266.72,220525,,,D*61
$GNVTG,266.72,T,,M,0.399,N,0.740,K,D*21
$GNGGA,103725.00,0420.13604,S,05539.62151,E,2,12,0.55,12.5,M,-47.6,M,,0000*4E
$GNGSA,A,3,29,10,32,26,23,25,18,24,28,16,31,41,1.08,0.55,0.93*13
$GNGSA,A,3,65,86,87,72,66,76,77,,,,,,1.08,0.55,0.93*19
$GPGSV,5,1,17,10,36,321,41,16,19,291,32,18,21,032,25,23,20,005,31*76
$GPGSV,5,2,17,24,08,084,31,25,19,156,38,26,30,261,30,27,04,328,26*73
$GPGSV,5,3,17,28,24,195,32,29,51,119,38,31,11,220,33,32,68,197,41*73
$GPGSV,5,4,17,36,52,277,30,40,85,353,39,41,58,082,36,49,32,274,*71
$GPGSV,5,5,17,50,10,089,*4A
$GLGSV,2,1,08,65,71,329,35,66,44,218,34,72,20,018,18,76,20,190,33*65
$GLGSV,2,2,08,77,19,238,30,85,01,130,27,86,25,079,35,87,25,030,19*66
$GNGLL,0420.13604,S,05539.62151,E,103725.00,A,D*60
$GNRMC,103726.00,A,0420.13601,S,05539.62138,E,0.537,282.05,220525,,,D*60
$GNVTG,282.05,T,,M,0.537,N,0.994,K,D*2E
$GNGGA,103726.00,0420.13601,S,05539.62138,E,2,12,0.55,12.6,M,-47.6,M,,0000*44
$GNGSA,A,3,29,10,32,26,23,25,18,24,28,16,31,41,1.08,0.55,0.93*13
$GNGSA,A,3,65,86,87,72,66,76,77,,,,,,1.08,0.55,0.93*19
$GPGSV,5,1,17,10,36,321,42,16,19,291,30,18,21,032,23,23,20,005,30*70
$GPGSV,5,2,17,24,08,084,24,25,19,156,41,26,30,261,34,27,04,328,26*7D
$GPGSV,5,3,17,28,24,195,31,29,51,119,38,31,11,220,32,32,68,197,43*73
$GPGSV,5,4,17,36,52,277,30,40,85,353,40,41,58,082,37,49,32,274,*7E
$GPGSV,5,5,17,50,10,089,*4A
$GLGSV,2,1,08,65,71,329,35,66,44,218,33,72,20,018,19,76,20,190,33*63
$GLGSV,2,2,08,77,19,238,31,85,01,130,27,86,26,080,30,87,25,030,21*6C
$GNGLL,0420.13601,S,05539.62138,E,103726.00,A,D*69
$GNRMC,103727.00,A,0420.13583,S,05539.62126,E,0.898,324.37,220525,,,D*63
$GNVTG,324.37,T,,M,0.898,N,1.664,K,D*2B
$GNGGA,103727.00,0420.13583,S,05539.62126,E,2,12,0.55,12.8,M,-47.6,M,,0000*4D
$GNGSA,A,3,29,10,32,26,23,25,18,24,28,16,31,41,1.08,0.55,0.93*13
$GNGSA,A,3,65,86,87,72,66,76,77,,,,,,1.08,0.55,0.93*19
$GPGSV,5,1,17,10,36,321,42,16,19,291,39,18,21,032,22,23,20,005,25*7C
$GPGSV,5,2,17,24,08,084,26,25,19,156,40,26,30,261,34,27,04,328,30*79
$GPGSV,5,3,17,28,24,195,35,29,51,119,41,31,11,220,37,32,68,197,38*70
$GPGSV,5,4,17,36,52,277,35,40,85,353,40,41,58,082,35,49,32,274,*79
$GPGSV,5,5,17,50,10,089,*4A
$GLGSV,2,1,08,65,71,329,30,66,44,218,30,72,20,018,21,76,20,190,32*6F
$GLGSV,2,2,08,77,19,238,24,85,01,130,33,86,26,080,40,87,25,030,30*6A
$GNGLL,0420.13583,S,05539.62126,E,103727.00,A,D*6E
$GNRMC,103728.00,A,0420.13560,S,05539.62107,E,1.172,318.53,220525,,,D*63
$GNVTG,318.53,T,,M,1.172,N,2.170,K,D*2B
$GNGGA,103728.00,0420.13560,S,05539.62107,E,2,12,0.55,12.3,M,-47.6,M,,0000*47
$GNGSA,A,3,29,10,32,26,23,25,18,24,28,16,31,41,1.08,0.55,0.93*13
$GNGSA,A,3,65,86,87,72,66,76,77,,,,,,1.08,0.55,0.93*19
$GPGSV,5,1,17,10,36,321,43,16,19,291,28,18,21,032,22,23,20,005,31*78
$GPGSV,5,2,17,24,08,084,31,25,19,156,42,26,30,261,38,27,04,328,29*79
$GPGSV,5,3,17,28,24,195,29,29,51,119,43,31,11,220,37,32,68,197,41*71
$GPGSV,5,4,17,36,52,277,38,40,85,353,43,41,58,082,37,49,32,274,*75
$GPGSV,5,5,17,50,10,089,*4A
$GLGSV,2,1,08,65,71,329,34,66,44,218,37,72,20,018,23,76,20,190,27*6A
$GLGSV,2,2,08,77,19,238,23,85,01,130,33,86,26,080,33,87,25,030,22*6A
$GNGLL,0420.13560,S,05539.62107,E,103728.00,A,D*6F
$GNRMC,103729.00,A,0420.13568,S,05539.62084,E,0.948,270.89,220525,,,D*68
$GNVTG,270.89,T,,M,0.948,N,1.755,K,D*21
$GNGGA,103729.00,0420.13568,S,05539.62084,E,2,12,0.55,12.0,M,-47.6,M,,0000*47
$GNGSA,A,3,29,10,32,26,23,25,18,24,28,16,31,41,1.08,0.55,0.93*13
$GNGSA,A,3,65,86,87,72,66,76,77,,,,,,1.08,0.55,0.93*19
$GPGSV,5,1,17,10,36,321,45,16,19,291,28,18,21,032,25,23,20,005,32*7A
$GPGSV,5,2,17,24,08,084,38,25,19,156,41,26,30,261,35,27,04,328,29*7E
$GPGSV,5,3,17,28,24,195,34,29,51,119,41,31,11,220,38,32,68,197,45*74
$GPGSV,5,4,17,36,52,277,34,40,85,353,42,41,58,082,36,49,32,274,*79
$GPGSV,5,5,17,50,10,089,*4A
$GLGSV,2,1,08,65,71,329,30,66,44,218,34,72,20,018,24,76,20,190,28*65
$GLGSV,2,2,08,77,19,238,25,85,01,130,30,86,26,080,29,87,25,030,23*65
$GNGLL,0420.13568,S,05539.62084,E,103729.00,A,D*6C
$GNRMC,103730.00,A,0420.13592,S,05539.62063,E,1.296,244.10,220525,,,D*62
$GNVTG,244.10,T,,M,1.296,N,2.401,K,D*2E
$GNGGA,103730.00,0420.13592,S,05539.62063,E,2,12,0.55,12.0,M,-47.6,M,,0000*43
$GNGSA,A,3,29,10,32,26,23,25,18,24,28,16,31,41,1.08,0.55,0.93*13
$GNGSA,A,3,65,86,87,72,66,76,77,,,,,,1.08,0.55,0.93*19
$GPGSV,5,1,17,10,36,321,40,16,19,291,33,18,21,032,25,23,20,005,29*7F
$GPGSV,5,2,17,24,08,084,27,25,19,156,40,26,30,261,34,27,04,328,30*78
$GPGSV,5,3,17,28,24,195,30,29,51,119,39,31,11,220,36,32,68,197,42*76
$GPGSV,5,4,17,36,52,277,34,40,85,353,40,41,58,082,36,49,32,274,*7B
$GPGSV,5,5,17,50,10,089,*4A
$GLGSV,2,1,08,65,71,329,33,66,44,218,37,72,20,018,23,76,20,190,35*6E
$GLGSV,2,2,08,77,19,238,26,85,01,130,20,86,26,080,27,87,25,030,21*6B
$GNGLL,0420.13592,S,05539.62063,E,103730.00,A,D*68
$GNRMC,103731.00,A,0420.13614,S,05539.62042,E,0.945,236.82,220525,,,D*67
$GNVTG,236.82,T,,M,0.945,N,1.750,K,D*20
$GNGGA,103731.00,0420.13614,S,05539.62042,E,2,12,0.55,12.1,M,-47.6,M,,0000*4D
$GNGSA,A,3,29,10,32,26,23,25,18,24,28,16,31,41,1.08,0.55,0.93*13
$GNGSA,A,3,65,86,87,72,66,76,77,,,,,,1.08,0.55,0.93*19
$GPGSV,5,1,17,10,36,321,44,16,19,291,36,18,21,032,31,23,20,005,29*7B
$GPGSV,5,2,17,24,08,084,26,25,19,156,38,26,30,261,29,27,04,328,29*72
$GPGSV,5,3,17,28,24,195,32,29,51,119,38,31,11,220,32,32,68,197,42*71
$GPGSV,5,4,17,36,52,277,32,40,85,353,38,41,58,082,36,49,32,274,*72
$GPGSV,5,5,17,50,10,089,*4A
$GLGSV,2,1,08,65,71,329,24,66,44,218,35,72,20,018,20,76,20,190,32*6E
$GLGSV,2,2,08,77,19,238,27,85,01,130,22,86,26,080,31,87,25,030,22*6C
$GNGLL,0420.13614,S,05539.62042,E,103731.00,A,D*67
$GNRMC,103732.00,A,0420.13619,S,05539.62020,E,0.789,247.68,220525,,,D*61
$GNVTG,247.68,T,,M,0.789,N,1.460,K,D*2C
$GNGGA,103732.00,0420.13619,S,05539.62020,E,2,12,0.55,12.4,M,-47.6,M,,0000*42
$GNGSA,A,3,29,10,32,26,23,25,18,24,28,16,31,41,1.08,0.55,0.93*13
$GNGSA,A,3,65,86,87,72,66,76,77,,,,,,1.08,0.55,0.93*19
$GPGSV,5,1,17,10,36,321,41,16,19,291,33,18,21,032,26,23,20,005,34*71
$GPGSV,5,2,17,24,08,084,31,25,19,156,35,26,30,261,37,27,04,328,33*7D
$GPGSV,5,3,17,28,24,195,35,29,51,119,37,31,11,220,33,32,68,197,42*78
$GPGSV,5,4,17,36,52,277,33,40,85,353,39,41,58,082,35,49,32,274,*71
$GPGSV,5,5,17,50,10,089,*4A
$GLGSV,2,1,08,65,71,329,32,66,44,218,31,72,20,018,20,76,20,190,32*6D
$GLGSV,2,2,08,77,19,238,28,85,01,130,25,86,26,080,30,87,25,030,22*65
$GNGLL,0420.13619,S,05539.62020,E,103732.00,A,D*6D
$GNRMC,103733.00,A,0420.13612,S,05539.61995,E,0.920,281.05,220525,,,D*63
$GNVTG,281.05,T,,M,0.920,N,1.704,K,D*21
$GNGGA,103733.00,0420.13612,S,05539.61995,E,2,12,0.55,12.2,M,-47.6,M,,0000*4A
$GNGSA,A,3,29,10,32,26,23,25,18,24,28,16,31,41,1.08,0.55,0.93*13
$GNGSA,A,3,65,86,87,72,66,76,77,,,,,,1.08,0.55,0.93*19
$GPGSV,5,1,17,10,36,321,41,16,19,291,33,18,21,032,28,23,20,005,34*7F
$GPGSV,5,2,17,24,08,084,35,25,19,156,41,26,30,261,35,27,04,328,26*7C
$GPGSV,5,3,17,28,24,195,32,29,51,119,42,31,11,220,38,32,68,197,45*71
$GPGSV,5,4,17,36,52,277,37,40,85,353,42,41,58,082,39,49,32,274,*75
$GPGSV,5,5,17,50,10,089,*4A
$GLGSV,2,1,08,65,71,329,31,66,44,218,27,72,20,018,18,76,20,190,36*66
$GLGSV,2,2,08,77,19,238,27,85,01,130,28,86,26,080,29,87,25,030,21*6C
$GNGLL,0420.13612,S,05539.61995,E,103733.00,A,D*63
$GNRMC,103734.00,A,0420.13604,S,05539.61977,E,0.559,286.56,220525,,,D*6C
$GNVTG,286.56,T,,M,0.559,N,1.034,K,D*26
$GNGGA,103734.00,0420.13604,S,05539.61977,E,2,12,0.55,12.3,M,-47.6,M,,0000*47
$GNGSA,A,3,29,10,32,26,23,25,18,24,28,16,31,41,1.08,0.55,0.93*13
$GNGSA,A,3,65,86,87,72,66,76,77,,,,,,1.08,0.55,0.93*19
$GPGSV,5,1,17,10,36,321,45,16,19,291,38,18,21,032,35,23,20,005,36*7E
$GPGSV,5,2,17,24,08,084,35,25,19,156,37,26,30,261,34,27,04,328,27*7D
$GPGSV,5,3,17,28,24,195,37,29,51,119,39,31,11,220,35,32,68,197,43*73
$GPGSV,5,4,17,36,52,277,39,40,85,353,42,41,58,082,38,49,32,274,*7A
$GPGSV,5,5,17,50,10,089,*4A
$GLGSV,2,1,08,65,71,329,32,66,44,218,32,72,20,018,20,76,20,190,33*6F
$GLGSV,2,2,08,77,19,238,24,85,01,130,27,86,26,080,33,87,25,030,22*68
$GNGLL,0420.13604,S,05539.61977,E,103734.00,A,D*6F
$GNRMC,103735.00,A,0420.13590,S,05539.61955,E,1.181,297.87,220525,,,D*6F
$GNVTG,297.87,T,,M,1.181,N,2.188,K,D*2F
$GNGGA,103735.00,0420.13590,S,05539.61955,E,2,12,0.55,12.6,M,-47.6,M,,0000*4D
$GNGSA,A,3,29,10,32,26,23,25,18,24,28,16,31,41,1.08,0.55,0.93*13
$GNGSA,A,3,65,86,87,72,66,76,77,,,,,,1.08,0.55,0.93*19
$GPGSV,5,1,17,10,36,321,42,16,19,291,37,18,21,032,31,23,20,005,34*70
$GPGSV,5,2,17,24,08,084,26,25,19,156,33,26,30,261,34,27,04,328,25*79
$GPGSV,5,3,17,28,24,195,32,29,51,119,37,31,11,220,37,32,68,197,43*7A
$GPGSV,5,4,17,36,52,277,39,40,85,353,41,41,58,082,37,49,32,274,*76
$GPGSV,5,5,17,50,10,089,*4A
$GLGSV,2,1,08,65,71,329,34,66,44,218,33,72,20,018,22,76,20,190,35*6C
$GLGSV,2,2,08,77,19,238,26,85,01,130,29,86,26,080,29,87,25,030,22*6F
$GNGLL,0420.13590,S,05539.61955,E,103735.00,A,D*60
$GNRMC,103736.00,A,0420.13568,S,05539.61925,E,1.342,302.95,220525,,,D*6F
$GNVTG,302.95,T,,M,1.342,N,2.485,K,D*24
$GNGGA,103736.00,0420.13568,S,05539.61925,E,2,12,0.57,12.5,M,-47.6,M,,0000*4F
$GNGSA,A,3,29,10,32,26,23,25,18,28,16,31,41,,1.12,0.57,0.97*18
$GNGSA,A,3,65,86,87,72,66,76,77,,,,,,1.12,0.57,0.97*14
$GPGSV,5,1,17,10,36,321,45,16,19,291,36,18,21,032,26,23,20,005,33*77
$GPGSV,5,2,17,24,08,084,,25,19,156,37,26,30,261,34,27,04,328,26*7A
$GPGSV,5,3,17,28,24,195,32,29,51,119,39,31,11,220,31,32,68,197,39*7F
$GPGSV,5,4,17,36,52,277,34,40,85,353,38,41,58,082,42,49,32,274,*77
$GPGSV,5,5,17,50,10,089,*4A
$GLGSV,2,1,08,65,71,329,31,66,44,218,34,72,20,018,24,76,20,190,31*6C
$GLGSV,2,2,08,77,19,238,26,85,01,130,34,86,26,080,23,87,25,030,21*6A
$GNGLL,0420.13568,S,05539.61925,E,103736.00,A,D*63
$GNRMC,103737.00,A,0420.13544,S,05539.61902,E,1.191,309.63,220525,,,D*6B
$GNVTG,309.63,T,,M,1.191,N,2.206,K,D*27
$GNGGA,103737.00,0420.13544,S,05539.61902,E,2,12,0.57,12.4,M,-47.6,M,,0000*44
$GNGSA,A,3,29,10,32,26,23,25,18,28,16,31,41,,1.12,0.57,0.97*18
$GNGSA,A,3,65,86,87,72,66,76,77,,,,,,1.12,0.57,0.97*14
$GPGSV,5,1,17,10,36,321,43,16,19,291,41,18,21,032,24,23,20,005,35*75
$GPGSV,5,2,17,24,08,084,27,25,19,156,36,26,30,261,33,27,04,328,31*7F
$GPGSV,5,3,17,28,24,195,32,29,51,119,38,31,11,220,31,32,68,197,45*75
$GPGSV,5,4,17,36,52,277,36,40,85,353,41,41,58,082,37,49,32,274,*79
$GPGSV,5,5,17,50,10,089,*4A
$GLGSV,2,1,08,65,71,329,35,66,44,218,36,72,20,018,24,76,20,190,33*68
$GLGSV,2,2,08,77,19,238,35,85,01,130,28,86,26,080,31,87,25,030,22*65
$GNGLL,0420.13544,S,05539.61902,E,103737.00,A,D*69
$GNRMC,103738.00,A,0420.13524,S,05539.61885,E,0.842,312.94,220525,,,D*68
$GNVTG,312.94,T,,M,0.842,N,1.560,K,D*27
$GNGGA,103738.00,0420.13524,S,05539.61885,E,2,12,0.57,12.1,M,-47.6,M,,0000*46
$GNGSA,A,3,29,10,32,26,23,25,18,28,16,31,41,,1.12,0.57,0.97*18
$GNGSA,A,3,65,86,87,72,66,76,77,,,,,,1.12,0.57,0.97*14
$GPGSV,5,1,17,10,36,321,46,16,19,291,36,18,21,032,31,23,20,005,37*76
$GPGSV,5,2,17,24,08,084,32,25,19,156,42,26,30,261,36,27,04,328,34*78
$GPGSV,5,3,17,28,24,195,35,29,51,119,43,31,11,220,32,32,68,197,39*76
$GPGSV,5,4,17,36,52,277,40,40,85,353,38,41,58,082,39,49,32,274,*78
$GPGSV,5,5,17,50,10,089,*4A
$GLGSV,2,1,08,65,71,329,32,66,44,218,38,72,20,018,24,76,20,190,33*61
$GLGSV,2,2,08,77,19,238,33,85,01,130,28,86,26,080,22,87,25,030,22*61
$GNGLL,0420.13524,S,05539.61885,E,103738.00,A,D*6E
$GNRMC,103739.00,A,0420.13514,S,05539.61870,E,0.672,305.03,220525,,,D*65
$GNVTG,305.03,T,,M,0.672,N,1.245,K,D*22
$GNGGA,103739.00,0420.13514,S,05539.61870,E,2,12,0.56,12.0,M,-47.6,M,,0000*4E
$GNGSA,A,3,29,10,32,26,23,25,18,24,28,16,31,41,1.16,0.56,1.01*15
$GNGSA,A,3,65,86,87,72,66,76,77,,,,,,1.16,0.56,1.01*1F
$GPGSV,5,1,17,10,36,321,46,16,19,291,38,18,21,032,31,23,20,005,40*78
$GPGSV,5,2,17,24,08,084,30,25,19,156,37,26,30,261,39,27,04,328,36*75
$GPGSV,5,3,17,28,24,195,38,29,51,119,44,31,11,220,31,32,68,197,45*74
$GPGSV,5,4,17,36,52,277,36,40,85,353,40,41,58,082,29,49,32,274,*77
$GPGSV,5,5,17,50,10,089,*4A
$GLGSV,2,1,08,65,71,329,33,66,44,218,27,72,20,018,26,76,20,190,40*68
$GLGSV,2,2,08,77,19,238,32,85,01,130,26,86,26,080,29,87,25,030,21*66
$GNGLL,0420.13514,S,05539.61870,E,103739.00,A,D*66
$GNRMC,103740.00,A,0420.13500,S,05539.61845,E,1.263,299.01,220525,,,D*6B
$GNVTG,299.01,T,,M,1.263,N,2.338,K,D*29
$GNGGA,103740.00,0420.13500,S,05539.61845,E,2,12,0.56,11.9,M,-47.6,M,,0000*49
$GNGSA,A,3,29,10,32,26,23,25,18,24,28,16,31,41,1.16,0.56,1.01*15
$GNGSA,A,3,65,86,87,72,66,76,77,,,,,,1.16,0.56,1.01*1F
$GPGSV,5,1,17,10,36,321,39,16,19,291,38,18,21,032,32,23,20,005,32*76
$GPGSV,5,2,17,24,08,084,29,25,19,156,37,26,30,261,40,27,04,328,30*75
$GPGSV,5,3,17,28,24,195,37,29,51,119,41,31,11,220,34,32,68,197,46*78
$GPGSV,5,4,17,36,52,277,36,40,85,353,45,41,58,082,30,49,32,274,*7A
$GPGSV,5,5,17,50,10,089,*4A
$GLGSV,2,1,08,65,71,329,36,66,44,218,27,72,20,018,25,76,20,190,37*6E
$GLGSV,2,2,08,77,19,238,25,85,01,130,24,86,26,080,27,87,25,030,22*6F
$GNGLL,0420.13500,S,05539.61845,E,103740.00,A,D*6B
$GNRMC,103741.00,A,0420.13494,S,05539.61822,E,0.649,295.18,220525,,,D*6E
$GNVTG,295.18,T,,M,0.649,N,1.201,K,D*28
$GNGGA,103741.00,0420.13494,S,05539.61822,E,2,12,0.55,11.9,M,-47.6,M,,0000*46
$GNGSA,A,3,29,10,32,26,23,25,18,24,28,16,31,41,1.08,0.55,0.93*13
$GNGSA,A,3,65,86,87,72,66,76,77,,,,,,1.08,0.55,0.93*19
$GPGSV,5,1,17,10,36,321,46,16,19,291,32,18,21,032,30,23,20,005,33*77
$GPGSV,5,2,17,24,08,084,28,25,19,156,35,26,30,261,33,27,04,328,33*71
$GPGSV,5,3,17,28,24,195,36,29,51,119,38,31,11,220,21,32,68,197,42*77
$GPGSV,5,4,17,36,52,277,41,40,85,353,41,41,58,082,40,49,32,274,*79
$GPGSV,5,5,17,50,10,089,*4A
$GLGSV,2,1,08,65,71,329,34,66,44,218,29,72,20,018,24,76,20,190,36*62
$GLGSV,2,2,08,77,19,238,23,85,01,130,24,86,26,080,26,87,25,030,23*69
$GNGLL,0420.13494,S,05539.61822,E,103741.00,A,D*67
$GNRMC,103742.00,A,0420.13487,S,05539.61806,E,0.695,289.63,220525,,,D*69
$GNVTG,289.63,T,,M,0.695,N,1.287,K,D*26
$GNGGA,103742.00,0420.13487,S,05539.61806,E,2,12,0.55,11.9,M,-47.6,M,,0000*41
$GNGSA,A,3,29,10,32,26,23,25,18,24,28,16,31,41,1.08,0.55,0.93*13
$GNGSA,A,3,65,86,87,72,66,76,77,,,,,,1.08,0.55,0.93*19
$GPGSV,5,1,17,10,36,321,42,16,19,291,37,18,21,032,36,23,20,005,33*70
$GPGSV,5,2,17,24,08,084,27,25,19,156,42,26,30,261,38,27,04,328,32*74
$GPGSV,5,3,17,28,24,195,36,29,51,119,42,31,11,220,21,32,68,197,45*7D
$GPGSV,5,4,17,36,52,277,36,40,85,353,43,41,58,082,36,49,32,274,*7A
$GPGSV,5,5,17,50,10,089,*4A
$GLGSV,2,1,08,65,71,329,37,66,44,218,34,72,20,018,25,76,20,190,40*6D
$GLGSV,2,2,08,77,19,238,31,85,01,130,23,86,26,080,25,87,25,030,30*6C
$GNGLL,0420.13487,S,05539.61806,E,103742.00,A,D*60
$GNRMC,103743.00,A,0420.13487,S,05539.61786,E,0.791,271.83,220525,,,D*63
$GNVTG,271.83,T,,M,0.791,N,1.464,K,D*21
$GNGGA,103743.00,0420.13487,S,05539.61786,E,2,12,0.55,11.8,M,-47.6,M,,0000*46
$GNGSA,A,3,29,10,32,26,23,25,18,24,28,16,31,41,1.08,0.55,0.93*13
$GNGSA,A,3,65,86,87,72,66,76,77,,,,,,1.08,0.55,0.93*19
$GPGSV,5,1,17,10,36,321,43,16,19,291,36,18,21,032,36,23,20,005,37*74
$GPGSV,5,2,17,24,08,084,32,25,19,156,39,26,30,261,35,27,04,328,28*7A
$GPGSV,5,3,17,28,24,195,39,29,51,119,40,31,11,220,22,32,68,197,45*73
$GPGSV,5,4,17,36,52,277,40,40,85,353,46,41,58,082,36,49,32,274,*7E
$GPGSV,5,5,17,50,10,089,*4A
$GLGSV,2,1,08,65,71,329,36,66,44,218,29,72,20,018,24,76,20,190,41*60
$GLGSV,2,2,08,77,19,238,29,85,01,130,23,86,26,080,26,87,25,030,28*6F
$GNGLL,0420.13487,S,05539.61786,E,103743.00,A,D*66
$GNRMC,103744.00,A,0420.13486,S,05539.61760,E,1.062,274.95,220525,,,D*65
$GNVTG,274.95,T,,M,1.062,N,1.966,K,D*26
$GNGGA,103744.00,0420.13486,S,05539.61760,E,2,12,0.55,11.8,M,-47.6,M,,0000*48
$GNGSA,A,3,29,10,32,26,23,25,18,24,28,16,31,41,1.08,0.55,0.93*13
$GNGSA,A,3,65,86,87,72,66,76,77,,,,,,1.08,0.55,0.93*19
$GPGSV,5,1,17,10,36,321,41,16,19,290,32,18,21,032,35,23,20,005,40*70
$GPGSV,5,2,17,24,08,084,27,25,19,156,39,26,30,261,41,27,04,328,36*72
$GPGSV,5,3,17,28,24,195,42,29,51,119,36,31,11,220,21,32,68,197,44*7C
$GPGSV,5,4,17,36,52,277,38,40,85,353,42,41,58,082,40,49,32,274,*74
$GPGSV,5,5,17,50,10,089,*4A
$GLGSV,2,1,08,65,71,329,33,66,44,218,34,72,20,018,29,76,20,190,41*64
$GLGSV,2,2,08,77,19,238,29,85,01,130,23,86,26,080,26,87,25,030,28*6F
$GNGLL,0420.13486,S,05539.61760,E,103744.00,A,D*68
$GNRMC,103745.00,A,0420.13477,S,05539.61739,E,0.779,280.74,220525,,,D*6E
$GNVTG,280.74,T,,M,0.779,N,1.443,K,D*24
$GNGGA,103745.00,0420.13477,S,05539.61739,E,2,12,0.55,12.0,M,-47.6,M,,0000*40
$GNGSA,A,3,29,10,32,26,23,25,18,24,28,16,31,41,1.08,0.55,0.93*13
$GNGSA,A,3,65,86,87,72,66,76,77,,,,,,1.08,0.55,0.93*19
$GPGSV,5,1,17,10,36,321,44,16,19,290,32,18,21,032,38,23,20,005,38*77
$GPGSV,5,2,17,24,08,084,30,25,19,156,38,26,30,261,39,27,04,328,30*7C
$GPGSV,5,3,17,28,24,195,41,29,51,119,43,31,11,220,22,32,68,197,47*7D
$GPGSV,5,4,17,36,52,277,38,40,85,353,44,41,58,082,40,49,32,274,*72
$GPGSV,5,5,17,50,10,089,*4A
$GLGSV,2,1,08,65,71,329,32,66,44,218,32,72,20,018,30,76,20,190,41*6B
$GLGSV,2,2,08,77,19,238,22,85,01,130,26,86,26,080,28,87,25,030,30*66
$GNGLL,0420.13477,S,05539.61739,E,103745.00,A,D*6B
$GNRMC,103746.00,A,0420.13457,S,05539.61718,E,1.265,305.84,220525,,,D*66
$GNVTG,305.84,T,,M,1.265,N,2.343,K,D*2A
$GNGGA,103746.00,0420.13457,S,05539.61718,E,2,12,0.57,11.9,M,-47.6,M,,0000*4A
$GNGSA,A,3,29,10,32,26,23,25,18,28,16,31,41,,1.12,0.57,0.97*18
$GNGSA,A,3,65,86,87,72,66,76,77,,,,,,1.12,0.57,0.97*14
$GPGSV,5,1,17,10,36,321,45,16,19,290,39,18,22,032,41,23,20,005,41*7E
$GPGSV,5,2,17,24,08,084,,25,19,156,44,26,30,261,41,27,04,328,35*7E
$GPGSV,5,3,17,28,24,195,43,29,51,119,36,31,11,220,22,32,68,197,49*73
$GPGSV,5,4,17,36,52,277,38,40,85,353,45,41,58,082,44,49,32,274,*77
$GPGSV,5,5,17,50,10,089,*4A
$GLGSV,2,1,08,65,71,329,34,66,44,218,30,72,20,018,30,76,20,190,44*6A
$GLGSV,2,2,08,77,19,238,22,85,01,130,29,86,26,080,29,87,25,030,33*6B
$GNGLL,0420.13457,S,05539.61718,E,103746.00,A,D*69
$GNRMC,103747.00,A,0420.13439,S,05539.61696,E,1.007,302.74,220525,,,D*66
$GNVTG,302.74,T,,M,1.007,N,1.865,K,D*28
$GNGGA,103747.00,0420.13439,S,05539.61696,E,2,12,0.57,11.8,M,-47.6,M,,0000*45
$GNGSA,A,3,29,10,32,26,23,25,18,28,16,31,41,,1.12,0.57,0.97*18
$GNGSA,A,3,65,86,87,72,66,76,77,,,,,,1.12,0.57,0.97*14
$GPGSV,5,1,17,10,36,321,45,16,19,290,36,18,22,032,41,23,20,005,38*7F
$GPGSV,5,2,17,24,08,084,,25,19,156,37,26,30,261,42,27,04,328,38*74
$GPGSV,5,3,17,28,24,195,48,29,51,119,43,31,11,220,36,32,68,197,48*7E
$GPGSV,5,4,17,36,52,277,40,40,85,353,46,41,58,082,43,49,32,274,*7C
$GPGSV,5,5,17,50,10,089,*4A
$GLGSV,2,1,08,65,71,329,33,66,44,218,32,72,20,018,30,76,20,190,40*6B
$GLGSV,2,2,08,77,19,238,26,85,01,130,32,86,26,080,27,87,25,030,32*6A
$GNGLL,0420.13439,S,05539.61696,E,103747.00,A,D*67
$GNRMC,103748.00,A,0420.13426,S,05539.61677,E,0.878,301.83,220525,,,D*62
$GNVTG,301.83,T,,M,0.878,N,1.626,K,D*2B
$GNGGA,103748.00,0420.13426,S,05539.61677,E,2,12,0.57,11.6,M,-47.6,M,,0000*45
$GNGSA,A,3,29,10,32,26,23,25,18,28,16,31,41,,1.12,0.57,0.97*18
$GNGSA,A,3,65,86,87,72,66,76,77,,,,,,1.12,0.57,0.97*14
$GPGSV,5,1,17,10,36,321,43,16,19,290,35,18,22,032,40,23,20,005,38*7B
$GPGSV,5,2,17,24,08,084,,25,19,156,39,26,30,261,41,27,04,328,38*79
$GPGSV,5,3,17,28,24,195,45,29,51,119,43,31,11,220,29,32,68,197,47*72
$GPGSV,5,4,17,36,52,277,42,40,85,353,45,41,58,082,42,49,32,274,*7C
$GPGSV,5,5,17,50,10,089,*4A
$GLGSV,2,1,08,65,71,329,34,66,44,218,34,72,20,018,30,76,20,190,40*6A
$GLGSV,2,2,08,77,19,238,28,85,01,130,32,86,26,080,27,87,25,030,35*63
$GNGLL,0420.13426,S,05539.61677,E,103748.00,A,D*69
$GNRMC,103749.00,A,0420.13415,S,05539.61660,E,0.800,299.93,220525,,,D*6B
$GNVTG,299.93,T,,M,0.800,N,1.482,K,D*29
$GNGGA,103749.00,0420.13415,S,05539.61660,E,2,12,0.57,11.6,M,-47.6,M,,0000*42
$GNGSA,A,3,29,10,32,26,23,25,18,28,16,31,41,,1.12,0.57,0.97*18
$GNGSA,A,3,65,86,87,72,66,76,77,,,,,,1.12,0.57,0.97*14
$GPGSV,5,1,17,10,36,321,42,16,19,290,34,18,22,032,39,23,20,005,38*75
$GPGSV,5,2,17,24,08,084,,25,19,156,41,26,30,261,37,27,04,328,41*79
$GPGSV,5,3,17,28,24,195,43,29,51,119,45,31,11,220,27,32,68,197,41*7A
$GPGSV,5,4,17,36,52,277,40,40,85,353,42,41,58,082,38,49,32,274,*74
$GPGSV,5,5,17,50,10,089,*4A
$GLGSV,2,1,08,65,71,329,34,66,44,218,34,72,20,018,30,76,20,190,44*6E
$GLGSV,2,2,08,77,19,238,28,85,01,130,32,86,26,080,26,87,25,030,35*62
$GNGLL,0420.13415,S,05539.61660,E,103749.00,A,D*6E
$GNRMC,103750.00,A,0420.13401,S,05539.61645,E,0.747,305.56,220525,,,D*60
$GNVTG,305.56,T,,M,0.747,N,1.383,K,D*2E
$GNGGA,103750.00,0420.13401,S,05539.61645,E,2,12,0.57,11.5,M,-47.6,M,,0000*4B
$GNGSA,A,3,29,10,32,26,23,25,18,28,16,31,41,,1.12,0.57,0.97*18
$GNGSA,A,3,65,86,87,72,66,76,77,,,,,,1.12,0.57,0.97*14
$GPGSV,5,1,17,10,36,321,45,16,19,290,39,18,22,032,36,23,20,006,39*72
$GPGSV,5,2,17,24,08,084,,25,19,156,37,26,30,261,33,27,04,328,36*7C
$GPGSV,5,3,17,28,24,195,42,29,51,119,37,31,11,220,29,32,68,197,43*72
$GPGSV,5,4,17,36,52,277,39,40,85,353,44,41,58,082,41,49,32,274,*72
$GPGSV,5,5,17,50,10,089,*4A
$GLGSV,2,1,08,65,71,329,36,66,44,218,34,72,20,018,30,76,20,190,41*69
$GLGSV,2,2,08,77,19,238,27,85,01,130,31,86,26,080,33,87,25,030,34*6B
$GNGLL,0420.13401,S,05539.61645,E,103750.00,A,D*64
$GNRMC,103751.00,A,0420.13388,S,05539.61635,E,0.525,310.19,220525,,,D*69
$GNVTG,310.19,T,,M,0.525,N,0.972,K,D*22
$GNGGA,103751.00,0420.13388,S,05539.61635,E,2,12,0.57,11.5,M,-47.6,M,,0000*4B
$GNGSA,A,3,29,10,32,26,23,25,18,28,16,31,41,,1.12,0.57,0.97*18
$GNGSA,A,3,65,86,87,72,66,76,77,,,,,,1.12,0.57,0.97*14
$GPGSV,5,1,17,10,36,321,37,16,19,290,37,18,22,032,38,23,20,006,40*79
$GPGSV,5,2,17,24,08,083,,25,19,156,36,26,30,261,39,27,04,328,40*71
$GPGSV,5,3,17,28,24,195,41,29,51,119,41,31,11,220,34,32,68,197,44*7B
$GPGSV,5,4,17,36,52,277,39,40,85,353,45,41,58,082,41,49,32,274,*73
$GPGSV,5,5,17,50,10,089,*4A
$GLGSV,2,1,08,65,71,329,34,66,44,218,34,72,20,018,30,76,20,190,43*69
$GLGSV,2,2,08,77,19,238,26,85,01,130,30,86,26,080,23,87,25,030,33*6D
$GNGLL,0420.13388,S,05539.61635,E,103751.00,A,D*64
$GNRMC,103752.00,A,0420.13369,S,05539.61620,E,1.079,313.10,220525,,,D*66
$GNVTG,313.10,T,,M,1.079,N,1.998,K,D*20
$GNGGA,103752.00,0420.13369,S,05539.61620,E,2,12,0.57,11.5,M,-47.6,M,,0000*43
$GNGSA,A,3,29,10,32,26,23,25,18,28,16,31,41,,1.12,0.57,0.97*18
$GNGSA,A,3,65,86,87,72,66,76,77,,,,,,1.12,0.57,0.97*14
$GPGSV,5,1,17,10,36,321,40,16,19,290,43,18,22,032,37,23,20,006,40*75
$GPGSV,5,2,17,24,08,083,,25,19,156,39,26,30,261,36,27,04,328,37*71
$GPGSV,5,3,17,28,24,195,43,29,51,119,41,31,11,220,33,32,68,197,45*7F
$GPGSV,5,4,17,36,52,277,42,40,85,353,44,41,58,082,35,49,32,274,*7D
$GPGSV,5,5,17,50,10,089,*4A
$GLGSV,2,1,08,65,71,329,33,66,44,218,33,72,20,018,30,76,20,190,37*6A
$GLGSV,2,2,08,77,19,238,26,85,01,130,28,86,26,080,26,87,25,030,31*63
$GNGLL,0420.13369,S,05539.61620,E,103752.00,A,D*6C
$GNRMC,103753.00,A,0420.13351,S,05539.61599,E,0.953,312.32,220525,,,D*6C
$GNVTG,312.32,T,,M,0.953,N,1.764,K,D*2C
$GNGGA,103753.00,0420.13351,S,05539.61599,E,2,12,0.58,11.5,M,-47.6,M,,0000*47
$GNGSA,A,3,29,10,32,26,23,25,18,28,16,31,,,1.19,0.58,1.05*13
$GNGSA,A,3,65,86,87,72,66,76,77,,,,,,1.19,0.58,1.05*1A
$GPGSV,5,1,17,10,36,321,33,16,19,290,34,18,22,032,40,23,20,006,40*71
$GPGSV,5,2,17,24,08,083,27,25,19,156,31,26,31,261,39,27,04,328,36*73
$GPGSV,5,3,17,28,24,195,43,29,51,119,31,31,11,220,37,32,68,197,40*79
$GPGSV,5,4,17,36,52,277,38,40,85,353,41,41,58,082,,49,32,274,*73
$GPGSV,5,5,17,50,10,089,*4A
$GLGSV,2,1,08,65,71,329,32,66,44,218,33,72,20,018,31,76,20,190,43*69
$GLGSV,2,2,08,77,19,238,29,85,01,130,26,86,26,080,25,87,25,030,31*61
$GNGLL,0420.13351,S,05539.61599,E,103753.00,A,D*67
$GNRMC,103754.00,A,0420.13332,S,05539.61576,E,1.114,306.89,220525,,,D*60
$GNVTG,306.89,T,,M,1.114,N,2.064,K,D*27
$GNGGA,103754.00,0420.13332,S,05539.61576,E,2,12,0.58,11.5,M,-47.6,M,,0000*44
$GNGSA,A,3,29,10,32,26,23,25,18,28,16,31,,,1.19,0.58,1.05*13
$GNGSA,A,3,65,86,87,72,66,76,77,,,,,,1.19,0.58,1.05*1A
$GPGSV,5,1,17,10,36,321,40,16,19,290,38,18,22,032,38,23,20,006,40*76
$GPGSV,5,2,17,24,08,083,26,25,19,156,33,26,31,261,36,27,04,328,31*78
$GPGSV,5,3,17,28,24,195,41,29,51,119,25,31,11,220,23,32,68,197,45*7E
$GPGSV,5,4,17,36,52,277,41,40,85,353,43,41,58,082,,49,32,274,34*78
$GPGSV,5,5,17,50,10,089,*4A
$GLGSV,2,1,08,65,71,329,32,66,44,218,37,72,20,018,30,76,20,190,39*61
$GLGSV,2,2,08,77,19,238,27,85,01,130,23,86,26,080,22,87,25,030,33*6F
$GNGLL,0420.13332,S,05539.61576,E,103754.00,A,D*64
$GNRMC,103755.00,A,0420.13314,S,05539.61554,E,1.021,307.85,220525,,,D*6F
$GNVTG,307.85,T,,M,1.021,N,1.891,K,D*2C
$GNGGA,103755.00,0420.13314,S,05539.61554,E,2,12,0.56,11.6,M,-47.6,M,,0000*4C
$GNGSA,A,3,29,10,32,26,23,25,18,24,28,16,31,,1.16,0.56,1.01*10
$GNGSA,A,3,65,86,87,72,66,76,77,,,,,,1.16,0.56,1.01*1F
$GPGSV,5,1,17,10,36,321,37,16,19,290,43,18,22,032,38,23,20,006,40*7A
$GPGSV,5,2,17,24,08,083,27,25,19,156,39,26,31,261,39,27,04,328,37*7A
$GPGSV,5,3,17,28,24,195,44,29,51,119,29,31,11,220,36,32,68,197,41*77
$GPGSV,5,4,17,36,52,277,34,40,85,353,43,41,58,082,,49,32,274,38*76
$GPGSV,5,5,17,50,10,089,*4A
$GLGSV,2,1,08,65,71,329,33,66,44,218,38,72,20,018,29,76,20,190,39*67
$GLGSV,2,2,08,77,19,238,27,85,01,130,20,86,26,080,20,87,25,030,33*6E
$GNGLL,0420.13314,S,05539.61554,E,103755.00,A,D*61
$GNRMC,103756.00,A,0420.13294,S,05539.61533,E,1.095,310.79,220525,,,D*6E
$GNVTG,310.79,T,,M,1.095,N,2.029,K,D*2E
$GNGGA,103756.00,0420.13294,S,05539.61533,E,2,12,0.56,11.7,M,-47.6,M,,0000*46
$GNGSA,A,3,29,10,32,26,23,25,18,24,28,16,31,,1.16,0.56,1.01*10
$GNGSA,A,3,65,86,87,72,66,76,77,,,,,,1.16,0.56,1.01*1F
$GPGSV,5,1,17,10,36,321,37,16,19,290,42,18,22,032,38,23,20,006,40*7B
$GPGSV,5,2,17,24,08,083,25,25,19,156,34,26,31,261,31,27,04,328,33*79
$GPGSV,5,3,17,28,24,195,44,29,51,120,30,31,11,220,32,32,68,197,41*71
$GPGSV,5,4,17,36,52,277,38,40,85,353,44,41,58,082,,49,32,274,35*70
$GPGSV,5,5,17,50,10,089,*4A
$GLGSV,2,1,08,65,71,329,35,66,44,218,38,72,20,018,28,76,20,190,35*6C
$GLGSV,2,2,08,77,19,238,27,85,01,130,20,86,26,080,21,87,25,030,32*6E
$GNGLL,0420.13294,S,05539.61533,E,103756.00,A,D*6A
$GNRMC,103757.00,A,0420.13262,S,05539.61513,E,1.488,321.76,220525,,,D*61
$GNVTG,321.76,T,,M,1.488,N,2.757,K,D*25
$GNGGA,103757.00,0420.13262,S,05539.61513,E,2,12,0.56,11.5,M,-47.6,M,,0000*4E
$GNGSA,A,3,29,10,32,26,23,25,18,24,28,16,31,,1.16,0.56,1.01*10
$GNGSA,A,3,65,86,87,72,66,76,77,,,,,,1.16,0.56,1.01*1F
$GPGSV,5,1,17,10,36,321,44,16,19,290,45,18,22,032,39,23,20,006,42*7B
$GPGSV,5,2,17,24,08,083,23,25,19,156,41,26,31,261,31,27,04,328,37*79
$GPGSV,5,3,17,28,24,195,42,29,51,120,35,31,11,220,40,32,68,197,44*72
$GPGSV,5,4,17,36,52,277,40,40,85,353,45,41,58,082,,49,32,274,37*7C
$GPGSV,5,5,17,50,10,089,*4A
$GLGSV,2,1,08,65,71,329,34,66,44,218,38,72,20,018,28,76,20,190,43*6C
$GLGSV,2,2,08,77,19,238,27,85,01,130,19,86,26,080,22,87,25,030,33*66
$GNGLL,0420.13262,S,05539.61513,E,103757.00,A,D*60
$GNRMC,103758.00,A,0420.13238,S,05539.61500,E,0.858,322.41,220525,,,D*64
$GNVTG,322.41,T,,M,0.858,N,1.589,K,D*20
$GNGGA,103758.00,0420.13238,S,05539.61500,E,2,12,0.58,11.2,M,-47.6,M,,0000*45
$GNGSA,A,3,29,10,32,26,23,25,18,28,16,31,,,1.19,0.58,1.05*13
$GNGSA,A,3,65,86,87,72,66,76,77,,,,,,1.19,0.58,1.05*1A
$GPGSV,5,1,17,10,36,321,39,16,19,290,45,18,22,032,40,23,20,006,40*7D
$GPGSV,5,2,17,24,08,083,21,25,19,156,35,26,31,261,20,27,04,328,38*77
$GPGSV,5,3,17,28,24,195,46,29,51,120,35,31,11,219,37,32,68,197,43*7B
$GPGSV,5,4,17,36,52,277,37,40,85,353,44,41,58,082,,49,32,274,33*79
$GPGSV,5,5,17,50,10,089,*4A
$GLGSV,2,1,08,65,71,329,33,66,44,218,41,72,20,018,27,76,20,190,42*6B
$GLGSV,2,2,08,77,19,238,30,85,01,130,19,86,26,080,22,87,25,030,33*60
$GNGLL,0420.13238,S,05539.61500,E,103758.00,A,D*62
$GNRMC,103759.00,A,0420.13213,S,05539.61478,E,1.307,313.30,220525,,,D*66
$GNVTG,313.30,T,,M,1.307,N,2.420,K,D*25
$GNGGA,103759.00,0420.13213,S,05539.61478,E,2,12,0.58,11.0,M,-47.6,M,,0000*41
$GNGSA,A,3,29,10,32,26,23,25,18,28,16,31,,,1.19,0.58,1.05*13
$GNGSA,A,3,65,86,87,72,66,76,77,,,,,,1.19,0.58,1.05*1A
$GPGSV,5,1,17,10,36,321,39,16,19,290,40,18,22,032,39,23,20,006,40*76
$GPGSV,5,2,17,24,08,083,24,25,19,156,35,26,31,261,31,27,04,328,37*7D
$GPGSV,5,3,17,28,24,195,38,29,51,120,34,31,11,219,37,32,68,197,41*71
$GPGSV,5,4,17,36,52,277,36,40,85,353,42,41,58,082,,49,32,274,32*7F
$GPGSV,5,5,17,50,10,089,*4A
$GLGSV,2,1,08,65,71,329,34,66,44,218,41,72,20,018,27,76,20,190,42*6C
$GLGSV,2,2,08,77,19,238,31,85,01,130,18,86,26,080,21,87,25,030,32*62
$GNGLL,0420.13213,S,05539.61478,E,103759.00,A,D*64
$GNRMC,103800.00,A,0420.13203,S,05539.61457,E,0.789,301.73,220525,,,D*6E
$GNVTG,301.73,T,,M,0.789,N,1.462,K,D*27
$GNGGA,103800.00,0420.13203,S,05539.61457,E,2,12,0.58,10.8,M,-47.6,M,,0000*47
$GNGSA,A,3,29,10,32,26,23,25,18,28,16,31,,,1.19,0.58,1.05*13
$GNGSA,A,3,65,86,87,72,66,76,77,,,,,,1.19,0.58,1.05*1A
$GPGSV,5,1,17,10,36,321,40,16,19,290,43,18,22,032,39,23,20,006,40*7B
$GPGSV,5,2,17,24,08,083,24,25,19,156,36,26,31,261,32,27,04,328,33*79
$GPGSV,5,3,17,28,24,195,41,29,51,120,33,31,11,219,34,32,68,197,39*74
$GPGSV,5,4,17,36,52,277,39,40,85,353,42,41,58,082,,49,32,274,32*70
$GPGSV,5,5,17,50,10,089,*4A
$GLGSV,2,1,08,65,71,329,34,66,44,218,40,72,20,018,26,76,20,190,40*6E
$GLGSV,2,2,08,77,19,238,33,85,01,130,19,86,26,080,24,87,25,030,32*64
$GNGLL,0420.13203,S,05539.61457,E,103800.00,A,D*6B
$GNRMC,103801.00,A,0420.13206,S,05539.61442,E,0.605,285.38,220525,,,D*69
$GNVTG,285.38,T,,M,0.605,N,1.120,K,D*23
$GNGGA,103801.00,0420.13206,S,05539.61442,E,2,12,0.56,10.9,M,-47.6,M,,0000*48
$GNGSA,A,3,29,10,32,26,23,25,18,24,28,16,31,,1.16,0.56,1.01*10
$GNGSA,A,3,65,86,87,72,66,76,77,,,,,,1.16,0.56,1.01*1F
$GPGSV,5,1,17,10,36,321,39,16,19,290,42,18,22,032,41,23,20,006,42*79
$GPGSV,5,2,17,24,08,083,27,25,19,156,34,26,31,261,33,27,04,328,35*7F
$GPGSV,5,3,17,28,24,195,43,29,51,120,39,31,11,219,29,32,68,197,42*7C
$GPGSV,5,4,17,36,52,277,39,40,85,353,45,41,58,082,,49,32,274,33*76
$GPGSV,5,5,17,50,10,089,*4A
$GLGSV,2,1,08,65,71,329,35,66,44,218,38,72,20,018,27,76,20,190,40*61
$GLGSV,2,2,08,77,19,238,36,85,01,130,19,86,26,080,26,87,25,030,32*63
$GNGLL,0420.13206,S,05539.61442,E,103801.00,A,D*6B
$GNRMC,103802.00,A,0420.13196,S,05539.61430,E,0.744,304.47,220525,,,D*61
$GNVTG,304.47,T,,M,0.744,N,1.377,K,D*27
$GNGGA,103802.00,0420.13196,S,05539.61430,E,2,12,0.56,10.8,M,-47.6,M,,0000*45
$GNGSA,A,3,29,10,32,26,23,25,18,24,28,16,31,,1.16,0.56,1.01*10
$GNGSA,A,3,65,86,87,72,66,76,77,,,,,,1.16,0.56,1.01*1F
$GPGSV,5,1,17,10,36,321,37,16,19,290,43,18,22,032,39,23,20,006,42*79
$GPGSV,5,2,17,24,08,083,29,25,19,156,31,26,31,261,28,27,04,328,38*73
$GPGSV,5,3,17,28,24,195,41,29,51,120,39,31,11,219,44,32,68,197,42*75
$GPGSV,5,4,17,36,52,277,36,40,85,353,43,41,58,082,,49,32,274,34*78
$GPGSV,5,5,17,50,10,089,*4A
$GLGSV,2,1,08,65,71,329,35,66,44,218,38,72,20,018,26,76,20,190,42*62
$GLGSV,2,2,08,77,19,238,35,85,01,130,18,86,26,080,26,87,25,030,31*62
$GNGLL,0420.13196,S,05539.61430,E,103802.00,A,D*67
$GNRMC,103803.00,A,0420.13189,S,05539.61409,E,0.958,285.43,220525,,,D*6B
$GNVTG,285.43,T,,M,0.958,N,1.775,K,D*2E
$GNGGA,103803.00,0420.13189,S,05539.61409,E,2,12,0.56,10.7,M,-47.6,M,,0000*4F
$GNGSA,A,3,29,10,32,26,23,25,18,24,28,16,31,,1.16,0.56,1.01*10
$GNGSA,A,3,65,86,87,72,66,76,77,,,,,,1.16,0.56,1.01*1F
$GPGSV,5,1,17,10,36,321,42,16,19,290,37,18,22,032,36,23,20,006,41*74
$GPGSV,5,2,17,24,08,083,28,25,19,156,35,26,31,261,34,27,04,328,36*75
$GPGSV,5,3,17,28,24,195,39,29,51,120,36,31,11,219,42,32,68,197,42*73
$GPGSV,5,4,17,36,52,277,40,40,85,353,43,41,58,082,,49,32,274,35*78
$GPGSV,5,5,17,50,10,089,*4A
$GLGSV,2,1,08,65,71,329,34,66,44,218,41,72,20,018,26,76,20,190,38*60
$GLGSV,2,2,08,77,19,238,34,85,01,130,19,86,26,080,23,87,25,030,28*6F
$GNGLL,0420.13189,S,05539.61409,E,103803.00,A,D*62
$GNRMC,103804.00,A,0420.13169,S,05539.61378,E,1.503,301.79,220525,,,D*64
$GNVTG,301.79,T,,M,1.503,N,2.784,K,D*24
$GNGGA,103804.00,0420.13169,S,05539.61378,E,2,12,0.56,10.8,M,-47.6,M,,0000*48
$GNGSA,A,3,29,10,32,26,23,25,18,24,28,16,31,,1.16,0.56,1.01*10
$GNGSA,A,3,65,86,87,72,66,76,77,,,,,,1.16,0.56,1.01*1F
$GPGSV,5,1,17,10,36,321,42,16,19,290,41,18,22,032,37,23,20,006,40*75
$GPGSV,5,2,17,24,08,083,26,25,19,156,38,26,31,261,34,27,04,328,38*78
$GPGSV,5,3,17,28,24,195,41,29,51,120,35,31,11,219,38,32,68,197,40*70
$GPGSV,5,4,17,36,52,277,39,40,85,353,41,41,58,082,,49,32,274,33*72
$GPGSV,5,5,17,50,10,089,*4A
$GLGSV,2,1,08,65,71,329,35,66,44,218,42,72,20,018,24,76,20,190,40*6F
$GLGSV,2,2,08,77,19,238,36,85,01,130,18,86,26,080,22,87,25,030,28*6D
$GNGLL,0420.13169,S,05539.61378,E,103804.00,A,D*6A
$GNRMC,103805.00,A,0420.13157,S,05539.61356,E,0.652,299.80,220525,,,D*64
$GNVTG,299.80,T,,M,0.652,N,1.208,K,D*26
$GNGGA,103805.00,0420.13157,S,05539.61356,E,2,12,0.58,10.7,M,-47.6,M,,0000*49
$GNGSA,A,3,29,10,32,26,23,25,18,28,16,31,,,1.19,0.58,1.05*13
$GNGSA,A,3,65,86,87,72,66,76,77,,,,,,1.19,0.58,1.05*1A
$GPGSV,5,1,17,10,36,321,40,16,19,290,39,18,22,032,34,23,20,006,29*74
$GPGSV,5,2,17,24,08,083,24,25,19,156,34,26,31,261,36,27,04,328,29*74
$GPGSV,5,3,17,28,24,195,39,29,51,120,31,31,11,219,41,32,68,197,44*71
$GPGSV,5,4,17,36,52,277,37,40,85,353,36,41,58,082,,49,32,274,35*7A
$GPGSV,5,5,17,50,10,089,*4A
$GLGSV,2,1,08,65,71,329,34,66,44,218,38,72,20,018,24,76,20,190,37*63
$GLGSV,2,2,08,77,19,238,37,85,01,130,16,86,26,080,20,87,25,030,25*6D
$GNGLL,0420.13157,S,05539.61356,E,103805.00,A,D*6A
