$GNRMC,103935.00,A,0420.22429,S,05539.55009,E,2.125,223.74,220525,,,D*69
$GNVTG,223.74,T,,M,2.125,N,3.935,K,D*2E
$GNGGA,103935.00,0420.22429,S,05539.55009,E,2,12,0.57,10.8,M,-47.6,M,,0000*4B
$GNGSA,A,3,29,10,32,26,23,25,18,28,16,31,41,,1.12,0.57,0.97*18
$GNGSA,A,3,65,86,87,72,66,76,77,,,,,,1.12,0.57,0.97*14
$GPGSV,5,1,17,10,36,322,36,16,19,289,31,18,22,033,32,23,20,006,38*71
$GPGSV,5,2,17,24,08,083,22,25,18,155,37,26,31,260,36,27,05,328,33*78
$GPGSV,5,3,17,28,24,194,38,29,50,121,42,31,11,219,27,32,69,198,42*7D
$GPGSV,5,4,17,36,52,277,38,40,85,353,41,41,58,082,32,49,32,274,*72
$GPGSV,5,5,17,50,10,089,*4A
$GLGSV,2,1,08,65,70,331,34,66,45,219,35,72,20,018,29,76,20,189,32*66
$GLGSV,2,2,08,77,19,237,30,85,01,130,15,86,26,081,31,87,25,031,29*6A
$GNGLL,0420.22429,S,05539.55009,E,103935.00,A,D*68
$GNRMC,103936.00,A,0420.22471,S,05539.54979,E,1.718,221.46,220525,,,D*60
$GNVTG,221.46,T,,M,1.718,N,3.182,K,D*22
$GNGGA,103936.00,0420.22471,S,05539.54979,E,2,12,0.57,10.7,M,-47.6,M,,0000*45
$GNGSA,A,3,29,10,32,26,23,25,18,28,16,31,41,,1.12,0.57,0.97*18
$GNGSA,A,3,65,86,87,72,66,76,77,,,,,,1.12,0.57,0.97*14
$GPGSV,5,1,17,10,36,322,36,16,19,289,29,18,22,033,31,23,20,006,23*71
$GPGSV,5,2,17,24,08,083,21,25,18,155,33,26,31,260,33,27,05,328,27*7F
$GPGSV,5,3,17,28,24,194,27,29,50,121,38,31,11,219,34,32,69,198,42*7C
$GPGSV,5,4,17,36,52,277,33,40,85,353,37,41,58,082,32,49,32,274,*78
$GPGSV,5,5,17,50,10,089,*4A
$GLGSV,2,1,08,65,70,331,30,66,45,219,37,72,20,018,18,76,20,189,27*66
$GLGSV,2,2,08,77,19,237,22,85,01,130,12,86,26,081,25,87,25,031,28*6A
$GNGLL,0420.22471,S,05539.54979,E,103936.00,A,D*69
$GNRMC,103937.00,A,0420.22506,S,05539.54951,E,1.519,220.88,220525,,,D*6A
$GNVTG,220.88,T,,M,1.519,N,2.812,K,D*23
$GNGGA,103937.00,0420.22506,S,05539.54951,E,2,12,0.55,10.8,M,-47.6,M,,0000*42
$GNGSA,A,3,29,10,32,26,23,25,18,24,28,16,31,41,1.08,0.55,0.93*13
$GNGSA,A,3,65,86,87,72,66,76,77,,,,,,1.08,0.55,0.93*19
$GPGSV,5,1,17,10,36,322,39,16,19,289,34,18,22,033,29,23,20,006,35*7C
$GPGSV,5,2,17,24,08,083,23,25,18,155,34,26,31,260,30,27,05,328,27*79
$GPGSV,5,3,17,28,24,194,32,29,50,121,43,31,11,219,25,32,69,198,40*76
$GPGSV,5,4,17,36,52,277,34,40,85,353,42,41,58,082,33,49,32,274,*7C
$GPGSV,5,5,17,50,10,089,*4A
$GLGSV,2,1,08,65,70,331,33,66,45,219,35,72,20,018,20,76,20,189,32*68
$GLGSV,2,2,08,77,19,237,23,85,01,130,12,86,26,081,34,87,25,031,11*61
$GNGLL,0420.22506,S,05539.54951,E,103937.00,A,D*63
$GNRMC,103938.00,A,0420.22524,S,05539.54922,E,1.118,231.00,220525,,,D*64
$GNVTG,231.00,T,,M,1.118,N,2.070,K,D*2A
$GNGGA,103938.00,0420.22524,S,05539.54922,E,2,12,0.57,10.7,M,-47.6,M,,0000*44
$GNGSA,A,3,29,10,32,26,23,25,18,24,28,16,31,41,1.10,0.57,0.94*1F
$GNGSA,A,3,65,86,87,72,66,76,77,,,,,,1.10,0.57,0.94*15
$GPGSV,5,1,17,10,36,322,41,16,19,289,33,18,22,033,23,23,20,006,34*7F
$GPGSV,5,2,17,24,08,083,31,25,18,155,37,26,31,260,36,27,05,328,25*7D
$GPGSV,5,3,17,28,24,194,36,29,50,121,44,31,11,219,32,32,69,198,44*77
$GPGSV,5,4,17,36,52,277,38,40,85,353,42,41,58,082,35,49,32,274,*76
$GPGSV,5,5,17,50,10,089,*4A
$GLGSV,2,1,08,65,70,331,33,66,45,219,33,72,20,018,29,76,20,189,30*65
$GLGSV,2,2,08,77,19,237,26,85,01,130,14,86,26,081,31,87,25,031,18*6E
$GNGLL,0420.22524,S,05539.54922,E,103938.00,A,D*68
$GNRMC,103939.00,A,0420.22546,S,05539.54900,E,1.197,219.94,220525,,,D*61
$GNVTG,219.94,T,,M,1.197,N,2.217,K,D*29
$GNGGA,103939.00,0420.22546,S,05539.54900,E,2,12,0.53,10.6,M,-47.6,M,,0000*44
$GNGSA,A,3,29,10,32,26,23,25,18,24,28,16,31,41,1.03,0.53,0.88*14
$GNGSA,A,3,65,86,87,72,66,76,77,,,,,,1.03,0.53,0.88*1E
$GPGSV,5,1,17,10,36,322,43,16,19,289,29,18,22,033,21,23,20,006,30*70
$GPGSV,5,2,17,24,08,083,31,25,18,155,36,26,31,260,36,27,05,328,32*7A
$GPGSV,5,3,17,28,24,194,34,29,50,121,44,31,11,219,31,32,69,198,44*76
$GPGSV,5,4,17,36,52,277,36,40,85,353,42,41,58,082,35,49,32,274,*78
$GPGSV,5,5,17,50,10,089,*4A
$GLGSV,2,1,08,65,70,331,32,66,45,219,36,72,20,018,19,76,20,189,34*66
$GLGSV,2,2,08,77,19,237,26,85,01,130,15,86,26,081,32,87,25,031,20*67
$GNGLL,0420.22546,S,05539.54900,E,103939.00,A,D*6D
$GNRMC,103940.00,A,0420.22576,S,05539.54880,E,1.255,215.29,220525,,,D*62
$GNVTG,215.29,T,,M,1.255,N,2.324,K,D*2F
$GNGGA,103940.00,0420.22576,S,05539.54880,E,2,12,0.53,10.8,M,-47.6,M,,0000*4E
$GNGSA,A,3,29,10,32,26,23,25,18,24,28,16,31,41,1.03,0.53,0.88*14
$GNGSA,A,3,65,86,87,72,66,76,77,,,,,,1.03,0.53,0.88*1E
$GPGSV,5,1,17,10,36,322,42,16,19,289,33,18,22,033,30,23,20,006,29*72
$GPGSV,5,2,17,24,08,083,34,25,18,155,34,26,31,260,33,27,05,328,28*73
$GPGSV,5,3,17,28,24,194,35,29,50,121,43,31,11,219,33,32,69,198,41*77
$GPGSV,5,4,17,36,52,277,35,40,85,353,43,41,58,082,38,49,32,274,*77
$GPGSV,5,5,17,50,10,089,*4A
$GLGSV,2,1,08,65,70,331,33,66,45,219,38,72,20,018,18,76,20,189,29*64
$GLGSV,2,2,08,77,19,237,31,85,01,130,15,86,26,081,31,87,25,031,18*69
$GNGLL,0420.22576,S,05539.54880,E,103940.00,A,D*69
$GNRMC,103941.00,A,0420.22597,S,05539.54865,E,0.726,216.16,220525,,,D*68
$GNVTG,216.16,T,,M,0.726,N,1.345,K,D*24
$GNGGA,103941.00,0420.22597,S,05539.54865,E,2,12,0.53,10.5,M,-47.6,M,,0000*46
$GNGSA,A,3,29,10,32,26,23,25,18,24,28,16,31,41,1.03,0.53,0.88*14
$GNGSA,A,3,65,86,87,72,66,76,77,,,,,,1.03,0.53,0.88*1E
$GPGSV,5,1,17,10,36,322,40,16,19,289,36,18,22,033,30,23,20,006,25*79
$GPGSV,5,2,17,24,08,083,35,25,18,155,35,26,31,260,30,27,05,328,30*79
$GPGSV,5,3,17,28,24,194,35,29,50,121,43,31,11,219,33,32,69,198,40*76
$GPGSV,5,4,17,36,52,277,35,40,85,353,42,41,58,082,37,49,32,274,*79
$GPGSV,5,5,17,50,10,089,*4A
$GLGSV,2,1,08,65,70,331,33,66,45,219,34,72,20,018,17,76,20,189,29*67
$GLGSV,2,2,08,77,19,237,26,85,01,130,19,86,26,081,30,87,25,031,18*62
$GNGLL,0420.22597,S,05539.54865,E,103941.00,A,D*6C
$GNRMC,103942.00,A,0420.22615,S,05539.54846,E,0.914,219.92,220525,,,D*6F
$GNVTG,219.92,T,,M,0.914,N,1.693,K,D*26
$GNGGA,103942.00,0420.22615,S,05539.54846,E,2,12,0.53,10.5,M,-47.6,M,,0000*4D
$GNGSA,A,3,29,10,32,26,23,25,18,24,28,16,31,41,1.03,0.53,0.88*14
$GNGSA,A,3,65,86,87,72,66,76,77,,,,,,1.03,0.53,0.88*1E
$GPGSV,5,1,17,10,36,322,40,16,19,289,28,18,22,033,29,23,20,006,31*7B
$GPGSV,5,2,17,24,08,083,34,25,18,155,33,26,31,260,30,27,05,328,35*7B
$GPGSV,5,3,17,28,24,194,30,29,50,121,43,31,11,219,32,32,69,198,41*73
$GPGSV,5,4,17,36,52,277,34,40,85,353,43,41,58,082,40,49,32,274,*79
$GPGSV,5,5,17,50,10,089,*4A
$GLGSV,2,1,08,65,70,331,34,66,45,219,34,72,19,018,17,76,20,189,35*67
$GLGSV,2,2,08,77,19,237,26,85,01,130,12,86,26,081,35,87,25,031,20*67
$GNGLL,0420.22615,S,05539.54846,E,103942.00,A,D*67
$GNRMC,103943.00,A,0420.22633,S,05539.54823,E,1.044,228.01,220525,,,D*6C
$GNVTG,228.01,T,,M,1.044,N,1.934,K,D*21
$GNGGA,103943.00,0420.22633,S,05539.54823,E,2,12,0.53,10.6,M,-47.6,M,,0000*48
$GNGSA,A,3,29,10,32,26,23,25,18,24,28,16,31,41,1.03,0.53,0.88*14
$GNGSA,A,3,65,86,87,72,66,76,77,,,,,,1.03,0.53,0.88*1E
$GPGSV,5,1,17,10,36,322,38,16,19,289,33,18,22,033,27,23,20,006,32*73
$GPGSV,5,2,17,24,08,083,36,25,18,155,32,26,31,260,31,27,05,328,30*7C
$GPGSV,5,3,17,28,24,194,35,29,50,121,43,31,11,219,27,32,69,198,43*70
$GPGSV,5,4,17,36,52,277,37,40,85,353,42,41,58,082,38,49,32,274,*74
$GPGSV,5,5,17,50,10,089,*4A
$GLGSV,2,1,08,65,70,331,33,66,45,219,35,72,19,018,18,76,20,189,33*68
$GLGSV,2,2,08,77,19,237,26,85,01,130,15,86,26,081,34,87,25,031,21*60
$GNGLL,0420.22633,S,05539.54823,E,103943.00,A,D*61
$GNRMC,103944.00,A,0420.22649,S,05539.54811,E,0.491,221.58,220525,,,D*6F
$GNVTG,221.58,T,,M,0.491,N,0.909,K,D*26
$GNGGA,103944.00,0420.22649,S,05539.54811,E,2,12,0.53,10.9,M,-47.6,M,,0000*4C
$GNGSA,A,3,29,10,32,26,23,25,18,24,28,16,31,41,1.03,0.53,0.88*14
$GNGSA,A,3,65,86,87,72,66,76,77,,,,,,1.03,0.53,0.88*1E
$GPGSV,5,1,17,10,36,322,40,16,19,289,36,18,22,033,25,23,20,006,28*70
$GPGSV,5,2,17,24,08,083,34,25,18,155,34,26,31,260,34,27,05,328,29*75
$GPGSV,5,3,17,28,24,194,35,29,50,121,43,31,11,219,32,32,69,198,42*75
$GPGSV,5,4,17,36,52,277,35,40,85,353,43,41,58,082,39,49,32,274,*76
$GPGSV,5,5,17,50,10,089,*4A
$GLGSV,2,1,08,65,70,331,32,66,45,219,31,72,19,018,17,76,20,189,31*60
$GLGSV,2,2,08,77,19,237,25,85,01,130,19,86,26,081,34,87,25,031,19*64
$GNGLL,0420.22649,S,05539.54811,E,103944.00,A,D*6A
$GNRMC,103945.00,A,0420.22647,S,05539.54802,E,0.546,259.23,220525,,,D*6A
$GNVTG,259.23,T,,M,0.546,N,1.011,K,D*2F
$GNGGA,103945.00,0420.22647,S,05539.54802,E,2,12,0.53,11.0,M,-47.6,M,,0000*49
$GNGSA,A,3,29,10,32,26,23,25,18,24,28,16,31,41,1.03,0.53,0.88*14
$GNGSA,A,3,65,86,87,72,66,76,77,,,,,,1.03,0.53,0.88*1E
$GPGSV,5,1,17,10,36,322,41,16,19,289,36,18,22,033,27,23,20,006,27*7C
$GPGSV,5,2,17,24,08,083,32,25,18,155,22,26,31,260,36,27,05,328,31*7F
$GPGSV,5,3,17,28,24,194,27,29,50,121,42,31,11,219,35,32,69,198,41*73
$GPGSV,5,4,17,36,52,277,32,40,85,353,43,41,58,082,40,49,32,274,*7F
$GPGSV,5,5,17,50,10,089,*4A
$GLGSV,2,1,08,65,70,331,34,66,45,219,37,72,19,018,14,76,20,189,32*60
$GLGSV,2,2,08,77,19,237,27,85,01,130,23,86,26,081,34,87,25,031,18*6E
$GNGLL,0420.22647,S,05539.54802,E,103945.00,A,D*67
$GNRMC,103946.00,A,0420.22639,S,05539.54779,E,1.041,283.77,220525,,,D*66
$GNVTG,283.77,T,,M,1.041,N,1.929,K,D*28
$GNGGA,103946.00,0420.22639,S,05539.54779,E,2,12,0.53,10.9,M,-47.6,M,,0000*48
$GNGSA,A,3,29,10,32,26,23,25,18,24,28,16,31,41,1.03,0.53,0.88*14
$GNGSA,A,3,65,86,87,72,66,76,77,,,,,,1.03,0.53,0.88*1E
$GPGSV,5,1,17,10,36,322,41,16,19,289,36,18,22,033,27,23,20,006,28*73
$GPGSV,5,2,17,24,08,083,34,25,18,155,34,26,31,260,30,27,05,328,31*78
$GPGSV,5,3,17,28,24,194,27,29,50,121,43,31,11,219,36,32,69,198,41*71
$GPGSV,5,4,17,36,52,277,35,40,85,353,43,41,58,082,40,49,32,274,*78
$GPGSV,5,5,17,50,10,089,*4A
$GLGSV,2,1,08,65,70,331,34,66,45,219,37,72,19,018,14,76,20,188,35*66
$GLGSV,2,2,08,77,19,237,27,85,01,130,25,86,26,081,33,87,25,031,16*61
$GNGLL,0420.22639,S,05539.54779,E,103946.00,A,D*6E
$GNRMC,103947.00,A,0420.22633,S,05539.54753,E,0.871,282.97,220525,,,D*60
$GNVTG,282.97,T,,M,0.871,N,1.613,K,D*2B
$GNGGA,103947.00,0420.22633,S,05539.54753,E,2,12,0.53,11.0,M,-47.6,M,,0000*43
$GNGSA,A,3,29,10,32,26,23,25,18,24,28,16,31,41,1.03,0.53,0.88*14
$GNGSA,A,3,65,86,87,72,66,76,77,,,,,,1.03,0.53,0.88*1E
$GPGSV,5,1,17,10,36,322,41,16,19,289,33,18,22,033,26,23,20,006,33*7D
$GPGSV,5,2,17,24,08,083,32,25,18,155,33,26,31,260,34,27,05,328,30*7C
$GPGSV,5,3,17,28,24,194,32,29,50,121,44,31,11,219,31,32,69,198,42*76
$GPGSV,5,4,17,36,52,277,34,40,85,353,43,41,58,082,41,49,32,274,*78
$GPGSV,5,5,17,50,10,089,*4A
$GLGSV,2,1,08,65,70,331,33,66,45,219,35,72,19,018,13,76,20,188,32*63
$GLGSV,2,2,08,77,19,236,26,85,01,130,27,86,26,081,32,87,25,031,17*63
$GNGLL,0420.22633,S,05539.54753,E,103947.00,A,D*6D
$GNRMC,103948.00,A,0420.22623,S,05539.54734,E,0.780,293.85,220525,,,D*6D
$GNVTG,293.85,T,,M,0.780,N,1.445,K,D*28
$GNGGA,103948.00,0420.22623,S,05539.54734,E,2,12,0.53,10.9,M,-47.6,M,,0000*44
$GNGSA,A,3,29,10,32,26,23,25,18,24,28,16,31,41,1.03,0.53,0.88*14
$GNGSA,A,3,65,86,87,72,66,76,77,,,,,,1.03,0.53,0.88*1E
$GPGSV,5,1,17,10,36,322,43,16,19,289,39,18,22,033,27,23,20,006,27*71
$GPGSV,5,2,17,24,08,083,33,25,18,155,34,26,31,260,31,27,05,328,24*7A
$GPGSV,5,3,17,28,24,194,31,29,50,121,43,31,11,219,35,32,69,198,41*75
$GPGSV,5,4,17,36,52,277,34,40,85,353,42,41,58,082,40,49,32,274,*78
$GPGSV,5,5,17,50,10,089,*4A
$GLGSV,2,1,08,65,70,331,32,66,45,219,38,72,19,018,15,76,20,188,38*63
$GLGSV,2,2,08,77,19,236,26,85,01,130,29,86,26,081,32,87,25,031,18*62
$GNGLL,0420.22623,S,05539.54734,E,103948.00,A,D*62
$GNRMC,103949.00,A,0420.22608,S,05539.54723,E,0.713,306.48,220525,,,D*65
$GNVTG,306.48,T,,M,0.713,N,1.321,K,D*2B
$GNGGA,103949.00,0420.22608,S,05539.54723,E,2,12,0.53,11.0,M,-47.6,M,,0000*42
$GNGSA,A,3,29,10,32,26,23,25,18,24,28,16,31,41,1.03,0.53,0.88*14
$GNGSA,A,3,65,86,87,72,66,76,77,,,,,,1.03,0.53,0.88*1E
$GPGSV,5,1,17,10,36,322,42,16,19,289,38,18,22,033,34,23,20,006,26*72
$GPGSV,5,2,17,24,08,083,32,25,18,155,30,26,31,260,37,27,05,328,29*74
$GPGSV,5,3,17,28,24,194,35,29,50,121,43,31,11,219,33,32,69,198,43*75
$GPGSV,5,4,17,36,52,277,31,40,85,353,43,41,58,082,39,49,32,274,*72
$GPGSV,5,5,17,50,10,089,*4A
$GLGSV,2,1,08,65,70,331,35,66,45,219,36,72,19,018,18,76,20,188,35*6A
$GLGSV,2,2,08,77,19,236,25,85,01,130,28,86,26,081,32,87,25,031,19*61
$GNGLL,0420.22608,S,05539.54723,E,103949.00,A,D*6C
$GNRMC,103950.00,A,0420.22593,S,05539.54706,E,0.866,308.08,220525,,,D*6C
$GNVTG,308.08,T,,M,0.866,N,1.604,K,D*2E
$GNGGA,103950.00,0420.22593,S,05539.54706,E,2,12,0.53,10.8,M,-47.6,M,,0000*45
$GNGSA,A,3,29,10,32,26,23,25,18,24,28,16,31,41,1.03,0.53,0.88*14
$GNGSA,A,3,65,86,87,72,66,76,77,,,,,,1.03,0.53,0.88*1E
$GPGSV,5,1,17,10,36,322,41,16,19,289,36,18,22,033,27,23,20,006,26*7D
$GPGSV,5,2,17,24,08,083,34,25,18,155,29,26,31,260,35,27,05,328,29*78
$GPGSV,5,3,17,28,24,194,31,29,50,121,43,31,11,219,36,32,69,198,40*77
$GPGSV,5,4,17,36,52,277,35,40,85,353,44,41,58,082,39,49,32,274,*71
$GPGSV,5,5,17,50,10,089,*4A
$GLGSV,2,1,08,65,70,331,34,66,45,219,38,72,19,018,18,76,20,188,32*62
$GLGSV,2,2,08,77,19,236,25,85,01,130,28,86,26,081,33,87,25,031,19*60
$GNGLL,0420.22593,S,05539.54706,E,103950.00,A,D*62
$GNRMC,103951.00,A,0420.22590,S,05539.54691,E,0.387,298.77,220525,,,D*65
$GNVTG,298.77,T,,M,0.387,N,0.716,K,D*29
$GNGGA,103951.00,0420.22590,S,05539.54691,E,2,12,0.53,10.5,M,-47.6,M,,0000*45
$GNGSA,A,3,29,10,32,26,23,25,18,24,28,16,31,41,1.03,0.53,0.88*14
$GNGSA,A,3,65,86,87,72,66,76,77,,,,,,1.03,0.53,0.88*1E
$GPGSV,5,1,17,10,36,322,43,16,19,289,33,18,22,033,26,23,20,006,31*7D
$GPGSV,5,2,17,24,08,083,35,25,18,155,22,26,31,260,37,27,05,328,30*78
$GPGSV,5,3,17,28,24,194,38,29,50,121,43,31,11,219,31,32,69,198,41*78
$GPGSV,5,4,17,36,52,277,36,40,85,353,43,41,58,082,40,49,32,274,*7B
$GPGSV,5,5,17,50,10,089,*4A
$GLGSV,2,1,08,65,70,331,35,66,45,219,33,72,19,018,18,76,20,188,35*6F
$GLGSV,2,2,08,77,19,236,25,85,01,130,26,86,26,081,33,87,25,031,18*6F
$GNGLL,0420.22590,S,05539.54691,E,103951.00,A,D*6F
$GNRMC,103952.00,A,0420.22593,S,05539.54673,E,0.728,274.41,220525,,,D*6F
$GNVTG,274.41,T,,M,0.728,N,1.348,K,D*21
$GNGGA,103952.00,0420.22593,S,05539.54673,E,2,12,0.53,10.6,M,-47.6,M,,0000*4A
$GNGSA,A,3,29,10,32,26,23,25,18,24,28,16,31,41,1.03,0.53,0.88*14
$GNGSA,A,3,65,86,87,72,66,76,77,,,,,,1.03,0.53,0.88*1E
$GPGSV,5,1,17,10,36,322,43,16,19,289,35,18,22,033,29,23,20,006,30*75
$GPGSV,5,2,17,24,08,083,35,25,18,155,30,26,31,260,37,27,05,328,33*78
$GPGSV,5,3,17,28,24,194,31,29,50,121,42,31,11,219,37,32,69,198,41*76
$GPGSV,5,4,17,36,52,277,34,40,85,353,43,41,58,082,41,49,32,274,*78
$GPGSV,5,5,17,50,10,089,*4A
$GLGSV,2,1,08,65,70,331,35,66,45,219,36,72,19,018,18,76,20,188,36*69
$GLGSV,2,2,08,77,19,236,26,85,01,130,24,86,26,081,35,87,25,031,23*60
$GNGLL,0420.22593,S,05539.54673,E,103952.00,A,D*63
$GNRMC,103953.00,A,0420.22589,S,05539.54648,E,0.983,277.96,220525,,,D*6B
$GNVTG,277.96,T,,M,0.983,N,1.821,K,D*23
$GNGGA,103953.00,0420.22589,S,05539.54648,E,2,12,0.53,10.8,M,-47.6,M,,0000*46
$GNGSA,A,3,29,10,32,26,23,25,18,24,28,16,31,41,1.03,0.53,0.88*14
$GNGSA,A,3,65,86,87,72,66,76,77,,,,,,1.03,0.53,0.88*1E
$GPGSV,5,1,17,10,36,322,41,16,19,289,35,18,22,033,32,23,20,006,30*7D
$GPGSV,5,2,17,24,08,083,35,25,18,155,32,26,31,260,34,27,05,328,30*7A
$GPGSV,5,3,17,28,24,194,34,29,50,121,41,31,11,219,31,32,69,198,43*74
$GPGSV,5,4,17,36,52,277,35,40,85,353,41,41,58,082,41,49,32,274,*7B
$GPGSV,5,5,17,50,10,089,*4A
$GLGSV,2,1,08,65,70,331,35,66,45,219,38,72,19,018,18,76,20,188,35*64
$GLGSV,2,2,08,77,19,236,27,85,01,130,23,86,26,081,35,87,25,031,23*66
$GNGLL,0420.22589,S,05539.54648,E,103953.00,A,D*61
$GNRMC,103954.00,A,0420.22581,S,05539.54626,E,0.804,286.71,220525,,,D*65
$GNVTG,286.71,T,,M,0.804,N,1.488,K,D*25
$GNGGA,103954.00,0420.22581,S,05539.54626,E,2,12,0.53,10.9,M,-47.6,M,,0000*40
$GNGSA,A,3,29,10,32,26,23,25,18,24,28,16,31,41,1.03,0.53,0.88*14
$GNGSA,A,3,65,86,87,72,66,76,77,,,,,,1.03,0.53,0.88*1E
$GPGSV,5,1,17,10,36,322,41,16,19,289,34,18,22,033,27,23,20,006,30*78
$GPGSV,5,2,17,24,08,083,33,25,18,155,30,26,31,260,34,27,05,328,29*76
$GPGSV,5,3,17,28,24,194,37,29,50,121,43,31,11,219,35,32,69,198,43*71
$GPGSV,5,4,17,36,52,277,37,40,85,353,42,41,58,082,41,49,32,274,*7A
$GPGSV,5,5,17,50,10,089,*4A
$GLGSV,2,1,08,65,70,331,34,66,45,219,38,72,19,018,18,76,20,188,37*67
$GLGSV,2,2,08,77,19,236,27,85,01,130,23,86,26,081,35,87,25,031,24*61
$GNGLL,0420.22581,S,05539.54626,E,103954.00,A,D*66
$GNRMC,103955.00,A,0420.22570,S,05539.54612,E,0.543,297.92,220525,,,D*6E
$GNVTG,297.92,T,,M,0.543,N,1.006,K,D*24
$GNGGA,103955.00,0420.22570,S,05539.54612,E,2,12,0.53,11.0,M,-47.6,M,,0000*40
$GNGSA,A,3,29,10,32,26,23,25,18,24,28,16,31,41,1.03,0.53,0.88*14
$GNGSA,A,3,65,86,87,72,66,76,77,,,,,,1.03,0.53,0.88*1E
$GPGSV,5,1,17,10,36,322,42,16,19,289,35,18,22,033,28,23,20,006,29*7D
$GPGSV,5,2,17,24,08,083,36,25,18,155,31,26,31,260,37,27,05,328,29*71
$GPGSV,5,3,17,28,24,194,37,29,50,121,42,31,11,219,35,32,69,198,43*70
$GPGSV,5,4,17,36,52,277,36,40,85,353,42,41,58,082,40,49,32,274,*7A
$GPGSV,5,5,17,50,10,089,*4A
$GLGSV,2,1,08,65,70,331,34,66,45,219,35,72,19,018,18,76,20,188,34*69
$GLGSV,2,2,08,77,19,236,28,85,01,131,25,86,26,081,32,87,25,031,25*6F
$GNGLL,0420.22570,S,05539.54612,E,103955.00,A,D*6E
$GNRMC,103956.00,A,0420.22553,S,05539.54596,E,0.954,308.64,220525,,,D*67
$GNVTG,308.64,T,,M,0.954,N,1.767,K,D*20
$GNGGA,103956.00,0420.22553,S,05539.54596,E,2,12,0.53,10.9,M,-47.6,M,,0000*45
$GNGSA,A,3,29,10,32,26,23,25,18,24,28,16,31,41,1.03,0.53,0.88*14
$GNGSA,A,3,65,86,87,72,66,76,77,,,,,,1.03,0.53,0.88*1E
$GPGSV,5,1,17,10,36,322,42,16,19,289,34,18,22,033,28,23,20,006,33*77
$GPGSV,5,2,17,24,08,083,36,25,18,155,31,26,31,260,37,27,05,328,30*79
$GPGSV,5,3,17,28,24,194,35,29,50,121,43,31,11,219,33,32,69,198,41*77
$GPGSV,5,4,17,36,52,277,35,40,85,353,44,41,58,082,41,49,32,274,*7E
$GPGSV,5,5,17,50,10,089,*4A
$GLGSV,2,1,08,65,70,331,35,66,45,219,36,72,19,018,17,76,20,188,37*67
$GLGSV,2,2,08,77,19,236,27,85,01,131,27,86,26,082,34,87,25,031,26*64
$GNGLL,0420.22553,S,05539.54596,E,103956.00,A,D*63
$GNRMC,103957.00,A,0420.22537,S,05539.54571,E,1.095,303.49,220525,,,D*6C
$GNVTG,303.49,T,,M,1.095,N,2.028,K,D*2E
$GNGGA,103957.00,0420.22537,S,05539.54571,E,2,12,0.53,11.0,M,-47.6,M,,0000*47
$GNGSA,A,3,29,10,32,26,23,25,18,24,28,16,31,41,1.03,0.53,0.88*14
$GNGSA,A,3,65,86,87,72,66,76,77,,,,,,1.03,0.53,0.88*1E
$GPGSV,5,1,17,10,36,322,42,16,19,289,36,18,22,033,30,23,20,006,31*7E
$GPGSV,5,2,17,24,08,083,34,25,18,155,32,26,31,260,34,27,05,328,29*73
$GPGSV,5,3,17,28,24,194,33,29,50,121,42,31,11,219,35,32,69,198,42*75
$GPGSV,5,4,17,36,52,277,33,40,85,353,44,41,58,082,40,49,32,274,*79
$GPGSV,5,5,17,50,10,089,*4A
$GLGSV,2,1,08,65,70,331,34,66,45,219,38,72,19,018,18,76,20,188,37*67
$GLGSV,2,2,08,77,19,236,26,85,01,131,27,86,26,082,36,87,26,031,27*65
$GNGLL,0420.22537,S,05539.54571,E,103957.00,A,D*69
$GNRMC,103958.00,A,0420.22518,S,05539.54546,E,1.147,307.67,220525,,,D*6C
$GNVTG,307.67,T,,M,1.147,N,2.124,K,D*25
$GNGGA,103958.00,0420.22518,S,05539.54546,E,2,12,0.53,11.0,M,-47.6,M,,0000*41
$GNGSA,A,3,29,10,32,26,23,25,18,24,28,16,31,41,1.03,0.53,0.88*14
$GNGSA,A,3,65,86,87,72,66,76,77,,,,,,1.03,0.53,0.88*1E
$GPGSV,5,1,17,10,36,322,42,16,19,289,36,18,22,033,30,23,20,006,35*7A
$GPGSV,5,2,17,24,08,083,31,25,18,155,25,26,31,260,30,27,05,328,27*7A
$GPGSV,5,3,17,28,24,194,33,29,50,121,41,31,11,219,32,32,69,198,43*70
$GPGSV,5,4,17,36,52,277,36,40,85,353,43,41,58,082,41,49,32,274,*7A
$GPGSV,5,5,17,50,10,089,*4A
$GLGSV,2,1,08,65,70,331,34,66,45,219,38,72,19,018,18,76,20,188,37*67
$GLGSV,2,2,08,77,19,236,27,85,01,131,28,86,26,082,38,87,26,031,27*65
$GNGLL,0420.22518,S,05539.54546,E,103958.00,A,D*6F
$GNRMC,103959.00,A,0420.22498,S,05539.54523,E,1.017,309.52,220525,,,D*6B
$GNVTG,309.52,T,,M,1.017,N,1.883,K,D*2E
$GNGGA,103959.00,0420.22498,S,05539.54523,E,2,12,0.53,11.1,M,-47.6,M,,0000*4B
$GNGSA,A,3,29,10,32,26,23,25,18,24,28,16,31,41,1.03,0.53,0.88*14
$GNGSA,A,3,65,86,87,72,66,76,77,,,,,,1.03,0.53,0.88*1E
$GPGSV,5,1,17,10,36,322,41,16,19,289,33,18,22,033,29,23,20,006,30*71
$GPGSV,5,2,17,24,08,083,37,25,18,155,32,26,31,260,26,27,05,328,25*7F
$GPGSV,5,3,17,28,24,194,32,29,50,121,41,31,11,219,38,32,69,198,43*7B
$GPGSV,5,4,17,36,52,277,38,40,85,353,42,41,58,082,39,49,32,274,*7A
$GPGSV,5,5,17,50,10,089,*4A
$GLGSV,2,1,08,65,70,331,34,66,45,219,40,72,19,018,18,76,20,188,36*69
$GLGSV,2,2,08,77,19,236,27,85,01,131,29,86,26,082,32,87,26,031,27*6E
$GNGLL,0420.22498,S,05539.54523,E,103959.00,A,D*64
$GNRMC,104000.00,A,0420.22485,S,05539.54505,E,0.665,309.70,220525,,,D*63
$GNVTG,309.70,T,,M,0.665,N,1.231,K,D*2F
$GNGGA,104000.00,0420.22485,S,05539.54505,E,2,12,0.53,11.1,M,-47.6,M,,0000*41
$GNGSA,A,3,29,10,32,26,23,25,18,24,28,16,31,41,1.03,0.53,0.88*14
$GNGSA,A,3,65,86,87,72,66,76,77,,,,,,1.03,0.53,0.88*1E
$GPGSV,5,1,17,10,36,322,42,16,19,289,34,18,22,033,29,23,20,006,30*75
$GPGSV,5,2,17,24,08,083,34,25,18,155,33,26,31,260,26,27,05,328,23*7B
$GPGSV,5,3,17,28,24,194,34,29,50,121,38,31,11,219,38,32,69,198,42*72
$GPGSV,5,4,17,36,52,277,38,40,85,353,43,41,58,082,39,49,32,274,*7B
$GPGSV,5,5,17,50,10,089,*4A
$GLGSV,2,1,08,65,70,331,33,66,45,219,35,72,19,018,21,76,20,188,34*64
$GLGSV,2,2,08,77,19,236,26,85,01,131,29,86,26,082,36,87,26,031,26*6A
$GNGLL,0420.22485,S,05539.54505,E,104000.00,A,D*6E
$GNRMC,104001.00,A,0420.22466,S,05539.54491,E,1.020,318.67,220525,,,D*63
$GNVTG,318.67,T,,M,1.020,N,1.890,K,D*2E
$GNGGA,104001.00,0420.22466,S,05539.54491,E,2,12,0.53,11.0,M,-47.6,M,,0000*40
$GNGSA,A,3,29,10,32,26,23,25,18,24,28,16,31,41,1.03,0.53,0.88*14
$GNGSA,A,3,65,86,87,72,66,76,77,,,,,,1.03,0.53,0.88*1E
$GPGSV,5,1,17,10,36,322,39,16,19,289,34,18,22,033,29,23,20,006,23*7B
$GPGSV,5,2,17,24,08,083,28,25,18,155,23,26,31,260,26,27,05,328,21*75
$GPGSV,5,3,17,28,24,194,35,29,50,121,39,31,11,219,40,32,69,198,43*7C
$GPGSV,5,4,17,36,52,277,38,40,85,353,42,41,58,082,39,49,32,274,*7A
$GPGSV,5,5,17,50,10,089,*4A
$GLGSV,2,1,08,65,70,331,33,66,45,219,40,72,19,018,24,76,20,188,37*60
$GLGSV,2,2,08,77,19,236,26,85,01,131,30,86,26,082,29,87,26,031,24*6E
$GNGLL,0420.22466,S,05539.54491,E,104001.00,A,D*6E
$GNRMC,104002.00,A,0420.22452,S,05539.54473,E,0.782,312.68,220525,,,D*60
$GNVTG,312.68,T,,M,0.782,N,1.448,K,D*2C
$GNGGA,104002.00,0420.22452,S,05539.54473,E,2,12,0.53,10.8,M,-47.6,M,,0000*41
$GNGSA,A,3,29,10,32,26,23,25,18,24,28,16,31,41,1.03,0.53,0.88*14
$GNGSA,A,3,65,86,87,72,66,76,77,,,,,,1.03,0.53,0.88*1E
$GPGSV,5,1,17,10,36,322,36,16,19,289,35,18,22,033,29,23,20,006,27*71
$GPGSV,5,2,17,24,08,083,30,25,18,155,31,26,31,260,33,27,05,328,19*70
$GPGSV,5,3,17,28,24,194,31,29,50,121,43,31,11,219,37,32,69,198,43*75
$GPGSV,5,4,17,36,52,277,38,40,85,353,42,41,58,082,39,49,32,274,*7A
$GPGSV,5,5,17,50,10,089,*4A
$GLGSV,2,1,08,65,70,331,33,66,45,219,37,72,19,018,24,76,20,188,34*63
$GLGSV,2,2,08,77,19,236,26,85,01,131,30,86,26,082,35,87,26,031,24*63
$GNGLL,0420.22452,S,05539.54473,E,104002.00,A,D*66
$GNRMC,104003.00,A,0420.22442,S,05539.54460,E,0.526,309.78,220525,,,D*65
$GNVTG,309.78,T,,M,0.526,N,0.975,K,D*29
$GNGGA,104003.00,0420.22442,S,05539.54460,E,2,12,0.53,10.8,M,-47.6,M,,0000*43
$GNGSA,A,3,29,10,32,26,23,25,18,24,28,16,31,41,1.03,0.53,0.88*14
$GNGSA,A,3,65,86,87,72,66,76,77,,,,,,1.03,0.53,0.88*1E
$GPGSV,5,1,17,10,36,322,41,16,19,289,34,18,22,033,29,23,20,006,25*72
$GPGSV,5,2,17,24,08,083,32,25,18,155,34,26,31,260,28,27,05,328,22*75
$GPGSV,5,3,17,28,24,194,32,29,50,121,37,31,11,219,39,32,69,198,42*7A
$GPGSV,5,4,17,36,52,277,37,40,85,353,41,41,58,082,41,49,32,274,*79
$GPGSV,5,5,17,50,10,089,*4A
$GLGSV,2,1,08,65,70,331,33,66,45,219,39,72,19,018,23,76,20,188,38*66
$GLGSV,2,2,08,77,19,236,27,85,01,131,28,86,26,082,27,87,26,031,22*6E
$GNGLL,0420.22442,S,05539.54460,E,104003.00,A,D*64
$GNRMC,104004.00,A,0420.22434,S,05539.54440,E,0.763,303.97,220525,,,D*69
$GNVTG,303.97,T,,M,0.763,N,1.413,K,D*2D
$GNGGA,104004.00,0420.22434,S,05539.54440,E,2,12,0.53,10.8,M,-47.6,M,,0000*47
$GNGSA,A,3,29,10,32,26,23,25,18,24,28,16,31,41,1.03,0.53,0.88*14
$GNGSA,A,3,65,86,87,72,66,76,77,,,,,,1.03,0.53,0.88*1E
$GPGSV,5,1,17,10,36,322,41,16,19,289,31,18,22,033,24,23,20,006,24*7B
$GPGSV,5,2,17,24,08,083,35,25,18,155,25,26,31,260,28,27,05,328,24*74
$GPGSV,5,3,17,28,24,194,35,29,50,121,38,31,11,219,35,32,69,198,44*78
$GPGSV,5,4,17,36,52,277,37,40,85,353,42,41,58,082,41,49,32,274,*7A
$GPGSV,5,5,17,50,10,089,*4A
$GLGSV,2,1,08,65,70,331,33,66,45,219,31,72,19,018,23,76,20,188,32*64
$GLGSV,2,2,08,77,19,236,27,85,01,131,27,86,26,082,38,87,26,031,25*68
$GNGLL,0420.22434,S,05539.54440,E,104004.00,A,D*60
$GNRMC,104005.00,A,0420.22421,S,05539.54418,E,0.946,303.00,220525,,,D*66
$GNVTG,303.00,T,,M,0.946,N,1.753,K,D*2D
$GNGGA,104005.00,0420.22421,S,05539.54418,E,2,12,0.53,10.9,M,-47.6,M,,0000*4E
$GNGSA,A,3,29,10,32,26,23,25,18,24,28,16,31,41,1.03,0.53,0.88*14
$GNGSA,A,3,65,86,87,72,66,76,77,,,,,,1.03,0.53,0.88*1E
$GPGSV,5,1,17,10,36,322,38,16,19,289,33,18,22,033,25,23,20,006,25*77
$GPGSV,5,2,17,24,08,083,31,25,18,155,33,26,31,260,29,27,05,328,26*74
$GPGSV,5,3,17,28,24,194,36,29,50,121,36,31,11,219,38,32,69,198,42*7E
$GPGSV,5,4,17,36,52,277,36,40,85,353,41,41,58,082,41,49,32,274,*78
$GPGSV,5,5,17,50,10,089,*4A
$GLGSV,2,1,08,65,70,331,33,66,45,219,34,72,19,018,23,76,20,188,33*60
$GLGSV,2,2,08,77,19,236,27,85,01,131,26,86,26,082,37,87,26,031,25*66
$GNGLL,0420.22421,S,05539.54418,E,104005.00,A,D*68
$GNRMC,104006.00,A,0420.22410,S,05539.54404,E,0.491,305.68,220525,,,D*65
$GNVTG,305.68,T,,M,0.491,N,0.909,K,D*22
$GNGGA,104006.00,0420.22410,S,05539.54404,E,2,12,0.53,10.8,M,-47.6,M,,0000*43
$GNGSA,A,3,29,10,32,26,23,25,18,24,28,16,31,41,1.03,0.53,0.88*14
$GNGSA,A,3,65,86,87,72,66,76,77,,,,,,1.03,0.53,0.88*1E
$GPGSV,5,1,17,10,36,322,40,16,19,289,31,18,22,033,25,23,20,006,22*7D
$GPGSV,5,2,17,24,08,083,36,25,18,155,36,26,31,260,25,27,05,328,23*7F
$GPGSV,5,3,17,28,24,194,34,29,50,121,42,31,11,219,32,32,69,198,44*73
$GPGSV,5,4,17,36,52,277,36,40,85,353,41,41,58,082,42,49,32,274,*7B
$GPGSV,5,5,17,50,10,089,*4A
$GLGSV,2,1,08,65,70,331,33,66,45,219,34,72,19,018,22,76,20,188,28*6B
$GLGSV,2,2,08,77,19,236,25,85,01,131,25,86,26,082,36,87,26,031,25*66
$GNGLL,0420.22410,S,05539.54404,E,104006.00,A,D*64
$GNRMC,104007.00,A,0420.22401,S,05539.54402,E,0.301,,220525,,,D*7A
$GNVTG,,T,,M,0.301,N,0.557,K,D*3D
$GNGGA,104007.00,0420.22401,S,05539.54402,E,2,12,0.53,11.0,M,-47.6,M,,0000*4D
$GNGSA,A,3,29,10,32,26,23,25,18,24,28,16,31,41,1.03,0.53,0.88*14
$GNGSA,A,3,65,86,87,72,66,76,77,,,,,,1.03,0.53,0.88*1E
$GPGSV,5,1,17,10,36,322,37,16,19,289,37,18,22,033,31,23,20,006,30*7D
$GPGSV,5,2,17,24,08,083,27,25,18,155,33,26,31,260,39,27,05,328,30*75
$GPGSV,5,3,17,28,24,194,39,29,50,121,38,31,11,219,39,32,69,198,42*7E
$GPGSV,5,4,17,36,52,277,39,40,85,353,42,41,58,082,41,49,32,274,*74
$GPGSV,5,5,17,50,10,089,*4A
$GLGSV,2,1,08,65,70,331,32,66,45,219,37,72,19,018,21,76,20,188,38*6B
$GLGSV,2,2,08,77,19,236,24,85,01,131,23,86,26,082,39,87,26,031,25*6E
$GNGLL,0420.22401,S,05539.54402,E,104007.00,A,D*63
$GNRMC,104008.00,A,0420.22394,S,05539.54393,E,0.600,303.68,220525,,,D*65
$GNVTG,303.68,T,,M,0.600,N,1.111,K,D*2E
$GNGGA,104008.00,0420.22394,S,05539.54393,E,2,12,0.53,11.0,M,-47.6,M,,0000*46
$GNGSA,A,3,29,10,32,26,23,25,18,24,28,16,31,41,1.03,0.53,0.88*14
$GNGSA,A,3,65,86,87,72,66,76,77,,,,,,1.03,0.53,0.88*1E
$GPGSV,5,1,17,10,36,323,39,16,19,289,33,18,22,033,34,23,20,006,29*7B
$GPGSV,5,2,17,24,08,083,29,25,18,155,34,26,31,260,36,27,05,328,28*7A
$GPGSV,5,3,17,28,24,194,38,29,50,121,42,31,11,219,38,32,69,198,44*75
$GPGSV,5,4,17,36,52,277,40,40,85,353,43,41,58,082,41,49,32,274,*7B
$GPGSV,5,5,17,50,10,089,*4A
$GLGSV,2,1,08,65,70,331,29,66,45,219,34,72,19,018,22,76,20,188,28*60
$GLGSV,2,2,08,77,19,236,23,85,01,131,23,86,26,082,37,87,26,031,28*6A
$GNGLL,0420.22394,S,05539.54393,E,104008.00,A,D*68
$GNRMC,104009.00,A,0420.22380,S,05539.54386,E,0.572,333.98,220525,,,D*6F
$GNVTG,333.98,T,,M,0.572,N,1.058,K,D*28
$GNGGA,104009.00,0420.22380,S,05539.54386,E,2,12,0.53,11.1,M,-47.6,M,,0000*47
$GNGSA,A,3,29,10,32,26,23,25,18,24,28,16,31,41,1.03,0.53,0.88*14
$GNGSA,A,3,65,86,87,72,66,76,77,,,,,,1.03,0.53,0.88*1E
$GPGSV,5,1,17,10,36,323,36,16,19,289,36,18,22,033,35,23,20,006,26*7F
$GPGSV,5,2,17,24,08,083,34,25,18,155,32,26,31,260,33,27,05,328,21*7C
$GPGSV,5,3,17,28,24,194,36,29,50,121,41,31,11,219,36,32,69,198,43*71
$GPGSV,5,4,17,36,52,277,40,40,85,353,42,41,58,082,40,49,32,274,*7B
$GPGSV,5,5,17,50,10,089,*4A
$GLGSV,2,1,08,65,70,331,32,66,45,219,35,72,19,018,21,76,20,188,35*64
$GLGSV,2,2,08,77,19,236,19,85,01,131,16,86,26,082,39,87,26,031,31*63
$GNGLL,0420.22380,S,05539.54386,E,104009.00,A,D*68
$GNRMC,104010.00,A,0420.22367,S,05539.54393,E,0.501,356.44,220525,,,D*6C
$GNVTG,356.44,T,,M,0.501,N,0.927,K,D*2E
$GNGGA,104010.00,0420.22367,S,05539.54393,E,2,12,0.53,11.1,M,-47.6,M,,0000*42
$GNGSA,A,3,29,10,32,26,23,25,18,24,28,16,31,41,1.03,0.53,0.88*14
$GNGSA,A,3,65,86,87,72,66,76,77,,,,,,1.03,0.53,0.88*1E
$GPGSV,5,1,17,10,36,323,36,16,19,289,35,18,22,033,32,23,20,006,26*7B
$GPGSV,5,2,17,24,08,083,25,25,18,155,31,26,31,260,33,27,05,328,19*74
$GPGSV,5,3,17,28,24,194,34,29,50,121,41,31,11,219,36,32,69,198,44*74
$GPGSV,5,4,17,36,52,277,38,40,85,353,42,41,58,082,40,49,32,274,*74
$GPGSV,5,5,17,50,10,089,*4A
$GLGSV,2,1,08,65,70,331,32,66,45,219,38,72,19,018,24,76,20,188,35*6C
$GLGSV,2,2,08,77,19,236,22,85,01,131,13,86,26,082,35,87,26,031,31*62
$GNGLL,0420.22367,S,05539.54393,E,104010.00,A,D*6D
$GNRMC,104011.00,A,0420.22353,S,05539.54401,E,0.490,5.24,220525,,,D*6C
$GNVTG,5.24,T,,M,0.490,N,0.908,K,D*29
$GNGGA,104011.00,0420.22353,S,05539.54401,E,2,12,0.53,11.2,M,-47.6,M,,0000*4B
$GNGSA,A,3,29,10,32,26,23,25,18,24,28,16,31,41,1.03,0.53,0.88*14
$GNGSA,A,3,65,86,87,72,66,76,77,,,,,,1.03,0.53,0.88*1E
$GPGSV,5,1,17,10,36,323,29,16,19,289,32,18,22,033,35,23,20,006,26*75
$GPGSV,5,2,17,24,08,083,24,25,18,155,30,26,31,260,37,27,05,328,23*79
$GPGSV,5,3,17,28,24,194,34,29,50,121,39,31,11,219,38,32,69,198,42*73
$GPGSV,5,4,17,36,52,277,38,40,85,353,42,41,58,082,39,49,32,274,*7A
$GPGSV,5,5,17,50,10,089,*4A
$GLGSV,2,1,08,65,70,331,33,66,45,219,35,72,19,018,25,76,20,188,33*67
$GLGSV,2,2,08,77,19,236,21,85,01,131,18,86,26,082,34,87,26,031,34*6E
$GNGLL,0420.22353,S,05539.54401,E,104011.00,A,D*67
$GNRMC,104012.00,A,0420.22342,S,05539.54416,E,0.860,44.77,220525,,,D*59
$GNVTG,44.77,T,,M,0.860,N,1.593,K,D*16
$GNGGA,104012.00,0420.22342,S,05539.54416,E,2,12,0.52,11.0,M,-47.6,M,,0000*4D
$GNGSA,A,3,29,10,32,26,23,25,18,24,28,16,31,41,1.02,0.52,0.88*14
$GNGSA,A,3,65,86,87,72,66,76,77,,,,,,1.02,0.52,0.88*1E
$GPGSV,5,1,17,10,36,323,33,16,19,289,30,18,22,033,34,23,20,006,26*7D
$GPGSV,5,2,17,24,08,083,25,25,18,155,23,26,31,260,34,27,05,328,23*79
$GPGSV,5,3,17,28,24,194,33,29,50,121,37,31,11,219,39,32,69,198,44*7D
$GPGSV,5,4,17,36,52,277,38,40,85,353,41,41,58,082,40,49,32,274,*77
$GPGSV,5,5,17,50,10,089,*4A
$GLGSV,2,1,08,65,70,331,31,66,45,219,34,72,19,018,27,76,20,188,33*66
$GLGSV,2,2,08,77,19,236,18,85,01,131,21,86,26,082,35,87,26,031,29*63
$GNGLL,0420.22342,S,05539.54416,E,104012.00,A,D*62
$GNRMC,104013.00,A,0420.22328,S,05539.54424,E,0.585,32.30,220525,,,D*51
$GNVTG,32.30,T,,M,0.585,N,1.083,K,D*16
$GNGGA,104013.00,0420.22328,S,05539.54424,E,2,12,0.52,11.0,M,-47.6,M,,0000*41
$GNGSA,A,3,29,10,32,26,23,25,18,24,28,16,31,41,1.02,0.52,0.88*14
$GNGSA,A,3,65,86,87,72,66,76,77,,,,,,1.02,0.52,0.88*1E
$GPGSV,5,1,17,10,36,323,30,16,19,289,34,18,22,033,39,23,20,006,32*72
$GPGSV,5,2,17,24,08,083,28,25,18,155,34,26,31,260,38,27,05,328,25*78
$GPGSV,5,3,17,28,24,194,35,29,50,121,37,31,11,219,38,32,69,198,42*7C
$GPGSV,5,4,17,36,52,277,33,40,85,353,40,41,58,082,39,49,32,274,*73
$GPGSV,5,5,17,50,10,089,*4A
$GLGSV,2,1,08,65,70,331,33,66,45,219,29,72,19,018,28,76,20,188,32*66
$GLGSV,2,2,08,77,19,236,22,85,01,131,23,86,26,082,37,87,26,031,34*66
$GNGLL,0420.22328,S,05539.54424,E,104013.00,A,D*6E
$GNRMC,104014.00,A,0420.22329,S,05539.54434,E,0.540,80.77,220525,,,D*55
$GNVTG,80.77,T,,M,0.540,N,0.999,K,D*16
$GNGGA,104014.00,0420.22329,S,05539.54434,E,2,12,0.52,10.8,M,-47.6,M,,0000*4F
$GNGSA,A,3,29,10,32,26,23,25,18,24,28,16,31,41,1.02,0.52,0.88*14
$GNGSA,A,3,65,86,87,72,66,76,77,,,,,,1.02,0.52,0.88*1E
$GPGSV,5,1,17,10,36,323,31,16,19,289,30,18,22,033,40,23,20,006,30*7B
$GPGSV,5,2,17,24,08,083,25,25,18,155,30,26,31,260,36,27,05,328,21*7B
$GPGSV,5,3,17,28,24,194,30,29,50,121,39,31,11,219,41,32,69,198,43*78
$GPGSV,5,4,17,36,52,277,39,40,85,353,41,41,58,082,39,49,32,274,*78
$GPGSV,5,5,17,50,10,089,*4A
$GLGSV,2,1,08,65,70,331,34,66,45,219,33,72,19,018,28,76,20,188,32*6A
$GLGSV,2,2,08,77,19,236,20,85,01,131,23,86,26,082,37,87,26,031,35*65
$GNGLL,0420.22329,S,05539.54434,E,104014.00,A,D*69
$GNRMC,104015.00,A,0420.22334,S,05539.54458,E,0.928,96.46,220525,,,D*55
$GNVTG,96.46,T,,M,0.928,N,1.719,K,D*16
$GNGGA,104015.00,0420.22334,S,05539.54458,E,2,12,0.52,10.5,M,-47.6,M,,0000*45
$GNGSA,A,3,29,10,32,26,23,25,18,24,28,16,31,41,1.02,0.52,0.88*14
$GNGSA,A,3,65,86,87,72,66,76,77,,,,,,1.02,0.52,0.88*1E
$GPGSV,5,1,17,10,36,323,35,16,19,289,30,18,22,033,38,23,20,006,29*78
$GPGSV,5,2,17,24,08,083,24,25,18,155,31,26,31,260,36,27,05,328,25*7F
$GPGSV,5,3,17,28,24,194,33,29,50,121,35,31,11,219,32,32,69,198,40*70
$GPGSV,5,4,17,36,52,277,35,40,85,353,42,41,58,082,37,49,32,274,*79
$GPGSV,5,5,17,50,10,089,*4A
$GLGSV,2,1,08,65,70,331,34,66,45,219,33,72,19,018,28,76,20,188,28*61
$GLGSV,2,2,08,77,19,236,19,85,01,131,20,86,26,082,35,87,26,031,35*6E
$GNGLL,0420.22334,S,05539.54458,E,104015.00,A,D*6E
$GNRMC,104016.00,A,0420.22336,S,05539.54477,E,0.583,94.88,220525,,,D*54
$GNVTG,94.88,T,,M,0.583,N,1.079,K,D*1A
$GNGGA,104016.00,0420.22336,S,05539.54477,E,2,12,0.52,10.6,M,-47.6,M,,0000*4A
$GNGSA,A,3,29,10,32,26,23,25,18,24,28,16,31,41,1.02,0.52,0.88*14
$GNGSA,A,3,65,86,87,72,66,76,77,,,,,,1.02,0.52,0.88*1E
$GPGSV,5,1,17,10,36,323,25,16,19,289,29,18,22,033,39,23,20,006,30*78
$GPGSV,5,2,17,24,08,083,24,25,18,155,35,26,31,260,37,27,05,328,26*79
$GPGSV,5,3,17,28,24,194,35,29,50,121,36,31,11,219,39,32,69,198,41*7F
$GPGSV,5,4,17,36,52,277,35,40,85,353,40,41,58,082,39,49,32,274,*75
$GPGSV,5,5,17,50,10,089,*4A
$GLGSV,2,1,08,65,70,331,34,66,45,219,33,72,19,018,30,76,20,188,32*63
$GLGSV,2,2,08,77,19,236,20,85,01,131,17,86,26,082,32,87,26,031,35*67
$GNGLL,0420.22336,S,05539.54477,E,104016.00,A,D*62
$GNRMC,104017.00,A,0420.22322,S,05539.54488,E,0.848,62.48,220525,,,D*5F
$GNVTG,62.48,T,,M,0.848,N,1.571,K,D*18
$GNGGA,104017.00,0420.22322,S,05539.54488,E,2,12,0.52,11.0,M,-47.6,M,,0000*49
$GNGSA,A,3,29,10,32,26,23,25,18,24,28,16,31,41,1.02,0.52,0.88*14
$GNGSA,A,3,65,86,87,72,66,76,77,,,,,,1.02,0.52,0.88*1E
$GPGSV,5,1,17,10,36,323,26,16,19,289,29,18,22,033,42,23,20,006,34*73
$GPGSV,5,2,17,24,08,083,23,25,18,155,31,26,31,260,35,27,05,328,25*7B
$GPGSV,5,3,17,28,24,194,26,29,50,121,38,31,11,219,35,32,69,198,39*70
$GPGSV,5,4,17,36,52,277,35,40,85,353,38,41,58,082,34,49,32,274,*77
$GPGSV,5,5,17,50,10,089,*4A
$GLGSV,2,1,08,65,70,331,34,66,45,219,28,72,19,018,34,76,20,188,27*69
$GLGSV,2,2,08,77,19,236,19,85,01,131,16,86,26,082,32,87,26,031,31*68
$GNGLL,0420.22322,S,05539.54488,E,104017.00,A,D*66
$GNRMC,104018.00,A,0420.22292,S,05539.54505,E,1.556,36.00,220525,,,D*50
$GNVTG,36.00,T,,M,1.556,N,2.883,K,D*15
$GNGGA,104018.00,0420.22292,S,05539.54505,E,2,12,0.52,11.1,M,-47.6,M,,0000*49
$GNGSA,A,3,29,10,32,26,23,25,18,24,28,16,31,41,1.02,0.52,0.88*14
$GNGSA,A,3,65,86,87,72,66,76,77,,,,,,1.02,0.52,0.88*1E
$GPGSV,5,1,17,10,36,323,24,16,19,289,25,18,22,033,43,23,20,006,36*7E
$GPGSV,5,2,17,24,08,083,20,25,18,155,26,26,31,260,34,27,05,328,23*79
$GPGSV,5,3,17,28,24,194,38,29,50,121,33,31,11,219,40,32,69,198,42*7A
$GPGSV,5,4,17,36,52,277,33,40,85,353,33,41,58,082,30,49,32,274,*7E
$GPGSV,5,5,17,50,10,089,*4A
$GLGSV,2,1,08,65,70,331,32,66,45,219,38,72,19,018,34,76,20,188,31*69
$GLGSV,2,2,08,77,19,236,21,85,01,131,13,86,26,082,32,87,26,031,34*63
$GNGLL,0420.22292,S,05539.54505,E,104018.00,A,D*67
$GNRMC,104019.00,A,0420.22257,S,05539.54528,E,1.743,36.42,220525,,,D*57
$GNVTG,36.42,T,,M,1.743,N,3.228,K,D*1F
$GNGGA,104019.00,0420.22257,S,05539.54528,E,2,12,0.53,11.1,M,-47.6,M,,0000*4F
$GNGSA,A,3,29,10,32,26,23,25,18,24,28,16,31,41,1.08,0.53,0.94*12
$GNGSA,A,3,65,86,87,72,66,76,77,,,,,,1.08,0.53,0.94*18
$GPGSV,5,1,17,10,36,323,35,16,19,289,24,18,22,033,37,23,20,006,44*79
$GPGSV,5,2,17,24,08,083,28,25,18,155,38,26,31,260,34,27,05,328,29*74
$GPGSV,5,3,17,28,24,194,33,29,50,121,36,31,11,219,37,32,69,198,36*77
$GPGSV,5,4,17,36,52,277,30,40,85,353,36,41,58,082,33,49,32,274,*7B
$GPGSV,5,5,17,50,10,089,*4A
$GLGSV,2,1,08,65,70,331,31,66,45,219,29,72,19,018,39,76,20,188,33*65
$GLGSV,2,2,08,77,19,236,22,85,01,131,16,86,26,082,39,87,26,031,37*6D
$GNGLL,0420.22257,S,05539.54528,E,104019.00,A,D*60
$GNRMC,104020.00,A,0420.22217,S,05539.54546,E,1.504,30.18,220525,,,D*59
$GNVTG,30.18,T,,M,1.504,N,2.786,K,D*17
$GNGGA,104020.00,0420.22217,S,05539.54546,E,2,12,0.52,11.2,M,-47.6,M,,0000*4B
$GNGSA,A,3,29,10,32,26,23,25,18,24,28,16,31,41,1.02,0.52,0.88*14
$GNGSA,A,3,65,86,87,72,66,76,77,,,,,,1.02,0.52,0.88*1E
$GPGSV,5,1,17,10,36,323,30,16,19,289,23,18,22,033,40,23,19,006,36*74
$GPGSV,5,2,17,24,08,083,29,25,18,155,32,26,31,260,37,27,05,328,30*74
$GPGSV,5,3,17,28,24,194,41,29,50,121,40,31,11,219,36,32,69,198,41*72
$GPGSV,5,4,17,36,52,277,28,40,85,353,39,41,58,082,38,49,32,274,*76
$GPGSV,5,5,17,50,10,089,*4A
$GLGSV,2,1,08,65,70,331,32,66,45,219,30,72,19,018,34,76,20,188,28*69
$GLGSV,2,2,08,77,19,236,23,85,01,131,16,86,26,082,32,87,26,031,38*68
$GNGLL,0420.22217,S,05539.54546,E,104020.00,A,D*66
$GNRMC,104021.00,A,0420.22173,S,05539.54560,E,1.732,20.97,220525,,,D*5C
$GNVTG,20.97,T,,M,1.732,N,3.207,K,D*1B
$GNGGA,104021.00,0420.22173,S,05539.54560,E,2,12,0.52,11.3,M,-47.6,M,,0000*4E
$GNGSA,A,3,29,10,32,26,23,25,18,24,28,16,31,41,1.02,0.52,0.88*14
$GNGSA,A,3,65,86,87,72,66,76,77,,,,,,1.02,0.52,0.88*1E
$GPGSV,5,1,17,10,36,323,34,16,19,289,26,18,22,033,43,23,19,006,42*75
$GPGSV,5,2,17,24,08,082,29,25,18,155,33,26,31,260,37,27,05,328,30*74
$GPGSV,5,3,17,28,24,194,38,29,50,121,42,31,11,219,34,32,69,198,44*79
$GPGSV,5,4,17,36,52,277,33,40,85,353,42,41,58,082,37,49,32,274,*7F
$GPGSV,5,5,17,50,10,089,*4A
$GLGSV,2,1,08,65,70,331,35,66,45,219,35,72,19,018,40,76,20,188,35*64
$GLGSV,2,2,08,77,19,236,25,85,01,131,19,86,26,082,41,87,26,031,38*65
$GNGLL,0420.22173,S,05539.54560,E,104021.00,A,D*62
$GNRMC,104022.00,A,0420.22124,S,05539.54569,E,1.839,16.64,220525,,,D*59
$GNVTG,16.64,T,,M,1.839,N,3.406,K,D*11
$GNGGA,104022.00,0420.22124,S,05539.54569,E,2,12,0.52,11.3,M,-47.6,M,,0000*46
$GNGSA,A,3,29,10,32,26,23,25,18,24,28,16,31,41,1.02,0.52,0.88*14
$GNGSA,A,3,65,86,87,72,66,76,77,,,,,,1.02,0.52,0.88*1E
$GPGSV,5,1,17,10,36,323,34,16,19,289,23,18,22,033,40,23,19,006,35*73
$GPGSV,5,2,17,24,08,082,21,25,18,155,28,26,31,260,36,27,05,328,29*7F
$GPGSV,5,3,17,28,24,194,38,29,50,121,42,31,11,219,33,32,69,198,42*78
$GPGSV,5,4,17,36,52,277,33,40,85,353,41,41,58,082,40,49,32,274,*7C
$GPGSV,5,5,17,50,10,089,*4A
$GLGSV,2,1,08,65,70,331,38,66,45,219,35,72,19,018,36,76,20,188,32*6F
$GLGSV,2,2,08,77,19,236,25,85,01,131,20,86,26,082,39,87,26,031,38*60
$GNGLL,0420.22124,S,05539.54569,E,104022.00,A,D*6A
$GNRMC,104023.00,A,0420.22089,S,05539.54588,E,1.257,21.67,220525,,,D*54
$GNVTG,21.67,T,,M,1.257,N,2.327,K,D*11
$GNGGA,104023.00,0420.22089,S,05539.54588,E,2,12,0.52,11.0,M,-47.6,M,,0000*4D
$GNGSA,A,3,29,10,32,26,23,25,18,24,28,16,31,41,1.02,0.52,0.88*14
$GNGSA,A,3,65,86,87,72,66,76,77,,,,,,1.02,0.52,0.88*1E
$GPGSV,5,1,17,10,36,323,28,16,19,289,29,18,22,033,43,23,19,006,38*7A
$GPGSV,5,2,17,24,08,082,22,25,18,155,35,26,31,259,40,27,05,328,20*72
$GPGSV,5,3,17,28,24,194,36,29,50,121,42,31,11,219,33,32,69,198,42*76
$GPGSV,5,4,17,36,52,277,29,40,85,353,41,41,58,082,38,49,32,274,*78
$GPGSV,5,5,17,50,10,089,*4A
$GLGSV,2,1,08,65,70,331,36,66,45,219,35,72,19,018,36,76,20,188,34*67
$GLGSV,2,2,08,77,19,236,25,85,01,131,20,86,26,082,39,87,26,031,39*61
$GNGLL,0420.22089,S,05539.54588,E,104023.00,A,D*62
$GNRMC,104024.00,A,0420.22062,S,05539.54611,E,1.180,31.39,220525,,,D*56
$GNVTG,31.39,T,,M,1.180,N,2.186,K,D*1B
$GNGGA,104024.00,0420.22062,S,05539.54611,E,2,12,0.52,11.3,M,-47.6,M,,0000*4F
$GNGSA,A,3,29,10,32,26,23,25,18,24,28,16,31,41,1.02,0.52,0.88*14
$GNGSA,A,3,65,86,87,72,66,76,77,,,,,,1.02,0.52,0.88*1E
$GPGSV,5,1,17,10,36,323,28,16,19,289,20,18,22,033,41,23,19,006,43*7D
$GPGSV,5,2,17,24,08,082,22,25,18,155,27,26,31,259,38,27,05,328,30*7F
$GPGSV,5,3,17,28,24,194,36,29,50,121,43,31,11,219,32,32,69,198,42*76
$GPGSV,5,4,17,36,52,277,30,40,85,353,41,41,58,082,39,49,32,274,*71
$GPGSV,5,5,17,50,10,089,*4A
$GLGSV,2,1,08,65,70,331,37,66,45,219,33,72,19,018,38,76,20,188,33*69
$GLGSV,2,2,08,77,19,236,25,85,01,131,18,86,26,082,37,87,26,031,39*64
$GNGLL,0420.22062,S,05539.54611,E,104024.00,A,D*63
$GNRMC,104025.00,A,0420.22026,S,05539.54619,E,1.440,16.66,220525,,,D*59
$GNVTG,16.66,T,,M,1.440,N,2.667,K,D*15
$GNGGA,104025.00,0420.22026,S,05539.54619,E,2,12,0.52,11.4,M,-47.6,M,,0000*41
$GNGSA,A,3,29,10,32,26,23,25,18,24,28,16,31,41,1.02,0.52,0.88*14
$GNGSA,A,3,65,86,87,72,66,76,77,,,,,,1.02,0.52,0.88*1E
$GPGSV,5,1,17,10,36,323,28,16,19,289,23,18,22,033,40,23,19,006,43*7F
$GPGSV,5,2,17,24,08,082,20,25,18,155,28,26,31,259,36,27,05,328,29*74
$GPGSV,5,3,17,28,24,194,39,29,50,121,41,31,11,219,31,32,69,198,42*78
$GPGSV,5,4,17,36,52,277,30,40,85,353,41,41,58,082,40,49,32,274,*7F
$GPGSV,5,5,17,50,10,089,*4A
$GLGSV,2,1,08,65,70,331,37,66,45,219,36,72,19,018,38,76,20,188,33*6C
$GLGSV,2,2,08,77,19,236,25,85,01,131,16,86,26,082,39,87,26,031,37*6A
$GNGLL,0420.22026,S,05539.54619,E,104025.00,A,D*6A
$GNRMC,104026.00,A,0420.21991,S,05539.54619,E,1.240,7.99,220525,,,D*6A
$GNVTG,7.99,T,,M,1.240,N,2.296,K,D*29
$GNGGA,104026.00,0420.21991,S,05539.54619,E,2,12,0.52,11.4,M,-47.6,M,,0000*44
$GNGSA,A,3,29,10,32,26,23,25,18,24,28,16,31,41,1.02,0.52,0.88*14
$GNGSA,A,3,65,86,87,72,66,76,77,,,,,,1.02,0.52,0.88*1E
$GPGSV,5,1,17,10,36,323,32,16,19,289,23,18,22,033,43,23,19,006,42*76
$GPGSV,5,2,17,24,08,082,22,25,18,155,33,26,31,259,36,27,05,328,29*7C
$GPGSV,5,3,17,28,24,194,37,29,50,121,42,31,11,219,31,32,69,198,40*77
$GPGSV,5,4,17,36,52,277,34,40,85,353,41,41,58,082,37,49,32,274,*7B
$GPGSV,5,5,17,50,10,089,*4A
$GLGSV,2,1,08,65,70,331,34,66,45,219,36,72,19,018,40,76,20,188,33*60
$GLGSV,2,2,08,77,19,236,25,85,01,131,15,86,26,082,39,87,26,031,36*68
$GNGLL,0420.21991,S,05539.54619,E,104026.00,A,D*6F
$GNRMC,104027.00,A,0420.21960,S,05539.54623,E,1.113,11.65,220525,,,D*5D
$GNVTG,11.65,T,,M,1.113,N,2.062,K,D*11
$GNGGA,104027.00,0420.21960,S,05539.54623,E,2,12,0.52,11.5,M,-47.6,M,,0000*43
$GNGSA,A,3,29,10,32,26,23,25,18,24,28,16,31,41,1.02,0.52,0.88*14
$GNGSA,A,3,65,86,87,72,66,76,77,,,,,,1.02,0.52,0.88*1E
$GPGSV,5,1,17,10,36,323,34,16,19,289,23,18,22,033,44,23,19,006,37*75
$GPGSV,5,2,17,24,08,082,22,25,18,155,23,26,31,259,36,27,05,328,28*7C
$GPGSV,5,3,17,28,24,194,37,29,50,121,43,31,11,219,31,32,69,198,42*74
$GPGSV,5,4,17,36,52,277,34,40,85,353,40,41,58,082,38,49,32,274,*75
$GPGSV,5,5,17,50,10,089,*4A
$GLGSV,2,1,08,65,70,331,35,66,45,219,36,72,19,018,35,76,20,188,32*62
$GLGSV,2,2,08,77,19,236,23,85,01,131,14,86,26,082,40,87,26,031,35*62
$GNGLL,0420.21960,S,05539.54623,E,104027.00,A,D*69
$GNRMC,104028.00,A,0420.21924,S,05539.54633,E,1.434,15.82,220525,,,D*5E
$GNVTG,15.82,T,,M,1.434,N,2.656,K,D*1D
$GNGGA,104028.00,0420.21924,S,05539.54633,E,2,12,0.52,11.8,M,-47.6,M,,0000*40
$GNGSA,A,3,29,10,32,26,23,25,18,24,28,16,31,41,1.02,0.52,0.88*14
$GNGSA,A,3,65,86,87,72,66,76,77,,,,,,1.02,0.52,0.88*1E
$GPGSV,5,1,17,10,36,323,31,16,19,289,25,18,22,033,42,23,19,006,41*71
$GPGSV,5,2,17,24,08,082,21,25,18,155,30,26,31,259,37,27,05,328,28*7C
$GPGSV,5,3,17,28,24,194,38,29,50,121,43,31,11,218,31,32,69,198,44*7C
$GPGSV,5,4,17,36,52,277,33,40,85,353,40,41,58,082,40,49,32,274,*7D
$GPGSV,5,5,17,50,10,089,*4A
$GLGSV,2,1,08,65,70,331,36,66,45,219,36,72,19,018,38,76,20,188,32*6C
$GLGSV,2,2,08,77,19,236,22,85,01,131,15,86,26,082,39,87,26,031,36*6F
$GNGLL,0420.21924,S,05539.54633,E,104028.00,A,D*67
$GNRMC,104029.00,A,0420.21886,S,05539.54635,E,1.272,5.25,220525,,,D*68
$GNVTG,5.25,T,,M,1.272,N,2.355,K,D*23
$GNGGA,104029.00,0420.21886,S,05539.54635,E,2,12,0.52,11.8,M,-47.6,M,,0000*4E
$GNGSA,A,3,29,10,32,26,23,25,18,24,28,16,31,41,1.02,0.52,0.88*14
$GNGSA,A,3,65,86,87,72,66,76,77,,,,,,1.02,0.52,0.88*1E
$GPGSV,5,1,17,10,36,323,36,16,19,289,25,18,22,033,40,23,19,006,38*7A
$GPGSV,5,2,17,24,08,082,22,25,18,155,29,26,31,259,38,27,05,328,29*79
$GPGSV,5,3,17,28,24,194,38,29,50,121,43,31,11,218,31,32,70,198,45*75
$GPGSV,5,4,17,36,52,277,34,40,85,353,39,41,58,082,39,49,32,274,*7A
$GPGSV,5,5,17,50,10,089,*4A
$GLGSV,2,1,08,65,70,331,36,66,45,219,35,72,19,018,34,76,20,188,31*60
$GLGSV,2,2,08,77,19,236,23,85,01,131,18,86,26,082,37,87,26,031,38*63
$GNGLL,0420.21886,S,05539.54635,E,104029.00,A,D*69
$GNRMC,104030.00,A,0420.21858,S,05539.54634,E,0.927,4.49,220525,,,D*63
$GNVTG,4.49,T,,M,0.927,N,1.717,K,D*23
$GNGGA,104030.00,0420.21858,S,05539.54634,E,2,12,0.52,11.8,M,-47.6,M,,0000*44
$GNGSA,A,3,29,10,32,26,23,25,18,24,28,16,31,41,1.02,0.52,0.88*14
$GNGSA,A,3,65,86,87,72,66,76,77,,,,,,1.02,0.52,0.88*1E
$GPGSV,5,1,17,10,36,323,34,16,19,289,26,18,22,033,41,23,19,006,42*77
$GPGSV,5,2,17,24,08,082,21,25,18,155,36,26,31,259,35,27,05,328,27*77
$GPGSV,5,3,17,28,24,194,41,29,50,121,41,31,11,218,33,32,70,198,43*7D
$GPGSV,5,4,17,36,52,277,36,40,85,353,40,41,58,082,39,49,32,274,*76
$GPGSV,5,5,17,50,10,089,*4A
$GLGSV,2,1,08,65,70,331,36,66,45,219,35,72,19,018,38,76,20,188,26*6A
$GLGSV,2,2,08,77,19,236,22,85,01,131,21,86,26,082,37,87,26,031,36*66
$GNGLL,0420.21858,S,05539.54634,E,104030.00,A,D*63
$GNRMC,104031.00,A,0420.21834,S,05539.54645,E,0.922,18.66,220525,,,D*5B
$GNVTG,18.66,T,,M,0.922,N,1.708,K,D*18
$GNGGA,104031.00,0420.21834,S,05539.54645,E,2,12,0.52,11.8,M,-47.6,M,,0000*49
$GNGSA,A,3,29,10,32,26,23,25,18,24,28,16,31,41,1.02,0.52,0.88*14
$GNGSA,A,3,65,86,87,72,66,76,77,,,,,,1.02,0.52,0.88*1E
$GPGSV,5,1,17,10,36,323,30,16,19,289,23,18,22,033,42,23,19,006,37*77
$GPGSV,5,2,17,24,08,082,28,25,18,155,29,26,31,259,37,27,05,328,27*72
$GPGSV,5,3,17,28,24,194,39,29,50,121,42,31,11,218,32,32,70,198,44*77
$GPGSV,5,4,17,36,52,277,34,40,85,353,40,41,58,082,39,49,32,274,*74
$GPGSV,5,5,17,50,10,089,*4A
$GLGSV,2,1,08,65,70,331,36,66,45,219,35,72,19,018,35,76,20,188,32*62
$GLGSV,2,2,08,77,19,236,22,85,01,131,21,86,26,082,39,87,26,031,37*69
$GNGLL,0420.21834,S,05539.54645,E,104031.00,A,D*6E
$GNRMC,104032.00,A,0420.21807,S,05539.54653,E,1.069,14.19,220525,,,D*5C
$GNVTG,14.19,T,,M,1.069,N,1.980,K,D*15
$GNGGA,104032.00,0420.21807,S,05539.54653,E,2,12,0.52,12.0,M,-47.6,M,,0000*46
$GNGSA,A,3,29,10,32,26,23,25,18,24,28,16,31,41,1.02,0.52,0.88*14
$GNGSA,A,3,65,86,87,72,66,76,77,,,,,,1.02,0.52,0.88*1E
$GPGSV,5,1,17,10,36,323,34,16,19,289,27,18,22,033,43,23,19,006,42*74
$GPGSV,5,2,17,24,08,082,20,25,18,155,29,26,31,259,36,27,05,328,27*7B
$GPGSV,5,3,17,28,24,194,40,29,50,121,42,31,11,218,32,32,70,198,43*7E
$GPGSV,5,4,17,36,52,277,29,40,85,353,42,41,58,082,40,49,32,274,*74
$GPGSV,5,5,17,50,10,089,*4A
$GLGSV,2,1,08,65,70,331,36,66,45,219,35,72,19,018,40,76,20,188,34*66
$GLGSV,2,2,08,77,19,236,22,85,01,131,20,86,26,082,40,87,26,031,36*67
$GNGLL,0420.21807,S,05539.54653,E,104032.00,A,D*6A
$GNRMC,104033.00,A,0420.21777,S,05539.54651,E,1.071,0.67,220525,,,D*62
$GNVTG,0.67,T,,M,1.071,N,1.984,K,D*24
$GNGGA,104033.00,0420.21777,S,05539.54651,E,2,12,0.52,12.1,M,-47.6,M,,0000*4C
$GNGSA,A,3,29,10,32,26,23,25,18,24,28,16,31,41,1.02,0.52,0.88*14
$GNGSA,A,3,65,86,87,72,66,76,77,,,,,,1.02,0.52,0.88*1E
$GPGSV,5,1,17,10,36,323,33,16,19,289,30,18,22,033,45,23,19,006,38*7E
$GPGSV,5,2,17,24,08,082,23,25,18,155,34,26,31,259,35,27,05,328,30*71
$GPGSV,5,3,17,28,24,194,40,29,50,121,44,31,11,218,33,32,70,198,44*7E
$GPGSV,5,4,17,36,52,277,34,40,85,353,42,41,58,082,40,49,32,274,*78
$GPGSV,5,5,17,50,10,089,*4A
$GLGSV,3,1,09,65,70,331,34,66,45,219,32,72,19,018,31,76,20,188,29*69
$GLGSV,3,2,09,77,19,236,24,85,01,131,20,86,26,082,36,87,26,031,31*67
$GLGSV,3,3,09,,,,39*66
$GNGLL,0420.21777,S,05539.54651,E,104033.00,A,D*61
$GNRMC,104034.00,A,0420.21740,S,05539.54646,E,1.480,357.08,220525,,,D*65
$GNVTG,357.08,T,,M,1.480,N,2.741,K,D*22
$GNGGA,104034.00,0420.21740,S,05539.54646,E,2,12,0.52,12.1,M,-47.6,M,,0000*49
$GNGSA,A,3,29,10,32,26,23,25,18,24,28,16,31,41,1.02,0.52,0.88*14
$GNGSA,A,3,65,86,87,72,66,76,77,,,,,,1.02,0.52,0.88*1E
$GPGSV,5,1,17,10,36,323,32,16,19,289,29,18,22,033,40,23,19,006,40*7D
$GPGSV,5,2,17,24,08,082,23,25,18,155,33,26,31,259,39,27,05,328,27*7C
$GPGSV,5,3,17,28,24,194,40,29,50,121,43,31,11,218,33,32,70,198,46*7B
$GPGSV,5,4,17,36,52,277,37,40,85,353,41,41,58,082,38,49,32,274,*77
$GPGSV,5,5,17,50,10,089,*4A
$GLGSV,3,1,09,65,70,331,34,66,45,219,36,72,19,018,33,76,20,188,29*6F
$GLGSV,3,2,09,77,19,236,22,85,01,131,19,86,26,082,36,87,26,031,31*6B
$GLGSV,3,3,09,,,,38*67
$GNGLL,0420.21740,S,05539.54646,E,104034.00,A,D*64
$GNRMC,104035.00,A,0420.21703,S,05539.54650,E,1.224,0.36,220525,,,D*60
$GNVTG,0.36,T,,M,1.224,N,2.267,K,D*27
$GNGGA,104035.00,0420.21703,S,05539.54650,E,2,12,0.52,12.1,M,-47.6,M,,0000*48
$GNGSA,A,3,29,10,32,26,23,25,18,24,28,16,31,41,1.02,0.52,0.88*14
$GNGSA,A,3,65,86,87,72,66,76,77,,,,,,1.02,0.52,0.88*1E
$GPGSV,5,1,17,10,36,323,31,16,19,289,28,18,22,033,42,23,19,006,33*79
$GPGSV,5,2,17,24,08,082,25,25,18,155,30,26,31,259,39,27,05,328,24*7A
$GPGSV,5,3,17,28,24,194,40,29,50,121,43,31,11,218,34,32,70,198,44*7E
$GPGSV,5,4,17,36,52,277,36,40,85,353,43,41,58,082,44,49,32,274,*7F
$GPGSV,5,5,17,50,10,089,*4A
$GLGSV,3,1,09,65,70,331,33,66,45,219,35,72,19,018,24,76,20,188,29*6D
$GLGSV,3,2,09,77,19,236,20,85,01,131,21,86,26,082,36,87,26,031,32*61
$GLGSV,3,3,09,,,,33*6C
$GNGLL,0420.21703,S,05539.54650,E,104035.00,A,D*65
$GNRMC,104036.00,A,0420.21654,S,05539.54651,E,1.845,359.11,220525,,,D*66
$GNVTG,359.11,T,,M,1.845,N,3.418,K,D*2F
$GNGGA,104036.00,0420.21654,S,05539.54651,E,2,12,0.52,12.4,M,-47.6,M,,0000*4C
$GNGSA,A,3,29,10,32,26,23,25,18,24,28,16,31,41,1.02,0.52,0.88*14
$GNGSA,A,3,65,86,87,72,66,76,77,,,,,,1.02,0.52,0.88*1E
$GPGSV,5,1,17,10,36,323,32,16,19,289,28,18,22,033,40,23,19,006,39*72
$GPGSV,5,2,17,24,08,082,23,25,18,155,25,26,31,259,37,27,05,328,18*79
$GPGSV,5,3,17,28,24,194,37,29,50,121,40,31,11,218,32,32,70,198,44*7B
$GPGSV,5,4,17,36,52,277,31,40,85,353,41,41,58,082,38,49,32,274,*71
$GPGSV,5,5,17,50,10,089,*4A
$GLGSV,3,1,09,65,70,331,37,66,45,219,34,72,19,018,32,76,20,188,32*65
$GLGSV,3,2,09,77,19,236,22,85,01,131,19,86,26,082,34,87,26,031,34*6C
$GLGSV,3,3,09,,,,36*69
$GNGLL,0420.21654,S,05539.54651,E,104036.00,A,D*64
$GNRMC,104037.00,A,0420.21612,S,05539.54641,E,1.442,350.94,220525,,,D*6B
$GNVTG,350.94,T,,M,1.442,N,2.670,K,D*2D
$GNGGA,104037.00,0420.21612,S,05539.54641,E,2,12,0.53,12.3,M,-47.6,M,,0000*48
$GNGSA,A,3,29,10,32,26,23,25,18,24,28,16,31,41,1.03,0.53,0.88*14
$GNGSA,A,3,65,86,87,72,66,76,77,,,,,,1.03,0.53,0.88*1E
$GPGSV,5,1,17,10,36,323,31,16,19,289,26,18,22,033,37,23,19,006,27*70
$GPGSV,5,2,17,24,08,082,23,25,18,155,32,26,31,259,35,27,05,328,18*7D
$GPGSV,5,3,17,28,24,194,34,29,50,121,39,31,11,218,29,32,70,198,42*7A
$GPGSV,5,4,17,36,52,277,32,40,85,353,37,41,58,082,36,49,32,274,*7D
$GPGSV,5,5,17,50,10,089,*4A
$GLGSV,3,1,09,65,70,331,35,66,45,219,35,72,19,018,24,76,20,188,32*61
$GLGSV,3,2,09,77,19,236,22,85,01,131,23,86,26,082,33,87,26,031,34*62
$GLGSV,3,3,09,,,,33*6C
$GNGLL,0420.21612,S,05539.54641,E,104037.00,A,D*66
