$GNRMC,103507.00,A,0420.08438,S,05539.63468,E,0.347,,220525,,,A*75
$GNVTG,,T,,M,0.347,N,0.642,K,A*3D
$GNGGA,103507.00,0420.08438,S,05539.63468,E,1,12,0.57,9.8,M,-47.6,M,,*73
$GNGSA,A,3,29,10,32,26,23,25,18,24,28,16,31,,1.17,0.57,1.02*13
$GNGSA,A,3,65,86,87,72,66,76,77,,,,,,1.17,0.57,1.02*1C
$GPGSV,5,1,17,10,37,320,33,16,18,292,26,18,21,031,20,23,21,005,26*75
$GPGSV,5,2,17,24,09,085,24,25,20,157,29,26,30,263,23,27,03,328,27*7A
$GPGSV,5,3,17,28,23,196,32,29,52,117,30,31,10,221,24,32,66,197,32*7E
$GPGSV,5,4,17,36,52,277,30,40,85,353,30,41,58,082,29,49,32,274,*76
$GPGSV,5,5,17,50,10,089,*4A
$GLGSV,2,1,08,65,73,326,25,66,43,217,30,72,22,018,22,76,21,191,28*64
$GLGSV,2,2,08,77,19,239,25,85,01,129,25,86,25,079,25,87,24,029,19*61
$GNGLL,0420.08438,S,05539.63468,E,103507.00,A,A*6E
$GNRMC,103508.00,A,0420.08428,S,05539.63470,E,0.779,106.67,220525,,,A*63
$GNVTG,106.67,T,,M,0.779,N,1.443,K,A*2E
$GNGGA,103508.00,0420.08428,S,05539.63470,E,1,12,0.62,9.1,M,-47.6,M,,*7B
$GNGSA,A,3,29,10,32,26,23,25,18,28,16,31,41,,1.22,0.62,1.05*17
$GNGSA,A,3,65,87,72,66,76,77,,,,,,,1.22,0.62,1.05*15
$GPGSV,5,1,17,10,37,320,40,16,18,292,32,18,21,031,22,23,21,005,32*73
$GPGSV,5,2,17,24,09,085,23,25,20,157,32,26,30,263,33,27,03,328,28*79
$GPGSV,5,3,17,28,23,196,32,29,52,117,34,31,10,221,22,32,66,197,41*78
$GPGSV,5,4,17,36,52,277,34,40,85,353,37,41,58,082,32,49,32,274,*7F
$GPGSV,5,5,17,50,10,089,*4A
$GLGSV,2,1,08,65,73,326,27,66,43,217,37,72,22,018,22,76,21,191,38*60
$GLGSV,2,2,08,77,19,239,24,85,01,129,25,86,25,079,,87,24,029,20*6D
$GNGLL,0420.08428,S,05539.63470,E,103508.00,A,A*69
$GNRMC,103509.00,A,0420.08404,S,05539.63471,E,0.705,30.72,220525,,,A*56
$GNVTG,30.72,T,,M,0.705,N,1.306,K,A*13
$GNGGA,103509.00,0420.08404,S,05539.63471,E,1,12,0.64,9.6,M,-47.6,M,,*74
$GNGSA,A,3,29,10,32,26,23,25,18,28,16,41,,,1.29,0.64,1.12*1E
$GNGSA,A,3,65,87,72,66,76,77,,,,,,,1.29,0.64,1.12*1E
$GPGSV,5,1,17,10,37,320,42,16,18,292,35,18,21,031,34,23,21,005,35*76
$GPGSV,5,2,17,24,09,085,,25,20,157,38,26,30,263,40,27,03,328,40*78
$GPGSV,5,3,17,28,23,196,40,29,52,117,36,31,10,221,,32,66,197,43*7D
$GPGSV,5,4,17,36,52,277,41,40,85,353,45,41,58,082,33,49,32,274,*79
$GPGSV,5,5,17,50,10,089,*4A
$GLGSV,2,1,08,65,73,326,38,66,43,217,39,72,22,018,25,76,21,191,39*66
$GLGSV,2,2,08,77,19,239,29,85,01,129,32,86,25,079,25,87,24,029,30*60
$GNGLL,0420.08404,S,05539.63471,E,103509.00,A,A*67
$GNRMC,103510.00,A,0420.08388,S,05539.63465,E,0.474,12.35,220525,,,A*5E
$GNVTG,12.35,T,,M,0.474,N,0.878,K,A*16
$GNGGA,103510.00,0420.08388,S,05539.63465,E,1,12,0.58,9.5,M,-47.6,M,,*76
$GNGSA,A,3,29,10,32,26,23,25,18,28,16,31,41,,1.14,0.58,0.98*1E
$GNGSA,A,3,65,86,87,72,66,76,77,,,,,,1.14,0.58,0.98*12
$GPGSV,5,1,17,10,37,320,37,16,18,292,31,18,21,031,34,23,21,005,33*76
$GPGSV,5,2,17,24,09,085,22,25,20,157,34,26,30,263,36,27,03,328,32*70
$GPGSV,5,3,17,28,23,196,35,29,52,117,36,31,10,221,30,32,66,197,39*71
$GPGSV,5,4,17,36,52,277,37,40,85,353,40,41,58,082,32,49,32,274,*7C
$GPGSV,5,5,17,50,10,089,*4A
$GLGSV,2,1,08,65,73,326,36,66,43,217,40,72,22,018,26,76,21,191,41*6A
$GLGSV,2,2,08,77,19,239,32,85,01,129,24,86,25,079,26,87,24,029,29*66
$GNGLL,0420.08388,S,05539.63465,E,103510.00,A,A*69
$GNRMC,103511.00,A,0420.08377,S,05539.63457,E,0.493,324.74,220525,,,A*64
$GNVTG,324.74,T,,M,0.493,N,0.914,K,A*27
$GNGGA,103511.00,0420.08377,S,05539.63457,E,1,12,0.58,9.5,M,-47.6,M,,*76
$GNGSA,A,3,29,10,32,26,23,25,18,28,16,31,,,1.19,0.58,1.05*13
$GNGSA,A,3,65,86,87,72,66,76,77,,,,,,1.19,0.58,1.05*1A
$GPGSV,5,1,17,10,37,320,37,16,18,292,33,18,21,031,33,23,21,005,42*75
$GPGSV,5,2,17,24,09,085,21,25,20,157,28,26,30,263,39,27,03,328,37*74
$GPGSV,5,3,17,28,23,196,38,29,52,117,33,31,10,221,29,32,66,197,35*7D
$GPGSV,5,4,17,36,52,277,41,40,85,353,38,41,58,082,,49,32,274,*73
$GPGSV,5,5,17,50,10,089,*4A
$GLGSV,2,1,08,65,73,326,33,66,43,217,40,72,22,018,30,76,21,191,30*6E
$GLGSV,2,2,08,77,19,239,26,85,01,129,25,86,25,079,23,87,24,029,28*66
$GNGLL,0420.08377,S,05539.63457,E,103511.00,A,A*69
$GNRMC,103512.00,A,0420.08358,S,05539.63448,E,0.877,328.97,220525,,,A*63
$GNVTG,328.97,T,,M,0.877,N,1.624,K,A*2D
$GNGGA,103512.00,0420.08358,S,05539.63448,E,1,12,0.58,9.6,M,-47.6,M,,*75
$GNGSA,A,3,29,10,32,26,23,25,18,28,16,31,41,,1.19,0.58,1.05*16
$GNGSA,A,3,65,86,87,72,66,76,77,,,,,,1.19,0.58,1.05*1A
$GPGSV,5,1,17,10,37,320,36,16,18,292,27,18,21,031,36,23,21,005,40*76
$GPGSV,5,2,17,24,09,085,,25,20,157,28,26,30,263,34,27,03,328,35*78
$GPGSV,5,3,17,28,23,196,41,29,52,117,30,31,10,221,26,32,66,197,39*73
$GPGSV,5,4,17,36,52,277,37,40,85,353,42,41,58,082,35,49,32,274,*79
$GPGSV,5,5,17,50,10,089,*4A
$GLGSV,2,1,08,65,73,326,34,66,43,217,39,72,22,018,31,76,21,191,39*6F
$GLGSV,2,2,08,77,19,239,26,85,01,129,26,86,25,079,22,87,24,029,33*6E
$GNGLL,0420.08358,S,05539.63448,E,103512.00,A,A*69
$GNRMC,103513.00,A,0420.08337,S,05539.63448,E,0.797,347.16,220525,,,A*6A
$GNVTG,347.16,T,,M,0.797,N,1.476,K,A*29
$GNGGA,103513.00,0420.08337,S,05539.63448,E,1,12,0.58,9.4,M,-47.6,M,,*7F
$GNGSA,A,3,29,10,32,26,23,25,18,28,16,31,41,,1.19,0.58,1.05*16
$GNGSA,A,3,65,86,87,72,66,76,77,,,,,,1.19,0.58,1.05*1A
$GPGSV,5,1,17,10,37,320,38,16,18,292,35,18,21,031,29,23,21,005,39*7B
$GPGSV,5,2,17,24,09,085,24,25,20,157,39,26,30,263,34,27,03,328,33*78
$GPGSV,5,3,17,28,23,196,35,29,52,117,31,31,10,221,35,32,66,197,37*7D
$GPGSV,5,4,17,36,52,277,39,40,85,353,41,41,58,082,36,49,32,274,*77
$GPGSV,5,5,17,50,10,089,*4A
$GLGSV,2,1,08,65,73,326,34,66,43,217,43,72,22,018,28,76,21,191,39*6A
$GLGSV,2,2,08,77,19,239,29,85,01,129,35,86,25,079,21,87,24,029,27*65
$GNGLL,0420.08337,S,05539.63448,E,103513.00,A,A*61
$GNRMC,103514.00,A,0420.08319,S,05539.63444,E,0.728,336.88,220525,,,A*68
$GNVTG,336.88,T,,M,0.728,N,1.348,K,A*26
$GNGGA,103514.00,0420.08319,S,05539.63444,E,1,12,0.56,9.5,M,-47.6,M,,*77
$GNGSA,A,3,29,10,32,26,23,25,18,24,28,16,31,41,1.16,0.56,1.01*15
$GNGSA,A,3,65,86,87,72,66,76,77,,,,,,1.16,0.56,1.01*1F
$GPGSV,5,1,17,10,37,320,32,16,19,291,32,18,21,031,31,23,21,005,38*7C
$GPGSV,5,2,17,24,09,085,24,25,20,157,37,26,30,263,34,27,03,328,36*73
$GPGSV,5,3,17,28,23,196,40,29,52,117,35,31,10,221,37,32,66,197,38*76
$GPGSV,5,4,17,36,52,277,38,40,85,353,43,41,58,082,36,49,32,274,*74
$GPGSV,5,5,17,50,10,089,*4A
$GLGSV,2,1,08,65,73,326,33,66,43,217,42,72,22,018,32,76,21,191,40*69
$GLGSV,2,2,08,77,19,239,29,85,01,129,33,86,25,079,21,87,24,029,27*63
$GNGLL,0420.08319,S,05539.63444,E,103514.00,A,A*66
$GNRMC,103515.00,A,0420.08302,S,05539.63435,E,0.700,332.09,220525,,,A*62
$GNVTG,332.09,T,,M,0.700,N,1.297,K,A*22
$GNGGA,103515.00,0420.08302,S,05539.63435,E,1,12,0.56,9.7,M,-47.6,M,,*78
$GNGSA,A,3,29,10,32,26,23,25,18,24,28,16,31,41,1.16,0.56,1.01*15
$GNGSA,A,3,65,86,87,72,66,76,77,,,,,,1.16,0.56,1.01*1F
$GPGSV,5,1,17,10,37,320,38,16,19,291,32,18,21,031,31,23,21,005,41*78
$GPGSV,5,2,17,24,09,085,26,25,20,157,38,26,30,263,28,27,03,328,32*77
$GPGSV,5,3,17,28,23,196,39,29,52,117,34,31,10,221,29,32,66,197,40*79
$GPGSV,5,4,17,36,52,277,39,40,85,353,41,41,58,082,38,49,32,274,*79
$GPGSV,5,5,17,50,10,089,*4A
$GLGSV,2,1,08,65,73,326,30,66,43,217,43,72,22,018,26,76,21,191,29*61
$GLGSV,2,2,08,77,19,239,30,85,01,129,34,86,25,079,22,87,24,029,26*6E
$GNGLL,0420.08302,S,05539.63435,E,103515.00,A,A*6B
$GNRMC,103516.00,A,0420.08278,S,05539.63432,E,1.034,354.44,220525,,,A*62
$GNVTG,354.44,T,,M,1.034,N,1.916,K,A*28
$GNGGA,103516.00,0420.08278,S,05539.63432,E,1,12,0.55,9.0,M,-47.6,M,,*74
$GNGSA,A,3,29,10,32,26,23,25,18,24,28,16,31,41,1.08,0.55,0.93*13
$GNGSA,A,3,65,86,87,72,66,76,77,,,,,,1.08,0.55,0.93*19
$GPGSV,5,1,17,10,37,320,38,16,19,291,33,18,21,031,29,23,21,005,42*73
$GPGSV,5,2,17,24,09,085,24,25,20,157,42,26,30,263,41,27,03,328,36*73
$GPGSV,5,3,17,28,23,196,43,29,52,117,36,31,10,221,32,32,66,197,41*7D
$GPGSV,5,4,17,36,52,277,42,40,85,353,42,41,58,082,37,49,32,274,*79
$GPGSV,5,5,17,50,10,089,*4A
$GLGSV,2,1,08,65,73,326,32,66,43,217,44,72,22,018,30,76,21,191,33*68
$GLGSV,2,2,08,77,19,239,34,85,01,129,33,86,25,079,22,87,24,029,26*6D
$GNGLL,0420.08278,S,05539.63432,E,103516.00,A,A*63
$GNRMC,103517.00,A,0420.08257,S,05539.63429,E,0.671,349.96,220525,,,A*61
$GNVTG,349.96,T,,M,0.671,N,1.242,K,A*27
$GNGGA,103517.00,0420.08257,S,05539.63429,E,1,12,0.55,9.1,M,-47.6,M,,*73
$GNGSA,A,3,29,10,32,26,23,25,18,24,28,16,31,41,1.08,0.55,0.93*13
$GNGSA,A,3,65,86,87,72,66,76,77,,,,,,1.08,0.55,0.93*19
$GPGSV,5,1,17,10,37,320,38,16,19,291,33,18,21,031,30,23,21,005,39*77
$GPGSV,5,2,17,24,09,085,23,25,20,157,38,26,30,263,33,27,03,328,33*79
$GPGSV,5,3,17,28,23,196,35,29,52,117,36,31,10,221,38,32,66,197,39*79
$GPGSV,5,4,17,36,52,277,38,40,85,353,41,41,58,082,32,49,32,274,*72
$GPGSV,5,5,17,50,10,089,*4A
$GLGSV,2,1,08,65,73,326,32,66,43,217,42,72,22,018,29,76,21,191,41*63
$GLGSV,2,2,08,77,19,239,34,85,01,129,32,86,25,079,25,87,24,029,25*68
$GNGLL,0420.08257,S,05539.63429,E,103517.00,A,A*65
$GNRMC,103518.00,A,0420.08248,S,05539.63433,E,0.387,,220525,,,A*78
$GNVTG,,T,,M,0.387,N,0.717,K,A*30
$GNGGA,103518.00,0420.08248,S,05539.63433,E,1,12,0.55,9.1,M,-47.6,M,,*79
$GNGSA,A,3,29,10,32,26,23,25,18,24,28,16,31,41,1.08,0.55,0.93*13
$GNGSA,A,3,65,86,87,72,66,76,77,,,,,,1.08,0.55,0.93*19
$GPGSV,5,1,17,10,37,320,36,16,19,291,33,18,21,031,33,23,21,005,36*75
$GPGSV,5,2,17,24,09,085,23,25,20,157,36,26,30,263,33,27,03,328,34*70
$GPGSV,5,3,17,28,23,196,41,29,52,117,38,31,10,221,33,32,66,197,39*7F
$GPGSV,5,4,17,36,52,277,40,40,85,353,41,41,58,082,36,49,32,274,*79
$GPGSV,5,5,17,50,10,089,*4A
$GLGSV,2,1,08,65,73,326,33,66,43,217,42,72,22,018,28,76,21,191,35*60
$GLGSV,2,2,08,77,19,239,33,85,01,129,27,86,25,079,26,87,24,029,24*69
$GNGLL,0420.08248,S,05539.63433,E,103518.00,A,A*6F
$GNRMC,103519.00,A,0420.08227,S,05539.63442,E,0.887,8.54,220525,,,A*6A
$GNVTG,8.54,T,,M,0.887,N,1.643,K,A*2D
$GNGGA,103519.00,0420.08227,S,05539.63442,E,1,12,0.55,9.4,M,-47.6,M,,*72
$GNGSA,A,3,29,10,32,26,23,25,18,24,28,16,31,41,1.08,0.55,0.93*13
$GNGSA,A,3,65,86,87,72,66,76,77,,,,,,1.08,0.55,0.93*19
$GPGSV,5,1,17,10,37,320,40,16,19,291,33,18,21,031,35,23,21,005,43*70
$GPGSV,5,2,17,24,09,085,30,25,20,157,29,26,30,263,36,27,03,328,38*75
$GPGSV,5,3,17,28,23,196,40,29,52,117,36,31,10,221,33,32,66,197,40*7E
$GPGSV,5,4,17,36,52,277,37,40,85,353,41,41,58,082,36,49,32,274,*79
$GPGSV,5,5,17,50,10,089,*4A
$GLGSV,2,1,08,65,73,326,33,66,43,217,43,72,22,018,29,76,21,191,34*61
$GLGSV,2,2,08,77,19,239,33,85,01,129,28,86,25,079,25,87,24,029,31*61
$GNGLL,0420.08227,S,05539.63442,E,103519.00,A,A*61
$GNRMC,103520.00,A,0420.08181,S,05539.63455,E,2.007,14.68,220525,,,A*59
$GNVTG,14.68,T,,M,2.007,N,3.718,K,A*10
$GNGGA,103520.00,0420.08181,S,05539.63455,E,1,12,0.55,9.4,M,-47.6,M,,*71
$GNGSA,A,3,29,10,32,26,23,25,18,24,28,16,31,41,1.08,0.55,0.93*13
$GNGSA,A,3,65,86,87,72,66,76,77,,,,,,1.08,0.55,0.93*19
$GPGSV,5,1,17,10,37,320,37,16,19,291,32,18,21,031,36,23,21,005,39*7F
$GPGSV,5,2,17,24,09,085,23,25,20,157,32,26,30,263,36,27,03,328,29*7D
$GPGSV,5,3,17,28,23,196,33,29,52,117,33,31,10,221,39,32,66,197,42*77
$GPGSV,5,4,17,36,52,277,39,40,85,353,42,41,58,082,36,49,32,274,*74
$GPGSV,5,5,17,50,10,089,*4A
$GLGSV,2,1,08,65,73,326,32,66,43,217,40,72,22,018,31,76,21,191,39*67
$GLGSV,2,2,08,77,19,239,33,85,01,129,22,86,25,079,26,87,24,029,30*69
$GNGLL,0420.08181,S,05539.63455,E,103520.00,A,A*62
$GNRMC,103521.00,A,0420.08134,S,05539.63466,E,1.501,12.90,220525,,,A*57
$GNVTG,12.90,T,,M,1.501,N,2.781,K,A*10
$GNGGA,103521.00,0420.08134,S,05539.63466,E,1,12,0.55,9.3,M,-47.6,M,,*79
$GNGSA,A,3,29,10,32,26,23,25,18,24,28,16,31,41,1.08,0.55,0.93*13
$GNGSA,A,3,65,86,87,72,66,76,77,,,,,,1.08,0.55,0.93*19
$GPGSV,5,1,17,10,37,320,42,16,19,291,32,18,21,031,39,23,21,005,41*7D
$GPGSV,5,2,17,24,08,084,22,25,20,157,35,26,30,263,37,27,03,328,31*73
$GPGSV,5,3,17,28,23,196,34,29,52,117,37,31,10,221,42,32,66,197,42*78
$GPGSV,5,4,17,36,52,277,40,40,85,353,42,41,58,082,35,49,32,274,*79
$GPGSV,5,5,17,50,10,089,*4A
$GLGSV,2,1,08,65,73,326,35,66,43,217,43,72,22,018,34,76,21,191,39*66
$GLGSV,2,2,08,77,19,239,33,85,01,129,23,86,25,079,25,87,24,029,32*69
$GNGLL,0420.08134,S,05539.63466,E,103521.00,A,A*6D
$GNRMC,103522.00,A,0420.08117,S,05539.63474,E,0.259,,220525,,,A*79
$GNVTG,,T,,M,0.259,N,0.480,K,A*3F
$GNGGA,103522.00,0420.08117,S,05539.63474,E,1,12,0.55,9.1,M,-47.6,M,,*7A
$GNGSA,A,3,29,10,32,26,23,25,18,24,28,16,31,41,1.08,0.55,0.93*13
$GNGSA,A,3,65,86,87,72,66,76,77,,,,,,1.08,0.55,0.93*19
$GPGSV,5,1,17,10,37,320,35,16,19,291,31,18,21,031,42,23,21,005,42*71
$GPGSV,5,2,17,24,08,084,26,25,19,156,26,26,30,263,35,27,03,328,*7E
$GPGSV,5,3,17,28,23,196,41,29,52,117,34,31,10,221,31,32,66,197,43*7C
$GPGSV,5,4,17,36,52,277,41,40,85,353,43,41,58,082,36,49,32,274,*7A
$GPGSV,5,5,17,50,10,089,*4A
$GLGSV,2,1,08,65,73,326,34,66,43,217,40,72,22,018,29,76,21,191,35*64
$GLGSV,2,2,08,77,19,239,33,85,01,129,23,86,25,079,25,87,24,029,30*6B
$GNGLL,0420.08117,S,05539.63474,E,103522.00,A,A*6C
$GNRMC,103523.00,A,0420.08093,S,05539.63477,E,1.069,9.12,220525,,,A*62
$GNVTG,9.12,T,,M,1.069,N,1.980,K,A*27
$GNGGA,103523.00,0420.08093,S,05539.63477,E,1,12,0.57,9.6,M,-47.6,M,,*70
$GNGSA,A,3,29,10,32,26,23,25,18,28,16,31,41,,1.13,0.57,0.97*19
$GNGSA,A,3,65,86,87,72,66,76,77,,,,,,1.13,0.57,0.97*15
$GPGSV,5,1,17,10,37,320,37,16,19,291,32,18,21,031,40,23,21,005,40*70
$GPGSV,5,2,17,24,08,084,27,25,19,156,34,26,30,262,35,27,03,328,26*79
$GPGSV,5,3,17,28,23,196,41,29,52,117,33,31,10,221,34,32,66,197,40*7D
$GPGSV,5,4,17,36,52,277,38,40,85,353,41,41,58,082,36,49,32,274,*76
$GPGSV,5,5,17,50,10,089,*4A
$GLGSV,2,1,08,65,73,326,33,66,43,217,42,72,22,018,33,76,21,191,35*6A
$GLGSV,2,2,08,77,19,239,28,85,01,129,17,86,25,079,24,87,24,029,32*65
$GNGLL,0420.08093,S,05539.63477,E,103523.00,A,A*63
$GNRMC,103524.00,A,0420.08058,S,05539.63473,E,1.357,354.89,220525,,,A*61
$GNVTG,354.89,T,,M,1.357,N,2.513,K,A*25
$GNGGA,103524.00,0420.08058,S,05539.63473,E,1,12,0.55,9.4,M,-47.6,M,,*74
$GNGSA,A,3,29,10,32,26,23,25,18,24,28,16,31,41,1.08,0.55,0.93*13
$GNGSA,A,3,65,86,87,72,66,76,77,,,,,,1.08,0.55,0.93*19
$GPGSV,5,1,17,10,37,320,40,16,19,291,25,18,21,031,37,23,21,005,38*79
$GPGSV,5,2,17,24,08,084,25,25,19,156,35,26,30,262,38,27,03,328,32*72
$GPGSV,5,3,17,28,23,196,25,29,52,117,33,31,10,221,43,32,66,197,44*7B
$GPGSV,5,4,17,36,52,277,39,40,85,353,42,41,58,082,33,49,32,274,*71
$GPGSV,5,5,17,50,10,089,*4A
$GLGSV,2,1,08,65,73,326,31,66,43,217,38,72,22,018,28,76,21,191,39*63
$GLGSV,2,2,08,77,19,239,36,85,01,129,22,86,25,079,22,87,24,029,30*68
$GNGLL,0420.08058,S,05539.63473,E,103524.00,A,A*67
$GNRMC,103525.00,A,0420.08035,S,05539.63458,E,0.994,332.62,220525,,,A*63
$GNVTG,332.62,T,,M,0.994,N,1.841,K,A*2D
$GNGGA,103525.00,0420.08035,S,05539.63458,E,1,12,0.55,9.2,M,-47.6,M,,*71
$GNGSA,A,3,29,10,32,26,23,25,18,24,28,16,31,41,1.08,0.55,0.93*13
$GNGSA,A,3,65,86,87,72,66,76,77,,,,,,1.08,0.55,0.93*19
$GPGSV,5,1,17,10,37,320,33,16,19,291,33,18,21,031,35,23,21,005,38*78
$GPGSV,5,2,17,24,08,084,24,25,19,156,28,26,30,262,36,27,03,328,37*74
$GPGSV,5,3,17,28,23,196,31,29,52,117,36,31,10,221,40,32,66,197,44*78
$GPGSV,5,4,17,36,52,277,38,40,85,353,42,41,58,082,34,49,32,274,*77
$GPGSV,5,5,17,50,10,089,*4A
$GLGSV,2,1,08,65,73,326,32,66,43,217,41,72,22,018,27,76,21,191,30*68
$GLGSV,2,2,08,77,19,239,31,85,01,129,23,86,25,079,21,87,24,029,29*65
$GNGLL,0420.08035,S,05539.63458,E,103525.00,A,A*64
$GNRMC,103526.00,A,0420.08024,S,05539.63426,E,1.391,299.99,220525,,,A*63
$GNVTG,299.99,T,,M,1.391,N,2.575,K,A*2E
$GNGGA,103526.00,0420.08024,S,05539.63426,E,1,12,0.56,9.2,M,-47.6,M,,*78
$GNGSA,A,3,29,10,32,26,23,25,18,24,28,16,31,41,1.16,0.56,1.01*15
$GNGSA,A,3,65,86,87,72,66,76,77,,,,,,1.16,0.56,1.01*1F
$GPGSV,5,1,17,10,37,320,37,16,19,291,31,18,21,031,32,23,21,005,35*74
$GPGSV,5,2,17,24,08,084,23,25,19,156,30,26,30,262,36,27,03,328,30*7D
$GPGSV,5,3,17,28,23,196,34,29,51,118,35,31,10,221,36,32,66,197,39*79
$GPGSV,5,4,17,36,52,277,36,40,85,353,41,41,58,082,29,49,32,274,*76
$GPGSV,5,5,17,50,10,089,*4A
$GLGSV,2,1,08,65,73,326,32,66,43,217,39,72,22,018,28,76,21,191,34*6C
$GLGSV,2,2,08,77,19,239,30,85,01,129,23,86,25,079,24,87,24,029,20*68
$GNGLL,0420.08024,S,05539.63426,E,103526.00,A,A*6E
$GNRMC,103527.00,A,0420.08021,S,05539.63389,E,1.288,283.05,220525,,,A*62
$GNVTG,283.05,T,,M,1.288,N,2.385,K,A*20
$GNGGA,103527.00,0420.08021,S,05539.63389,E,1,12,0.55,9.1,M,-47.6,M,,*7E
$GNGSA,A,3,29,10,32,26,23,25,18,24,28,16,31,41,1.08,0.55,0.93*13
$GNGSA,A,3,65,86,87,72,66,76,77,,,,,,1.08,0.55,0.93*19
$GPGSV,5,1,17,10,37,320,37,16,19,291,24,18,21,031,31,23,21,005,40*71
$GPGSV,5,2,17,24,08,084,22,25,19,156,31,26,30,262,36,27,03,328,34*79
$GPGSV,5,3,17,28,23,196,40,29,51,118,22,31,10,221,40,32,66,197,41*72
$GPGSV,5,4,17,36,52,277,37,40,85,353,40,41,58,082,32,49,32,274,*7C
$GPGSV,5,5,17,50,10,089,*4A
$GLGSV,2,1,08,65,73,326,32,66,43,217,40,72,22,018,28,76,21,191,31*67
$GLGSV,2,2,08,77,19,239,32,85,01,129,24,86,25,079,24,87,24,029,21*6C
$GNGLL,0420.08021,S,05539.63389,E,103527.00,A,A*68
$GNRMC,103528.00,A,0420.08021,S,05539.63354,E,1.308,276.27,220525,,,A*6E
$GNVTG,276.27,T,,M,1.308,N,2.423,K,A*28
$GNGGA,103528.00,0420.08021,S,05539.63354,E,1,12,0.55,9.1,M,-47.6,M,,*71
$GNGSA,A,3,29,10,32,26,23,25,18,24,28,16,31,41,1.08,0.55,0.93*13
$GNGSA,A,3,65,86,87,72,66,76,77,,,,,,1.08,0.55,0.93*19
$GPGSV,5,1,17,10,37,320,39,16,19,291,34,18,21,031,33,23,21,005,38*73
$GPGSV,5,2,17,24,08,084,29,25,19,156,35,26,30,262,34,27,03,328,37*77
$GPGSV,5,3,17,28,23,196,40,29,51,118,29,31,10,220,35,32,66,197,41*7A
$GPGSV,5,4,17,36,52,277,35,40,85,353,40,41,58,082,38,49,32,274,*74
$GPGSV,5,5,17,50,10,089,*4A
$GLGSV,2,1,08,65,73,326,33,66,43,217,39,72,22,018,26,76,21,191,34*63
$GLGSV,2,2,08,77,19,239,33,85,01,129,27,86,25,079,22,87,24,029,24*6D
$GNGLL,0420.08021,S,05539.63354,E,103528.00,A,A*67
$GNRMC,103529.00,A,0420.08025,S,05539.63317,E,1.470,268.05,220525,,,A*6B
$GNVTG,268.05,T,,M,1.470,N,2.722,K,A*2D
$GNGGA,103529.00,0420.08025,S,05539.63317,E,1,12,0.55,9.3,M,-47.6,M,,*71
$GNGSA,A,3,29,10,32,26,23,25,18,24,28,16,31,41,1.08,0.55,0.93*13
$GNGSA,A,3,65,86,87,72,66,76,77,,,,,,1.08,0.55,0.93*19
$GPGSV,5,1,17,10,37,320,37,16,19,291,30,18,21,031,36,23,21,005,42*71
$GPGSV,5,2,17,24,08,084,27,25,19,156,32,26,30,262,37,27,03,328,35*7F
$GPGSV,5,3,17,28,23,196,36,29,51,118,36,31,10,220,31,32,67,197,40*71
$GPGSV,5,4,17,36,52,277,39,40,85,353,46,41,58,082,37,49,32,274,*71
$GPGSV,5,5,17,50,10,089,*4A
$GLGSV,2,1,08,65,73,326,34,66,43,217,39,72,22,018,25,76,21,191,37*64
$GLGSV,2,2,08,77,19,239,31,85,01,129,29,86,25,079,20,87,24,029,25*62
$GNGLL,0420.08025,S,05539.63317,E,103529.00,A,A*65
$GNRMC,103530.00,A,0420.08010,S,05539.63275,E,1.613,284.06,220525,,,A*66
$GNVTG,284.06,T,,M,1.613,N,2.988,K,A*25
$GNGGA,103530.00,0420.08010,S,05539.63275,E,1,12,0.57,9.5,M,-47.6,M,,*7E
$GNGSA,A,3,29,10,32,26,23,25,18,28,16,31,41,,1.13,0.57,0.97*19
$GNGSA,A,3,65,86,87,72,66,76,77,,,,,,1.13,0.57,0.97*15
$GPGSV,5,1,17,10,37,320,39,16,19,291,24,18,21,031,33,23,21,005,42*7F
$GPGSV,5,2,17,24,08,084,25,25,19,156,28,26,30,262,29,27,03,328,37*7B
$GPGSV,5,3,17,28,23,196,41,29,51,118,38,31,10,220,31,32,67,197,44*7B
$GPGSV,5,4,17,36,52,277,38,40,85,353,42,41,58,082,39,49,32,274,*7A
$GPGSV,5,5,17,50,10,089,*4A
$GLGSV,2,1,08,65,73,326,35,66,43,217,40,72,22,018,25,76,21,191,31*6D
$GLGSV,2,2,08,77,19,239,23,85,01,129,37,86,25,079,29,87,24,029,27*65
$GNGLL,0420.08010,S,05539.63275,E,103530.00,A,A*6E
$GNRMC,103531.00,A,0420.07993,S,05539.63241,E,1.253,289.44,220525,,,A*66
$GNVTG,289.44,T,,M,1.253,N,2.320,K,A*26
$GNGGA,103531.00,0420.07993,S,05539.63241,E,1,12,0.55,9.2,M,-47.6,M,,*70
$GNGSA,A,3,29,10,32,26,23,25,18,24,28,16,31,41,1.08,0.55,0.93*13
$GNGSA,A,3,65,86,87,72,66,76,77,,,,,,1.08,0.55,0.93*19
$GPGSV,5,1,17,10,37,320,41,16,19,291,26,18,21,031,34,23,21,005,37*77
$GPGSV,5,2,17,24,08,084,25,25,19,156,36,26,30,262,41,27,03,328,35*78
$GPGSV,5,3,17,28,23,196,36,29,51,118,38,31,10,220,39,32,67,197,42*75
$GPGSV,5,4,17,36,52,277,36,40,85,353,43,41,58,082,39,49,32,274,*75
$GPGSV,5,5,17,50,10,089,*4A
$GLGSV,2,1,08,65,73,326,34,66,43,217,38,72,22,018,27,76,21,191,37*67
$GLGSV,2,2,08,77,19,239,30,85,01,129,40,86,25,079,27,87,24,029,28*66
$GNGLL,0420.07993,S,05539.63241,E,103531.00,A,A*65
$GNRMC,103532.00,A,0420.07985,S,05539.63217,E,0.860,286.03,220525,,,A*66
$GNVTG,286.03,T,,M,0.860,N,1.593,K,A*2C
$GNGGA,103532.00,0420.07985,S,05539.63217,E,1,12,0.55,9.1,M,-47.6,M,,*74
$GNGSA,A,3,29,10,32,26,23,25,18,24,28,16,31,41,1.08,0.55,0.93*13
$GNGSA,A,3,65,86,87,72,66,76,77,,,,,,1.08,0.55,0.93*19
$GPGSV,5,1,17,10,37,320,43,16,19,291,30,18,21,031,33,23,21,005,37*75
$GPGSV,5,2,17,24,08,084,28,25,19,156,36,26,30,262,36,27,03,328,33*73
$GPGSV,5,3,17,28,23,196,36,29,51,118,40,31,10,220,32,32,67,197,40*73
$GPGSV,5,4,17,36,52,277,38,40,85,353,43,41,58,082,38,49,32,274,*7A
$GPGSV,5,5,17,50,10,089,*4A
$GLGSV,2,1,08,65,73,326,33,66,43,217,40,72,22,018,26,76,21,191,40*6E
$GLGSV,2,2,08,77,19,239,29,85,01,129,35,86,25,079,27,87,24,029,30*65
$GNGLL,0420.07985,S,05539.63217,E,103532.00,A,A*62
$GNRMC,103533.00,A,0420.07988,S,05539.63194,E,0.903,269.66,220525,,,A*64
$GNVTG,269.66,T,,M,0.903,N,1.673,K,A*27
$GNGGA,103533.00,0420.07988,S,05539.63194,E,1,12,0.55,9.3,M,-47.6,M,,*72
$GNGSA,A,3,29,10,32,26,23,25,18,24,28,16,31,41,1.08,0.55,0.93*13
$GNGSA,A,3,65,86,87,72,66,76,77,,,,,,1.08,0.55,0.93*19
$GPGSV,5,1,17,10,37,320,42,16,19,291,30,18,21,031,34,23,21,005,37*73
$GPGSV,5,2,17,24,08,084,26,25,19,156,41,26,30,262,36,27,03,328,33*7D
$GPGSV,5,3,17,28,23,196,39,29,51,118,38,31,10,220,26,32,67,197,41*77
$GPGSV,5,4,17,36,52,277,39,40,85,353,44,41,58,082,37,49,32,274,*73
$GPGSV,5,5,17,50,10,089,*4A
$GLGSV,2,1,08,65,73,326,34,66,43,217,36,72,22,018,27,76,21,191,39*67
$GLGSV,2,2,08,77,19,239,28,85,01,129,35,86,25,079,25,87,24,029,30*66
$GNGLL,0420.07988,S,05539.63194,E,103533.00,A,A*66
$GNRMC,103534.00,A,0420.08006,S,05539.63176,E,0.979,252.93,220525,,,A*60
$GNVTG,252.93,T,,M,0.979,N,1.813,K,A*20
$GNGGA,103534.00,0420.08006,S,05539.63176,E,1,12,0.58,9.2,M,-47.6,M,,*75
$GNGSA,A,3,29,10,32,26,23,25,18,28,16,41,,,1.18,0.58,1.03*13
$GNGSA,A,3,65,86,87,72,66,76,77,,,,,,1.18,0.58,1.03*1D
$GPGSV,5,1,17,10,37,320,43,16,19,291,35,18,21,031,35,23,21,005,36*77
$GPGSV,5,2,17,24,08,084,,25,19,156,35,26,30,262,31,27,03,328,35*7B
$GPGSV,5,3,17,28,23,196,40,29,51,118,39,31,10,220,,32,67,197,43*7E
$GPGSV,5,4,17,36,52,277,36,40,85,353,40,41,58,082,34,49,32,274,*7B
$GPGSV,5,5,17,50,10,089,*4A
$GLGSV,2,1,08,65,73,326,31,66,43,217,38,72,22,018,28,76,21,191,35*6F
$GLGSV,2,2,08,77,19,239,17,85,01,129,32,86,25,079,29,87,24,029,24*64
$GNGLL,0420.08006,S,05539.63176,E,103534.00,A,A*6D
$GNRMC,103535.00,A,0420.08026,S,05539.63154,E,1.120,238.83,220525,,,A*6B
$GNVTG,238.83,T,,M,1.120,N,2.075,K,A*23
$GNGGA,103535.00,0420.08026,S,05539.63154,E,1,12,0.58,9.2,M,-47.6,M,,*76
$GNGSA,A,3,29,10,32,26,23,25,18,28,16,41,,,1.18,0.58,1.03*13
$GNGSA,A,3,65,86,87,72,66,76,77,,,,,,1.18,0.58,1.03*1D
$GPGSV,5,1,17,10,37,320,45,16,19,291,36,18,21,031,32,23,21,005,37*74
$GPGSV,5,2,17,24,08,084,32,25,19,156,39,26,30,262,38,27,03,328,39*73
$GPGSV,5,3,17,28,23,196,43,29,51,118,46,31,10,220,29,32,67,197,43*7E
$GPGSV,5,4,17,36,52,277,41,40,85,353,42,41,58,082,34,49,32,274,*79
$GPGSV,5,5,17,50,10,089,*4A
$GLGSV,2,1,08,65,73,326,34,66,43,217,38,72,22,018,26,76,21,191,39*68
$GLGSV,2,2,08,77,19,239,22,85,01,129,32,86,25,079,30,87,24,029,22*6C
$GNGLL,0420.08026,S,05539.63154,E,103535.00,A,A*6E
$GNRMC,103536.00,A,0420.08043,S,05539.63127,E,1.063,239.84,220525,,,A*6F
$GNVTG,239.84,T,,M,1.063,N,1.969,K,A*24
$GNGGA,103536.00,0420.08043,S,05539.63127,E,1,12,0.56,9.2,M,-47.6,M,,*7C
$GNGSA,A,3,29,10,32,26,23,25,18,24,28,16,31,41,1.16,0.56,1.01*15
$GNGSA,A,3,65,86,87,72,66,76,77,,,,,,1.16,0.56,1.01*1F
$GPGSV,5,1,17,10,37,320,46,16,19,291,39,18,21,031,26,23,21,005,34*7E
$GPGSV,5,2,17,24,08,084,36,25,19,156,38,26,30,262,36,27,03,328,32*73
$GPGSV,5,3,17,28,23,196,43,29,51,118,43,31,10,220,30,32,67,197,45*75
$GPGSV,5,4,17,36,52,277,38,40,85,353,44,41,58,082,38,49,32,274,*7D
$GPGSV,5,5,17,50,10,089,*4A
$GLGSV,2,1,08,65,73,326,33,66,43,217,38,72,22,018,26,76,21,191,37*61
$GLGSV,2,2,08,77,19,239,25,85,01,129,29,86,25,079,38,87,24,029,20*6B
$GNGLL,0420.08043,S,05539.63127,E,103536.00,A,A*6A
$GNRMC,103537.00,A,0420.08045,S,05539.63097,E,1.137,260.98,220525,,,A*63
$GNVTG,260.98,T,,M,1.137,N,2.106,K,A*27
$GNGGA,103537.00,0420.08045,S,05539.63097,E,1,12,0.56,9.5,M,-47.6,M,,*76
$GNGSA,A,3,29,10,32,26,23,25,18,24,28,16,31,41,1.16,0.56,1.01*15
$GNGSA,A,3,65,86,87,72,66,76,77,,,,,,1.16,0.56,1.01*1F
$GPGSV,5,1,17,10,37,320,43,16,19,291,41,18,21,031,26,23,21,005,38*78
$GPGSV,5,2,17,24,08,084,37,25,19,156,42,26,30,262,36,27,03,328,32*7F
$GPGSV,5,3,17,28,23,196,45,29,51,118,43,31,10,220,28,32,67,197,41*7E
$GPGSV,5,4,17,36,52,277,41,40,85,353,42,41,58,082,38,49,32,274,*75
$GPGSV,5,5,17,50,10,089,*4A
$GLGSV,2,1,08,65,73,326,33,66,43,217,36,72,22,018,23,76,21,191,38*65
$GLGSV,2,2,08,77,19,239,25,85,01,129,27,86,25,079,35,87,24,029,17*6C
$GNGLL,0420.08045,S,05539.63097,E,103537.00,A,A*67
$GNRMC,103538.00,A,0420.08041,S,05539.63062,E,1.215,269.64,220525,,,A*6B
$GNVTG,269.64,T,,M,1.215,N,2.250,K,A*2E
$GNGGA,103538.00,0420.08041,S,05539.63062,E,1,12,0.55,9.3,M,-47.6,M,,*72
$GNGSA,A,3,29,10,32,26,23,25,18,24,28,16,31,41,1.08,0.55,0.93*13
$GNGSA,A,3,65,86,87,72,66,76,77,,,,,,1.08,0.55,0.93*19
$GPGSV,5,1,17,10,37,320,43,16,19,291,41,18,21,031,25,23,21,005,37*74
$GPGSV,5,2,17,24,08,084,37,25,19,156,42,26,30,262,37,27,03,328,30*7C
$GPGSV,5,3,17,28,23,196,35,29,51,118,43,31,10,220,34,32,67,197,46*73
$GPGSV,5,4,17,36,52,277,35,40,85,353,46,41,58,082,32,49,32,274,*78
$GPGSV,5,5,17,50,10,089,*4A
$GLGSV,2,1,08,65,73,326,33,66,43,217,35,72,22,018,21,76,21,191,37*6B
$GLGSV,2,2,08,77,19,239,25,85,01,129,29,86,25,079,35,87,24,029,20*66
$GNGLL,0420.08041,S,05539.63062,E,103538.00,A,A*66
$GNRMC,103539.00,A,0420.08052,S,05539.63026,E,1.354,253.28,220525,,,A*6D
$GNVTG,253.28,T,,M,1.354,N,2.508,K,A*21
$GNGGA,103539.00,0420.08052,S,05539.63026,E,1,12,0.56,9.4,M,-47.6,M,,*75
$GNGSA,A,3,29,10,32,26,23,25,18,24,28,16,31,41,1.16,0.56,1.01*15
$GNGSA,A,3,65,86,87,72,66,76,77,,,,,,1.16,0.56,1.01*1F
$GPGSV,5,1,17,10,37,320,45,16,19,291,39,18,21,031,25,23,21,005,37*7D
$GPGSV,5,2,17,24,08,084,31,25,19,156,36,26,30,262,36,27,03,328,25*7C
$GPGSV,5,3,17,28,23,196,38,29,51,118,43,31,10,220,37,32,67,197,44*7F
$GPGSV,5,4,17,36,52,277,38,40,85,353,42,41,58,082,38,49,32,274,*7B
$GPGSV,5,5,17,50,10,089,*4A
$GLGSV,2,1,08,65,73,326,34,66,43,217,36,72,22,018,18,76,21,191,37*65
$GLGSV,2,2,08,77,19,239,26,85,01,129,29,86,25,079,38,87,24,029,23*6B
$GNGLL,0420.08052,S,05539.63026,E,103539.00,A,A*65
$GNRMC,103540.00,A,0420.08081,S,05539.62999,E,1.415,233.44,220525,,,A*6F
$GNVTG,233.44,T,,M,1.415,N,2.621,K,A*27
$GNGGA,103540.00,0420.08081,S,05539.62999,E,1,12,0.55,9.3,M,-47.6,M,,*7D
$GNGSA,A,3,29,10,32,26,23,25,18,24,28,16,31,41,1.08,0.55,0.93*13
$GNGSA,A,3,65,86,87,72,66,76,77,,,,,,1.08,0.55,0.93*19
$GPGSV,5,1,17,10,37,320,44,16,19,291,38,18,21,031,27,23,21,005,27*7E
$GPGSV,5,2,17,24,08,084,30,25,19,156,38,26,30,262,37,27,03,328,*75
$GPGSV,5,3,17,28,23,196,37,29,51,118,44,31,10,220,36,32,67,197,44*76
$GPGSV,5,4,17,36,52,277,38,40,85,353,44,41,58,082,40,49,32,274,*72
$GPGSV,5,5,17,50,10,089,*4A
$GLGSV,2,1,08,65,73,326,34,66,43,217,42,72,22,018,18,76,21,191,33*62
$GLGSV,2,2,08,77,19,239,26,85,01,129,28,86,25,079,40,87,24,029,18*6D
$GNGLL,0420.08081,S,05539.62999,E,103540.00,A,A*69
$GNRMC,103541.00,A,0420.08109,S,05539.62982,E,1.033,222.98,220525,,,A*64
$GNVTG,222.98,T,,M,1.033,N,1.913,K,A*2B
$GNGGA,103541.00,0420.08109,S,05539.62982,E,1,12,0.55,9.7,M,-47.6,M,,*73
$GNGSA,A,3,29,10,32,26,23,25,18,24,28,16,31,41,1.08,0.55,0.93*13
$GNGSA,A,3,65,86,87,72,66,76,77,,,,,,1.08,0.55,0.93*19
$GPGSV,5,1,17,10,37,320,40,16,19,291,38,18,21,031,28,23,21,005,24*76
$GPGSV,5,2,17,24,08,084,35,25,19,156,42,26,30,262,40,27,03,328,25*7A
$GPGSV,5,3,17,28,23,196,33,29,51,118,44,31,10,220,37,32,67,197,45*72
$GPGSV,5,4,17,36,52,277,39,40,85,353,40,41,58,082,41,49,32,274,*76
$GPGSV,5,5,17,50,10,089,*4A
$GLGSV,2,1,08,65,73,326,32,66,43,217,36,72,22,018,18,76,21,191,37*63
$GLGSV,2,2,08,77,19,239,25,85,01,129,25,86,25,079,37,87,24,029,23*6B
$GNGLL,0420.08109,S,05539.62982,E,103541.00,A,A*63
$GNRMC,103542.00,A,0420.08130,S,05539.62962,E,0.970,224.31,220525,,,A*69
$GNVTG,224.31,T,,M,0.970,N,1.796,K,A*22
$GNGGA,103542.00,0420.08130,S,05539.62962,E,1,12,0.55,9.7,M,-47.6,M,,*74
$GNGSA,A,3,29,10,32,26,23,25,18,24,28,16,31,41,1.08,0.55,0.93*13
$GNGSA,A,3,65,86,87,72,66,76,77,,,,,,1.08,0.55,0.93*19
$GPGSV,5,1,17,10,37,320,43,16,19,291,35,18,21,031,33,23,21,005,26*70
$GPGSV,5,2,17,24,08,084,32,25,19,156,38,26,30,262,40,27,03,328,25*70
$GPGSV,5,3,17,28,23,196,36,29,51,118,44,31,10,220,39,32,67,197,43*7F
$GPGSV,5,4,17,36,52,277,41,40,85,353,42,41,58,082,40,49,32,274,*7A
$GPGSV,5,5,17,50,10,089,*4A
$GLGSV,2,1,08,65,73,326,32,66,43,217,41,72,22,018,18,76,21,191,25*60
$GLGSV,2,2,08,77,19,239,24,85,01,129,23,86,25,079,37,87,24,029,25*6A
$GNGLL,0420.08130,S,05539.62962,E,103542.00,A,A*64
$GNRMC,103543.00,A,0420.08155,S,05539.62949,E,0.952,206.26,220525,,,A*64
$GNVTG,206.26,T,,M,0.952,N,1.764,K,A*29
$GNGGA,103543.00,0420.08155,S,05539.62949,E,1,12,0.55,9.9,M,-47.6,M,,*71
$GNGSA,A,3,29,10,32,26,23,25,18,24,28,16,31,41,1.08,0.55,0.93*13
$GNGSA,A,3,65,86,87,72,66,76,77,,,,,,1.08,0.55,0.93*19
$GPGSV,5,1,17,10,37,320,45,16,19,291,39,18,21,031,33,23,21,005,28*74
$GPGSV,5,2,17,24,08,084,37,25,19,156,38,26,30,262,40,27,03,328,26*76
$GPGSV,5,3,17,28,23,196,38,29,51,118,44,31,10,220,35,32,67,197,46*78
$GPGSV,5,4,17,36,52,277,41,40,85,353,45,41,58,082,43,49,32,274,*7E
$GPGSV,5,5,17,50,10,089,*4A
$GLGSV,2,1,08,65,73,326,36,66,43,217,32,72,22,018,19,76,21,191,28*6C
$GLGSV,2,2,08,77,19,239,23,85,01,129,21,86,25,079,40,87,24,029,28*62
$GNGLL,0420.08155,S,05539.62949,E,103543.00,A,A*6F
$GNRMC,103544.00,A,0420.08178,S,05539.62942,E,0.782,204.84,220525,,,A*6E
$GNVTG,204.84,T,,M,0.782,N,1.448,K,A*2D
$GNGGA,103544.00,0420.08178,S,05539.62942,E,1,12,0.55,10.1,M,-47.6,M,,*42
$GNGSA,A,3,29,10,32,26,23,25,18,24,28,16,31,41,1.08,0.55,0.93*13
$GNGSA,A,3,65,86,87,72,66,76,77,,,,,,1.08,0.55,0.93*19
$GPGSV,5,1,17,10,37,320,43,16,19,291,39,18,21,031,34,23,21,005,28*75
$GPGSV,5,2,17,24,08,084,37,25,19,156,41,26,30,262,41,27,03,328,25*7A
$GPGSV,5,3,17,28,23,196,34,29,51,118,44,31,10,220,38,32,67,197,45*7A
$GPGSV,5,4,17,36,52,277,43,40,85,353,44,41,58,082,43,49,32,274,*7D
$GPGSV,5,5,17,50,10,089,*4A
$GLGSV,2,1,08,65,73,326,35,66,43,217,38,72,22,018,18,76,21,191,29*65
$GLGSV,2,2,08,77,19,239,23,85,01,129,20,86,25,079,40,87,24,029,28*63
$GNGLL,0420.08178,S,05539.62942,E,103544.00,A,A*6C
$GNRMC,103545.00,A,0420.08194,S,05539.62944,E,0.595,191.20,220525,,,A*6E
$GNVTG,191.20,T,,M,0.595,N,1.102,K,A*23
$GNGGA,103545.00,0420.08194,S,05539.62944,E,1,12,0.55,10.2,M,-47.6,M,,*44
$GNGSA,A,3,29,10,32,26,23,25,18,24,28,16,31,41,1.08,0.55,0.93*13
$GNGSA,A,3,65,86,87,72,66,76,77,,,,,,1.08,0.55,0.93*19
$GPGSV,5,1,17,10,37,320,43,16,19,291,38,18,21,031,34,23,21,005,26*7A
$GPGSV,5,2,17,24,08,084,29,25,19,156,40,26,30,262,41,27,03,328,26*77
$GPGSV,5,3,17,28,23,196,33,29,51,118,42,31,10,220,34,32,67,197,44*76
$GPGSV,5,4,17,36,52,277,41,40,85,353,43,41,58,082,40,49,32,274,*7B
$GPGSV,5,5,17,50,10,089,*4A
$GLGSV,2,1,08,65,73,326,35,66,43,217,32,72,22,018,17,76,21,191,30*68
$GLGSV,2,2,08,77,19,239,21,85,01,129,20,86,25,079,33,87,24,029,28*65
$GNGLL,0420.08194,S,05539.62944,E,103545.00,A,A*69
$GNRMC,103546.00,A,0420.08200,S,05539.62953,E,0.324,,220525,,,A*7C
$GNVTG,,T,,M,0.324,N,0.601,K,A*3F
$GNGGA,103546.00,0420.08200,S,05539.62953,E,1,12,0.55,10.2,M,-47.6,M,,*4F
$GNGSA,A,3,29,10,32,26,23,25,18,24,28,16,31,41,1.08,0.55,0.93*13
$GNGSA,A,3,65,86,87,72,66,76,77,,,,,,1.08,0.55,0.93*19
$GPGSV,5,1,17,10,37,320,43,16,19,291,38,18,21,031,32,23,21,005,24*7E
$GPGSV,5,2,17,24,08,084,30,25,19,156,38,26,30,262,41,27,03,328,27*71
$GPGSV,5,3,17,28,23,196,33,29,51,118,44,31,10,220,32,32,67,197,45*77
$GPGSV,5,4,17,36,52,277,39,40,85,353,43,41,58,082,42,49,32,274,*76
$GPGSV,5,5,17,50,10,089,*4A
$GLGSV,2,1,08,65,73,326,34,66,43,217,36,72,22,018,15,76,21,191,35*6A
$GLGSV,2,2,08,77,19,239,23,85,01,129,23,86,25,079,34,87,24,029,28*63
$GNGLL,0420.08200,S,05539.62953,E,103546.00,A,A*62
$GNRMC,103547.00,A,0420.08213,S,05539.62954,E,0.639,189.68,220525,,,A*61
$GNVTG,189.68,T,,M,0.639,N,1.183,K,A*2A
$GNGGA,103547.00,0420.08213,S,05539.62954,E,1,12,0.57,9.9,M,-47.6,M,,*7A
$GNGSA,A,3,29,10,32,26,23,25,18,24,28,16,31,41,1.17,0.57,1.02*16
$GNGSA,A,3,65,86,87,66,76,77,,,,,,,1.17,0.57,1.02*19
$GPGSV,5,1,17,10,37,320,39,16,19,291,38,18,21,031,31,23,21,005,26*72
$GPGSV,5,2,17,24,08,084,34,25,19,156,38,26,30,262,41,27,03,328,24*76
$GPGSV,5,3,17,28,23,196,37,29,51,118,42,31,10,220,36,32,67,197,44*70
$GPGSV,5,4,17,36,52,277,40,40,85,353,42,41,58,082,39,49,32,274,*75
$GPGSV,5,5,17,50,10,089,*4A
$GLGSV,2,1,08,65,73,326,33,66,43,217,35,72,22,018,12,76,21,191,31*6D
$GLGSV,2,2,08,77,19,239,23,85,01,129,24,86,25,079,32,87,24,029,26*6C
$GNGLL,0420.08213,S,05539.62954,E,103547.00,A,A*66
$GNRMC,103548.00,A,0420.08237,S,05539.62956,E,1.031,175.30,220525,,,A*6B
$GNVTG,175.30,T,,M,1.031,N,1.910,K,A*29
$GNGGA,103548.00,0420.08237,S,05539.62956,E,1,12,0.55,9.7,M,-47.6,M,,*7D
$GNGSA,A,3,29,10,32,26,23,25,18,24,28,16,31,41,1.08,0.55,0.93*13
$GNGSA,A,3,65,86,87,72,66,76,77,,,,,,1.08,0.55,0.93*19
$GPGSV,5,1,17,10,37,320,41,16,19,291,35,18,21,031,31,23,21,005,26*70
$GPGSV,5,2,17,24,08,084,29,25,19,156,38,26,30,262,39,27,03,328,*73
$GPGSV,5,3,17,28,23,196,27,29,51,118,44,31,10,220,36,32,67,197,44*77
$GPGSV,5,4,17,36,52,277,40,40,85,353,44,41,58,082,38,49,32,274,*72
$GPGSV,5,5,17,50,10,089,*4A
$GLGSV,2,1,08,65,73,326,33,66,43,217,30,72,22,018,18,76,21,191,35*66
$GLGSV,2,2,08,77,19,239,23,85,01,129,21,86,25,079,33,87,24,029,28*66
$GNGLL,0420.08237,S,05539.62956,E,103548.00,A,A*6D
$GNRMC,103549.00,A,0420.08255,S,05539.62960,E,0.568,175.29,220525,,,A*6B
$GNVTG,175.29,T,,M,0.568,N,1.052,K,A*26
$GNGGA,103549.00,0420.08255,S,05539.62960,E,1,12,0.55,9.8,M,-47.6,M,,*72
$GNGSA,A,3,29,10,32,26,23,25,18,24,28,16,31,41,1.08,0.55,0.93*13
$GNGSA,A,3,65,86,87,72,66,76,77,,,,,,1.08,0.55,0.93*19
$GPGSV,5,1,17,10,37,320,36,16,19,291,39,18,21,031,37,23,21,005,32*7F
$GPGSV,5,2,17,24,08,084,35,25,19,156,37,26,30,262,41,27,03,328,33*7E
$GPGSV,5,3,17,28,23,196,32,29,51,118,42,31,10,220,40,32,67,197,46*76
$GPGSV,5,4,17,36,52,277,37,40,85,353,39,41,58,082,42,49,32,274,*75
$GPGSV,5,5,17,50,10,089,*4A
$GLGSV,2,1,08,65,73,326,32,66,43,217,35,72,22,018,26,76,21,191,29*62
$GLGSV,2,2,08,77,19,239,22,85,01,129,21,86,25,079,31,87,24,029,28*65
$GNGLL,0420.08255,S,05539.62960,E,103549.00,A,A*6D
$GNRMC,103550.00,A,0420.08276,S,05539.62955,E,0.958,196.11,220525,,,A*6D
$GNVTG,196.11,T,,M,0.958,N,1.774,K,A*2C
$GNGGA,103550.00,0420.08276,S,05539.62955,E,1,12,0.57,9.4,M,-47.6,M,,*73
$GNGSA,A,3,29,10,32,26,23,25,18,24,28,16,31,41,1.13,0.57,0.98*10
$GNGSA,A,3,65,86,87,72,66,76,77,,,,,,1.13,0.57,0.98*1A
$GPGSV,5,1,17,10,37,320,35,16,19,291,39,18,21,031,33,23,21,005,28*73
$GPGSV,5,2,17,24,08,084,30,25,19,156,35,26,30,262,38,27,03,328,30*74
$GPGSV,5,3,17,28,23,196,35,29,51,118,37,31,10,220,37,32,67,197,42*77
$GPGSV,5,4,17,36,52,277,35,40,85,353,42,41,58,082,31,49,32,274,*7F
$GPGSV,5,5,17,50,10,089,*4A
$GLGSV,2,1,08,65,72,328,33,66,43,217,36,72,22,018,19,76,21,191,32*69
$GLGSV,2,2,08,77,19,239,22,85,01,129,18,86,25,079,32,87,24,029,25*61
$GNGLL,0420.08276,S,05539.62955,E,103550.00,A,A*62
$GNRMC,103551.00,A,0420.08296,S,05539.62950,E,0.914,196.92,220525,,,A*64
$GNVTG,196.92,T,,M,0.914,N,1.693,K,A*27
$GNGGA,103551.00,0420.08296,S,05539.62950,E,1,12,0.55,9.3,M,-47.6,M,,*7C
$GNGSA,A,3,29,10,32,26,23,25,18,24,28,16,31,41,1.08,0.55,0.93*13
$GNGSA,A,3,65,86,87,72,66,76,77,,,,,,1.08,0.55,0.93*19
$GPGSV,5,1,17,10,37,320,26,16,19,291,33,18,21,031,38,23,21,005,26*7E
$GPGSV,5,2,17,24,08,084,31,25,19,156,36,26,30,262,38,27,03,328,28*7F
$GPGSV,5,3,17,28,23,196,34,29,51,118,39,31,10,220,35,32,67,197,41*79
$GPGSV,5,4,17,36,52,277,38,40,85,353,41,41,58,082,41,49,32,274,*76
$GPGSV,5,5,17,50,10,089,*4A
$GLGSV,2,1,08,65,72,328,33,66,44,217,35,72,22,018,24,76,21,191,37*66
$GLGSV,2,2,08,77,19,239,28,85,01,129,16,86,25,079,32,87,24,029,35*64
$GNGLL,0420.08296,S,05539.62950,E,103551.00,A,A*68
$GNRMC,103552.00,A,0420.08311,S,05539.62947,E,0.442,197.57,220525,,,A*69
$GNVTG,197.57,T,,M,0.442,N,0.818,K,A*2D
$GNGGA,103552.00,0420.08311,S,05539.62947,E,1,12,0.55,9.5,M,-47.6,M,,*71
$GNGSA,A,3,29,10,32,26,23,25,18,24,28,16,31,41,1.08,0.55,0.93*13
$GNGSA,A,3,65,86,87,72,66,76,77,,,,,,1.08,0.55,0.93*19
$GPGSV,5,1,17,10,37,320,26,16,19,291,36,18,21,031,36,23,21,005,30*72
$GPGSV,5,2,17,24,08,084,24,25,19,156,37,26,30,262,39,27,03,328,28*7B
$GPGSV,5,3,17,28,23,196,37,29,51,118,42,31,10,220,35,32,67,197,41*76
$GPGSV,5,4,17,36,52,277,38,40,85,353,37,41,58,082,39,49,32,274,*78
$GPGSV,5,5,17,50,10,089,*4A
$GLGSV,2,1,08,65,72,328,34,66,44,217,38,72,22,018,30,76,21,191,33*6D
$GLGSV,2,2,08,77,19,239,27,85,01,129,15,86,25,079,35,87,24,029,31*6B
$GNGLL,0420.08311,S,05539.62947,E,103552.00,A,A*63
$GNRMC,103553.00,A,0420.08310,S,05539.62947,E,0.076,,220525,,,A*79
$GNVTG,,T,,M,0.076,N,0.141,K,A*38
$GNGGA,103553.00,0420.08310,S,05539.62947,E,1,12,0.55,9.9,M,-47.6,M,,*7D
$GNGSA,A,3,29,10,32,26,23,25,18,24,28,16,31,41,1.08,0.55,0.93*13
$GNGSA,A,3,65,86,87,72,66,76,77,,,,,,1.08,0.55,0.93*19
$GPGSV,5,1,17,10,37,320,28,16,19,291,32,18,21,031,35,23,21,005,31*7A
$GPGSV,5,2,17,24,08,084,26,25,19,156,35,26,30,262,38,27,03,328,29*7B
$GPGSV,5,3,17,28,23,196,35,29,51,118,39,31,10,220,37,32,67,197,43*78
$GPGSV,5,4,17,36,52,277,38,40,85,353,39,41,58,082,40,49,32,274,*78
$GPGSV,5,5,17,50,10,089,*4A
$GLGSV,2,1,08,65,72,328,34,66,44,217,37,72,22,018,29,76,21,191,34*6D
$GLGSV,2,2,08,77,19,239,27,85,01,129,13,86,25,079,34,87,24,029,33*6E
$GNGLL,0420.08310,S,05539.62947,E,103553.00,A,A*63
$GNRMC,103554.00,A,0420.08301,S,05539.62952,E,0.481,113.17,220525,,,A*6D
$GNVTG,113.17,T,,M,0.481,N,0.891,K,A*2B
$GNGGA,103554.00,0420.08301,S,05539.62952,E,1,12,0.55,10.2,M,-47.6,M,,*4D
$GNGSA,A,3,29,10,32,26,23,25,18,24,28,16,31,41,1.08,0.55,0.93*13
$GNGSA,A,3,65,86,87,72,66,76,77,,,,,,1.08,0.55,0.93*19
$GPGSV,5,1,17,10,37,320,28,16,19,291,33,18,21,031,35,23,21,005,31*7B
$GPGSV,5,2,17,24,08,084,31,25,19,156,34,26,30,262,38,27,03,328,29*7C
$GPGSV,5,3,17,28,23,196,35,29,51,118,39,31,10,220,36,32,67,197,42*78
$GPGSV,5,4,17,36,52,277,38,40,85,353,40,41,58,082,39,49,32,274,*78
$GPGSV,5,5,17,50,10,089,*4A
$GLGSV,2,1,08,65,72,328,34,66,44,217,37,72,22,018,28,76,21,191,36*6E
$GLGSV,2,2,08,77,19,239,25,85,01,129,13,86,25,079,35,87,24,029,31*6F
$GNGLL,0420.08301,S,05539.62952,E,103554.00,A,A*60
$GNRMC,103555.00,A,0420.08302,S,05539.62961,E,0.452,118.28,220525,,,A*66
$GNVTG,118.28,T,,M,0.452,N,0.838,K,A*21
$GNGGA,103555.00,0420.08302,S,05539.62961,E,1,12,0.55,10.2,M,-47.6,M,,*4F
$GNGSA,A,3,29,10,32,26,23,25,18,24,28,16,31,41,1.08,0.55,0.93*13
$GNGSA,A,3,65,86,87,72,66,76,77,,,,,,1.08,0.55,0.93*19
$GPGSV,5,1,17,10,37,320,36,16,19,291,33,18,21,031,32,23,21,005,24*77
$GPGSV,5,2,17,24,08,084,31,25,19,156,30,26,30,262,40,27,03,328,28*76
$GPGSV,5,3,17,28,23,196,32,29,51,118,42,31,10,220,31,32,67,197,41*77
$GPGSV,5,4,17,36,52,277,39,40,85,353,42,41,58,082,40,49,32,274,*75
$GPGSV,5,5,17,50,10,089,*4A
$GLGSV,2,1,08,65,72,328,34,66,44,217,36,72,22,018,28,76,21,191,36*6F
$GLGSV,2,2,08,77,19,239,26,85,01,129,14,86,25,079,33,87,24,029,30*6C
$GNGLL,0420.08302,S,05539.62961,E,103555.00,A,A*62
$GNRMC,103556.00,A,0420.08294,S,05539.62973,E,0.579,80.35,220525,,,A*5C
$GNVTG,80.35,T,,M,0.579,N,1.073,K,A*13
$GNGGA,103556.00,0420.08294,S,05539.62973,E,1,12,0.55,10.6,M,-47.6,M,,*45
$GNGSA,A,3,29,10,32,26,23,25,18,24,28,16,31,41,1.08,0.55,0.93*13
$GNGSA,A,3,65,86,87,72,66,76,77,,,,,,1.08,0.55,0.93*19
$GPGSV,5,1,17,10,37,320,32,16,19,291,36,18,21,031,32,23,21,005,25*77
$GPGSV,5,2,17,24,08,084,34,25,19,156,29,26,30,262,39,27,03,328,27*7A
$GPGSV,5,3,17,28,23,196,35,29,51,118,40,31,10,220,34,32,67,197,42*74
$GPGSV,5,4,17,36,52,277,40,40,85,353,41,41,58,082,39,49,32,274,*76
$GPGSV,5,5,17,50,10,089,*4A
$GLGSV,2,1,08,65,72,328,35,66,44,217,36,72,22,018,27,76,21,191,33*64
$GLGSV,2,2,08,77,19,239,25,85,01,129,16,86,25,079,34,87,24,029,37*6D
$GNGLL,0420.08294,S,05539.62973,E,103556.00,A,A*6C
$GNRMC,103557.00,A,0420.08275,S,05539.62972,E,0.795,15.28,220525,,,D*56
$GNVTG,15.28,T,,M,0.795,N,1.473,K,D*12
$GNGGA,103557.00,0420.08275,S,05539.62972,E,2,12,0.55,10.8,M,-47.6,M,,0000*47
$GNGSA,A,3,29,10,32,26,23,25,18,24,28,16,31,41,1.08,0.55,0.93*13
$GNGSA,A,3,65,86,87,72,66,76,77,,,,,,1.08,0.55,0.93*19
$GPGSV,5,1,17,10,37,320,32,16,19,291,32,18,21,031,30,23,21,005,31*74
$GPGSV,5,2,17,24,08,084,37,25,19,156,33,26,30,262,39,27,03,328,26*73
$GPGSV,5,3,17,28,23,196,34,29,51,118,41,31,10,220,31,32,67,197,42*71
$GPGSV,5,4,17,36,52,277,38,40,85,353,41,41,58,082,39,49,32,274,*79
$GPGSV,5,5,17,50,10,089,*4A
$GLGSV,2,1,08,65,72,328,33,66,44,217,33,72,21,018,28,76,21,191,35*6D
$GLGSV,2,2,08,77,19,239,25,85,01,129,28,86,25,079,38,87,24,029,30*6B
$GNGLL,0420.08275,S,05539.62972,E,103557.00,A,D*66
$GNRMC,103558.00,A,0420.08285,S,05539.62978,E,0.964,95.38,220525,,,D*55
$GNVTG,95.38,T,,M,0.964,N,1.784,K,D*10
$GNGGA,103558.00,0420.08285,S,05539.62978,E,2,12,0.55,10.5,M,-47.6,M,,0000*40
$GNGSA,A,3,29,10,32,26,23,25,18,24,28,16,31,41,1.08,0.55,0.93*13
$GNGSA,A,3,65,86,87,72,66,76,77,,,,,,1.08,0.55,0.93*19
$GPGSV,5,1,17,10,37,320,36,16,19,291,35,18,21,031,34,23,21,005,29*7A
$GPGSV,5,2,17,24,08,084,34,25,19,156,33,26,30,262,40,27,03,328,25*7D
$GPGSV,5,3,17,28,23,196,32,29,51,118,41,31,10,220,39,32,67,197,43*7E
$GPGSV,5,4,17,36,52,277,39,40,85,353,43,41,58,082,41,49,32,274,*75
$GPGSV,5,5,17,50,10,089,*4A
$GLGSV,2,1,08,65,72,328,33,66,44,217,33,72,21,018,27,76,21,191,39*6E
$GLGSV,2,2,08,77,19,239,26,85,01,129,27,86,25,079,37,87,24,029,29*60
$GNGLL,0420.08285,S,05539.62978,E,103558.00,A,D*6C
$GNRMC,103559.00,A,0420.08322,S,05539.62993,E,1.632,139.49,220525,,,D*61
$GNVTG,139.49,T,,M,1.632,N,3.022,K,D*25
$GNGGA,103559.00,0420.08322,S,05539.62993,E,2,12,0.55,10.6,M,-47.6,M,,0000*4B
$GNGSA,A,3,29,10,32,26,23,25,18,24,28,16,31,41,1.08,0.55,0.93*13
$GNGSA,A,3,65,86,87,72,66,76,77,,,,,,1.08,0.55,0.93*19
$GPGSV,5,1,17,10,37,320,30,16,19,291,33,18,21,031,30,23,21,005,21*76
$GPGSV,5,2,17,24,08,084,31,25,19,156,32,26,30,262,39,27,03,328,23*71
$GPGSV,5,3,17,28,23,196,37,29,51,118,39,31,10,220,32,32,67,197,44*78
$GPGSV,5,4,17,36,52,277,38,40,85,353,40,41,58,082,39,49,32,274,*78
$GPGSV,5,5,17,50,10,089,*4A
$GLGSV,2,1,08,65,72,328,32,66,44,217,33,72,21,018,26,76,21,191,35*62
$GLGSV,2,2,08,77,19,239,24,85,01,129,25,86,25,079,37,87,24,029,30*68
$GNGLL,0420.08322,S,05539.62993,E,103559.00,A,D*64
$GNRMC,103600.00,A,0420.08344,S,05539.63010,E,0.849,136.44,220525,,,D*6C
$GNVTG,136.44,T,,M,0.849,N,1.573,K,D*27
$GNGGA,103600.00,0420.08344,S,05539.63010,E,2,12,0.55,10.9,M,-47.6,M,,0000*48
$GNGSA,A,3,29,10,32,26,23,25,18,24,28,16,31,41,1.08,0.55,0.93*13
$GNGSA,A,3,65,86,87,72,66,76,77,,,,,,1.08,0.55,0.93*19
$GPGSV,5,1,17,10,37,320,29,16,19,291,28,18,21,031,33,23,21,005,24*72
$GPGSV,5,2,17,24,08,084,33,25,19,156,27,26,30,262,40,27,03,328,21*7B
$GPGSV,5,3,17,28,23,196,34,29,51,118,40,31,10,220,38,32,67,197,40*7B
$GPGSV,5,4,17,36,52,277,33,40,85,353,39,41,58,082,36,49,32,274,*72
$GPGSV,5,5,17,50,10,089,*4A
$GLGSV,2,1,08,65,72,328,27,66,44,217,33,72,21,018,25,76,21,191,28*69
$GLGSV,2,2,08,77,19,239,25,85,01,129,25,86,25,079,38,87,24,029,29*6E
$GNGLL,0420.08344,S,05539.63010,E,103600.00,A,D*68
$GNRMC,103601.00,A,0420.08374,S,05539.63030,E,1.496,148.06,220525,,,D*6C
$GNVTG,148.06,T,,M,1.496,N,2.770,K,D*25
$GNGGA,103601.00,0420.08374,S,05539.63030,E,2,12,0.57,10.4,M,-47.6,M,,0000*47
$GNGSA,A,3,29,32,26,23,25,18,24,28,16,31,41,,1.10,0.57,0.94*1E
$GNGSA,A,3,65,86,87,72,66,76,77,,,,,,1.10,0.57,0.94*15
$GPGSV,5,1,17,10,37,320,,16,19,291,28,18,21,031,28,23,21,005,30*76
$GPGSV,5,2,17,24,08,084,33,25,19,156,32,26,30,262,38,27,03,328,19*7B
$GPGSV,5,3,17,28,23,196,28,29,51,118,40,31,10,220,35,32,67,197,45*7E
$GPGSV,5,4,17,36,52,277,36,40,85,353,38,41,58,082,38,49,32,274,*78
$GPGSV,5,5,17,50,10,089,*4A
$GLGSV,2,1,08,65,72,328,31,66,44,217,36,72,21,018,25,76,20,190,33*61
$GLGSV,2,2,08,77,19,239,25,85,01,129,23,86,25,079,32,87,24,029,33*69
$GNGLL,0420.08374,S,05539.63030,E,103601.00,A,D*68
$GNRMC,103602.00,A,0420.08404,S,05539.63054,E,1.555,144.80,220525,,,D*61
$GNVTG,144.80,T,,M,1.555,N,2.880,K,D*29
$GNGGA,103602.00,0420.08404,S,05539.63054,E,2,12,0.57,10.6,M,-47.6,M,,0000*44
$GNGSA,A,3,29,10,32,26,23,25,18,24,28,16,31,41,1.10,0.57,0.94*1F
$GNGSA,A,3,65,86,87,72,66,76,77,,,,,,1.10,0.57,0.94*15
$GPGSV,5,1,17,10,37,320,31,16,19,291,20,18,21,031,42,23,21,005,34*74
$GPGSV,5,2,17,24,08,084,33,25,19,156,13,26,30,262,35,27,03,328,22*7D
$GPGSV,5,3,17,28,23,196,17,29,51,118,43,31,10,220,32,32,67,197,37*73
$GPGSV,5,4,17,36,52,277,33,40,85,353,41,41,58,082,40,49,32,274,*7C
$GPGSV,5,5,17,50,10,089,*4A
$GLGSV,2,1,08,65,72,328,30,66,44,217,25,72,21,018,32,76,20,190,29*6F
$GLGSV,2,2,08,77,19,238,26,85,01,129,21,86,25,079,39,87,24,029,36*67
$GNGLL,0420.08404,S,05539.63054,E,103602.00,A,D*69
$GNRMC,103603.00,A,0420.08406,S,05539.63072,E,0.592,,220525,,,D*7B
$GNVTG,,T,,M,0.592,N,1.096,K,D*38
$GNGGA,103603.00,0420.08406,S,05539.63072,E,2,12,0.55,10.9,M,-47.6,M,,0000*4E
$GNGSA,A,3,29,10,32,26,23,25,18,24,28,16,31,41,1.08,0.55,0.93*13
$GNGSA,A,3,65,86,87,72,66,76,77,,,,,,1.08,0.55,0.93*19
$GPGSV,5,1,17,10,37,320,26,16,19,291,22,18,21,031,36,23,21,005,23*75
$GPGSV,5,2,17,24,08,084,29,25,19,156,35,26,30,262,37,27,03,328,21*73
$GPGSV,5,3,17,28,23,196,36,29,51,118,37,31,10,220,42,32,67,197,40*74
$GPGSV,5,4,17,36,52,277,29,40,85,353,37,41,58,082,39,49,32,274,*78
$GPGSV,5,5,17,50,10,089,*4A
$GLGSV,2,1,08,65,72,328,29,66,44,217,34,72,21,018,26,76,20,190,33*69
$GLGSV,2,2,08,77,19,238,27,85,01,129,18,86,25,079,33,87,24,029,37*67
$GNGLL,0420.08406,S,05539.63072,E,103603.00,A,D*6E
$GNRMC,103604.00,A,0420.08398,S,05539.63097,E,0.932,133.08,220525,,,D*66
$GNVTG,133.08,T,,M,0.932,N,1.726,K,D*25
$GNGGA,103604.00,0420.08398,S,05539.63097,E,2,12,0.55,10.8,M,-47.6,M,,0000*43
$GNGSA,A,3,29,10,32,26,23,25,18,24,28,16,31,41,1.08,0.55,0.93*13
$GNGSA,A,3,65,86,87,72,66,76,77,,,,,,1.08,0.55,0.93*19
$GPGSV,5,1,17,10,37,320,31,16,19,291,22,18,21,031,29,23,21,005,22*7C
$GPGSV,5,2,17,24,08,084,22,25,19,156,31,26,30,262,37,27,03,328,19*77
$GPGSV,5,3,17,28,23,196,34,29,51,118,40,31,10,220,36,32,67,197,43*76
$GPGSV,5,4,17,36,52,277,32,40,85,353,41,41,58,082,38,49,32,274,*72
$GPGSV,5,5,17,50,10,089,*4A
$GLGSV,2,1,08,65,72,328,29,66,44,217,35,72,21,018,21,76,20,190,30*6C
$GLGSV,2,2,08,77,19,238,26,85,01,129,21,86,25,079,36,87,24,029,36*68
$GNGLL,0420.08398,S,05539.63097,E,103604.00,A,D*62
$GNRMC,103605.00,A,0420.08406,S,05539.63126,E,1.216,122.58,220525,,,D*65
$GNVTG,122.58,T,,M,1.216,N,2.252,K,D*29
$GNGGA,103605.00,0420.08406,S,05539.63126,E,2,12,0.55,10.5,M,-47.6,M,,0000*44
$GNGSA,A,3,29,10,32,26,23,25,18,24,28,16,31,41,1.08,0.55,0.93*13
$GNGSA,A,3,65,86,87,72,66,76,77,,,,,,1.08,0.55,0.93*19
$GPGSV,5,1,17,10,37,320,30,16,19,291,30,18,21,031,34,23,21,005,22*72
$GPGSV,5,2,17,24,08,084,31,25,19,156,31,26,30,262,35,27,03,328,*7F
$GPGSV,5,3,17,28,23,196,31,29,51,118,39,31,10,220,40,32,67,197,42*7D
$GPGSV,5,4,17,36,52,277,35,40,85,353,40,41,58,082,41,49,32,274,*7A
$GPGSV,5,5,17,50,10,089,*4A
$GLGSV,2,1,08,65,72,328,32,66,44,217,34,72,21,018,23,76,20,190,29*6D
$GLGSV,2,2,08,77,19,238,26,85,01,129,22,86,25,079,28,87,24,029,34*66
$GNGLL,0420.08406,S,05539.63126,E,103605.00,A,D*68
$GNRMC,103606.00,A,0420.08422,S,05539.63150,E,0.949,125.84,220525,,,D*67
$GNVTG,125.84,T,,M,0.949,N,1.757,K,D*2C
$GNGGA,103606.00,0420.08422,S,05539.63150,E,2,12,0.58,10.7,M,-47.6,M,,0000*4F
$GNGSA,A,3,29,10,32,26,23,25,18,28,16,31,41,,1.14,0.58,0.98*1E
$GNGSA,A,3,65,86,87,72,66,76,77,,,,,,1.14,0.58,0.98*12
$GPGSV,5,1,17,10,37,320,31,16,19,291,30,18,21,031,38,23,21,005,30*7C
$GPGSV,5,2,17,24,08,084,25,25,19,156,33,26,30,262,38,27,03,328,*75
$GPGSV,5,3,17,28,23,196,31,29,51,118,41,31,10,220,38,32,67,197,44*7B
$GPGSV,5,4,17,36,52,277,34,40,85,353,41,41,58,082,41,49,32,274,*7A
$GPGSV,5,5,17,50,10,089,*4A
$GLGSV,2,1,08,65,72,328,32,66,44,217,36,72,21,018,30,76,20,190,26*62
$GLGSV,2,2,08,77,19,238,26,85,01,129,21,86,25,079,33,87,24,029,25*6F
$GNGLL,0420.08422,S,05539.63150,E,103606.00,A,D*6C
$GNRMC,103607.00,A,0420.08437,S,05539.63166,E,0.839,132.52,220525,,,D*6C
$GNVTG,132.52,T,,M,0.839,N,1.554,K,D*26
$GNGGA,103607.00,0420.08437,S,05539.63166,E,2,12,0.57,10.8,M,-47.6,M,,0000*4F
$GNGSA,A,3,29,10,32,26,23,25,18,24,28,16,31,41,1.10,0.57,0.94*1F
$GNGSA,A,3,65,86,87,72,66,76,77,,,,,,1.10,0.57,0.94*15
$GPGSV,5,1,17,10,37,320,34,16,19,291,28,18,21,031,41,23,21,005,29*76
$GPGSV,5,2,17,24,08,084,31,25,19,156,31,26,30,262,37,27,03,328,*7D
$GPGSV,5,3,17,28,23,196,30,29,51,118,39,31,10,220,38,32,67,197,42*73
$GPGSV,5,4,17,36,52,277,30,40,85,353,39,41,58,082,40,49,32,274,*70
$GPGSV,5,5,17,50,10,089,*4A
$GLGSV,2,1,08,65,72,328,32,66,44,217,32,72,21,018,30,76,20,190,27*67
$GLGSV,2,2,08,77,19,238,26,85,01,129,20,86,25,079,38,87,24,029,27*67
$GNGLL,0420.08437,S,05539.63166,E,103607.00,A,D*6C
$GNRMC,103608.00,A,0420.08452,S,05539.63186,E,0.831,125.67,220525,,,D*66
$GNVTG,125.67,T,,M,0.831,N,1.540,K,D*2B
$GNGGA,103608.00,0420.08452,S,05539.63186,E,2,12,0.55,10.8,M,-47.6,M,,0000*4F
$GNGSA,A,3,29,10,32,26,23,25,18,24,28,16,31,41,1.08,0.55,0.93*13
$GNGSA,A,3,65,86,87,72,66,76,77,,,,,,1.08,0.55,0.93*19
$GPGSV,5,1,17,10,37,320,34,16,19,291,27,18,21,031,40,23,21,005,21*70
$GPGSV,5,2,17,24,08,084,25,25,19,156,31,26,30,262,38,27,03,328,*77
$GPGSV,5,3,17,28,23,196,31,29,51,118,41,31,10,220,37,32,67,197,44*74
$GPGSV,5,4,17,36,52,277,34,40,85,353,41,41,58,082,38,49,32,274,*74
$GPGSV,5,5,17,50,10,089,*4A
$GLGSV,2,1,08,65,72,328,25,66,44,217,38,72,21,018,30,76,20,190,32*6F
$GLGSV,2,2,08,77,19,238,26,85,01,129,20,86,25,079,29,87,24,029,32*63
$GNGLL,0420.08452,S,05539.63186,E,103608.00,A,D*6E
$GNRMC,103609.00,A,0420.08470,S,05539.63207,E,1.174,137.30,220525,,,D*65
$GNVTG,137.30,T,,M,1.174,N,2.174,K,D*23
$GNGGA,103609.00,0420.08470,S,05539.63207,E,2,12,0.57,10.6,M,-47.6,M,,0000*48
$GNGSA,A,3,29,10,32,26,23,25,18,28,16,31,41,,1.13,0.57,0.97*19
$GNGSA,A,3,65,86,87,72,66,76,77,,,,,,1.13,0.57,0.97*15
$GPGSV,5,1,17,10,37,320,34,16,19,291,27,18,21,031,34,23,21,005,20*72
$GPGSV,5,2,17,24,08,084,31,25,19,156,30,26,30,262,38,27,03,328,*73
$GPGSV,5,3,17,28,23,196,30,29,51,118,42,31,10,220,39,32,67,197,45*79
$GPGSV,5,4,17,36,52,277,35,40,85,353,40,41,58,082,42,49,32,274,*79
$GPGSV,5,5,17,50,10,089,*4A
$GLGSV,2,1,08,65,72,328,32,66,44,217,37,72,21,018,28,76,20,190,32*6F
$GLGSV,2,2,08,77,19,238,26,85,01,129,21,86,25,079,33,87,24,029,35*6E
$GNGLL,0420.08470,S,05539.63207,E,103609.00,A,D*65
