$GNRMC,083052.00,A,0419.83073,S,05539.69616,E,0.115,,260525,,,A*7B
$GNVTG,,T,,M,0.115,N,0.212,K,A*39
$GNGGA,083052.00,0419.83073,S,05539.69616,E,1,12,0.79,21.1,M,-47.6,M,,*43
$GNGSA,A,3,25,23,12,15,10,29,18,24,28,26,,,1.45,0.79,1.22*19
$GNGSA,A,3,68,79,80,67,82,69,,,,,,,1.45,0.79,1.22*1F
$GPGSV,5,1,18,10,46,246,19,12,31,154,22,13,01,057,,15,36,064,32*7D
$GPGSV,5,2,18,18,18,345,16,23,60,322,28,24,15,132,13,25,60,183,22*77
$GPGSV,5,3,18,26,12,310,10,28,13,241,09,29,42,033,37,31,02,263,07*7D
$GPGSV,5,4,18,32,19,204,25,36,52,277,,40,85,352,,41,58,082,*76
$GPGSV,5,5,18,49,32,274,,50,10,089,*78
$GLGSV,3,1,09,67,23,038,11,68,66,086,19,69,43,185,24,73,10,305,*6C
$GLGSV,3,2,09,79,31,185,24,80,43,255,21,81,03,070,,82,08,026,10*6F
$GLGSV,3,3,09,83,03,340,10*52
$GNGLL,0419.83073,S,05539.69616,E,083052.00,A,A*61
$GNRMC,083053.00,A,0419.83098,S,05539.69623,E,0.766,,260525,,,A*7B
$GNVTG,,T,,M,0.766,N,1.419,K,A*37
$GNGGA,083053.00,0419.83098,S,05539.69623,E,1,12,0.83,21.4,M,-47.6,M,,*41
$GNGSA,A,3,25,23,12,15,10,29,18,24,28,26,,,1.67,0.83,1.46*1E
$GNGSA,A,3,68,79,80,67,82,69,,,,,,,1.67,0.83,1.46*18
$GPGSV,5,1,18,10,46,246,21,12,31,154,20,13,01,057,,15,36,064,28*7F
$GPGSV,5,2,18,18,18,345,17,23,60,322,27,24,15,132,13,25,60,183,22*79
$GPGSV,5,3,18,26,12,310,08,28,13,241,10,29,42,033,37,31,02,263,08*73
$GPGSV,5,4,18,32,19,204,23,36,52,277,,40,85,352,,41,58,082,*70
$GPGSV,5,5,18,49,32,274,,50,10,089,*78
$GLGSV,3,1,09,67,23,038,12,68,66,084,19,69,43,185,23,73,10,305,*6A
$GLGSV,3,2,09,79,31,185,24,80,43,255,23,81,03,070,,82,08,026,10*6D
$GLGSV,3,3,09,83,03,340,06*55
$GNGLL,0419.83098,S,05539.69623,E,083053.00,A,A*63
$GNRMC,083054.00,A,0419.83102,S,05539.69618,E,0.286,,260525,,,A*7D
$GNVTG,,T,,M,0.286,N,0.530,K,A*37
$GNGGA,083054.00,0419.83102,S,05539.69618,E,1,12,0.79,21.2,M,-47.6,M,,*4F
$GNGSA,A,3,25,23,12,15,10,29,18,24,28,26,,,1.45,0.79,1.22*19
$GNGSA,A,3,68,79,80,82,69,,,,,,,,1.45,0.79,1.22*1E
$GPGSV,5,1,18,10,46,246,24,12,31,154,20,13,01,057,,15,36,064,31*72
$GPGSV,5,2,18,18,18,345,18,23,60,322,26,24,15,132,13,25,60,183,24*71
$GPGSV,5,3,18,26,12,310,15,28,13,241,10,29,42,033,37,31,02,263,06*71
$GPGSV,5,4,18,32,19,204,21,36,52,277,,40,85,352,,41,58,082,*72
$GPGSV,5,5,18,49,32,274,,50,10,089,*78
$GLGSV,3,1,09,67,23,038,09,68,66,084,19,69,44,184,25,73,10,305,*60
$GLGSV,3,2,09,79,31,185,24,80,43,255,22,81,03,070,,82,08,026,09*64
$GLGSV,3,3,09,83,03,340,10*52
$GNGLL,0419.83102,S,05539.69618,E,083054.00,A,A*6E
$GNRMC,083055.00,A,0419.83106,S,05539.69623,E,0.043,,260525,,,A*7B
$GNVTG,,T,,M,0.043,N,0.079,K,A*34
$GNGGA,083055.00,0419.83106,S,05539.69623,E,1,12,0.91,21.6,M,-47.6,M,,*40
$GNGSA,A,3,25,23,12,15,10,29,18,24,28,26,,,1.89,0.91,1.66*1F
$GNGSA,A,3,68,79,80,67,82,69,,,,,,,1.89,0.91,1.66*19
$GPGSV,5,1,18,10,46,246,25,12,31,154,20,13,01,057,,15,36,064,33*71
$GPGSV,5,2,18,18,18,345,19,23,60,322,27,24,15,132,13,25,60,183,25*70
$GPGSV,5,3,18,26,12,310,12,28,13,241,09,29,42,033,38,31,02,263,06*71
$GPGSV,5,4,18,32,19,204,21,36,52,277,,40,85,352,,41,58,082,*72
$GPGSV,5,5,18,49,32,274,,50,10,089,*78
$GLGSV,3,1,09,67,23,038,20,68,66,084,19,69,44,184,27,73,10,305,*69
$GLGSV,3,2,09,79,31,185,26,80,43,255,23,81,03,070,,82,08,026,08*66
$GLGSV,3,3,09,83,03,340,12*50
$GNGLL,0419.83106,S,05539.69623,E,083055.00,A,A*63
$GNRMC,083056.00,A,0419.83113,S,05539.69628,E,0.044,,260525,,,A*70
$GNVTG,,T,,M,0.044,N,0.081,K,A*34
$GNGGA,083056.00,0419.83113,S,05539.69628,E,1,12,0.67,21.8,M,-47.6,M,,*4B
$GNGSA,A,3,25,23,12,15,10,29,18,24,28,26,,,1.34,0.67,1.16*17
$GNGSA,A,3,68,79,80,67,82,69,,,,,,,1.34,0.67,1.16*11
$GPGSV,5,1,18,10,46,246,24,12,31,154,21,13,01,057,,15,36,064,34*76
$GPGSV,5,2,18,18,18,345,20,23,60,322,29,24,15,132,14,25,60,183,26*70
$GPGSV,5,3,18,26,12,310,10,28,13,241,10,29,42,033,38,31,02,263,09*74
$GPGSV,5,4,18,32,19,204,24,36,52,277,,40,85,352,,41,58,082,*77
$GPGSV,5,5,18,49,32,274,,50,10,089,*78
$GLGSV,3,1,09,67,23,038,17,68,66,084,17,69,44,184,27,73,10,305,*63
$GLGSV,3,2,09,79,31,185,26,80,43,255,23,81,03,070,,82,08,026,11*6E
$GLGSV,3,3,09,83,03,340,10*52
$GNGLL,0419.83113,S,05539.69628,E,083056.00,A,A*6F
$GNRMC,083057.00,A,0419.83119,S,05539.69631,E,0.034,,260525,,,A*74
$GNVTG,,T,,M,0.034,N,0.062,K,A*3E
$GNGGA,083057.00,0419.83119,S,05539.69631,E,1,12,0.91,21.5,M,-47.6,M,,*4C
$GNGSA,A,3,25,23,12,15,10,29,18,24,28,26,,,1.89,0.91,1.66*1F
$GNGSA,A,3,79,80,67,82,69,,,,,,,,1.89,0.91,1.66*17
$GPGSV,5,1,18,10,46,246,25,12,31,154,23,13,01,057,,15,36,064,36*77
$GPGSV,5,2,18,18,18,345,21,23,60,322,31,24,15,132,14,25,60,183,26*78
$GPGSV,5,3,18,26,12,310,19,28,13,241,08,29,42,033,39,31,02,263,10*7D
$GPGSV,5,4,18,32,19,204,25,36,52,277,,40,85,352,,41,58,082,*76
$GPGSV,5,5,18,49,32,274,,50,10,089,*78
$GLGSV,3,1,09,67,23,038,20,68,66,084,15,69,44,184,28,73,10,305,*6A
$GLGSV,3,2,09,79,31,185,27,80,43,255,22,81,03,070,,82,08,026,08*66
$GLGSV,3,3,09,83,03,340,10*52
$GNGLL,0419.83119,S,05539.69631,E,083057.00,A,A*6C
$GNRMC,083058.00,A,0419.83128,S,05539.69642,E,0.186,,260525,,,A*75
$GNVTG,,T,,M,0.186,N,0.344,K,A*31
$GNGGA,083058.00,0419.83128,S,05539.69642,E,1,12,0.80,21.8,M,-47.6,M,,*48
$GNGSA,A,3,25,23,12,15,10,29,18,24,28,26,,,1.53,0.80,1.31*1A
$GNGSA,A,3,68,79,80,67,82,69,,,,,,,1.53,0.80,1.31*1C
$GPGSV,5,1,18,10,46,246,26,12,31,154,23,13,01,057,,15,36,064,36*74
$GPGSV,5,2,18,18,18,345,22,23,60,322,30,24,15,132,14,25,60,183,27*7B
$GPGSV,5,3,18,26,12,310,15,28,13,241,12,29,42,033,40,31,02,263,07*72
$GPGSV,5,4,18,32,19,204,25,36,52,277,,40,85,352,,41,58,082,*76
$GPGSV,5,5,18,49,32,274,,50,10,089,*78
$GLGSV,3,1,09,67,23,038,22,68,66,084,15,69,44,184,29,73,10,304,*68
$GLGSV,3,2,09,79,31,185,26,80,43,255,20,81,03,070,,82,08,026,08*65
$GLGSV,3,3,09,83,03,340,10*52
$GNGLL,0419.83128,S,05539.69642,E,083058.00,A,A*65
$GNRMC,083059.00,A,0419.83137,S,05539.69647,E,0.054,,260525,,,A*71
$GNVTG,,T,,M,0.054,N,0.101,K,A*3C
$GNGGA,083059.00,0419.83137,S,05539.69647,E,1,12,0.88,21.8,M,-47.6,M,,*4A
$GNGSA,A,3,25,23,12,15,10,29,18,28,26,,,,1.96,0.88,1.75*1D
$GNGSA,A,3,68,79,80,67,82,69,,,,,,,1.96,0.88,1.75*1D
$GPGSV,5,1,18,10,46,246,26,12,31,154,25,13,01,057,,15,36,064,35*71
$GPGSV,5,2,18,18,18,345,21,23,60,322,30,24,15,132,,25,60,183,26*7C
$GPGSV,5,3,18,26,12,310,16,28,13,241,10,29,42,033,40,31,02,263,10*75
$GPGSV,5,4,18,32,19,204,25,36,52,277,,40,85,352,,41,58,082,*76
$GPGSV,5,5,18,49,32,274,,50,10,089,*78
$GLGSV,3,1,09,67,23,038,23,68,66,084,15,69,44,184,29,73,10,304,*69
$GLGSV,3,2,09,79,31,185,25,80,43,255,20,81,03,070,,82,08,026,08*66
$GLGSV,3,3,09,83,03,340,09*5A
$GNGLL,0419.83137,S,05539.69647,E,083059.00,A,A*6F
$GNRMC,083100.00,A,0419.83145,S,05539.69659,E,0.134,,260525,,,A*71
$GNVTG,,T,,M,0.134,N,0.248,K,A*35
$GNGGA,083100.00,0419.83145,S,05539.69659,E,1,12,0.86,22.0,M,-47.6,M,,*48
$GNGSA,A,3,25,23,12,15,10,29,18,28,26,,,,1.67,0.86,1.43*18
$GNGSA,A,3,68,79,80,67,82,69,,,,,,,1.67,0.86,1.43*18
$GPGSV,5,1,18,10,46,246,25,12,31,154,25,13,01,057,,15,36,064,34*73
$GPGSV,5,2,18,18,18,345,19,23,60,322,30,24,15,132,,25,60,183,26*77
$GPGSV,5,3,18,26,12,310,17,28,13,241,11,29,42,033,39,31,02,263,12*79
$GPGSV,5,4,18,32,19,204,26,36,52,277,,40,85,352,,41,58,082,*75
$GPGSV,5,5,18,49,32,274,,50,10,089,*78
$GLGSV,3,1,09,67,23,038,23,68,66,084,13,69,44,184,27,73,10,304,*61
$GLGSV,3,2,09,79,31,185,24,80,43,255,20,81,03,070,,82,08,026,12*6C
$GLGSV,3,3,09,83,03,340,09*5A
$GNGLL,0419.83145,S,05539.69659,E,083100.00,A,A*68
$GNRMC,083101.00,A,0419.83159,S,05539.69674,E,0.182,,260525,,,A*7F
$GNVTG,,T,,M,0.182,N,0.337,K,A*31
$GNGGA,083101.00,0419.83159,S,05539.69674,E,1,12,0.88,22.0,M,-47.6,M,,*45
$GNGSA,A,3,25,23,12,15,10,29,18,28,26,,,,1.88,0.88,1.66*10
$GNGSA,A,3,79,80,67,82,69,,,,,,,,1.88,0.88,1.66*1E
$GPGSV,5,1,18,10,46,246,26,12,31,154,25,13,01,057,,15,36,064,34*70
$GPGSV,5,2,18,18,18,345,18,23,60,322,32,24,15,132,05,25,60,183,26*71
$GPGSV,5,3,18,26,12,310,16,28,13,241,14,29,42,033,39,31,02,263,10*7F
$GPGSV,5,4,18,32,19,204,25,36,52,277,,40,85,352,,41,58,082,*76
$GPGSV,5,5,18,49,32,274,,50,10,089,*78
$GLGSV,3,1,09,67,23,038,24,68,66,084,09,69,44,184,26,73,10,304,*6C
$GLGSV,3,2,09,79,31,185,25,80,43,255,22,81,03,070,,82,08,026,10*6D
$GLGSV,3,3,09,83,03,340,11*53
$GNGLL,0419.83159,S,05539.69674,E,083101.00,A,A*6B
$GNRMC,083102.00,A,0419.83166,S,05539.69676,E,0.101,,260525,,,A*79
$GNVTG,,T,,M,0.101,N,0.186,K,A*32
$GNGGA,083102.00,0419.83166,S,05539.69676,E,1,12,0.74,20.9,M,-47.6,M,,*40
$GNGSA,A,3,25,23,12,15,10,29,18,28,26,,,,1.39,0.74,1.17*1F
$GNGSA,A,3,68,79,80,67,82,69,,,,,,,1.39,0.74,1.17*1F
$GPGSV,5,1,18,10,46,246,26,12,31,154,24,13,01,057,,15,36,064,34*71
$GPGSV,5,2,18,18,18,345,19,23,60,322,32,24,15,132,10,25,60,183,26*74
$GPGSV,5,3,18,26,12,310,18,28,13,241,09,29,42,033,39,31,02,263,10*7D
$GPGSV,5,4,18,32,19,204,25,36,52,277,,40,85,352,,41,58,082,*76
$GPGSV,5,5,18,49,32,274,,50,10,089,*78
$GLGSV,3,1,09,67,23,038,24,68,66,084,13,69,44,184,24,73,10,304,*65
$GLGSV,3,2,09,79,31,185,25,80,43,255,24,81,03,070,,82,08,026,11*6A
$GLGSV,3,3,09,83,03,340,12*50
$GNGLL,0419.83166,S,05539.69676,E,083102.00,A,A*66
$GNRMC,083104.00,A,0419.83193,S,05539.69692,E,0.263,,260525,,,A*78
$GNVTG,,T,,M,0.263,N,0.487,K,A*31
$GNGGA,083104.00,0419.83193,S,05539.69692,E,1,12,0.74,20.3,M,-47.6,M,,*4C
$GNGSA,A,3,25,23,12,15,10,29,18,28,26,,,,1.39,0.74,1.17*1F
$GNGSA,A,3,68,79,80,67,82,69,,,,,,,1.39,0.74,1.17*1F
$GPGSV,5,1,18,10,46,246,27,12,31,154,23,13,01,057,,15,36,064,34*77
$GPGSV,5,2,18,18,18,345,17,23,60,322,32,24,15,132,13,25,60,183,22*7D
$GPGSV,5,3,18,26,12,310,16,28,13,241,10,29,42,033,39,31,02,263,07*7D
$GPGSV,5,4,18,32,19,204,24,36,52,277,,40,85,352,,41,58,082,*77
$GPGSV,5,5,18,49,32,274,,50,10,089,*78
$GLGSV,3,1,09,67,23,038,19,68,66,084,17,69,44,184,24,73,10,304,*6F
$GLGSV,3,2,09,79,31,185,26,80,43,255,24,81,03,070,,82,08,026,13*6B
$GLGSV,3,3,09,83,03,340,10*52
$GNGLL,0419.83193,S,05539.69692,E,083104.00,A,A*60
$GNRMC,083105.00,A,0419.83198,S,05539.69704,E,0.116,,260525,,,A*7D
$GNVTG,,T,,M,0.116,N,0.215,K,A*3D
$GNGGA,083105.00,0419.83198,S,05539.69704,E,1,12,0.74,19.9,M,-47.6,M,,*48
$GNGSA,A,3,25,23,12,15,10,29,18,28,26,,,,1.39,0.74,1.17*1F
$GNGSA,A,3,68,79,80,67,82,69,,,,,,,1.39,0.74,1.17*1F
$GPGSV,5,1,18,10,46,246,28,12,31,154,20,13,01,057,,15,36,064,33*7C
$GPGSV,5,2,18,18,18,345,19,23,60,322,32,24,15,132,11,25,60,183,22*71
$GPGSV,5,3,18,26,12,310,15,28,13,241,15,29,42,033,39,31,02,263,09*75
$GPGSV,5,4,18,32,19,204,25,36,52,277,,40,85,352,,41,58,082,*76
$GPGSV,5,5,18,49,32,274,,50,10,089,*78
$GLGSV,3,1,09,67,23,038,18,68,66,084,17,69,44,184,24,73,10,304,*6E
$GLGSV,3,2,09,79,31,185,25,80,43,254,26,81,03,070,,82,08,026,09*60
$GLGSV,3,3,09,83,03,340,08*5B
$GNGLL,0419.83198,S,05539.69704,E,083105.00,A,A*64
$GNRMC,083106.00,A,0419.83205,S,05539.69715,E,0.181,,260525,,,A*77
$GNVTG,,T,,M,0.181,N,0.336,K,A*33
$GNGGA,083106.00,0419.83205,S,05539.69715,E,1,12,0.78,19.7,M,-47.6,M,,*4E
$GNGSA,A,3,25,23,12,15,10,29,18,24,28,26,,,1.52,0.78,1.30*1D
$GNGSA,A,3,68,79,80,67,82,69,,,,,,,1.52,0.78,1.30*1B
$GPGSV,5,1,18,10,46,246,28,12,31,154,19,13,01,057,,15,36,064,34*71
$GPGSV,5,2,18,18,18,345,19,23,60,322,31,24,15,132,09,25,60,183,23*7A
$GPGSV,5,3,18,26,12,310,15,28,13,241,18,29,42,033,39,31,02,263,08*79
$GPGSV,5,4,18,32,19,204,26,36,52,277,,40,85,352,,41,58,082,*75
$GPGSV,5,5,18,49,32,274,,50,10,089,*78
$GLGSV,3,1,09,67,23,038,17,68,66,084,17,69,44,184,26,73,10,304,*63
$GLGSV,3,2,09,79,31,185,24,80,43,254,25,81,03,070,,82,08,026,11*6B
$GLGSV,3,3,09,83,03,340,10*52
$GNGLL,0419.83205,S,05539.69715,E,083106.00,A,A*60
$GNRMC,083107.00,A,0419.83207,S,05539.69722,E,0.030,,260525,,,A*7B
$GNVTG,,T,,M,0.030,N,0.055,K,A*3E
$GNGGA,083107.00,0419.83207,S,05539.69722,E,1,12,0.78,19.3,M,-47.6,M,,*4D
$GNGSA,A,3,25,23,12,15,10,29,18,24,28,26,,,1.52,0.78,1.30*1D
$GNGSA,A,3,68,79,80,67,82,69,,,,,,,1.52,0.78,1.30*1B
$GPGSV,5,1,18,10,46,246,27,12,31,154,19,13,01,057,,15,36,064,34*7E
$GPGSV,5,2,18,18,18,345,20,23,60,322,32,24,15,132,16,25,60,183,23*7D
$GPGSV,5,3,18,26,12,310,15,28,13,241,18,29,42,033,39,31,02,263,12*72
$GPGSV,5,4,18,32,19,204,27,36,52,277,,40,85,352,,41,58,082,*74
$GPGSV,5,5,18,49,32,274,,50,10,089,*78
$GLGSV,3,1,09,67,23,038,19,68,66,084,19,69,44,184,29,73,10,304,*6C
$GLGSV,3,2,09,79,31,185,23,80,43,254,24,81,03,070,,82,08,027,14*69
$GLGSV,3,3,09,83,03,340,13*51
$GNGLL,0419.83207,S,05539.69722,E,083107.00,A,A*67
$GNRMC,083108.00,A,0419.83209,S,05539.69727,E,0.087,,260525,,,A*73
$GNVTG,,T,,M,0.087,N,0.161,K,A*34
$GNGGA,083108.00,0419.83209,S,05539.69727,E,1,12,0.74,19.1,M,-47.6,M,,*47
$GNGSA,A,3,25,23,12,15,10,29,18,24,28,26,,,1.39,0.74,1.17*19
$GNGSA,A,3,68,79,80,67,82,69,,,,,,,1.39,0.74,1.17*1F
$GPGSV,5,1,18,10,46,246,26,12,31,154,20,13,01,057,,15,36,064,35*74
$GPGSV,5,2,18,18,18,345,21,23,60,322,31,24,15,132,15,25,60,183,23*7C
$GPGSV,5,3,18,26,12,310,16,28,13,241,17,29,42,033,39,31,02,263,10*7C
$GPGSV,5,4,18,32,19,204,26,36,52,277,,40,85,352,,41,58,082,*75
$GPGSV,5,5,18,49,32,274,,50,10,089,*78
$GLGSV,3,1,09,67,23,038,21,68,66,084,22,69,44,184,30,73,10,304,*67
$GLGSV,3,2,09,79,31,185,22,80,43,254,23,81,03,070,,82,08,027,15*6E
$GLGSV,3,3,09,83,03,340,09*5A
$GNGLL,0419.83209,S,05539.69727,E,083108.00,A,A*63
$GNRMC,083109.00,A,0419.83204,S,05539.69720,E,0.155,,260525,,,A*76
$GNVTG,,T,,M,0.155,N,0.287,K,A*31
$GNGGA,083109.00,0419.83204,S,05539.69720,E,1,12,0.74,18.1,M,-47.6,M,,*4D
$GNGSA,A,3,25,23,12,15,10,29,18,24,28,26,,,1.39,0.74,1.17*19
$GNGSA,A,3,68,79,80,67,82,69,,,,,,,1.39,0.74,1.17*1F
$GPGSV,5,1,18,10,46,246,28,12,31,154,21,13,01,057,,15,36,064,34*7A
$GPGSV,5,2,18,18,18,345,22,23,60,322,30,24,15,132,14,25,60,183,21*7D
$GPGSV,5,3,18,26,12,310,17,28,13,241,18,29,42,033,39,31,02,263,08*7B
$GPGSV,5,4,18,32,19,204,27,36,52,277,,40,85,352,,41,58,082,*74
$GPGSV,5,5,18,49,32,274,,50,10,089,*78
$GLGSV,3,1,09,67,23,038,21,68,66,084,22,69,44,184,31,73,10,304,*66
$GLGSV,3,2,09,79,31,185,22,80,43,254,20,81,03,070,,82,08,027,17*6F
$GLGSV,3,3,09,83,03,340,06*55
$GNGLL,0419.83204,S,05539.69720,E,083109.00,A,A*68
$GNRMC,083110.00,A,0419.83194,S,05539.69701,E,0.269,,260525,,,A*7B
$GNVTG,,T,,M,0.269,N,0.498,K,A*35
$GNGGA,083110.00,0419.83194,S,05539.69701,E,1,12,0.64,16.4,M,-47.6,M,,*46
$GNGSA,A,3,25,23,12,15,10,29,18,24,28,26,,,1.23,0.64,1.05*10
$GNGSA,A,3,68,79,80,67,82,69,,,,,,,1.23,0.64,1.05*16
$GPGSV,5,1,18,10,46,246,28,12,31,154,21,13,01,057,,15,36,064,34*7A
$GPGSV,5,2,18,18,18,345,21,23,60,322,29,24,15,132,16,25,60,183,23*76
$GPGSV,5,3,18,26,12,310,18,28,13,241,18,29,42,033,39,31,02,263,13*7E
$GPGSV,5,4,18,32,19,204,27,36,52,277,,40,85,352,,41,58,082,*74
$GPGSV,5,5,18,49,32,274,,50,10,089,*78
$GLGSV,3,1,09,67,23,038,20,68,66,084,21,69,44,184,31,73,10,304,*64
$GLGSV,3,2,09,79,31,185,22,80,43,254,19,81,03,070,,82,08,027,14*66
$GLGSV,3,3,09,83,03,340,10*52
$GNGLL,0419.83194,S,05539.69701,E,083110.00,A,A*69
$GNRMC,083111.00,A,0419.83197,S,05539.69696,E,0.083,,260525,,,A*70
$GNVTG,,T,,M,0.083,N,0.154,K,A*36
$GNGGA,083111.00,0419.83197,S,05539.69696,E,1,12,0.74,15.9,M,-47.6,M,,*44
$GNGSA,A,3,25,23,12,15,10,29,18,28,26,,,,1.48,0.74,1.28*15
$GNGSA,A,3,68,79,80,67,69,,,,,,,,1.48,0.74,1.28*1F
$GPGSV,5,1,18,10,46,246,27,12,31,154,22,13,01,057,,15,36,064,33*71
$GPGSV,5,2,18,18,18,345,21,23,60,322,28,24,15,132,08,25,60,183,25*7E
$GPGSV,5,3,18,26,12,310,18,28,13,241,18,29,42,033,40,31,02,263,11*72
$GPGSV,5,4,18,32,19,204,26,36,52,277,,40,85,352,,41,58,082,*75
$GPGSV,5,5,18,49,32,274,,50,10,089,*78
$GLGSV,3,1,09,67,23,038,20,68,66,084,22,69,44,184,30,73,10,304,*66
$GLGSV,3,2,09,79,31,185,25,80,43,254,16,81,03,070,,82,08,027,07*6C
$GLGSV,3,3,09,83,03,340,09*5A
$GNGLL,0419.83197,S,05539.69696,E,083111.00,A,A*64
$GPGSV,5,4,18,32,19,204,26,36,52,277,,40,85,352,,41,58,082,*75
$GPGSV,5,5,18,49,32,274,,50,10,089,*78
$GLGSV,3,1,09,67,23,038,20,68,66,084,24,69,44,184,30,73,10,304,*60
$GLGSV,3,2,09,79,31,185,25,80,43,254,16,81,03,070,,82,08,027,10*6A
$GLGSV,3,3,09,83,03,340,08*5B
$GNGLL,0419.83197,S,05539.69683,E,083112.00,A,A*63
$GPGSV,5,4,18,32,19,204,27,36,52,277,,40,85,352,,41,58,082,*74
$GPGSV,5,5,18,49,32,274,,50,10,089,*78
$GLGSV,3,1,09,67,23,038,20,68,66,084,26,69,44,184,30,73,10,304,*62
$GLGSV,3,2,09,79,31,185,25,80,43,254,16,81,03,070,,82,08,027,16*6C
$GLGSV,3,3,09,83,03,340,11*53
$GNGLL,0419.83200,S,05539.69671,E,083113.00,A,A*62
$GNRMC,083117.00,A,0419.83217,S,05539.69645,E,0.122,,260525,,,A*79
$GNVTG,,T,,M,0.122,N,0.226,K,A*3A
$GNGGA,083117.00,0419.83217,S,05539.69645,E,1,12,0.64,10.2,M,-47.6,M,,*48
$GNGSA,A,3,25,23,12,15,10,29,18,24,28,26,,,1.23,0.64,1.05*10
$GNGSA,A,3,68,79,80,67,82,69,,,,,,,1.23,0.64,1.05*16
$GPGSV,5,1,18,10,46,246,21,12,31,154,25,13,01,057,,15,36,064,32*71
$GNRMC,083118.00,A,0419.83221,S,05539.69645,E,0.239,,260525,,,A*7A
$GNVTG,,T,,M,0.239,N,0.443,K,A*36
$GNGGA,083118.00,0419.83221,S,05539.69645,E,1,12,0.64,9.5,M,-47.6,M,,*7D
$GNGSA,A,3,25,23,12,15,10,29,18,24,28,26,,,1.23,0.64,1.05*10
$GNGSA,A,3,68,79,80,67,82,69,,,,,,,1.23,0.64,1.05*16
$GPGSV,5,1,18,10,46,246,23,12,31,154,25,13,01,057,,15,36,064,32*73
$GPGSV,5,2,18,18,18,345,17,23,60,322,30,24,15,132,14,25,60,183,27*7D
$GPGSV,5,3,18,26,12,310,17,28,13,241,17,29,42,033,39,31,02,263,11*7C
$GPGSV,5,4,18,32,19,204,26,36,52,277,,40,85,352,,41,58,082,*75
$GPGSV,5,5,18,49,32,274,,50,10,089,*78
$GLGSV,3,1,09,67,23,038,18,68,66,084,20,69,44,184,28,73,10,304,*66
$GLGSV,3,2,09,79,31,185,18,80,43,254,13,81,03,070,,82,08,027,16*67
$GLGSV,3,3,09,83,03,340,08*5B
$GNGLL,0419.83221,S,05539.69645,E,083118.00,A,A*6D
$GNRMC,083119.00,A,0419.83226,S,05539.69647,E,0.217,,260525,,,A*72
$GNVTG,,T,,M,0.217,N,0.401,K,A*3C
$GNGGA,083119.00,0419.83226,S,05539.69647,E,1,12,0.64,8.6,M,-47.6,M,,*7B
$GNGSA,A,3,25,23,12,15,10,29,18,24,28,26,,,1.23,0.64,1.05*10
$GNGSA,A,3,68,79,80,67,82,69,,,,,,,1.23,0.64,1.05*16
$GPGSV,5,1,18,10,46,246,23,12,31,154,25,13,01,057,,15,36,064,32*73
$GPGSV,5,2,18,18,18,345,15,23,60,322,29,24,15,132,14,25,60,183,27*77
$GPGSV,5,3,18,26,12,310,18,28,13,241,17,29,42,033,38,31,02,263,08*7A
$GPGSV,5,4,18,32,19,204,27,36,52,277,,40,85,352,,41,58,082,*74
$GPGSV,5,5,18,49,32,274,,50,10,089,*78
$GLGSV,3,1,09,67,23,038,18,68,66,084,20,69,44,184,27,73,10,304,*69
$GLGSV,3,2,09,79,31,185,18,80,43,254,14,81,03,070,,82,08,027,15*63
$GLGSV,3,3,09,83,03,340,10*52
$GNGLL,0419.83226,S,05539.69647,E,083119.00,A,A*69
$GNRMC,083120.00,A,0419.83234,S,05539.69657,E,0.097,,260525,,,A*70
$GNVTG,,T,,M,0.097,N,0.180,K,A*3A
$GNRMC,083121.00,A,0419.83242,S,05539.69669,E,0.286,,260525,,,A*7F
$GNVTG,,T,,M,0.286,N,0.530,K,A*37
$GNGGA,083121.00,0419.83242,S,05539.69669,E,1,12,0.64,7.2,M,-47.6,M,,*75
$GNGSA,A,3,25,23,12,15,10,29,18,24,28,26,,,1.23,0.64,1.05*10
$GNGSA,A,3,68,79,80,67,82,69,,,,,,,1.23,0.64,1.05*16
$GPGSV,5,1,18,10,46,246,23,12,31,154,21,13,01,057,,15,36,064,32*77
$GPGSV,5,2,18,18,18,345,18,23,60,322,28,24,15,132,12,25,60,183,29*73
$GPGSV,5,3,18,26,12,310,19,28,13,241,17,29,42,033,39,31,02,263,08*7A
$GPGSV,5,4,18,32,19,204,26,36,52,277,,40,85,352,,41,58,082,*75
$GPGSV,5,5,18,49,32,274,,50,10,089,*78
$GLGSV,3,1,09,67,23,038,22,68,66,084,24,69,44,184,27,73,10,304,*64
$GLGSV,3,2,09,79,31,185,16,80,43,254,18,81,03,070,,82,08,027,16*62
$GLGSV,3,3,09,83,03,340,09*5A
$GNGLL,0419.83242,S,05539.69669,E,083121.00,A,A*6C
$GNRMC,083123.00,A,0419.83250,S,05539.69678,E,0.185,,260525,,,A*7E
$GNVTG,,T,,M,0.185,N,0.343,K,A*35
$GNGGA,083123.00,0419.83250,S,05539.69678,E,1,12,0.64,6.5,M,-47.6,M,,*72
$GNGSA,A,3,25,23,12,15,10,29,18,24,28,26,,,1.23,0.64,1.05*10
$GNGSA,A,3,68,79,80,67,82,69,,,,,,,1.23,0.64,1.05*16
$GPGSV,5,1,18,10,46,247,25,12,31,154,20,13,01,057,,15,36,064,32*71
$GPGSV,5,2,18,18,18,345,14,23,60,322,25,24,15,132,11,25,60,183,28*70
$GPGSV,5,3,18,26,12,310,17,28,13,241,17,29,42,033,38,31,02,263,09*74
$GPGSV,5,4,18,32,19,204,25,36,52,277,,40,85,352,,41,58,082,*76
$GPGSV,5,5,18,49,32,274,,50,10,089,*78
$GLGSV,3,1,09,67,23,038,24,68,66,084,27,69,44,184,26,73,10,304,*60
$GLGSV,3,2,09,79,31,185,17,80,43,254,23,81,03,070,,82,08,027,18*65
$GLGSV,3,3,09,83,03,340,08*5B
$GNGLL,0419.83250,S,05539.69678,E,083123.00,A,A*6D
$GNRMC,083124.00,A,0419.83253,S,05539.69671,E,0.333,,260525,,,A*7C
$GNVTG,,T,,M,0.333,N,0.617,K,A*3E
$GNGGA,083124.00,0419.83253,S,05539.69671,E,1,12,0.64,6.0,M,-47.6,M,,*7A
$GNGSA,A,3,25,23,12,15,10,29,18,24,28,26,,,1.23,0.64,1.05*10
$GNGSA,A,3,68,79,80,67,82,69,,,,,,,1.23,0.64,1.05*16
$GPGSV,5,1,18,10,46,247,24,12,31,154,21,13,01,057,,15,36,064,30*73
$GPGSV,5,2,18,18,18,345,14,23,60,322,22,24,15,132,15,25,60,183,28*73
$GPGSV,5,3,18,26,12,310,16,28,13,241,18,29,42,033,37,31,02,263,10*7D
$GPGSV,5,4,18,32,19,204,25,36,52,277,,40,85,352,,41,58,082,*76
$GPGSV,5,5,18,49,32,274,,50,10,089,*78
$GLGSV,3,1,09,67,23,038,25,68,66,084,26,69,44,184,23,73,10,304,*65
$GLGSV,3,2,09,79,31,185,16,80,43,254,23,81,03,070,,82,08,027,17*6B
$GLGSV,3,3,09,83,03,340,07*54
$GNGLL,0419.83253,S,05539.69671,E,083124.00,A,A*60
$GNRMC,083126.00,A,0419.83262,S,05539.69689,E,0.347,,260525,,,A*78
$GNVTG,,T,,M,0.347,N,0.642,K,A*3D
$GNGGA,083126.00,0419.83262,S,05539.69689,E,1,12,0.62,5.2,M,-47.6,M,,*7A
$GNGSA,A,3,25,23,12,15,10,29,18,24,28,32,26,,1.19,0.62,1.01*1A
$GNGSA,A,3,68,79,80,67,82,69,,,,,,,1.19,0.62,1.01*1D
$GPGSV,5,1,18,10,46,247,27,12,30,154,24,13,01,056,,15,36,064,30*75
$GPGSV,5,2,18,18,18,345,18,23,60,322,21,24,15,132,18,25,60,183,29*70
$GPGSV,5,3,18,26,12,310,18,28,13,241,13,29,42,033,36,31,02,263,07*7F
$GPGSV,5,4,18,32,19,204,24,36,52,277,,40,85,352,,41,58,082,*77
$GPGSV,5,5,18,49,32,274,,50,10,089,*78
$GLGSV,3,1,09,67,23,038,22,68,66,084,21,69,44,184,27,73,10,304,*61
$GLGSV,3,2,09,79,31,185,09,80,43,254,25,81,03,070,,82,08,027,15*61
$GLGSV,3,3,09,83,03,340,09*5A
$GNGLL,0419.83262,S,05539.69689,E,083126.00,A,A*67
$GNRMC,083127.00,A,0419.83266,S,05539.69695,E,0.087,,260525,,,A*7F
$GNVTG,,T,,M,0.087,N,0.161,K,A*34
$GNGGA,083127.00,0419.83266,S,05539.69695,E,1,12,0.62,4.5,M,-47.6,M,,*74
$GNGSA,A,3,25,23,12,15,10,29,18,24,28,32,26,,1.19,0.62,1.01*1A
$GNGSA,A,3,68,79,80,67,82,69,,,,,,,1.19,0.62,1.01*1D
$GPGSV,5,1,18,10,46,247,28,12,30,154,26,13,01,056,,15,36,064,29*70
$GPGSV,5,2,18,18,18,345,21,23,60,322,25,24,15,132,18,25,60,183,29*7E
$GPGSV,5,3,18,26,12,310,18,28,13,241,08,29,42,033,36,31,02,263,08*7A
$GPGSV,5,4,18,32,19,204,25,36,52,277,,40,85,352,,41,58,082,*76
$GPGSV,5,5,18,49,32,274,,50,10,089,*78
$GLGSV,3,1,09,67,23,038,23,68,66,084,20,69,44,184,25,73,10,304,*63
$GLGSV,3,2,09,79,31,185,15,80,43,254,22,81,03,070,,82,08,027,15*6B
$GLGSV,3,3,09,83,03,340,13*51
$GNGLL,0419.83266,S,05539.69695,E,083127.00,A,A*6F
$GNRMC,083128.00,A,0419.83261,S,05539.69701,E,0.320,,260525,,,A*75
$GNVTG,,T,,M,0.320,N,0.593,K,A*33
$GNGGA,083128.00,0419.83261,S,05539.69701,E,1,12,0.62,4.2,M,-47.6,M,,*77
$GNGSA,A,3,25,23,12,15,10,29,18,24,28,32,26,,1.19,0.62,1.01*1A
$GNGSA,A,3,68,79,80,67,82,69,,,,,,,1.19,0.62,1.01*1D
$GPGSV,5,1,18,10,46,247,28,12,30,154,27,13,01,056,,15,36,064,28*70
$GPGSV,5,2,18,18,18,345,21,23,60,322,26,24,15,132,15,25,60,183,29*70
$GPGSV,5,3,18,26,12,310,18,28,13,241,11,29,42,033,36,31,02,263,10*7B
$GPGSV,5,4,18,32,19,204,26,36,52,277,,40,85,352,,41,58,082,*75
$GPGSV,5,5,18,49,32,274,,50,10,089,*78
$GLGSV,3,1,09,67,23,038,23,68,66,084,21,69,44,184,24,73,10,304,*63
$GLGSV,3,2,09,79,31,185,18,80,43,254,20,81,03,070,,82,08,027,15*64
$GLGSV,3,3,09,83,03,340,10*52
$GNGLL,0419.83261,S,05539.69701,E,083128.00,A,A*6B
$GNRMC,083130.00,A,0419.83254,S,05539.69720,E,0.203,,260525,,,A*79
$GNVTG,,T,,M,0.203,N,0.376,K,A*3E
$GNGGA,083130.00,0419.83254,S,05539.69720,E,1,12,0.72,4.5,M,-47.6,M,,*7D
$GNGSA,A,3,25,23,12,15,10,29,18,28,32,26,,,1.37,0.72,1.17*16
$GNGSA,A,3,68,79,80,67,82,69,,,,,,,1.37,0.72,1.17*17
$GPGSV,5,1,18,10,46,247,25,12,30,154,28,13,01,056,,15,36,064,33*78
$GPGSV,5,2,18,18,18,345,20,23,60,322,25,24,15,132,09,25,60,183,27*71
$GPGSV,5,3,18,26,12,310,19,28,13,241,14,29,42,033,35,31,02,263,08*75
$GPGSV,5,4,18,32,19,204,26,36,52,277,,40,85,352,,41,58,082,*75
$GPGSV,5,5,18,49,32,274,,50,10,089,*78
$GLGSV,3,1,09,67,23,038,22,68,66,084,19,69,44,184,25,73,10,304,*68
$GLGSV,3,2,09,79,31,185,20,80,43,254,23,81,03,070,,82,08,027,15*6C
$GLGSV,3,3,09,83,03,340,11*53
$GNGLL,0419.83254,S,05539.69720,E,083130.00,A,A*67
$GNRMC,083131.00,A,0419.83255,S,05539.69732,E,0.020,,260525,,,A*79
$GNVTG,,T,,M,0.020,N,0.037,K,A*3B
$GNGGA,083131.00,0419.83255,S,05539.69732,E,1,12,0.65,4.5,M,-47.6,M,,*78
$GNGSA,A,3,25,23,12,15,10,29,18,24,28,32,26,,1.26,0.65,1.08*18
$GNGSA,A,3,68,79,80,67,82,69,,,,,,,1.26,0.65,1.08*1F
$GPGSV,5,1,18,10,46,247,25,12,30,154,28,13,01,056,,15,36,064,35*7E
$GPGSV,5,2,18,18,18,346,20,23,60,322,32,24,15,132,11,25,60,183,25*7F
$GPGSV,5,3,18,26,12,310,20,28,13,241,13,29,42,033,36,31,02,263,09*7A
$GPGSV,5,4,18,32,19,204,25,36,52,277,,40,85,352,,41,58,082,*76
$GPGSV,5,5,18,49,32,274,,50,10,089,*78
$GLGSV,3,1,09,67,23,038,23,68,66,084,21,69,44,184,25,73,10,304,*62
$GLGSV,3,2,09,79,31,185,21,80,43,254,27,81,03,070,,82,08,027,14*68
$GLGSV,3,3,09,83,03,340,13*51
$GNGLL,0419.83255,S,05539.69732,E,083131.00,A,A*64
$GNRMC,083132.00,A,0419.83254,S,05539.69739,E,0.116,,260525,,,A*74
$GNVTG,,T,,M,0.116,N,0.216,K,A*3E
$GNGGA,083132.00,0419.83254,S,05539.69739,E,1,12,0.62,4.7,M,-47.6,M,,*74
$GNGSA,A,3,25,23,12,15,10,29,18,24,28,32,26,,1.19,0.62,1.01*1A
$GNGSA,A,3,68,79,80,67,82,69,,,,,,,1.19,0.62,1.01*1D
$GPGSV,5,1,18,10,46,247,30,12,30,154,28,13,01,056,,15,36,064,35*7A
$GPGSV,5,2,18,18,18,346,19,23,60,322,29,24,15,132,12,25,60,183,25*7C
$GPGSV,5,3,18,26,12,310,19,28,13,241,08,29,42,033,36,31,02,263,12*70
$GPGSV,5,4,18,32,19,204,26,36,52,277,,40,85,352,,41,58,082,*75
$GPGSV,5,5,18,49,32,274,,50,10,089,*78
$GLGSV,3,1,09,67,23,038,24,68,66,084,22,69,44,184,26,73,10,304,*65
$GLGSV,3,2,09,79,31,185,20,80,43,254,26,81,03,070,,82,08,027,12*6E
$GLGSV,3,3,09,83,03,340,09*5A
$GNGLL,0419.83254,S,05539.69739,E,083132.00,A,A*6D
$GNRMC,083134.00,A,0419.83252,S,05539.69750,E,0.053,,260525,,,A*7B
$GNVTG,,T,,M,0.053,N,0.099,K,A*3B
$GNGGA,083134.00,0419.83252,S,05539.69750,E,1,12,0.72,5.7,M,-47.6,M,,*7B
$GNGSA,A,3,25,23,12,15,10,29,18,28,32,26,,,1.37,0.72,1.17*16
$GNGSA,A,3,68,79,80,67,82,69,,,,,,,1.37,0.72,1.17*17
$GPGSV,5,1,18,10,46,247,28,12,30,154,28,13,01,056,,15,36,064,33*75
$GPGSV,5,2,18,18,18,346,22,23,60,322,24,24,15,132,09,25,60,183,25*73
$GPGSV,5,3,18,26,12,310,19,28,13,241,11,29,42,033,36,31,02,263,06*7D
$GPGSV,5,4,18,32,19,204,27,36,52,277,,40,85,352,,41,58,082,*74
$GPGSV,5,5,18,49,32,274,,50,10,089,*78
$GLGSV,3,1,09,67,23,038,24,68,66,084,27,69,44,184,27,73,10,304,*61
$GLGSV,3,2,09,79,31,185,19,80,43,254,24,81,03,070,,82,08,027,11*65
$GLGSV,3,3,09,83,03,340,10*52
$GNGLL,0419.83252,S,05539.69750,E,083134.00,A,A*62
$GNRMC,083135.00,A,0419.83248,S,05539.69757,E,0.052,,260525,,,A*77
$GNVTG,,T,,M,0.052,N,0.097,K,A*34
$GNGGA,083135.00,0419.83248,S,05539.69757,E,1,12,0.62,5.6,M,-47.6,M,,*76
$GNGSA,A,3,25,23,12,15,10,29,18,24,28,32,26,,1.19,0.62,1.01*1A
$GNGSA,A,3,68,79,80,67,82,69,,,,,,,1.19,0.62,1.01*1D
$GPGSV,5,1,18,10,46,247,28,12,30,154,28,13,01,056,,15,36,064,34*72
$GPGSV,5,2,18,18,18,346,22,23,60,323,22,24,15,132,08,25,60,183,25*75
$GPGSV,5,3,18,26,12,310,18,28,13,241,11,29,42,033,36,31,02,263,07*7D
$GPGSV,5,4,18,32,19,204,27,36,52,277,,40,85,352,,41,58,082,*74
$GPGSV,5,5,18,49,32,274,,50,10,089,*78
$GLGSV,3,1,09,67,23,038,24,68,66,084,26,69,44,184,29,73,10,304,*6E
$GLGSV,3,2,09,79,31,185,18,80,43,254,24,81,03,070,,82,08,027,10*65
$GLGSV,3,3,09,83,03,340,10*52
$GNGLL,0419.83248,S,05539.69757,E,083135.00,A,A*6F
$GNRMC,083137.00,A,0419.83238,S,05539.69759,E,0.269,,260525,,,A*76
$GNVTG,,T,,M,0.269,N,0.499,K,A*34
$GNGGA,083137.00,0419.83238,S,05539.69759,E,1,12,0.65,6.4,M,-47.6,M,,*7B
$GNGSA,A,3,25,23,12,15,10,29,18,24,28,32,26,,1.26,0.65,1.08*18
$GNGSA,A,3,68,79,80,67,82,69,,,,,,,1.26,0.65,1.08*1F
$GPGSV,5,1,18,10,46,247,26,12,30,154,28,13,01,056,,15,36,064,34*7C
$GPGSV,5,2,18,18,18,346,17,23,60,323,23,24,15,131,12,25,60,183,23*7C
$GPGSV,5,3,18,26,12,310,17,28,13,241,14,29,42,033,37,31,02,263,09*78
$GPGSV,5,4,18,32,19,204,27,36,52,277,,40,85,352,,41,58,082,*74
$GPGSV,5,5,18,49,32,274,,50,10,089,*78
$GLGSV,3,1,09,67,23,038,27,68,66,084,25,69,44,184,30,73,10,304,*66
$GLGSV,3,2,09,79,31,185,20,80,43,254,23,81,03,070,,82,08,027,11*68
$GLGSV,3,3,09,83,03,340,10*52
$GNGLL,0419.83238,S,05539.69759,E,083137.00,A,A*64
$GNRMC,083138.00,A,0419.83232,S,05539.69753,E,0.155,,260525,,,A*75
$GNVTG,,T,,M,0.155,N,0.286,K,A*30
$GNGGA,083138.00,0419.83232,S,05539.69753,E,1,12,0.68,6.7,M,-47.6,M,,*7A
$GNGSA,A,3,25,23,12,15,10,29,18,24,28,32,26,,1.29,0.68,1.09*1B
$GNGSA,A,3,68,79,80,67,82,69,,,,,,,1.29,0.68,1.09*1C
$GPGSV,5,1,18,10,46,247,25,12,30,154,27,13,01,056,,15,36,064,33*77
$GPGSV,5,2,18,18,18,346,19,23,60,323,22,24,15,131,09,25,60,183,21*7B
$GPGSV,5,3,18,26,12,309,18,28,13,241,10,29,42,033,36,31,02,263,12*70
$GPGSV,5,4,18,32,19,204,27,36,52,277,,40,85,352,,41,58,082,*74
$GPGSV,5,5,18,49,32,274,,50,10,089,*78
$GLGSV,3,1,09,67,23,038,27,68,66,084,26,69,44,184,29,73,10,304,*6D
$GLGSV,3,2,09,79,31,185,22,80,43,254,22,81,03,070,,82,08,027,12*68
$GLGSV,3,3,09,83,03,340,09*5A
$GNGLL,0419.83232,S,05539.69753,E,083138.00,A,A*6B
$GNRMC,083139.00,A,0419.83224,S,05539.69753,E,0.142,,260525,,,A*75
$GNVTG,,T,,M,0.142,N,0.262,K,A*3C
$GNGGA,083139.00,0419.83224,S,05539.69753,E,1,12,0.72,6.9,M,-47.6,M,,*79
$GNGSA,A,3,25,23,12,15,10,29,18,24,28,32,26,,1.37,0.72,1.17*10
$GNGSA,A,3,68,79,80,67,82,69,,,,,,,1.37,0.72,1.17*17
$GPGSV,5,1,18,10,46,247,25,12,30,154,27,13,01,056,,15,36,064,33*77
$GPGSV,5,2,18,18,18,346,20,23,60,323,21,24,15,131,12,25,60,183,20*79
$GPGSV,5,3,18,26,12,309,18,28,13,241,13,29,42,033,37,31,02,263,08*79
$GPGSV,5,4,18,32,19,204,28,36,52,277,,40,85,352,,41,58,082,*7B
$GPGSV,5,5,18,49,32,274,,50,10,089,*78
$GLGSV,3,1,09,67,23,038,25,68,66,084,27,69,44,184,28,73,10,304,*6F
$GLGSV,3,2,09,79,31,185,23,80,43,254,21,81,03,070,,82,08,027,13*6B
$GLGSV,3,3,09,83,03,340,10*52
$GNGLL,0419.83224,S,05539.69753,E,083139.00,A,A*6D
$GNRMC,083140.00,A,0419.83220,S,05539.69757,E,0.179,,260525,,,A*73
$GNVTG,,T,,M,0.179,N,0.331,K,A*33
$GNGGA,083140.00,0419.83220,S,05539.69757,E,1,12,0.72,7.4,M,-47.6,M,,*7B
$GNGSA,A,3,25,23,12,15,10,29,18,24,28,32,26,,1.37,0.72,1.17*10
$GNGSA,A,3,68,79,80,67,82,69,,,,,,,1.37,0.72,1.17*17
$GPGSV,5,1,18,10,46,247,26,12,30,154,28,13,01,056,,15,36,064,34*7C
$GPGSV,5,2,18,18,18,346,17,23,60,323,18,24,15,131,10,25,60,183,19*7F
$GPGSV,5,3,18,26,12,309,17,28,13,241,08,29,42,033,37,31,02,263,11*74
$GPGSV,5,4,18,32,19,204,28,36,52,277,,40,85,352,,41,58,082,*7B
$GPGSV,5,5,18,49,32,274,,50,10,089,*78
$GLGSV,3,1,09,67,23,038,27,68,66,084,28,69,44,184,28,73,10,304,*62
$GLGSV,3,2,09,79,31,185,26,80,43,254,22,81,03,070,,82,08,027,12*6C
$GLGSV,3,3,09,83,03,340,09*5A
$GNGLL,0419.83220,S,05539.69757,E,083140.00,A,A*63
$GPGSV,5,3,18,26,12,309,17,28,13,241,11,29,42,033,37,31,02,263,07*7B
$GPGSV,5,4,18,32,19,204,27,36,52,277,,40,85,352,,41,58,082,*74
$GPGSV,5,5,18,49,32,274,,50,10,089,*78
$GLGSV,3,1,09,67,23,038,27,68,66,084,28,69,44,184,26,73,10,304,*6C
$GLGSV,3,2,09,79,31,185,25,80,43,254,25,81,03,070,,82,08,027,10*6A
$GLGSV,3,3,09,83,03,340,10*52
$GNGLL,0419.83211,S,05539.69755,E,083142.00,A,A*61
$GNRMC,083145.00,A,0419.83219,S,05539.69761,E,0.226,,260525,,,A*70
$GNVTG,,T,,M,0.226,N,0.418,K,A*36
$GNGGA,083145.00,0419.83219,S,05539.69761,E,1,12,0.74,9.6,M,-47.6,M,,*7B
$GNGSA,A,3,25,23,12,15,10,29,18,24,28,32,26,,1.49,0.74,1.29*12
$GNGSA,A,3,68,79,80,67,82,69,,,,,,,1.49,0.74,1.29*15
$GPGSV,5,1,18,10,46,247,24,12,30,154,26,13,01,056,,15,36,064,32*76
$GPGSV,5,2,18,18,18,346,21,23,60,323,15,24,15,131,10,25,60,183,21*7C
$GPGSV,5,3,18,26,12,309,18,28,13,241,09,29,42,033,37,31,02,262,08*73
$GPGSV,5,4,18,32,19,204,26,36,52,277,,40,85,352,,41,58,082,*75
$GPGSV,5,5,18,49,32,274,,50,10,089,*78
$GLGSV,3,1,09,67,23,038,22,68,66,084,27,69,44,184,24,73,10,304,*64
$GLGSV,3,2,09,79,31,185,24,80,43,254,18,81,03,070,,82,08,027,10*65
$GLGSV,3,3,09,83,03,340,11*53
$GNGLL,0419.83219,S,05539.69761,E,083145.00,A,A*69
$GNRMC,083146.00,A,0419.83220,S,05539.69762,E,0.038,,260525,,,A*77
$GNVTG,,T,,M,0.038,N,0.069,K,A*39
$GNGGA,083146.00,0419.83220,S,05539.69762,E,1,12,0.74,10.0,M,-47.6,M,,*4F
$GNGSA,A,3,25,23,12,15,10,29,18,24,28,32,26,,1.49,0.74,1.29*12
$GNGSA,A,3,68,79,80,67,82,69,,,,,,,1.49,0.74,1.29*15
$GPGSV,5,1,18,10,46,247,25,12,30,154,27,13,01,056,,15,36,064,31*75
$GPGSV,5,2,18,18,18,346,21,23,60,323,14,24,15,131,10,25,60,183,25*79
$GPGSV,5,3,18,26,12,309,18,28,13,241,13,29,42,033,37,31,02,262,07*77
$GPGSV,5,4,18,32,19,204,25,36,52,277,,40,85,352,,41,58,082,*76
$GPGSV,5,5,18,49,32,274,,50,10,089,*78
$GLGSV,3,1,09,67,23,038,23,68,66,084,27,69,44,184,25,73,10,304,*64
$GLGSV,3,2,09,79,31,185,26,80,43,254,17,81,03,070,,82,08,027,10*68
$GLGSV,3,3,09,83,03,340,11*53
$GNGLL,0419.83220,S,05539.69762,E,083146.00,A,A*63
$GPGSV,5,4,18,32,19,204,26,36,52,277,,40,85,352,,41,58,082,*75
$GPGSV,5,5,18,49,32,274,,50,10,089,*78
$GLGSV,3,1,09,67,23,038,25,68,66,084,27,69,44,184,24,73,10,304,*63
$GLGSV,3,2,09,79,31,185,25,80,43,254,18,81,03,070,,82,08,027,10*64
$GLGSV,3,3,09,83,03,340,14*56
$GNGLL,0419.83219,S,05539.69768,E,083147.00,A,A*62
$GNRMC,083148.00,A,0419.83226,S,05539.69779,E,0.451,,260525,,,A*7E
$GNVTG,,T,,M,0.451,N,0.836,K,A*30
$GNGGA,083148.00,0419.83226,S,05539.69779,E,1,12,0.72,10.8,M,-47.6,M,,*43
$GNGSA,A,3,25,23,12,15,10,29,18,24,28,32,26,,1.37,0.72,1.17*10
$GNGSA,A,3,68,79,80,67,82,69,,,,,,,1.37,0.72,1.17*17
$GPGSV,5,1,18,10,46,247,27,12,30,154,23,13,01,056,,15,36,064,33*71
$GPGSV,5,2,18,18,18,346,21,23,60,323,21,24,15,131,10,25,60,183,23*79
$GPGSV,5,3,18,26,12,309,20,28,13,241,15,29,42,033,38,31,02,262,08*7A
$GPGSV,5,4,18,32,19,204,26,36,52,277,,40,85,352,,41,58,082,*75
$GPGSV,5,5,18,49,32,274,,50,10,089,*78
$GLGSV,3,1,09,67,23,038,24,68,66,084,27,69,44,184,24,73,10,304,*62
$GLGSV,3,2,09,79,31,185,24,80,43,254,21,81,03,070,,82,08,027,11*6E
$GLGSV,3,3,09,83,03,340,12*50
$GNGLL,0419.83226,S,05539.69779,E,083148.00,A,A*61
$GNRMC,083151.00,A,0419.83228,S,05539.69784,E,0.085,,260525,,,A*77
$GNVTG,,T,,M,0.085,N,0.158,K,A*3C
$GNGGA,083151.00,0419.83228,S,05539.69784,E,1,12,0.69,11.2,M,-47.6,M,,*46
$GNGSA,A,3,25,23,12,15,10,29,18,24,28,32,26,,1.29,0.69,1.09*1A
$GNGSA,A,3,68,79,80,67,82,69,,,,,,,1.29,0.69,1.09*1D
$GPGSV,5,1,18,10,46,247,27,12,30,154,24,13,01,056,,15,36,064,32*77
$GPGSV,5,2,18,18,18,346,20,23,60,323,21,24,15,131,11,25,60,183,21*7B
$GPGSV,5,3,18,26,12,309,20,28,13,241,12,29,42,033,37,31,02,262,11*7A
$GPGSV,5,4,18,32,19,204,26,36,52,277,,40,85,352,,41,58,082,*75
$GPGSV,5,5,18,49,32,274,,50,10,089,*78
$GLGSV,3,1,09,67,23,038,25,68,66,084,30,69,44,184,20,73,10,304,*61
$GNRMC,083152.00,A,0419.83225,S,05539.69785,E,0.138,,260525,,,A*7F
$GNVTG,,T,,M,0.138,N,0.255,K,A*35
$GNGGA,083152.00,0419.83225,S,05539.69785,E,1,12,0.69,11.0,M,-47.6,M,,*4B
$GNGSA,A,3,25,23,12,15,10,29,18,24,28,32,26,,1.29,0.69,1.09*1A
$GNGSA,A,3,68,79,80,67,82,69,,,,,,,1.29,0.69,1.09*1D
$GPGSV,5,1,18,10,46,247,26,12,30,154,23,13,01,056,,15,36,064,30*73
$GPGSV,5,2,18,18,18,346,20,23,60,323,20,24,15,131,11,25,60,183,19*71
$GPGSV,5,3,18,26,12,309,18,28,13,241,12,29,42,033,37,31,02,262,09*78
$GPGSV,5,4,18,32,19,204,26,36,52,277,,40,85,352,,41,58,082,*75
$GPGSV,5,5,18,49,32,274,,50,10,089,*78
$GLGSV,3,1,09,67,23,038,25,68,66,084,29,69,44,184,23,73,10,304,*6A
$GLGSV,3,2,09,79,31,185,26,80,43,254,25,81,03,070,,82,08,027,19*60
$GLGSV,3,3,09,83,03,340,10*52
$GNGLL,0419.83225,S,05539.69785,E,083152.00,A,A*6A
$GNRMC,083153.00,A,0419.83226,S,05539.69791,E,0.193,,260525,,,A*79
$GNVTG,,T,,M,0.193,N,0.357,K,A*37
$GNGGA,083153.00,0419.83226,S,05539.69791,E,1,12,0.62,10.8,M,-47.6,M,,*4E
$GNGSA,A,3,25,23,12,15,10,29,18,24,28,32,26,,1.19,0.62,1.01*1A
$GNGSA,A,3,68,79,80,67,82,69,,,,,,,1.19,0.62,1.01*1D
$GPGSV,5,1,18,10,46,247,26,12,30,154,23,13,01,056,,15,36,064,34*77
$GPGSV,5,2,18,18,18,346,20,23,60,323,29,24,15,131,11,25,60,183,27*75
$GPGSV,5,3,18,26,12,309,16,28,13,241,10,29,42,033,37,31,02,262,10*7C
$GPGSV,5,4,18,32,19,204,25,36,52,277,,40,85,352,,41,58,082,*76
$GPGSV,5,5,18,49,32,274,,50,10,089,*78
$GLGSV,3,1,09,67,23,038,24,68,66,084,27,69,44,184,24,73,10,304,*62
$GLGSV,3,2,09,79,31,185,26,80,43,254,25,81,03,070,,82,08,027,12*6B
$GLGSV,3,3,09,83,03,340,09*5A
$GNGLL,0419.83226,S,05539.69791,E,083153.00,A,A*6D
$GNRMC,083154.00,A,0419.83228,S,05539.69795,E,0.023,,260525,,,A*7E
$GNVTG,,T,,M,0.023,N,0.042,K,A*3A
$GNGGA,083154.00,0419.83228,S,05539.69795,E,1,12,0.69,10.1,M,-47.6,M,,*41
$GNGSA,A,3,25,23,12,15,10,29,18,24,28,32,26,,1.29,0.69,1.09*1A
$GNGSA,A,3,68,79,80,67,82,69,,,,,,,1.29,0.69,1.09*1D
$GPGSV,5,1,18,10,46,247,27,12,30,154,24,13,01,056,,15,36,064,33*76
$GPGSV,5,2,18,18,18,346,21,23,60,323,31,24,15,131,11,25,60,183,29*73
$GPGSV,5,3,18,26,12,309,15,28,13,241,10,29,42,033,36,31,02,262,09*76
$GPGSV,5,4,18,32,19,204,25,36,52,277,,40,85,352,,41,58,082,*76
$GPGSV,5,5,18,49,32,274,,50,10,089,*78
$GLGSV,3,1,09,67,23,038,24,68,66,084,27,69,44,184,24,73,10,304,*62
$GLGSV,3,2,09,79,31,185,26,80,43,254,24,81,03,070,,82,08,027,09*60
$GLGSV,3,3,09,83,03,340,09*5A
$GNGLL,0419.83228,S,05539.69795,E,083154.00,A,A*60
$GNRMC,083155.00,A,0419.83222,S,05539.69789,E,0.040,,260525,,,A*7D
$GNVTG,,T,,M,0.040,N,0.074,K,A*3A
$GNGGA,083155.00,0419.83222,S,05539.69789,E,1,12,0.72,9.3,M,-47.6,M,,*77
$GNGSA,A,3,25,23,12,15,10,29,18,24,32,26,,,1.37,0.72,1.17*1A
$GNGSA,A,3,68,79,80,67,82,69,,,,,,,1.37,0.72,1.17*17
$GPGSV,5,1,18,10,46,247,23,12,30,154,25,13,01,056,,15,36,064,33*73
$GPGSV,5,2,18,18,18,346,19,23,60,323,21,24,15,131,11,25,60,183,29*79
$GPGSV,5,3,18,26,12,309,16,28,13,241,10,29,42,033,37,31,02,262,08*75
$GPGSV,5,4,18,32,19,204,26,36,52,277,,40,85,352,,41,58,082,*75
$GPGSV,5,5,18,49,32,274,,50,10,089,*78
$GLGSV,3,1,09,67,23,038,24,68,66,084,28,69,44,184,24,73,10,304,*6D
$GLGSV,3,2,09,79,31,185,26,80,43,254,24,81,03,070,,82,08,027,11*69
$GLGSV,3,3,09,83,03,340,10*52
$GNGLL,0419.83222,S,05539.69789,E,083155.00,A,A*66
$GNRMC,083156.00,A,0419.83221,S,05539.69782,E,0.112,,260525,,,A*70
$GNVTG,,T,,M,0.112,N,0.208,K,A*35
$GNGGA,083156.00,0419.83221,S,05539.69782,E,1,12,0.62,8.7,M,-47.6,M,,*78
$GNGSA,A,3,25,23,12,15,10,29,18,24,28,32,26,,1.19,0.62,1.01*1A
$GNGSA,A,3,68,79,80,67,82,69,,,,,,,1.19,0.62,1.01*1D
$GPGSV,5,1,18,10,46,247,23,12,30,154,23,13,01,056,,15,36,064,27*70
$GPGSV,5,2,18,18,18,346,19,23,60,323,19,24,15,131,09,25,60,183,27*75
$GPGSV,5,3,18,26,12,309,16,28,13,241,12,29,42,033,36,31,02,262,10*7F
$GPGSV,5,4,18,32,19,204,26,36,52,277,,40,85,352,,41,58,082,*75
$GPGSV,5,5,18,49,32,274,,50,10,089,*78
$GLGSV,3,1,09,67,23,038,24,68,66,084,28,69,44,184,21,73,10,304,*68
$GLGSV,3,2,09,79,31,185,26,80,43,254,23,81,03,070,,82,08,027,11*6E
$GLGSV,3,3,09,83,03,340,11*53
$GNGLL,0419.83221,S,05539.69782,E,083156.00,A,A*6D
$GPGSV,5,3,18,26,12,309,17,28,13,241,17,29,42,033,34,31,02,262,07*7F
$GPGSV,5,4,18,32,19,204,26,36,52,277,,40,85,352,,41,58,082,*75
$GPGSV,5,5,18,49,32,274,,50,10,089,*78
$GLGSV,3,1,09,67,23,038,25,68,66,084,27,69,44,184,15,73,10,304,*61
$GLGSV,3,2,09,79,31,185,26,80,43,254,25,81,03,070,,82,08,027,19*60
$GLGSV,3,3,09,83,03,340,12*50
$GNGLL,0419.83220,S,05539.69776,E,083158.00,A,A*69
$GNRMC,083202.00,A,0419.83240,S,05539.69813,E,0.399,,260525,,,A*73
$GNVTG,,T,,M,0.399,N,0.739,K,A*33
$GNGGA,083202.00,0419.83240,S,05539.69813,E,1,12,0.69,5.5,M,-47.6,M,,*7E
$GNGSA,A,3,25,23,12,15,10,29,18,28,32,26,,,1.29,0.69,1.09*1C
$GNGSA,A,3,68,79,80,67,82,69,,,,,,,1.29,0.69,1.09*1D
$GPGSV,5,1,18,10,46,247,31,12,30,154,21,13,01,056,,15,36,064,32*75
$GPGSV,5,2,18,18,18,346,23,23,60,323,23,24,15,131,,25,60,183,25*7E
$GPGSV,5,3,18,26,12,309,17,28,13,241,17,29,42,033,34,31,02,262,10*79
$GPGSV,5,4,18,32,19,204,21,36,52,277,,40,85,352,,41,58,082,*72
$GPGSV,5,5,18,49,32,274,,50,10,089,*78
$GLGSV,3,1,09,67,23,038,21,68,66,084,30,69,44,184,18,73,10,304,*6E
$GLGSV,3,2,09,79,31,185,26,80,43,254,26,81,03,070,,82,08,027,10*6A
$GLGSV,3,3,09,83,03,340,14*56
$GNGLL,0419.83240,S,05539.69813,E,083202.00,A,A*6F
$GNRMC,083203.00,A,0419.83243,S,05539.69823,E,0.092,,260525,,,A*7A
$GNVTG,,T,,M,0.092,N,0.170,K,A*30
$GNGGA,083203.00,0419.83243,S,05539.69823,E,1,12,0.71,5.2,M,-47.6,M,,*71
$GNGSA,A,3,25,23,12,15,10,29,18,28,32,26,,,1.41,0.71,1.21*11
$GNGSA,A,3,68,79,80,67,69,,,,,,,,1.41,0.71,1.21*1A
$GPGSV,5,1,18,10,46,247,30,12,30,154,19,13,01,056,,15,36,064,31*7C
$GPGSV,5,2,18,18,18,346,23,23,60,323,23,24,15,131,,25,60,183,25*7E
$GPGSV,5,3,18,26,12,309,18,28,13,241,17,29,42,033,34,31,02,262,10*76
$GPGSV,5,4,18,32,19,204,20,36,52,277,,40,85,352,,41,58,082,*73
$GPGSV,5,5,18,49,32,274,,50,10,089,*78
$GLGSV,3,1,09,67,23,038,21,68,66,084,29,69,44,184,18,73,10,304,*66
$GLGSV,3,2,09,79,31,185,24,80,43,254,29,81,03,070,,82,08,027,10*67
$GLGSV,3,3,09,83,03,340,11*53
$GNGLL,0419.83243,S,05539.69823,E,083203.00,A,A*6E
$GNRMC,083204.00,A,0419.83236,S,05539.69823,E,0.180,,260525,,,A*7D
$GNVTG,,T,,M,0.180,N,0.333,K,A*37
$GNGGA,083204.00,0419.83236,S,05539.69823,E,1,12,0.71,5.0,M,-47.6,M,,*76
$GNGSA,A,3,25,23,12,15,10,29,18,28,32,26,,,1.41,0.71,1.21*11
$GNGSA,A,3,68,79,80,67,69,,,,,,,,1.41,0.71,1.21*1A
$GPGSV,5,1,18,10,46,247,29,12,30,154,16,13,01,056,,15,36,064,33*79
$GPGSV,5,2,18,18,18,346,22,23,60,323,23,24,15,131,,25,60,183,25*7F
$GPGSV,5,3,18,26,12,309,20,28,13,241,17,29,42,033,36,31,02,262,10*7F
$GPGSV,5,4,18,32,19,204,20,36,52,277,,40,85,352,,41,58,082,*73
$GPGSV,5,5,18,49,32,274,,50,10,089,*78
$GLGSV,3,1,09,67,23,038,21,68,66,084,29,69,44,184,21,73,10,304,*6C
$GLGSV,3,2,09,79,31,185,23,80,43,254,28,81,03,070,,82,08,027,08*68
$GLGSV,3,3,09,83,03,340,10*52
$GNGLL,0419.83236,S,05539.69823,E,083204.00,A,A*6B
$GNRMC,083205.00,A,0419.83226,S,05539.69817,E,0.110,,260525,,,A*73
$GNVTG,,T,,M,0.110,N,0.203,K,A*3C
$GNGGA,083205.00,0419.83226,S,05539.69817,E,1,12,0.71,4.8,M,-47.6,M,,*78
$GNGSA,A,3,25,23,12,15,10,29,18,28,32,26,,,1.41,0.71,1.21*11
$GNGSA,A,3,68,79,80,67,69,,,,,,,,1.41,0.71,1.21*1A
$GPGSV,5,1,18,10,46,247,28,12,30,154,20,13,01,056,,15,36,064,33*7D
$GPGSV,5,2,18,18,18,346,20,23,60,323,25,24,15,131,,25,60,183,27*79
$GPGSV,5,3,18,26,12,309,20,28,13,241,15,29,42,033,37,31,02,262,08*75
$GPGSV,5,4,18,32,19,204,19,36,52,277,,40,85,352,,41,58,082,*79
$GPGSV,5,5,18,49,32,274,,50,10,089,*78
$GLGSV,3,1,09,67,23,038,19,68,66,084,29,69,44,184,21,73,10,304,*67
$GLGSV,3,2,09,79,31,185,22,80,43,254,27,81,03,070,,82,08,027,07*69
$GLGSV,3,3,09,83,03,340,09*5A
$GNGLL,0419.83226,S,05539.69817,E,083205.00,A,A*6C
$GNRMC,083206.00,A,0419.83216,S,05539.69808,E,0.273,,260525,,,A*7B
$GNVTG,,T,,M,0.273,N,0.506,K,A*38
$GNGGA,083206.00,0419.83216,S,05539.69808,E,1,12,0.72,4.6,M,-47.6,M,,*7B
$GNGSA,A,3,25,23,12,15,10,29,18,32,26,,,,1.37,0.72,1.17*1C
$GNGSA,A,3,68,79,80,67,82,69,,,,,,,1.37,0.72,1.17*17
$GPGSV,5,1,18,10,46,247,28,12,30,154,25,13,01,056,,15,36,064,31*7A
$GPGSV,5,2,18,18,18,346,20,23,60,323,22,24,15,131,17,25,60,183,27*78
$GPGSV,5,3,18,26,12,309,21,28,13,241,10,29,42,033,34,31,02,262,08*72
$GPGSV,5,4,18,32,19,204,20,36,52,277,,40,85,352,,41,58,082,*73
$GPGSV,5,5,18,49,32,274,,50,10,089,*78
$GLGSV,3,1,09,67,23,038,17,68,66,084,30,69,44,184,20,73,10,304,*60
$GLGSV,3,2,09,79,31,185,21,80,43,254,27,81,03,070,,82,08,027,09*64
$GLGSV,3,3,09,83,03,340,10*52
$GNGLL,0419.83216,S,05539.69808,E,083206.00,A,A*62
$GNRMC,083207.00,A,0419.83215,S,05539.69811,E,0.194,,260525,,,A*7B
$GNVTG,,T,,M,0.194,N,0.360,K,A*34
$GNGGA,083207.00,0419.83215,S,05539.69811,E,1,12,0.69,4.4,M,-47.6,M,,*79
$GNGSA,A,3,25,23,12,15,10,29,18,28,32,26,,,1.29,0.69,1.09*1C
$GNGSA,A,3,68,79,80,67,82,69,,,,,,,1.29,0.69,1.09*1D
$GPGSV,5,1,18,10,46,247,29,12,30,154,25,13,01,056,,15,36,064,32*78
$GPGSV,5,2,18,18,18,346,20,23,60,323,21,24,15,131,16,25,60,183,27*7A
$GPGSV,5,3,18,26,12,309,21,28,13,241,12,29,42,033,35,31,02,262,09*70
$GPGSV,5,4,18,32,19,204,22,36,52,277,,40,85,352,,41,58,082,*71
$GPGSV,5,5,18,49,32,274,,50,10,089,*78
$GLGSV,3,1,09,67,23,038,18,68,66,084,28,69,44,184,17,73,10,304,*62
$GLGSV,3,2,09,79,31,185,22,80,43,254,28,81,03,070,,82,08,027,11*61
$GLGSV,3,3,09,83,03,340,09*5A
$GNGLL,0419.83215,S,05539.69811,E,083207.00,A,A*68
$GNRMC,083208.00,A,0419.83220,S,05539.69818,E,0.495,,260525,,,A*7F
$GNVTG,,T,,M,0.495,N,0.917,K,A*3A
$GNGGA,083208.00,0419.83220,S,05539.69818,E,1,12,0.71,4.7,M,-47.6,M,,*73
$GNGSA,A,3,25,23,12,15,10,29,18,28,32,26,,,1.41,0.71,1.21*11
$GNGSA,A,3,68,79,80,67,82,69,,,,,,,1.41,0.71,1.21*10
$GPGSV,5,1,18,10,46,247,28,12,30,154,23,13,01,056,,15,36,064,31*7C
$GPGSV,5,2,18,18,18,346,19,23,60,323,23,24,15,131,12,25,60,183,23*72
$GPGSV,5,3,18,26,12,309,20,28,13,241,15,29,42,033,37,31,02,262,09*74
$GPGSV,5,4,18,32,19,204,24,36,52,277,,40,85,352,,41,58,082,*77
$GPGSV,5,5,18,49,32,274,,50,10,089,*78
$GLGSV,3,1,09,67,23,038,23,68,66,082,27,69,44,184,19,73,10,304,*6D
$GLGSV,3,2,09,79,31,185,21,80,43,254,29,81,03,070,,82,08,027,12*60
$GLGSV,3,3,09,83,03,340,11*53
$GNGLL,0419.83220,S,05539.69818,E,083208.00,A,A*68
$GNRMC,083210.00,A,0419.83219,S,05539.69828,E,0.055,,260525,,,A*77
$GNVTG,,T,,M,0.055,N,0.102,K,A*3E
$GNGGA,083210.00,0419.83219,S,05539.69828,E,1,12,0.69,4.6,M,-47.6,M,,*7B
$GNGSA,A,3,25,23,12,15,10,29,18,28,32,26,,,1.29,0.69,1.09*1C
$GNGSA,A,3,68,79,80,67,82,69,,,,,,,1.29,0.69,1.09*1D
$GPGSV,5,1,18,10,46,247,27,12,30,154,22,13,01,056,,15,36,064,32*71
$GPGSV,5,2,18,18,18,346,16,23,60,323,25,24,15,131,08,25,60,183,24*77
$GPGSV,5,3,18,26,12,309,14,28,13,241,19,29,42,033,35,31,02,262,08*7C
$GPGSV,5,4,18,32,19,204,25,36,52,277,,40,85,352,,41,58,082,*76
$GPGSV,5,5,18,49,32,274,,50,10,089,*78
$GLGSV,3,1,09,67,23,038,23,68,66,082,31,69,44,184,23,73,10,304,*63
$GLGSV,3,2,09,79,31,185,23,80,43,254,27,81,03,070,,82,08,027,13*6D
$GLGSV,3,3,09,83,03,340,08*5B
$GNGLL,0419.83219,S,05539.69828,E,083210.00,A,A*68
$GNRMC,083211.00,A,0419.83218,S,05539.69830,E,0.166,,260525,,,A*7F
$GNVTG,,T,,M,0.166,N,0.308,K,A*37
$GNGGA,083211.00,0419.83218,S,05539.69830,E,1,12,0.64,4.1,M,-47.6,M,,*78
$GNGSA,A,3,25,23,12,15,10,29,18,24,28,32,26,,1.27,0.64,1.09*19
$GNGSA,A,3,68,79,80,67,82,69,,,,,,,1.27,0.64,1.09*1E
$GPGSV,5,1,18,10,46,247,28,12,30,154,23,13,01,056,,15,36,064,32*7F
$GPGSV,5,2,18,18,18,346,13,23,60,323,26,24,15,131,13,25,60,183,29*76
$GPGSV,5,3,18,26,12,309,14,28,13,241,18,29,42,033,34,31,02,262,08*7C
$GPGSV,5,4,18,32,19,204,26,36,52,277,,40,85,352,,41,58,082,*75
$GPGSV,5,5,18,49,32,274,,50,10,089,*78
$GLGSV,3,1,09,67,23,038,23,68,66,082,30,69,44,184,25,73,10,304,*64
$GLGSV,3,2,09,79,31,185,23,80,43,254,27,81,03,070,,82,08,027,10*6E
$GLGSV,3,3,09,83,03,340,10*52
$GNGLL,0419.83218,S,05539.69830,E,083211.00,A,A*61
$GNRMC,083212.00,A,0419.83216,S,05539.69832,E,0.033,,260525,,,A*71
$GNVTG,,T,,M,0.033,N,0.061,K,A*3A
$GNGGA,083212.00,0419.83216,S,05539.69832,E,1,12,0.62,4.0,M,-47.6,M,,*70
$GNGSA,A,3,25,23,12,15,10,29,18,24,28,32,26,,1.19,0.62,1.01*1A
$GNGSA,A,3,68,79,80,67,82,69,,,,,,,1.19,0.62,1.01*1D
$GPGSV,5,1,18,10,46,247,28,12,30,154,25,13,01,056,,15,36,064,32*79
$GPGSV,5,2,18,18,18,346,17,23,60,323,27,24,15,131,18,25,60,183,28*79
$GPGSV,5,3,18,26,12,309,15,28,13,241,18,29,42,033,34,31,02,262,09*7C
$GPGSV,5,4,18,32,19,204,26,36,52,277,,40,85,352,,41,58,082,*75
$GPGSV,5,5,18,49,32,274,,50,10,089,*78
$GLGSV,3,1,09,67,23,038,22,68,66,082,29,69,44,184,26,73,10,304,*6E
$GLGSV,3,2,09,79,31,185,20,80,43,254,26,81,03,070,,82,08,027,13*6F
$GLGSV,3,3,09,83,03,340,09*5A
$GNGLL,0419.83216,S,05539.69832,E,083212.00,A,A*6E
$GNRMC,083214.00,A,0419.83210,S,05539.69844,E,0.088,,260525,,,A*70
$GNVTG,,T,,M,0.088,N,0.163,K,A*39
$GNGGA,083214.00,0419.83210,S,05539.69844,E,1,12,0.64,4.4,M,-47.6,M,,*73
$GNGSA,A,3,25,23,12,15,10,29,18,24,28,32,26,,1.27,0.64,1.09*19
$GNGSA,A,3,68,79,80,67,82,69,,,,,,,1.27,0.64,1.09*1E
$GPGSV,5,1,18,10,46,247,27,12,30,154,23,13,01,056,,15,36,064,30*72
$GPGSV,5,2,18,18,18,346,18,23,60,323,24,24,15,131,16,25,60,183,27*74
$GPGSV,5,3,18,26,12,309,17,28,13,241,18,29,42,033,34,31,02,262,08*7F
$GPGSV,5,4,18,32,19,204,26,36,52,277,,40,85,352,,41,58,082,*75
$GPGSV,5,5,18,49,32,274,,50,10,089,*78
$GLGSV,3,1,09,67,23,038,23,68,66,082,28,69,44,184,22,73,10,303,*6D
$GLGSV,3,2,09,79,31,185,15,80,43,254,26,81,03,070,,82,08,027,13*69
$GLGSV,3,3,09,83,03,340,09*5A
$GNGLL,0419.83210,S,05539.69844,E,083214.00,A,A*6F
$GNRMC,083215.00,A,0419.83208,S,05539.69848,E,0.096,,260525,,,A*7B
$GNVTG,,T,,M,0.096,N,0.178,K,A*3C
$GNGGA,083215.00,0419.83208,S,05539.69848,E,1,12,0.62,4.7,M,-47.6,M,,*72
$GNGSA,A,3,25,23,12,15,10,29,18,24,28,32,26,,1.19,0.62,1.01*1A
$GNGSA,A,3,68,79,80,67,82,69,,,,,,,1.19,0.62,1.01*1D
$GPGSV,5,1,18,10,46,247,27,12,30,154,21,13,01,056,,15,36,064,30*70
$GPGSV,5,2,18,18,18,346,16,23,60,323,21,24,15,131,13,25,60,183,27*7A
$GPGSV,5,3,18,26,12,309,18,28,13,241,15,29,42,033,30,31,02,262,10*70
$GPGSV,5,4,18,32,19,204,25,36,52,277,,40,85,352,,41,58,082,*76
$GPGSV,5,5,18,49,32,274,,50,10,089,*78
$GLGSV,3,1,09,67,23,038,22,68,66,082,28,69,44,184,19,73,10,303,*64
$GLGSV,3,2,09,79,31,185,14,80,43,254,27,81,03,070,,82,08,027,08*63
$GLGSV,3,3,09,83,03,340,09*5A
$GNGLL,0419.83208,S,05539.69848,E,083215.00,A,A*6B
$GNRMC,083216.00,A,0419.83204,S,05539.69851,E,0.099,,260525,,,A*73
$GNVTG,,T,,M,0.099,N,0.183,K,A*37
$GNGGA,083216.00,0419.83204,S,05539.69851,E,1,12,0.62,4.4,M,-47.6,M,,*76
$GNGSA,A,3,25,23,12,15,10,29,18,24,28,32,26,,1.19,0.62,1.01*1A
$GNGSA,A,3,68,79,80,67,82,69,,,,,,,1.19,0.62,1.01*1D
$GPGSV,5,1,18,10,46,247,30,12,30,154,22,13,01,056,,15,36,064,29*7D
$GPGSV,5,2,18,18,18,346,19,23,60,323,18,24,15,131,11,25,60,183,27*7D
$GPGSV,5,3,18,26,12,309,19,28,13,241,13,29,42,033,31,31,02,262,09*7E
$GPGSV,5,4,18,32,19,204,25,36,52,277,,40,85,352,,41,58,082,*76
$GPGSV,5,5,18,49,32,274,,50,10,089,*78
$GLGSV,3,1,09,67,23,038,20,68,66,082,29,69,44,184,21,73,10,303,*6C
$GNRMC,083217.00,A,0419.83184,S,05539.69851,E,0.769,,260525,,,A*71
$GNVTG,,T,,M,0.769,N,1.423,K,A*31
$GNGGA,083217.00,0419.83184,S,05539.69851,E,1,12,0.62,5.5,M,-47.6,M,,*7C
$GNGSA,A,3,25,23,12,15,10,29,18,24,28,32,26,,1.19,0.62,1.01*1A
$GNGSA,A,3,68,79,80,67,82,69,,,,,,,1.19,0.62,1.01*1D
$GPGSV,5,1,18,10,46,247,32,12,30,154,23,13,01,056,,15,36,064,31*77
$GPGSV,5,2,18,18,18,346,21,23,60,323,16,24,15,131,12,25,60,183,25*79
$GPGSV,5,3,18,26,12,309,19,28,13,241,11,29,42,033,33,31,02,262,09*7E
$GPGSV,5,4,18,32,19,204,23,36,52,277,,40,85,352,,41,58,082,*70
$GPGSV,5,5,18,49,32,274,,50,10,089,*78
$GLGSV,3,1,09,67,23,038,19,68,66,082,27,69,44,184,20,73,10,303,*69
$GLGSV,3,2,09,79,31,185,19,80,43,254,26,81,03,070,,82,08,027,14*62
$GLGSV,3,3,09,83,03,340,09*5A
$GNGLL,0419.83184,S,05539.69851,E,083217.00,A,A*66
$GNRMC,083218.00,A,0419.83174,S,05539.69857,E,0.152,,260525,,,A*79
$GNVTG,,T,,M,0.152,N,0.281,K,A*30
$GNGGA,083218.00,0419.83174,S,05539.69857,E,1,12,0.69,5.7,M,-47.6,M,,*73
$GNGSA,A,3,25,23,12,15,10,29,18,28,32,26,,,1.29,0.69,1.09*1C
$GNGSA,A,3,68,79,80,67,82,69,,,,,,,1.29,0.69,1.09*1D
$GPGSV,5,1,18,10,46,247,32,12,30,154,24,13,01,056,,15,36,064,33*72
$GPGSV,5,2,18,18,18,346,23,23,60,323,19,24,15,131,10,25,60,183,23*70
$GPGSV,5,3,18,26,12,309,20,28,13,241,11,29,42,033,34,31,02,262,09*73
$GPGSV,5,4,18,32,19,204,22,36,52,277,,40,85,352,,41,58,082,*71
$GPGSV,5,5,18,49,32,274,,50,10,089,*78
$GLGSV,3,1,09,67,23,038,18,68,66,082,24,69,44,184,19,73,10,303,*61
$GLGSV,3,2,09,79,31,185,20,80,43,254,31,81,03,070,,82,08,027,10*6A
$GLGSV,3,3,09,83,03,340,12*50
$GNGLL,0419.83174,S,05539.69857,E,083218.00,A,A*60
$GNRMC,083219.00,A,0419.83167,S,05539.69858,E,0.060,,260525,,,A*75
$GNVTG,,T,,M,0.060,N,0.111,K,A*3A
$GNGGA,083219.00,0419.83167,S,05539.69858,E,1,12,0.69,6.0,M,-47.6,M,,*7B
$GNGSA,A,3,25,23,12,15,10,29,18,28,32,26,,,1.29,0.69,1.09*1C
$GNGSA,A,3,68,79,80,67,82,69,,,,,,,1.29,0.69,1.09*1D
$GPGSV,5,1,18,10,46,247,32,12,30,154,25,13,01,056,,15,36,064,34*74
$GPGSV,5,2,18,18,18,346,22,23,60,323,19,24,15,131,09,25,60,183,25*7F
$GPGSV,5,3,18,26,12,309,21,28,13,241,10,29,42,033,33,31,02,262,06*7B
$GPGSV,5,4,18,32,19,204,23,36,52,277,,40,85,352,,41,58,082,*70
$GPGSV,5,5,18,49,32,274,,50,10,089,*78
$GLGSV,3,1,09,67,23,038,22,68,66,082,25,69,44,184,20,73,10,303,*63
$GLGSV,3,2,09,79,30,184,20,80,43,254,30,81,03,070,,82,08,027,11*6A
$GLGSV,3,3,09,83,03,340,09*5A
$GNGLL,0419.83167,S,05539.69858,E,083219.00,A,A*6C
$GNRMC,083220.00,A,0419.83161,S,05539.69863,E,0.058,,260525,,,A*7A
$GNVTG,,T,,M,0.058,N,0.107,K,A*36
$GNGGA,083220.00,0419.83161,S,05539.69863,E,1,12,0.64,6.1,M,-47.6,M,,*73
$GNGSA,A,3,25,23,12,15,10,29,18,24,28,32,26,,1.27,0.64,1.09*19
$GNGSA,A,3,68,79,80,67,82,69,,,,,,,1.27,0.64,1.09*1E
$GPGSV,5,1,18,10,46,247,32,12,30,154,24,13,01,056,,15,36,064,35*74
$GPGSV,5,2,18,18,18,346,21,23,60,323,21,24,15,131,08,25,60,183,27*74
$GPGSV,5,3,18,26,12,309,20,28,13,241,11,29,42,033,32,31,02,262,09*75
$GPGSV,5,4,18,32,19,204,23,36,52,277,,40,85,352,,41,58,082,*70
$GPGSV,5,5,18,49,32,274,,50,10,089,*78
$GLGSV,3,1,09,67,23,038,22,68,66,082,25,69,44,184,20,73,10,303,*63
$GLGSV,3,2,09,79,30,184,18,80,43,253,28,81,03,070,,82,08,027,12*6C
$GLGSV,3,3,09,83,03,340,10*52
$GNGLL,0419.83161,S,05539.69863,E,083220.00,A,A*68
$GNRMC,083221.00,A,0419.83147,S,05539.69864,E,0.682,,260525,,,A*79
$GNVTG,,T,,M,0.682,N,1.263,K,A*37
$GNGGA,083221.00,0419.83147,S,05539.69864,E,1,12,0.69,5.9,M,-47.6,M,,*77
$GNGSA,A,3,25,23,12,15,10,29,18,28,32,26,,,1.29,0.69,1.09*1C
$GNGSA,A,3,68,79,80,67,82,69,,,,,,,1.29,0.69,1.09*1D
$GPGSV,5,1,18,10,46,247,32,12,30,154,22,13,01,056,,15,36,064,34*73
$GPGSV,5,2,18,18,18,346,21,23,60,323,22,24,15,131,08,25,60,183,26*76
$GPGSV,5,3,18,26,12,309,18,28,13,241,13,29,42,033,33,31,02,262,11*74
$GPGSV,5,4,18,32,19,204,24,36,52,277,,40,85,352,,41,58,082,*77
$GPGSV,5,5,18,49,32,274,,50,10,089,*78
$GLGSV,3,1,09,67,23,038,20,68,66,082,25,69,44,184,23,73,10,303,*62
$GLGSV,3,2,09,79,30,184,17,80,43,253,28,81,03,071,,82,08,027,16*66
$GLGSV,3,3,09,83,03,340,10*52
$GNGLL,0419.83147,S,05539.69864,E,083221.00,A,A*6A
$GNRMC,083223.00,A,0419.83146,S,05539.69875,E,0.454,,260525,,,A*73
$GNVTG,,T,,M,0.454,N,0.840,K,A*34
$GNGGA,083223.00,0419.83146,S,05539.69875,E,1,12,0.69,6.2,M,-47.6,M,,*7C
$GNGSA,A,3,25,23,12,15,10,29,18,28,32,26,,,1.29,0.69,1.09*1C
$GNRMC,083224.00,A,0419.83136,S,05539.69873,E,0.528,,260525,,,A*7F
$GNVTG,,T,,M,0.528,N,0.978,K,A*34
$GNRMC,083225.00,A,0419.83125,S,05539.69870,E,0.391,,260525,,,A*7B
$GNVTG,,T,,M,0.391,N,0.725,K,A*36
$GNGGA,083225.00,0419.83125,S,05539.69870,E,1,12,0.69,6.5,M,-47.6,M,,*7D
$GNGSA,A,3,25,23,12,15,10,29,18,28,32,26,,,1.29,0.69,1.09*1C
$GNGSA,A,3,68,79,80,67,82,69,,,,,,,1.29,0.69,1.09*1D
$GPGSV,5,1,18,10,46,247,26,12,30,154,18,13,01,056,17,15,36,064,33*7E
$GPGSV,5,2,18,18,18,346,22,23,60,323,20,24,15,131,09,25,60,183,22*72
$GPGSV,5,3,18,26,12,309,20,28,13,241,15,29,42,033,34,31,02,262,08*76
$GPGSV,5,4,18,32,19,204,21,36,52,277,,40,85,352,,41,58,082,*72
$GPGSV,5,5,18,49,32,274,,50,10,089,*78
$GLGSV,3,1,09,67,23,038,17,68,66,082,26,69,44,184,17,73,10,303,*62
$GLGSV,3,2,09,79,30,184,21,80,43,253,26,81,03,071,,82,08,028,09*6C
$GLGSV,3,3,09,83,03,341,10*53
$GNGLL,0419.83125,S,05539.69870,E,083225.00,A,A*6F
$GNRMC,083226.00,A,0419.83113,S,05539.69871,E,0.467,,260525,,,A*72
$GNVTG,,T,,M,0.467,N,0.866,K,A*30
$GNGGA,083226.00,0419.83113,S,05539.69871,E,1,12,0.64,6.8,M,-47.6,M,,*7A
$GNGSA,A,3,25,23,12,15,10,29,18,24,28,32,26,,1.27,0.64,1.09*19
$GNGSA,A,3,68,79,80,67,82,69,,,,,,,1.27,0.64,1.09*1E
$GPGSV,5,1,18,10,46,247,25,12,30,154,19,13,01,056,15,15,36,064,32*7F
$GPGSV,5,2,18,18,18,346,24,23,60,323,20,24,15,131,08,25,60,183,24*73
$GPGSV,5,3,18,26,12,309,18,28,13,241,15,29,42,033,30,31,02,262,09*78
$GPGSV,5,4,18,32,19,204,21,36,52,277,,40,85,352,,41,58,082,*72
$GPGSV,5,5,18,49,32,274,,50,10,089,*78
$GLGSV,3,1,09,67,23,038,17,68,66,082,23,69,44,184,17,73,10,303,*67
$GLGSV,3,2,09,79,30,184,19,80,43,253,25,81,03,071,,82,08,028,08*65
$GLGSV,3,3,09,83,03,341,10*53
$GNGLL,0419.83113,S,05539.69871,E,083226.00,A,A*68
$GNRMC,083227.00,A,0419.83127,S,05539.69878,E,0.537,,260525,,,A*79
$GNVTG,,T,,M,0.537,N,0.995,K,A*39
$GNGGA,083227.00,0419.83127,S,05539.69878,E,1,12,0.69,7.8,M,-47.6,M,,*79
$GNGSA,A,3,25,23,12,15,10,29,18,24,28,32,26,,1.29,0.69,1.09*1A
$GNGSA,A,3,68,79,80,67,82,69,,,,,,,1.29,0.69,1.09*1D
$GPGSV,5,1,18,10,46,247,25,12,30,154,19,13,01,056,13,15,36,064,33*78
$GPGSV,5,2,18,18,18,346,22,23,60,323,31,24,15,131,08,25,60,183,24*75
$GPGSV,5,3,18,26,12,309,18,28,13,241,14,29,42,033,31,31,02,262,10*70
$GPGSV,5,4,18,32,19,204,22,36,52,277,,40,85,352,,41,58,082,*71
$GPGSV,5,5,18,49,32,274,,50,10,089,*78
$GLGSV,3,1,09,67,23,038,16,68,66,082,22,69,44,184,19,73,10,303,*69
$GLGSV,3,2,09,79,30,184,17,80,43,253,24,81,03,071,,82,08,028,10*63
$GLGSV,3,3,09,83,03,341,09*5B
$GNGLL,0419.83127,S,05539.69878,E,083227.00,A,A*67
$GNRMC,083228.00,A,0419.83128,S,05539.69881,E,0.072,,260525,,,A*7B
$GNVTG,,T,,M,0.072,N,0.134,K,A*3E
$GNGGA,083228.00,0419.83128,S,05539.69881,E,1,12,0.62,7.5,M,-47.6,M,,*79
$GNGSA,A,3,25,23,12,15,10,29,18,24,28,32,26,,1.19,0.62,1.01*1A
$GNGSA,A,3,68,79,80,67,82,69,,,,,,,1.19,0.62,1.01*1D
$GPGSV,5,1,18,10,46,247,27,12,30,154,17,13,01,056,11,15,36,064,34*71
$GPGSV,5,2,18,18,18,346,21,23,60,323,30,24,15,131,08,25,60,183,24*77
$GPGSV,5,3,18,26,12,309,20,28,13,241,12,29,42,033,31,31,02,262,11*7C
$GPGSV,5,4,18,32,19,204,24,36,52,277,,40,85,352,,41,58,082,*77
$GPGSV,5,5,18,49,32,274,,50,10,089,*78
$GLGSV,3,1,09,67,23,038,14,68,66,082,23,69,44,184,21,73,10,303,*61
$GLGSV,3,2,09,79,30,184,21,80,43,253,25,81,03,071,,82,08,028,10*67
$GLGSV,3,3,09,83,03,341,11*52
$GNGLL,0419.83128,S,05539.69881,E,083228.00,A,A*61
$GNRMC,083229.00,A,0419.83130,S,05539.69882,E,0.031,,260525,,,A*77
$GNVTG,,T,,M,0.031,N,0.057,K,A*3D
$GNGGA,083229.00,0419.83130,S,05539.69882,E,1,12,0.64,7.1,M,-47.6,M,,*70
$GNGSA,A,3,25,23,12,15,10,29,18,24,28,32,26,,1.27,0.64,1.09*19
$GNGSA,A,3,68,79,80,67,82,69,,,,,,,1.27,0.64,1.09*1E
$GPGSV,5,1,18,10,46,247,27,12,30,154,17,13,01,056,10,15,36,064,36*72
$GPGSV,5,2,18,18,18,346,20,23,60,323,29,24,15,131,08,25,60,183,25*7F
$GPGSV,5,3,18,26,12,309,20,28,13,241,09,29,42,033,32,31,02,262,10*74
$GPGSV,5,4,18,32,19,204,26,36,52,277,,40,85,352,,41,58,082,*75
$GPGSV,5,5,18,49,32,274,,50,10,089,*78
$GLGSV,3,1,09,67,23,038,13,68,66,082,23,69,44,184,22,73,10,303,*65
$GLGSV,3,2,09,79,30,184,22,80,43,253,25,81,03,071,,82,08,028,11*65
$GLGSV,3,3,09,83,03,341,11*52
$GNGLL,0419.83130,S,05539.69882,E,083229.00,A,A*6A
$GNRMC,083231.00,A,0419.83125,S,05539.69874,E,0.140,,260525,,,A*74
$GNVTG,,T,,M,0.140,N,0.259,K,A*36
$GNGGA,083231.00,0419.83125,S,05539.69874,E,1,12,0.69,6.4,M,-47.6,M,,*7D
$GNGSA,A,3,25,23,12,15,10,29,18,24,28,32,26,,1.29,0.69,1.09*1A
$GNGSA,A,3,68,79,80,67,82,69,,,,,,,1.29,0.69,1.09*1D
$GPGSV,5,1,18,10,46,247,30,12,30,154,20,13,01,056,09,15,36,064,34*7A
$GPGSV,5,2,18,18,18,346,21,23,60,323,25,24,15,131,08,25,60,183,25*72
$GPGSV,5,3,18,26,12,309,20,28,13,241,17,29,42,033,29,31,02,262,09*79
$GPGSV,5,4,18,32,19,204,23,36,52,277,,40,85,352,,41,58,082,*70
$GPGSV,5,5,18,49,32,274,,50,10,089,*78
$GLGSV,3,1,09,67,23,038,22,68,66,082,26,69,44,184,22,73,10,303,*62
$GLGSV,3,2,09,79,30,184,21,80,43,253,24,81,03,071,,82,08,028,12*64
$GLGSV,3,3,09,83,03,341,09*5B
$GNGLL,0419.83125,S,05539.69874,E,083231.00,A,A*6E
$GNRMC,083232.00,A,0419.83128,S,05539.69871,E,0.105,,260525,,,A*7E
$GNVTG,,T,,M,0.105,N,0.195,K,A*34
$GNGGA,083232.00,0419.83128,S,05539.69871,E,1,12,0.71,6.2,M,-47.6,M,,*79
$GNGSA,A,3,25,23,12,15,10,29,18,24,28,32,26,,1.41,0.71,1.21*17
$GNGSA,A,3,68,79,80,67,82,69,,,,,,,1.41,0.71,1.21*10
$GPGSV,5,1,18,10,46,247,22,12,30,154,19,13,01,056,08,15,36,064,31*77
$GPGSV,5,2,18,18,18,346,18,23,60,323,23,24,15,131,09,25,60,183,24*7E
$GPGSV,5,3,18,26,12,309,19,28,13,241,12,29,42,033,33,31,02,262,10*75
$GPGSV,5,4,18,32,19,204,23,36,52,277,,40,85,352,,41,58,082,*70
$GPGSV,5,5,18,49,32,274,,50,10,089,*78
$GLGSV,3,1,09,67,23,038,25,68,66,082,27,69,44,184,20,73,10,303,*66
$GLGSV,3,2,09,79,30,184,20,80,43,253,26,81,03,071,,82,08,028,15*60
$GLGSV,3,3,09,83,03,341,09*5B
$GNGLL,0419.83128,S,05539.69871,E,083232.00,A,A*65
