$GNRMC,081620.00,A,0419.83800,S,05539.69296,E,0.104,,260525,,,A*7A
$GNVTG,,T,,M,0.104,N,0.193,K,A*33
$GNGGA,081620.00,0419.83800,S,05539.69296,E,1,12,0.82,-5.4,M,-47.6,M,,*58
$GNGSA,A,3,25,23,12,15,10,29,18,28,26,,,,1.51,0.82,1.27*1B
$GNGSA,A,3,80,82,69,,,,,,,,,,1.51,0.82,1.27*1A
$GPGSV,5,1,18,10,42,237,26,12,37,154,20,13,04,062,07,15,39,072,31*78
$GPGSV,5,2,18,18,19,339,24,23,66,309,31,24,17,138,07,25,67,189,16*7C
$GPGSV,5,3,18,26,07,314,09,28,12,248,13,29,38,025,30,31,01,269,*75
$GPGSV,5,4,18,32,14,207,11,36,52,277,30,40,85,352,,41,58,082,*7C
$GPGSV,5,5,18,49,32,274,,50,10,089,*78
$GLGSV,3,1,10,67,29,045,10,68,65,107,,69,36,186,21,73,06,310,*61
$GLGSV,3,2,10,78,00,155,,79,37,190,10,80,44,267,27,81,02,063,*68
$GLGSV,3,3,10,82,07,020,11,83,03,334,09*6E
$GNGLL,0419.83800,S,05539.69296,E,081620.00,A,A*60
$GNRMC,081623.00,A,0419.83787,S,05539.69305,E,0.087,,260525,,,A*78
$GNVTG,,T,,M,0.087,N,0.162,K,A*37
$GNGGA,081623.00,0419.83787,S,05539.69305,E,1,12,0.80,-5.5,M,-47.6,M,,*53
$GNGSA,A,3,25,23,12,15,10,29,18,28,26,,,,1.65,0.80,1.44*1B
$GNGSA,A,3,68,79,80,67,82,69,,,,,,,1.65,0.80,1.44*1B
$GPGSV,5,1,18,10,42,238,27,12,37,154,20,13,04,062,07,15,39,072,35*72
$GPGSV,5,2,18,18,19,339,26,23,66,309,29,24,17,138,07,25,67,189,23*71
$GPGSV,5,3,18,26,07,314,11,28,12,248,09,29,38,025,30,31,01,269,*77
$GPGSV,5,4,18,32,14,207,12,36,52,277,36,40,85,352,,41,58,082,*79
$GPGSV,5,5,18,49,32,274,,50,10,089,*78
$GLGSV,3,1,10,67,29,045,17,68,65,107,26,69,36,186,20,73,06,310,*63
$GLGSV,3,2,10,78,00,155,,79,37,190,25,80,44,267,30,81,02,063,*68
$GLGSV,3,3,10,82,07,020,09,83,03,334,07*69
$GNGLL,0419.83787,S,05539.69305,E,081623.00,A,A*68
$GNRMC,081625.00,A,0419.83768,S,05539.69318,E,0.046,,260525,,,A*7E
$GNVTG,,T,,M,0.046,N,0.085,K,A*32
$GNGGA,081625.00,0419.83768,S,05539.69318,E,1,12,0.84,-5.5,M,-47.6,M,,*5C
$GNGSA,A,3,25,23,12,15,10,29,18,28,26,,,,1.97,0.84,1.78*1D
$GNGSA,A,3,68,79,80,67,82,69,,,,,,,1.97,0.84,1.78*1D
$GPGSV,5,1,18,10,42,238,29,12,36,154,22,13,04,062,08,15,39,072,36*73
$GPGSV,5,2,18,18,19,339,26,23,66,309,29,24,17,138,08,25,67,189,28*75
$GPGSV,5,3,18,26,07,314,08,28,12,248,12,29,38,025,31,31,01,269,*74
$GPGSV,5,4,18,32,14,207,12,36,52,277,32,40,85,352,,41,58,082,*7D
$GPGSV,5,5,18,49,32,274,,50,10,089,*78
$GLGSV,3,1,10,67,29,045,13,68,65,107,26,69,36,186,23,73,06,310,*64
$GLGSV,3,2,10,78,00,155,,79,37,190,25,80,44,267,28,81,02,063,*61
$GLGSV,3,3,10,82,07,020,12,83,03,334,11*64
$GNGLL,0419.83768,S,05539.69318,E,081625.00,A,A*63
$GNRMC,081626.00,A,0419.83760,S,05539.69323,E,0.017,,260525,,,A*79
$GNVTG,,T,,M,0.017,N,0.032,K,A*3A
$GNGGA,081626.00,0419.83760,S,05539.69323,E,1,12,0.84,-5.5,M,-47.6,M,,*5F
$GNGSA,A,3,25,23,12,15,10,29,18,24,28,26,,,1.69,0.84,1.46*17
$GNGSA,A,3,68,79,80,67,82,69,,,,,,,1.69,0.84,1.46*11
$GPGSV,5,1,18,10,42,238,31,12,36,154,22,13,04,062,08,15,39,072,33*7F
$GPGSV,5,2,18,18,19,339,27,23,66,309,27,24,17,138,14,25,67,189,28*77
$GPGSV,5,3,18,26,07,314,13,28,12,248,08,29,38,025,31,31,01,269,*75
$GPGSV,5,4,18,32,14,207,11,36,52,277,31,40,85,352,,41,58,082,*7D
$GPGSV,5,5,18,49,32,274,,50,10,089,*78
$GLGSV,3,1,10,67,29,045,13,68,65,107,26,69,36,186,21,73,06,310,*66
$GLGSV,3,2,10,78,00,155,,79,37,190,22,80,44,267,29,81,02,063,*67
$GLGSV,3,3,10,82,07,020,10,83,03,334,10*67
$GNGLL,0419.83760,S,05539.69323,E,081626.00,A,A*60
$GNRMC,081627.00,A,0419.83751,S,05539.69326,E,0.050,,260525,,,A*7C
$GNVTG,,T,,M,0.050,N,0.092,K,A*33
$GNGGA,081627.00,0419.83751,S,05539.69326,E,1,12,0.84,-5.5,M,-47.6,M,,*59
$GNGSA,A,3,25,23,12,15,10,29,18,24,28,26,,,1.97,0.84,1.78*1B
$GNGSA,A,3,68,79,80,67,82,69,,,,,,,1.97,0.84,1.78*1D
$GPGSV,5,1,18,10,42,238,31,12,36,154,19,13,04,062,,15,39,072,33*7F
$GPGSV,5,2,18,18,19,339,29,23,66,309,27,24,17,138,14,25,67,189,28*79
$GPGSV,5,3,18,26,07,314,08,28,12,248,09,29,38,025,32,31,01,269,*7D
$GPGSV,5,4,18,32,14,207,09,36,52,277,33,40,85,352,,41,58,082,*76
$GPGSV,5,5,18,49,32,274,,50,10,089,*78
$GLGSV,3,1,10,67,29,045,13,68,65,107,25,69,36,186,21,73,06,310,*65
$GLGSV,3,2,10,78,00,155,,79,37,190,25,80,44,267,30,81,02,063,*68
$GLGSV,3,3,10,82,07,020,12,83,03,334,11*64
$GNGLL,0419.83751,S,05539.69326,E,081627.00,A,A*66
$GNRMC,081633.00,A,0419.83706,S,05539.69345,E,0.045,,260525,,,A*7A
$GNVTG,,T,,M,0.045,N,0.084,K,A*30
$GNGGA,081633.00,0419.83706,S,05539.69345,E,1,12,0.84,-4.0,M,-47.6,M,,*5F
$GNGSA,A,3,25,23,12,15,10,29,18,24,26,,,,1.97,0.84,1.78*11
$GNGSA,A,3,68,79,80,67,82,69,,,,,,,1.97,0.84,1.78*1D
$GPGSV,5,1,18,10,42,238,31,12,36,154,19,13,04,062,,15,39,072,33*7F
$GPGSV,5,2,18,18,19,339,29,23,66,309,26,24,17,138,08,25,67,189,20*7D
$GPGSV,5,3,18,26,07,314,15,28,12,248,,29,38,025,26,31,01,269,14*78
$GPGSV,5,4,18,32,14,207,15,36,52,277,35,40,85,352,,41,58,082,*7D
$GPGSV,5,5,18,49,32,274,,50,10,089,*78
$GLGSV,3,1,10,67,29,045,14,68,65,107,18,69,36,186,26,73,06,310,*6B
$GLGSV,3,2,10,78,00,155,,79,37,190,30,80,44,267,24,81,02,063,*69
$GLGSV,3,3,10,82,07,020,11,83,03,334,07*60
$GNGLL,0419.83706,S,05539.69345,E,081633.00,A,A*64
$GNRMC,081635.00,A,0419.83699,S,05539.69347,E,0.032,,260525,,,A*79
$GNVTG,,T,,M,0.032,N,0.060,K,A*3A
$GNGGA,081635.00,0419.83699,S,05539.69347,E,1,12,0.84,-3.6,M,-47.6,M,,*5D
$GNGSA,A,3,25,23,12,15,10,29,18,24,26,,,,1.97,0.84,1.78*11
$GNGSA,A,3,68,79,80,67,82,69,,,,,,,1.97,0.84,1.78*1D
$GPGSV,5,1,18,10,42,238,30,12,36,154,20,13,04,062,13,15,39,072,35*70
$GPGSV,5,2,18,18,19,339,29,23,65,310,26,24,17,138,10,25,67,189,21*7E
$GPGSV,5,3,18,26,07,314,08,28,12,248,15,29,38,025,27,31,01,269,10*75
$GPGSV,5,4,18,32,14,207,12,36,52,277,33,40,85,352,,41,58,082,*7C
$GPGSV,5,5,18,49,32,274,,50,10,089,*78
$GLGSV,3,1,10,67,29,045,15,68,65,107,12,69,36,186,25,73,06,310,*63
$GLGSV,3,2,10,78,00,155,,79,37,190,29,80,44,267,23,81,02,063,*66
$GLGSV,3,3,10,82,07,020,10,83,03,334,08*6E
$GNGLL,0419.83699,S,05539.69347,E,081635.00,A,A*67
$GNRMC,081636.00,A,0419.83696,S,05539.69347,E,0.117,,260525,,,A*73
$GNVTG,,T,,M,0.117,N,0.216,K,A*3F
$GNGGA,081636.00,0419.83696,S,05539.69347,E,1,12,0.80,-3.4,M,-47.6,M,,*57
$GNGSA,A,3,25,23,12,15,10,29,18,24,26,,,,1.68,0.80,1.47*19
$GNGSA,A,3,68,79,80,67,82,69,,,,,,,1.68,0.80,1.47*15
$GPGSV,5,1,18,10,42,238,28,12,36,154,19,13,04,062,10,15,39,072,33*76
$GPGSV,5,2,18,18,19,339,27,23,65,310,26,24,16,137,09,25,67,189,19*7D
$GPGSV,5,3,18,26,07,314,11,28,12,248,13,29,38,025,28,31,01,269,09*7C
$GPGSV,5,4,18,32,14,207,11,36,52,277,31,40,85,352,,41,58,082,*7D
$GPGSV,5,5,18,49,32,274,,50,10,089,*78
$GLGSV,3,1,10,67,29,045,15,68,65,107,09,69,36,186,24,73,06,310,*68
$GLGSV,3,2,10,78,00,155,,79,37,190,26,80,44,267,22,81,02,063,*68
$GLGSV,3,3,10,82,07,020,09,83,03,334,07*69
$GNGLL,0419.83696,S,05539.69347,E,081636.00,A,A*6B
$GNRMC,081637.00,A,0419.83695,S,05539.69347,E,0.039,,260525,,,A*7C
$GNVTG,,T,,M,0.039,N,0.071,K,A*31
$GNGGA,081637.00,0419.83695,S,05539.69347,E,1,12,0.80,-3.3,M,-47.6,M,,*52
$GNGSA,A,3,25,23,12,15,10,29,18,24,26,,,,1.68,0.80,1.47*19
$GNGSA,A,3,68,79,80,67,82,69,,,,,,,1.68,0.80,1.47*15
$GPGSV,5,1,18,10,42,238,26,12,36,154,18,13,04,062,08,15,39,072,32*71
$GPGSV,5,2,18,18,19,339,26,23,65,310,24,24,16,137,09,25,66,188,16*71
$GPGSV,5,3,18,26,07,314,09,28,12,248,10,29,38,025,26,31,01,269,07*76
$GPGSV,5,4,18,32,14,207,09,36,52,277,30,40,85,352,,41,58,082,*75
$GPGSV,5,5,18,49,32,274,,50,10,089,*78
$GLGSV,3,1,10,67,29,045,11,68,65,107,09,69,36,186,23,73,06,310,*6B
$GLGSV,3,2,10,78,00,155,,79,37,190,28,80,44,267,21,81,02,063,*65
$GLGSV,3,3,10,82,07,020,10,83,03,334,07*61
$GNGLL,0419.83695,S,05539.69347,E,081637.00,A,A*69
$GNRMC,081638.00,A,0419.83694,S,05539.69341,E,0.126,,260525,,,A*7B
$GNVTG,,T,,M,0.126,N,0.233,K,A*3A
$GNGGA,081638.00,0419.83694,S,05539.69341,E,1,12,0.80,-3.1,M,-47.6,M,,*58
$GNGSA,A,3,25,23,12,15,10,29,18,26,,,,,1.68,0.80,1.47*1F
$GNGSA,A,3,68,79,80,67,69,,,,,,,,1.68,0.80,1.47*1F
$GPGSV,5,1,18,10,42,238,25,12,36,154,17,13,04,062,07,15,39,072,32*72
$GPGSV,5,2,18,18,19,339,26,23,65,310,23,24,16,137,08,25,66,188,15*74
$GPGSV,5,3,18,26,07,313,07,28,12,248,11,29,38,025,27,31,01,269,07*7F
$GPGSV,5,4,18,32,14,207,07,36,52,277,31,40,85,352,,41,58,082,*7A
$GPGSV,5,5,18,49,32,274,,50,10,089,*78
$GLGSV,3,1,10,67,29,045,08,68,65,107,10,69,36,186,24,73,06,310,*6C
$GLGSV,3,2,10,78,00,155,,79,37,190,27,80,44,267,20,81,02,063,*6B
$GLGSV,3,3,10,82,07,020,06,83,03,334,07*66
$GNGLL,0419.83694,S,05539.69341,E,081638.00,A,A*61
$GNRMC,081640.00,A,0419.83696,S,05539.69331,E,0.053,,260525,,,A*72
$GNVTG,,T,,M,0.053,N,0.099,K,A*3B
$GNGGA,081640.00,0419.83696,S,05539.69331,E,1,12,0.80,-2.7,M,-47.6,M,,*55
$GNGSA,A,3,25,23,12,15,10,29,18,28,26,,,,1.65,0.80,1.44*1B
$GNGSA,A,3,68,79,80,67,82,69,,,,,,,1.65,0.80,1.44*1B
$GPGSV,5,1,18,10,42,238,27,12,36,154,20,13,04,062,07,15,39,072,32*74
$GPGSV,5,2,18,18,19,339,31,23,65,310,26,24,16,137,11,25,66,188,15*7F
$GPGSV,5,3,18,26,07,313,13,28,13,247,12,29,38,025,30,31,01,269,08*7E
$GPGSV,5,4,18,32,14,207,08,36,52,277,33,40,85,352,,41,58,082,*77
$GPGSV,5,5,18,49,32,274,,50,10,089,*78
$GLGSV,3,1,10,67,29,045,11,68,65,107,11,69,36,186,30,73,06,310,*60
$GLGSV,3,2,10,78,00,155,,79,37,190,27,80,44,267,24,81,02,063,*6F
$GLGSV,3,3,10,82,07,020,11,83,03,334,11*67
$GNGLL,0419.83696,S,05539.69331,E,081640.00,A,A*6B
$GNRMC,081642.00,A,0419.83707,S,05539.69329,E,0.126,,260525,,,A*73
$GNVTG,,T,,M,0.126,N,0.233,K,A*3A
$GNGGA,081642.00,0419.83707,S,05539.69329,E,1,12,0.80,-2.6,M,-47.6,M,,*56
$GNGSA,A,3,25,23,12,15,10,29,18,24,28,26,,,1.65,0.80,1.44*1D
$GNGSA,A,3,68,79,80,67,82,69,,,,,,,1.65,0.80,1.44*1B
$GPGSV,5,1,18,10,42,238,27,12,36,154,21,13,04,062,08,15,39,072,34*7C
$GPGSV,5,2,18,18,19,339,29,23,65,310,27,24,16,137,17,25,66,188,21*76
$GPGSV,5,3,18,26,07,313,19,28,13,247,13,29,38,026,29,31,01,269,08*7E
$GPGSV,5,4,18,32,14,207,08,36,52,277,33,40,85,352,,41,58,082,*77
$GPGSV,5,5,18,49,32,274,,50,10,089,*78
$GLGSV,3,1,10,67,29,045,15,68,65,107,21,69,36,186,27,73,06,310,*61
$GLGSV,3,2,10,78,00,155,,79,37,190,31,80,44,267,23,81,02,063,*6F
$GLGSV,3,3,10,82,07,020,07,83,03,334,10*61
$GNGLL,0419.83707,S,05539.69329,E,081642.00,A,A*69
$GNRMC,081643.00,A,0419.83710,S,05539.69335,E,0.185,,260525,,,A*70
$GNVTG,,T,,M,0.185,N,0.343,K,A*35
$GNGGA,081643.00,0419.83710,S,05539.69335,E,1,12,0.80,-2.2,M,-47.6,M,,*58
$GNGSA,A,3,25,23,12,15,10,29,18,24,28,26,,,1.65,0.80,1.44*1D
$GNGSA,A,3,68,79,80,67,82,69,,,,,,,1.65,0.80,1.44*1B
$GPGSV,5,1,18,10,42,238,24,12,36,154,22,13,04,062,08,15,39,072,34*7C
$GPGSV,5,2,18,18,19,339,27,23,65,310,27,24,16,137,17,25,66,188,24*7D
$GPGSV,5,3,18,26,07,313,13,28,13,247,15,29,38,026,28,31,01,269,*7B
$GPGSV,5,4,18,32,14,207,11,36,52,277,32,40,85,352,,41,58,082,*7E
$GPGSV,5,5,18,49,32,274,,50,10,089,*78
$GLGSV,3,1,10,67,29,045,12,68,65,107,23,69,36,186,27,73,06,310,*64
$GLGSV,3,2,10,78,00,155,,79,37,190,28,80,44,267,25,81,02,063,*61
$GLGSV,3,3,10,82,07,020,09,83,03,334,10*6F
$GNGLL,0419.83710,S,05539.69335,E,081643.00,A,A*63
$GNRMC,081647.00,A,0419.83702,S,05539.69347,E,0.047,,260525,,,A*7D
$GNVTG,,T,,M,0.047,N,0.088,K,A*3E
$GNGGA,081647.00,0419.83702,S,05539.69347,E,1,12,0.71,-0.4,M,-47.6,M,,*50
$GNGSA,A,3,25,23,12,15,10,29,18,24,28,26,,,1.44,0.71,1.25*17
$GNGSA,A,3,68,79,80,67,82,69,,,,,,,1.44,0.71,1.25*11
$GPGSV,5,1,18,10,42,238,27,12,36,154,22,13,04,062,,15,39,072,35*76
$GPGSV,5,2,18,18,19,339,27,23,65,310,25,24,16,137,09,25,66,188,26*72
$GPGSV,5,3,18,26,07,313,09,28,13,247,20,29,38,026,29,31,01,269,*77
$GPGSV,5,4,18,32,14,207,11,36,52,277,31,40,85,352,,41,58,082,*7D
$GPGSV,5,5,18,49,32,274,,50,10,089,*78
$GLGSV,3,1,10,67,29,045,15,68,65,107,24,69,36,186,30,73,06,310,*62
$GLGSV,3,2,10,78,00,155,,79,37,190,29,80,44,267,26,81,02,063,*63
$GLGSV,3,3,10,82,07,020,09,83,03,334,08*66
$GNGLL,0419.83702,S,05539.69347,E,081647.00,A,A*61
$GNRMC,081648.00,A,0419.83698,S,05539.69348,E,0.026,,260525,,,A*78
$GNVTG,,T,,M,0.026,N,0.048,K,A*35
$GNGGA,081648.00,0419.83698,S,05539.69348,E,1,12,0.80,-0.1,M,-47.6,M,,*59
$GNGSA,A,3,25,23,12,15,10,29,18,24,28,,,,1.65,0.80,1.44*19
$GNGSA,A,3,68,79,80,67,82,69,,,,,,,1.65,0.80,1.44*1B
$GPGSV,5,1,18,10,42,238,24,12,36,154,23,13,04,062,,15,39,072,35*74
$GPGSV,5,2,18,18,19,339,26,23,65,310,26,24,16,137,09,25,66,188,23*75
$GPGSV,5,3,18,26,07,313,06,28,13,247,18,29,38,026,29,31,01,269,03*70
$GPGSV,5,4,18,32,14,207,09,36,52,277,32,40,85,352,,41,58,082,*77
$GPGSV,5,5,18,49,32,274,,50,10,089,*78
$GLGSV,3,1,10,67,29,045,15,68,65,107,25,69,36,186,27,73,06,310,*65
$GLGSV,3,2,10,78,00,155,,79,37,190,31,80,44,267,27,81,02,063,*6B
$GLGSV,3,3,10,82,07,020,10,83,03,334,08*6E
$GNGLL,0419.83698,S,05539.69348,E,081648.00,A,A*63
$GNRMC,081650.00,A,0419.83704,S,05539.69349,E,0.152,,260525,,,A*76
$GNVTG,,T,,M,0.152,N,0.281,K,A*30
$GNGGA,081650.00,0419.83704,S,05539.69349,E,1,12,0.72,0.0,M,-47.6,M,,*74
$GNGSA,A,3,25,23,12,15,10,29,18,24,28,26,,,1.42,0.72,1.23*14
$GNGSA,A,3,68,79,80,67,69,,,,,,,,1.42,0.72,1.23*18
$GPGSV,5,1,18,10,42,238,21,12,36,154,22,13,04,062,,15,39,072,34*71
$GPGSV,5,2,18,18,19,339,23,23,65,310,25,24,16,137,10,25,66,188,23*7B
$GPGSV,5,3,18,26,07,313,09,28,13,247,12,29,38,026,26,31,01,269,09*70
$GPGSV,5,4,18,32,14,207,08,36,52,277,28,40,85,352,,41,58,082,*7D
$GPGSV,5,5,18,49,32,274,,50,10,089,*78
$GLGSV,3,1,10,67,29,045,10,68,65,107,23,69,36,186,24,73,06,310,*65
$GLGSV,3,2,10,78,00,155,,79,37,190,27,80,44,267,23,81,02,063,*68
$GLGSV,3,3,10,82,07,020,06,83,03,334,07*66
$GNGLL,0419.83704,S,05539.69349,E,081650.00,A,A*6F
$GNRMC,081652.00,A,0419.83701,S,05539.69354,E,0.200,,260525,,,A*79
$GNVTG,,T,,M,0.200,N,0.370,K,A*3B
$GNGGA,081652.00,0419.83701,S,05539.69354,E,1,12,0.84,0.4,M,-47.6,M,,*72
$GNGSA,A,3,25,23,12,15,10,29,18,24,28,26,,,1.97,0.84,1.78*1B
$GNGSA,A,3,68,79,80,67,82,69,,,,,,,1.97,0.84,1.78*1D
$GPGSV,5,1,18,10,42,238,27,12,36,154,23,13,04,062,,15,39,072,31*73
$GPGSV,5,2,18,18,19,339,25,23,65,310,25,24,16,137,10,25,66,188,24*7A
$GPGSV,5,3,18,26,07,313,11,28,13,247,16,29,38,026,27,31,01,269,08*7D
$GPGSV,5,4,18,32,14,207,14,36,52,277,31,40,85,352,,41,58,082,*78
$GPGSV,5,5,18,49,32,274,,50,10,089,*78
$GLGSV,3,1,10,67,29,045,18,68,65,107,26,69,36,186,20,73,06,310,*6C
$GLGSV,3,2,10,78,00,155,,79,37,190,31,80,44,267,27,81,02,063,*6B
$GLGSV,3,3,10,82,07,020,10,83,03,334,09*6F
$GNGLL,0419.83701,S,05539.69354,E,081652.00,A,A*64
$GNRMC,081653.00,A,0419.83698,S,05539.69355,E,0.134,,260525,,,A*7C
$GNVTG,,T,,M,0.134,N,0.248,K,A*35
$GNGGA,081653.00,0419.83698,S,05539.69355,E,1,12,0.84,0.3,M,-47.6,M,,*74
$GNGSA,A,3,25,23,12,15,10,29,18,24,28,,,,1.97,0.84,1.78*1F
$GNGSA,A,3,68,79,80,67,82,69,,,,,,,1.97,0.84,1.78*1D
$GPGSV,5,1,18,10,42,238,26,12,36,154,20,13,04,062,,15,39,072,30*70
$GPGSV,5,2,18,18,19,339,23,23,65,310,24,24,16,137,10,25,66,188,23*7A
$GPGSV,5,3,18,26,07,313,06,28,13,247,16,29,38,026,26,31,01,269,08*7A
$GPGSV,5,4,18,32,14,207,12,36,52,277,30,40,85,352,,41,58,082,*7F
$GPGSV,5,5,18,49,32,274,,50,10,089,*78
$GLGSV,3,1,10,67,29,045,20,68,65,107,25,69,36,186,20,73,06,310,*64
$GLGSV,3,2,10,78,00,155,,79,37,190,26,80,44,267,26,81,02,063,*6C
$GLGSV,3,3,10,82,07,020,09,83,03,334,09*67
$GNGLL,0419.83698,S,05539.69355,E,081653.00,A,A*65
$GNRMC,081654.00,A,0419.83713,S,05539.69362,E,0.361,,260525,,,A*7F
$GNVTG,,T,,M,0.361,N,0.668,K,A*31
$GNGGA,081654.00,0419.83713,S,05539.69362,E,1,12,0.84,0.6,M,-47.6,M,,*70
$GNGSA,A,3,25,23,12,15,10,29,18,24,28,26,,,1.97,0.84,1.78*1B
$GNGSA,A,3,68,79,80,67,69,,,,,,,,1.97,0.84,1.78*17
$GPGSV,5,1,18,10,42,238,25,12,36,154,19,13,04,062,,15,39,072,30*79
$GPGSV,5,2,18,18,19,339,22,23,65,310,25,24,16,137,10,25,66,188,25*7C
$GPGSV,5,3,18,26,07,313,10,28,13,247,14,29,38,026,25,31,01,269,08*7C
$GPGSV,5,4,18,32,14,207,12,36,52,277,30,40,85,352,,41,58,082,*7F
$GPGSV,5,5,18,49,32,274,,50,10,089,*78
$GLGSV,3,1,10,67,29,045,20,68,65,107,25,69,36,186,20,73,06,310,*64
$GLGSV,3,2,10,78,00,155,,79,37,190,25,80,44,267,25,81,02,063,*6C
$GLGSV,3,3,10,82,07,020,07,83,03,334,07*67
$GNGLL,0419.83713,S,05539.69362,E,081654.00,A,A*64
$GNRMC,081655.00,A,0419.83714,S,05539.69367,E,0.102,,260525,,,A*7B
$GNVTG,,T,,M,0.102,N,0.189,K,A*3E
$GNGGA,081655.00,0419.83714,S,05539.69367,E,1,12,0.84,0.6,M,-47.6,M,,*73
$GNGSA,A,3,25,23,12,15,10,29,18,24,26,,,,1.97,0.84,1.78*11
$GNGSA,A,3,68,79,80,67,82,69,,,,,,,1.97,0.84,1.78*1D
$GPGSV,5,1,18,10,42,238,25,12,36,154,23,13,04,062,,15,39,072,30*70
$GPGSV,5,2,18,18,19,339,21,23,65,310,25,24,16,137,10,25,66,188,25*7F
$GPGSV,5,3,18,26,07,313,11,28,13,247,11,29,38,026,26,31,01,269,11*73
$GPGSV,5,4,18,32,14,207,16,36,52,277,30,40,85,352,,41,58,082,*7B
$GPGSV,5,5,18,49,32,274,,50,10,089,*78
$GLGSV,3,1,10,67,29,045,18,68,65,107,25,69,36,186,19,73,06,310,*65
$GLGSV,3,2,10,78,00,155,,79,37,190,24,80,44,267,24,81,02,063,*6C
$GLGSV,3,3,10,82,07,020,08,83,03,334,07*68
$GNGLL,0419.83714,S,05539.69367,E,081655.00,A,A*67
$GNRMC,081656.00,A,0419.83713,S,05539.69367,E,0.071,,260525,,,A*7A
$GNVTG,,T,,M,0.071,N,0.131,K,A*38
$GNGGA,081656.00,0419.83713,S,05539.69367,E,1,12,0.78,0.3,M,-47.6,M,,*71
$GNGSA,A,3,25,23,12,15,10,29,18,24,26,,,,1.69,0.78,1.49*11
$GNGSA,A,3,68,79,80,67,82,69,,,,,,,1.69,0.78,1.49*1D
$GPGSV,5,1,18,10,42,238,27,12,36,154,24,13,04,062,,15,39,072,28*7C
$GPGSV,5,2,18,18,19,339,20,23,65,310,25,24,16,137,10,25,66,188,23*78
$GPGSV,5,3,18,26,07,313,14,28,13,247,08,29,38,026,27,31,01,269,11*7F
$GPGSV,5,4,18,32,14,207,15,36,52,277,34,40,85,352,,41,58,082,*7C
$GPGSV,5,5,18,49,32,274,,50,10,089,*78
$GLGSV,3,1,10,67,29,045,15,68,65,107,25,69,36,186,19,73,06,310,*68
$GLGSV,3,2,10,78,00,155,,79,37,190,25,80,44,267,23,81,02,063,*6A
$GLGSV,3,3,10,82,07,020,07,83,03,334,08*68
$GNGLL,0419.83713,S,05539.69367,E,081656.00,A,A*63
$GNRMC,081657.00,A,0419.83709,S,05539.69362,E,0.187,,260525,,,A*7D
$GNVTG,,T,,M,0.187,N,0.347,K,A*33
$GNGGA,081657.00,0419.83709,S,05539.69362,E,1,12,0.84,0.0,M,-47.6,M,,*7E
$GNGSA,A,3,25,23,12,15,10,29,18,24,26,,,,1.97,0.84,1.78*11
$GNGSA,A,3,68,79,80,67,82,69,,,,,,,1.97,0.84,1.78*1D
$GPGSV,5,1,18,10,42,238,26,12,36,154,25,13,04,062,,15,39,072,29*7D
$GPGSV,5,2,18,18,19,339,20,23,65,310,25,24,16,137,10,25,66,188,20*7B
$GPGSV,5,3,18,26,07,313,11,28,13,247,08,29,38,026,28,31,01,269,10*74
$GPGSV,5,4,18,32,14,207,15,36,52,277,30,40,85,352,,41,58,082,*78
$GPGSV,5,5,18,49,32,274,,50,10,089,*78
$GLGSV,3,1,10,67,29,045,17,68,65,107,25,69,36,186,20,73,06,310,*60
$GLGSV,3,2,10,78,00,155,,79,37,190,26,80,44,267,24,81,02,063,*6E
$GLGSV,3,3,10,82,07,020,08,83,03,334,07*68
$GNGLL,0419.83709,S,05539.69362,E,081657.00,A,A*6C
$GNRMC,081659.00,A,0419.83699,S,05539.69357,E,0.454,,260525,,,A*76
$GNVTG,,T,,M,0.454,N,0.840,K,A*34
$GNGGA,081659.00,0419.83699,S,05539.69357,E,1,12,0.77,-0.5,M,-47.6,M,,*5A
$GNGSA,A,3,25,23,12,15,10,29,18,28,26,,,,1.53,0.77,1.33*16
$GNGSA,A,3,68,79,80,67,82,69,,,,,,,1.53,0.77,1.33*16
$GPGSV,5,1,18,10,42,238,25,12,36,154,22,13,04,062,,15,39,072,28*78
$GPGSV,5,2,18,18,19,339,21,23,65,310,25,24,16,137,,25,66,188,18*70
$GPGSV,5,3,18,26,07,313,09,28,13,247,11,29,38,026,25,31,01,269,10*78
$GPGSV,5,4,18,32,14,207,12,36,52,277,31,40,85,352,,41,58,082,*7E
$GPGSV,5,5,18,49,32,274,,50,10,089,*78
$GLGSV,3,1,10,67,29,045,19,68,65,107,23,69,36,186,22,73,06,310,*6A
$GLGSV,3,2,10,78,00,155,,79,37,190,27,80,44,267,24,81,02,063,*6F
$GLGSV,3,3,10,82,07,020,10,83,03,334,11*66
$GNGLL,0419.83699,S,05539.69357,E,081659.00,A,A*6C
$GNRMC,081700.00,A,0419.83697,S,05539.69363,E,0.188,,260525,,,A*76
$GNVTG,,T,,M,0.188,N,0.349,K,A*32
$GNGGA,081700.00,0419.83697,S,05539.69363,E,1,12,0.80,-0.4,M,-47.6,M,,*57
$GNGSA,A,3,25,23,12,15,10,29,18,26,,,,,1.68,0.80,1.47*1F
$GNGSA,A,3,68,79,80,67,82,69,,,,,,,1.68,0.80,1.47*15
$GPGSV,5,1,18,10,42,238,24,12,36,154,21,13,04,062,,15,39,072,32*71
$GPGSV,5,2,18,18,19,339,21,23,65,310,26,24,16,137,,25,66,188,21*79
$GPGSV,5,3,18,26,07,313,08,28,13,247,09,29,38,026,25,31,01,269,05*74
$GPGSV,5,4,18,32,14,207,09,36,52,277,33,40,85,352,,41,58,082,*76
$GPGSV,5,5,18,49,32,274,,50,10,089,*78
$GLGSV,3,1,10,67,29,045,19,68,65,107,22,69,36,186,22,73,06,310,*6B
$GLGSV,3,2,10,78,00,155,,79,37,190,28,80,44,267,25,81,02,063,*61
$GLGSV,3,3,10,82,07,020,10,83,03,334,11*66
$GNGLL,0419.83697,S,05539.69363,E,081700.00,A,A*68
$GNRMC,081701.00,A,0419.83702,S,05539.69368,E,0.091,,260525,,,A*78
$GNVTG,,T,,M,0.091,N,0.168,K,A*3A
$GNGGA,081701.00,0419.83702,S,05539.69368,E,1,12,0.77,-0.5,M,-47.6,M,,*59
$GNGSA,A,3,25,23,12,15,10,29,18,28,26,,,,1.53,0.77,1.33*16
$GNGSA,A,3,68,79,80,67,82,69,,,,,,,1.53,0.77,1.33*16
$GPGSV,5,1,18,10,42,238,26,12,36,154,20,13,04,062,,15,39,072,32*72
$GPGSV,5,2,18,18,19,339,21,23,65,310,30,24,16,137,,25,66,188,22*7D
$GPGSV,5,3,18,26,07,313,11,28,13,247,15,29,38,026,25,31,01,269,10*75
$GPGSV,5,4,18,32,14,207,12,36,52,277,31,40,85,352,,41,58,082,*7E
$GPGSV,5,5,18,49,32,274,,50,10,089,*78
$GLGSV,3,1,10,67,29,045,20,68,65,107,22,69,36,186,22,73,06,310,*61
$GLGSV,3,2,10,78,00,155,,79,37,190,29,80,44,267,25,81,02,063,*60
$GLGSV,3,3,10,82,07,020,10,83,03,334,09*6F
$GNGLL,0419.83702,S,05539.69368,E,081701.00,A,A*6F
$GNRMC,081705.00,A,0419.83697,S,05539.69366,E,0.142,,260525,,,A*70
$GNVTG,,T,,M,0.142,N,0.263,K,A*3D
$GNGGA,081705.00,0419.83697,S,05539.69366,E,1,12,0.80,-2.1,M,-47.6,M,,*50
$GNGSA,A,3,25,23,12,15,10,29,18,28,26,,,,1.68,0.80,1.47*15
$GNGSA,A,3,68,79,80,67,69,,,,,,,,1.68,0.80,1.47*1F
$GPGSV,5,1,18,10,42,238,29,12,36,154,23,13,04,062,,15,39,072,31*7D
$GPGSV,5,2,18,18,19,339,20,23,65,310,27,24,16,137,14,25,66,188,23*7E
$GPGSV,5,3,18,26,07,313,08,28,13,247,08,29,38,026,22,31,01,269,11*77
$GPGSV,5,4,18,32,14,207,13,36,52,277,31,40,85,352,,41,58,082,*7F
$GPGSV,5,5,18,49,32,274,,50,10,089,*78
$GLGSV,3,1,10,67,29,045,19,68,65,107,24,69,36,186,22,73,06,310,*6D
$GLGSV,3,2,10,78,00,155,,79,37,190,27,80,44,267,25,81,02,063,*6E
$GLGSV,3,3,10,82,07,020,07,83,03,334,11*60
$GNGLL,0419.83697,S,05539.69366,E,081705.00,A,A*68
$GNRMC,081706.00,A,0419.83695,S,05539.69365,E,0.090,,260525,,,A*7C
$GNVTG,,T,,M,0.090,N,0.166,K,A*35
$GNGGA,081706.00,0419.83695,S,05539.69365,E,1,12,0.84,-2.5,M,-47.6,M,,*52
$GNGSA,A,3,25,23,12,15,10,29,18,26,,,,,1.97,0.84,1.78*17
$GNGSA,A,3,68,79,80,67,82,69,,,,,,,1.97,0.84,1.78*1D
$GNRMC,081708.00,A,0419.83703,S,05539.69371,E,0.049,,260525,,,A*7D
$GNVTG,,T,,M,0.049,N,0.092,K,A*3B
$GNGGA,081708.00,0419.83703,S,05539.69371,E,1,12,0.80,-2.6,M,-47.6,M,,*50
$GNGSA,A,3,25,23,12,15,10,29,18,26,,,,,1.68,0.80,1.47*1F
$GNGSA,A,3,68,79,80,67,82,69,,,,,,,1.68,0.80,1.47*15
$GPGSV,5,1,18,10,42,238,28,12,36,154,23,13,04,062,12,15,39,072,33*7D
$GPGSV,5,2,18,18,19,339,20,23,65,310,28,24,16,137,12,25,66,188,25*71
$GPGSV,5,3,18,26,07,313,10,28,13,247,,29,38,026,26,31,01,269,11*72
$GPGSV,5,4,18,32,14,207,12,36,52,277,30,40,85,352,,41,58,082,*7F
$GPGSV,5,5,18,49,32,274,,50,10,089,*78
$GLGSV,3,1,10,67,28,044,24,68,65,105,26,69,36,186,24,73,06,310,*65
$GLGSV,3,2,10,78,00,155,,79,37,190,25,80,44,267,26,81,02,063,*6F
$GLGSV,3,3,10,82,07,020,11,83,03,334,11*67
$GNGLL,0419.83703,S,05539.69371,E,081708.00,A,A*6F
$GNRMC,081709.00,A,0419.83696,S,05539.69366,E,0.045,,260525,,,A*7B
$GNVTG,,T,,M,0.045,N,0.083,K,A*37
$GNGGA,081709.00,0419.83696,S,05539.69366,E,1,12,0.78,-2.3,M,-47.6,M,,*58
$GNGSA,A,3,25,23,12,15,10,29,18,24,26,,,,1.69,0.78,1.49*11
$GNGSA,A,3,68,79,80,67,82,69,,,,,,,1.69,0.78,1.49*1D
$GPGSV,5,1,18,10,42,238,28,12,36,154,23,13,04,062,09,15,39,072,33*77
$GPGSV,5,2,18,18,19,339,21,23,65,310,26,24,16,137,15,25,66,188,25*79
$GPGSV,5,3,18,26,07,313,10,28,13,247,,29,38,026,26,31,01,269,11*72
$GPGSV,5,4,18,32,14,207,15,36,52,277,31,40,85,352,,41,58,082,*79
$GPGSV,5,5,18,49,32,274,,50,10,089,*78
$GLGSV,3,1,10,67,28,044,25,68,65,105,27,69,36,186,23,73,06,310,*62
$GLGSV,3,2,10,78,00,155,,79,37,190,24,80,44,267,26,81,02,063,*6E
$GNRMC,081710.00,A,0419.83707,S,05539.69362,E,0.525,,260525,,,A*7D
$GNVTG,,T,,M,0.525,N,0.972,K,A*33
$GNGGA,081710.00,0419.83707,S,05539.69362,E,1,12,0.78,-2.2,M,-47.6,M,,*5C
$GNGSA,A,3,25,23,12,15,10,29,18,24,26,,,,1.69,0.78,1.49*11
$GNGSA,A,3,68,79,80,67,82,69,,,,,,,1.69,0.78,1.49*1D
$GPGSV,5,1,18,10,42,238,26,12,36,154,21,13,04,062,11,15,39,072,31*70
$GPGSV,5,2,18,18,19,339,19,23,65,310,24,24,16,137,15,25,66,188,24*71
$GPGSV,5,3,18,26,07,313,10,28,13,247,17,29,38,026,25,31,01,269,09*7E
$GPGSV,5,4,18,32,14,207,16,36,52,277,28,40,85,352,,41,58,082,*72
$GPGSV,5,5,18,49,32,274,,50,10,089,*78
$GLGSV,3,1,10,67,28,044,23,68,65,105,26,69,36,186,22,73,06,310,*64
$GLGSV,3,2,10,78,00,155,,79,37,190,22,80,44,267,27,81,02,063,*69
$GLGSV,3,3,10,82,07,020,10,83,03,334,11*66
$GNGLL,0419.83707,S,05539.69362,E,081710.00,A,A*60
$GNRMC,081711.00,A,0419.83696,S,05539.69353,E,0.133,,260525,,,A*74
$GNVTG,,T,,M,0.133,N,0.246,K,A*3C
$GNGGA,081711.00,0419.83696,S,05539.69353,E,1,12,0.78,-2.4,M,-47.6,M,,*50
$GNGSA,A,3,25,23,12,15,10,29,18,24,26,,,,1.69,0.78,1.49*11
$GNGSA,A,3,68,79,80,67,82,69,,,,,,,1.69,0.78,1.49*1D
$GPGSV,5,1,18,10,42,238,26,12,36,154,19,13,04,062,10,15,39,072,31*7A
$GPGSV,5,2,18,18,19,339,19,23,65,310,22,24,16,137,14,25,66,188,24*76
$GPGSV,5,3,18,26,07,313,09,28,13,247,16,29,38,026,26,31,01,269,07*7A
$GPGSV,5,4,18,32,14,207,16,36,52,277,32,40,85,352,,41,58,082,*79
$GPGSV,5,5,18,49,32,274,,50,10,089,*78
$GLGSV,3,1,10,67,28,044,23,68,65,105,26,69,36,186,22,73,06,310,*64
$GLGSV,3,2,10,78,00,155,,79,37,190,23,80,44,267,28,81,02,063,*67
$GLGSV,3,3,10,82,07,020,10,83,03,334,10*67
$GNGLL,0419.83696,S,05539.69353,E,081711.00,A,A*6A
$GNRMC,081713.00,A,0419.83683,S,05539.69356,E,0.110,,260525,,,A*76
$GNVTG,,T,,M,0.110,N,0.203,K,A*3C
$GNGGA,081713.00,0419.83683,S,05539.69356,E,1,12,0.84,-2.8,M,-47.6,M,,*5C
$GNGSA,A,3,25,23,12,15,10,29,18,26,,,,,1.97,0.84,1.77*18
$GNGSA,A,3,68,79,80,67,82,69,,,,,,,1.97,0.84,1.77*12
$GPGSV,5,1,18,10,42,238,25,12,36,154,18,13,04,062,09,15,39,072,30*71
$GPGSV,5,2,18,18,19,339,20,23,65,310,21,24,16,137,09,25,66,188,24*73
$GPGSV,5,3,18,26,07,313,10,28,13,247,13,29,38,026,25,31,01,269,10*72
$GPGSV,5,4,18,32,14,207,15,36,52,277,34,40,85,352,,41,58,082,*7C
$GPGSV,5,5,18,49,32,274,,50,10,089,*78
$GLGSV,3,1,10,67,28,044,25,68,65,105,25,69,36,186,22,73,07,310,*60
$GLGSV,3,2,10,78,00,155,,79,37,190,25,80,44,267,27,81,02,063,*6E
$GLGSV,3,3,10,82,07,020,12,83,03,334,12*67
$GNGLL,0419.83683,S,05539.69356,E,081713.00,A,A*69
$GNRMC,081714.00,A,0419.83686,S,05539.69351,E,0.221,,260525,,,A*72
$GNVTG,,T,,M,0.221,N,0.409,K,A*31
$GNGGA,081714.00,0419.83686,S,05539.69351,E,1,12,0.77,-3.5,M,-47.6,M,,*59
$GNGSA,A,3,25,23,12,15,10,29,18,28,26,,,,1.53,0.77,1.32*17
$GNGSA,A,3,68,79,80,67,82,69,,,,,,,1.53,0.77,1.32*17
$GPGSV,5,1,18,10,42,238,24,12,36,154,16,13,04,062,10,15,39,072,31*77
$GNRMC,081715.00,A,0419.83677,S,05539.69342,E,0.312,,260525,,,A*7E
$GNVTG,,T,,M,0.312,N,0.578,K,A*37
$GNGGA,081715.00,0419.83677,S,05539.69342,E,1,12,0.77,-4.2,M,-47.6,M,,*54
$GNGSA,A,3,25,23,12,15,10,29,18,28,26,,,,1.53,0.77,1.32*17
$GNGSA,A,3,68,79,80,67,82,69,,,,,,,1.53,0.77,1.32*17
$GPGSV,5,1,18,10,42,238,22,12,36,154,16,13,04,062,10,15,39,072,30*70
$GPGSV,5,2,18,18,19,339,16,23,65,310,17,24,16,137,07,25,66,188,21*78
$GPGSV,5,3,18,26,07,313,09,28,13,247,13,29,38,026,24,31,01,269,11*7A
$GPGSV,5,4,18,32,14,207,15,36,52,277,30,40,85,352,,41,58,082,*78
$GPGSV,5,5,18,49,32,274,,50,10,089,*78
$GLGSV,3,1,10,67,28,044,26,68,65,105,22,69,36,186,21,73,07,310,*67
$GLGSV,3,2,10,78,00,155,,79,37,190,26,80,44,267,28,81,02,063,*62
$GLGSV,3,3,10,82,07,020,11,83,03,334,07*60
$GNGLL,0419.83677,S,05539.69342,E,081715.00,A,A*61
$GNRMC,081716.00,A,0419.83675,S,05539.69337,E,0.406,,260525,,,A*7F
$GNVTG,,T,,M,0.406,N,0.751,K,A*3C
$GNGGA,081716.00,0419.83675,S,05539.69337,E,1,12,0.68,-3.7,M,-47.6,M,,*5B
$GNGSA,A,3,25,23,12,15,10,29,18,24,28,26,,,1.40,0.68,1.22*1C
$GNGSA,A,3,68,79,80,67,82,69,,,,,,,1.40,0.68,1.22*1A
$GPGSV,5,1,18,10,42,238,21,12,36,154,15,13,04,062,11,15,39,072,30*71
$GPGSV,5,2,18,18,19,339,16,23,65,310,17,24,16,137,11,25,66,188,22*7C
$GPGSV,5,3,18,26,07,313,12,28,13,247,13,29,38,026,25,31,01,269,11*71
$GPGSV,5,4,18,32,14,207,16,36,52,277,32,40,85,352,,41,58,082,*79
$GPGSV,5,5,18,49,32,274,,50,10,089,*78
$GLGSV,3,1,10,67,28,044,25,68,65,105,21,69,36,186,22,73,07,310,*64
$GLGSV,3,2,10,78,00,155,,79,37,190,25,80,44,267,28,81,02,063,*61
$GLGSV,3,3,10,82,07,020,11,83,03,334,10*66
$GNGLL,0419.83675,S,05539.69337,E,081716.00,A,A*62
$GNRMC,081717.00,A,0419.83654,S,05539.69323,E,0.402,,260525,,,A*7C
$GNVTG,,T,,M,0.402,N,0.745,K,A*3D
$GNGGA,081717.00,0419.83654,S,05539.69323,E,1,12,0.68,-3.5,M,-47.6,M,,*5E
$GNGSA,A,3,25,23,15,10,29,18,24,28,26,,,,1.31,0.68,1.12*1A
$GNGSA,A,3,68,79,80,67,82,69,,,,,,,1.31,0.68,1.12*1F
$GPGSV,5,1,18,10,42,238,17,12,36,154,,13,04,062,11,15,39,072,30*70
$GPGSV,5,2,18,18,19,339,17,23,65,310,18,24,16,137,13,25,66,188,21*73
$GPGSV,5,3,18,26,07,313,13,28,13,247,15,29,38,026,25,31,01,269,07*71
$GPGSV,5,4,18,32,14,207,16,36,52,277,32,40,85,352,,41,58,082,*79
$GPGSV,5,5,18,49,32,274,,50,10,089,*78
$GLGSV,3,1,10,67,28,044,23,68,65,105,20,69,36,186,22,73,07,310,*63
$GLGSV,3,2,10,78,00,155,,79,37,190,23,80,44,267,26,81,02,063,*69
$GLGSV,3,3,10,82,07,020,10,83,03,334,08*6E
$GNGLL,0419.83654,S,05539.69323,E,081717.00,A,A*65
$GNRMC,081718.00,A,0419.83621,S,05539.69305,E,0.851,,260525,,,A*7F
$GNVTG,,T,,M,0.851,N,1.577,K,A*35
$GNGGA,081718.00,0419.83621,S,05539.69305,E,1,12,0.70,-3.7,M,-47.6,M,,*5C
$GNGSA,A,3,25,23,15,10,29,18,24,28,26,,,,1.33,0.70,1.13*10
$GNGSA,A,3,68,79,80,67,82,69,,,,,,,1.33,0.70,1.13*15
$GPGSV,5,1,18,10,42,238,18,12,36,154,16,13,04,062,11,15,39,072,29*70
$GPGSV,5,2,18,18,19,339,17,23,65,310,19,24,16,137,12,25,66,188,20*72
$GPGSV,5,3,18,26,07,313,07,28,13,247,14,29,38,026,25,31,01,269,09*7B
$GPGSV,5,4,18,32,14,207,16,36,52,277,30,40,85,352,,41,58,082,*7B
$GPGSV,5,5,18,49,32,274,,50,10,089,*78
$GLGSV,3,1,10,67,28,044,22,68,65,105,19,69,36,186,21,73,07,310,*6B
$GLGSV,3,2,10,78,00,155,,79,37,190,22,80,44,267,26,81,02,063,*68
$GLGSV,3,3,10,82,07,020,09,83,03,334,10*6F
$GNGLL,0419.83621,S,05539.69305,E,081718.00,A,A*6C
$GNRMC,081719.00,A,0419.83615,S,05539.69292,E,0.209,,260525,,,A*71
$GNVTG,,T,,M,0.209,N,0.386,K,A*3B
$GNGGA,081719.00,0419.83615,S,05539.69292,E,1,12,0.70,-3.7,M,-47.6,M,,*55
$GNGSA,A,3,25,23,15,10,29,18,24,28,26,,,,1.33,0.70,1.13*10
$GNGSA,A,3,68,79,80,67,82,69,,,,,,,1.33,0.70,1.13*15
$GPGSV,5,1,18,10,42,238,17,12,36,154,18,13,04,062,11,15,39,072,33*7A
$GPGSV,5,2,18,18,19,339,16,23,65,310,20,24,16,137,13,25,66,188,19*72
$GPGSV,5,3,18,26,07,313,09,28,13,247,15,29,38,026,26,31,01,269,09*77
$GPGSV,5,4,18,32,14,207,16,36,52,277,34,40,85,352,,41,58,082,*7F
$GPGSV,5,5,18,49,32,274,,50,10,089,*78
$GLGSV,3,1,10,67,28,044,24,68,65,105,21,69,36,186,20,73,07,310,*67
$GLGSV,3,2,10,78,00,155,,79,37,190,22,80,44,267,26,81,02,063,*68
$GLGSV,3,3,10,82,07,020,10,83,03,334,09*6F
$GNGLL,0419.83615,S,05539.69292,E,081719.00,A,A*65
$GNRMC,081723.00,A,0419.83525,S,05539.69250,E,0.027,,260525,,,A*78
$GNVTG,,T,,M,0.027,N,0.050,K,A*3D
$GNGGA,081723.00,0419.83525,S,05539.69250,E,1,12,0.84,-4.4,M,-47.6,M,,*5D
$GNGSA,A,3,25,23,12,15,10,29,28,26,,,,,1.51,0.84,1.26*15
$GNGSA,A,3,68,79,80,67,82,69,,,,,,,1.51,0.84,1.26*1C
$GPGSV,5,1,18,10,42,238,19,12,36,154,23,13,04,062,13,15,39,072,33*7E
$GPGSV,5,2,18,18,19,339,20,23,65,310,23,24,16,137,09,25,66,188,22*77
$GPGSV,5,3,18,26,07,313,11,28,13,247,18,29,38,026,28,31,01,269,09*7D
$GPGSV,5,4,18,32,14,207,,36,52,277,,40,85,352,,41,58,082,*7F
$GPGSV,5,5,18,49,32,274,,50,10,089,*78
$GLGSV,3,1,10,67,28,044,29,68,65,105,26,69,36,186,22,73,07,310,*6F
$GLGSV,3,2,10,78,00,155,,79,37,190,24,80,44,266,28,81,02,064,*66
$GLGSV,3,3,10,82,07,021,10,83,03,334,11*67
$GNGLL,0419.83525,S,05539.69250,E,081723.00,A,A*62
$GNRMC,081724.00,A,0419.83543,S,05539.69256,E,0.062,,260525,,,A*78
$GNVTG,,T,,M,0.062,N,0.114,K,A*3D
$GNGGA,081724.00,0419.83543,S,05539.69256,E,1,12,1.00,-5.9,M,-47.6,M,,*5D
$GNGSA,A,3,25,23,12,15,10,29,28,26,,,,,1.99,1.00,1.72*1D
$GNGSA,A,3,68,79,80,67,82,69,,,,,,,1.99,1.00,1.72*14
$GPGSV,5,1,18,10,42,238,21,12,36,154,22,13,04,062,12,15,39,072,33*75
$GPGSV,5,2,18,18,19,339,20,23,65,310,25,24,16,137,10,25,66,188,23*78
$GPGSV,5,3,18,26,07,313,09,28,13,247,17,29,38,026,28,31,01,269,08*7A
$GPGSV,5,4,18,32,14,207,,36,52,277,,40,85,352,,41,58,082,*7F
$GPGSV,5,5,18,49,32,274,,50,10,089,*78
$GLGSV,3,1,10,67,28,044,28,68,65,105,27,69,36,186,25,73,07,310,*68
$GLGSV,3,2,10,78,00,155,,79,37,190,24,80,44,266,31,81,02,064,*6E
$GLGSV,3,3,10,82,07,021,13,83,03,334,08*6C
$GNGLL,0419.83543,S,05539.69256,E,081724.00,A,A*63
$GNRMC,081725.00,A,0419.83559,S,05539.69268,E,0.016,,260525,,,A*7C
$GNVTG,,T,,M,0.016,N,0.030,K,A*39
$GNGGA,081725.00,0419.83559,S,05539.69268,E,1,12,0.89,-6.6,M,-47.6,M,,*56
$GNGSA,A,3,25,23,12,15,10,29,18,24,28,26,,,1.83,0.89,1.60*1A
$GNGSA,A,3,68,79,80,67,82,69,,,,,,,1.83,0.89,1.60*1C
$GPGSV,5,1,18,10,42,238,23,12,36,154,23,13,04,062,12,15,39,072,33*76
$GPGSV,5,2,18,18,19,339,22,23,65,310,25,24,16,137,12,25,66,188,22*79
$GPGSV,5,3,18,26,07,313,12,28,13,247,16,29,38,026,28,31,01,269,07*7E
$GPGSV,5,4,18,32,14,207,,36,52,277,,40,85,352,,41,58,082,*7F
$GPGSV,5,5,18,49,32,274,,50,10,089,*78
$GLGSV,3,1,10,67,28,044,27,68,65,105,26,69,36,186,25,73,07,310,*66
$GLGSV,3,2,10,78,00,155,,79,37,190,22,80,44,266,32,81,02,064,*6B
$GLGSV,3,3,10,82,07,021,11,83,03,334,09*6F
$GNGLL,0419.83559,S,05539.69268,E,081725.00,A,A*64
$GNRMC,081726.00,A,0419.83556,S,05539.69265,E,0.057,,260525,,,A*78
$GNVTG,,T,,M,0.057,N,0.105,K,A*3B
$GNGGA,081726.00,0419.83556,S,05539.69265,E,1,12,0.75,-6.7,M,-47.6,M,,*55
$GNGSA,A,3,25,23,12,15,10,29,18,24,28,26,,,1.56,0.75,1.37*13
$GNGSA,A,3,68,79,80,67,82,69,,,,,,,1.56,0.75,1.37*15
$GPGSV,5,1,18,10,42,238,22,12,36,154,24,13,04,062,,15,39,072,32*72
$GPGSV,5,2,18,18,19,339,23,23,65,310,24,24,16,137,15,25,66,188,20*7C
$GPGSV,5,3,18,26,07,313,10,28,13,247,16,29,38,026,29,31,01,269,08*72
$GPGSV,5,4,18,32,14,207,,36,52,277,34,40,85,352,,41,58,082,*78
$GPGSV,5,5,18,49,32,274,,50,10,089,*78
$GLGSV,3,1,10,67,28,044,25,68,65,105,25,69,36,186,26,73,07,310,*64
$GLGSV,3,2,10,78,00,155,,79,37,190,22,80,44,266,32,81,02,064,*6B
$GLGSV,3,3,10,82,07,021,08,83,03,334,08*66
$GNGLL,0419.83556,S,05539.69265,E,081726.00,A,A*65
$GNRMC,081727.00,A,0419.83559,S,05539.69270,E,0.088,,260525,,,A*70
$GNVTG,,T,,M,0.088,N,0.164,K,A*3E
$GNGGA,081727.00,0419.83559,S,05539.69270,E,1,12,0.75,-6.8,M,-47.6,M,,*50
$GNGSA,A,3,25,23,12,15,10,29,18,24,28,26,,,1.56,0.75,1.37*13
$GNGSA,A,3,68,79,80,67,82,69,,,,,,,1.56,0.75,1.37*15
$GPGSV,5,1,18,10,42,238,19,12,36,154,22,13,04,062,,15,39,072,35*7B
$GPGSV,5,2,18,18,19,339,24,23,65,310,23,24,16,137,15,25,66,188,18*77
$GPGSV,5,3,18,26,07,313,10,28,13,247,19,29,38,026,29,31,01,269,10*74
$GPGSV,5,4,18,32,14,207,,36,52,277,36,40,85,352,,41,58,082,*7A
$GPGSV,5,5,18,49,32,274,,50,10,089,*78
$GLGSV,3,1,10,67,28,044,25,68,65,105,24,69,36,186,25,73,07,310,*66
$GLGSV,3,2,10,78,00,155,,79,37,190,23,80,44,266,32,81,02,064,*6A
$GLGSV,3,3,10,82,07,021,11,83,03,334,08*6E
$GNGLL,0419.83559,S,05539.69270,E,081727.00,A,A*6F
$GNRMC,081728.00,A,0419.83568,S,05539.69271,E,0.328,,260525,,,A*75
$GNVTG,,T,,M,0.328,N,0.607,K,A*35
$GNGGA,081728.00,0419.83568,S,05539.69271,E,1,12,0.74,-7.0,M,-47.6,M,,*54
$GNGSA,A,3,25,23,12,15,10,29,18,24,28,26,,,1.45,0.74,1.25*13
$GNGSA,A,3,68,79,80,67,82,69,,,,,,,1.45,0.74,1.25*15
$GPGSV,5,1,18,10,42,238,23,12,36,154,19,13,04,062,,15,39,072,32*7D
$GPGSV,5,2,18,18,19,339,23,23,65,310,21,24,16,137,14,25,66,188,23*7B
$GPGSV,5,3,18,26,07,313,10,28,13,247,21,29,38,026,30,31,01,269,10*77
$GPGSV,5,4,18,32,14,207,,36,52,277,34,40,85,352,,41,58,082,*78
$GPGSV,5,5,18,49,32,274,,50,10,089,*78
$GLGSV,3,1,10,67,28,044,26,68,65,105,24,69,36,186,25,73,07,310,*65
$GLGSV,3,2,10,78,00,155,,79,37,190,24,80,44,266,32,81,02,064,*6D
$GLGSV,3,3,10,82,07,021,09,83,03,334,11*6F
$GNGLL,0419.83568,S,05539.69271,E,081728.00,A,A*63
$GNRMC,081730.00,A,0419.83592,S,05539.69277,E,0.089,,260525,,,A*77
$GNVTG,,T,,M,0.089,N,0.166,K,A*3D
$GNGGA,081730.00,0419.83592,S,05539.69277,E,1,12,0.74,-7.3,M,-47.6,M,,*5D
$GNGSA,A,3,25,23,12,15,10,29,18,24,28,26,,,1.45,0.74,1.25*13
$GNGSA,A,3,68,79,80,67,82,69,,,,,,,1.45,0.74,1.25*15
$GPGSV,5,1,18,10,42,238,26,12,36,154,14,13,04,062,08,15,39,072,32*7D
$GPGSV,5,2,18,18,19,339,21,23,65,310,20,24,16,137,13,25,66,188,26*7A
$GPGSV,5,3,18,26,07,313,10,28,13,247,22,29,38,026,30,31,01,269,09*7C
$GPGSV,5,4,18,32,14,207,,36,52,277,32,40,85,352,,41,58,082,*7E
$GPGSV,5,5,18,49,32,274,,50,10,089,*78
$GLGSV,3,1,10,67,28,044,27,68,65,105,23,69,36,186,24,73,07,310,*62
$GLGSV,3,2,10,78,00,155,,79,37,190,26,80,44,266,33,81,02,064,*6E
$GLGSV,3,3,10,82,07,021,13,83,03,334,08*6C
$GNGLL,0419.83592,S,05539.69277,E,081730.00,A,A*69
$GNRMC,081732.00,A,0419.83582,S,05539.69260,E,0.180,,260525,,,A*7A
$GNVTG,,T,,M,0.180,N,0.334,K,A*30
$GNGGA,081732.00,0419.83582,S,05539.69260,E,1,12,0.68,-6.8,M,-47.6,M,,*5F
$GNGSA,A,3,25,23,12,15,10,29,18,24,28,26,,,1.25,0.68,1.05*1A
$GNGSA,A,3,68,79,80,67,82,69,,,,,,,1.25,0.68,1.05*1C
$GPGSV,5,1,18,10,42,238,21,12,36,154,16,13,04,062,12,15,39,072,34*75
$GPGSV,5,2,18,18,19,339,18,23,65,310,22,24,16,137,14,25,66,188,25*76
$GPGSV,5,3,18,26,07,313,11,28,13,247,21,29,38,026,24,31,01,269,12*71
$GPGSV,5,4,18,32,14,207,,36,52,277,33,40,85,352,,41,58,082,*7F
$GPGSV,5,5,18,49,32,274,,50,10,089,*78
$GLGSV,3,1,10,67,28,044,27,68,65,105,26,69,36,186,19,73,07,310,*69
$GLGSV,3,2,10,78,00,155,,79,37,190,28,80,44,266,30,81,02,064,*63
$GLGSV,3,3,10,82,07,021,12,83,03,334,09*6C
$GNGLL,0419.83582,S,05539.69260,E,081732.00,A,A*6C
$GNRMC,081733.00,A,0419.83571,S,05539.69252,E,0.071,,260525,,,A*79
$GNVTG,,T,,M,0.071,N,0.132,K,A*3B
$GNGGA,081733.00,0419.83571,S,05539.69252,E,1,12,0.71,-6.7,M,-47.6,M,,*54
$GNGSA,A,3,25,23,12,15,10,29,18,24,28,26,,,1.44,0.71,1.25*17
$GNGSA,A,3,68,79,80,67,82,69,,,,,,,1.44,0.71,1.25*11
$GPGSV,5,1,18,10,42,238,23,12,36,154,16,13,04,062,10,15,39,072,34*75
$GPGSV,5,2,18,18,19,339,16,23,65,310,23,24,16,137,13,25,66,188,21*7A
$GPGSV,5,3,18,26,07,313,13,28,13,247,20,29,38,026,25,31,01,269,09*79
$GPGSV,5,4,18,32,14,207,,36,52,277,31,40,85,352,,41,58,082,*7D
$GPGSV,5,5,18,49,32,274,,50,10,089,*78
$GLGSV,3,1,10,67,28,044,26,68,65,105,27,69,36,186,17,73,07,310,*67
$GLGSV,3,2,10,78,00,155,,79,37,190,30,80,44,266,31,81,02,064,*6B
$GLGSV,3,3,10,82,07,021,11,83,03,334,07*61
$GNGLL,0419.83571,S,05539.69252,E,081733.00,A,A*60
$GNRMC,081734.00,A,0419.83571,S,05539.69251,E,0.020,,260525,,,A*79
$GNVTG,,T,,M,0.020,N,0.038,K,A*34
$GNGGA,081734.00,0419.83571,S,05539.69251,E,1,12,0.71,-6.3,M,-47.6,M,,*54
$GNGSA,A,3,25,23,12,15,10,29,18,24,28,26,,,1.44,0.71,1.25*17
$GNGSA,A,3,68,79,80,67,82,69,,,,,,,1.44,0.71,1.25*11
$GPGSV,5,1,18,10,42,238,29,12,36,154,17,13,04,062,12,15,39,072,34*7C
$GPGSV,5,2,18,18,19,339,19,23,65,310,22,24,16,137,11,25,66,188,24*73
$GPGSV,5,3,18,26,07,313,10,28,13,247,18,29,38,026,30,31,01,269,10*7D
$GPGSV,5,4,18,32,14,207,,36,52,277,31,40,85,352,,41,58,082,*7D
$GPGSV,5,5,18,49,32,274,,50,10,089,*78
$GLGSV,3,1,10,67,28,044,26,68,65,105,25,69,36,186,19,73,07,310,*6B
$GLGSV,3,2,10,78,00,155,,79,37,190,31,80,44,266,31,81,02,064,*6A
$GLGSV,3,3,10,82,07,021,14,83,03,334,13*61
$GNGLL,0419.83571,S,05539.69251,E,081734.00,A,A*64
$GNRMC,081735.00,A,0419.83585,S,05539.69257,E,0.149,,260525,,,A*7B
$GNVTG,,T,,M,0.149,N,0.275,K,A*31
$GNGGA,081735.00,0419.83585,S,05539.69257,E,1,12,0.74,-6.1,M,-47.6,M,,*5F
$GNGSA,A,3,25,23,12,15,10,29,18,28,26,,,,1.40,0.74,1.19*1F
$GNGSA,A,3,68,79,80,67,82,69,,,,,,,1.40,0.74,1.19*1F
$GPGSV,5,1,18,10,42,238,26,12,36,154,22,13,04,062,12,15,39,072,34*75
$GPGSV,5,2,18,18,19,339,21,23,65,310,20,24,16,137,09,25,66,188,27*70
$GPGSV,5,3,18,26,07,313,10,28,13,247,16,29,38,026,29,31,01,269,08*72
$GPGSV,5,4,18,32,14,207,20,36,52,277,31,40,85,352,,41,58,082,*7F
$GPGSV,5,5,18,49,32,274,,50,10,089,*78
$GLGSV,3,1,10,67,28,044,26,68,65,105,24,69,36,186,17,73,07,310,*64
$GLGSV,3,2,10,78,00,155,,79,37,190,31,80,44,266,29,81,02,064,*63
$GLGSV,3,3,10,82,07,021,10,83,03,334,12*64
$GNGLL,0419.83585,S,05539.69257,E,081735.00,A,A*68
$GNRMC,081736.00,A,0419.83591,S,05539.69260,E,0.120,,260525,,,A*76
$GNVTG,,T,,M,0.120,N,0.222,K,A*3C
$GNGGA,081736.00,0419.83591,S,05539.69260,E,1,12,0.83,-5.4,M,-47.6,M,,*53
$GNGSA,A,3,25,23,12,15,10,29,18,24,28,26,,,1.68,0.83,1.45*12
$GNGSA,A,3,68,79,80,67,82,,,,,,,,1.68,0.83,1.45*1B
$GPGSV,5,1,18,10,42,238,27,12,36,154,20,13,04,062,09,15,39,072,35*7D
$GPGSV,5,2,18,18,19,339,22,23,65,310,21,24,16,137,13,25,66,188,27*79
$GPGSV,5,3,18,26,07,313,14,28,13,247,18,29,38,026,28,31,01,269,08*79
$GPGSV,5,4,18,32,14,207,20,36,52,277,32,40,85,352,,41,58,082,*7C
$GPGSV,5,5,18,49,32,274,,50,10,089,*78
$GLGSV,3,1,10,67,28,044,25,68,65,105,26,69,36,186,15,73,07,310,*67
$GLGSV,3,2,10,78,00,155,,79,37,190,31,80,44,266,29,81,02,064,*63
$GLGSV,3,3,10,82,07,021,11,83,03,334,12*65
$GNGLL,0419.83591,S,05539.69260,E,081736.00,A,A*6A
$GNRMC,081737.00,A,0419.83585,S,05539.69256,E,0.337,,260525,,,A*73
$GNVTG,,T,,M,0.337,N,0.624,K,A*3A
$GNGGA,081737.00,0419.83585,S,05539.69256,E,1,12,0.71,-5.4,M,-47.6,M,,*5F
$GNGSA,A,3,25,23,12,15,10,29,18,24,28,26,,,1.44,0.71,1.25*17
$GNGSA,A,3,68,79,80,67,82,69,,,,,,,1.44,0.71,1.25*11
$GPGSV,5,1,18,10,42,238,25,12,36,154,18,13,04,062,07,15,39,072,37*78
$GPGSV,5,2,18,18,19,339,20,23,65,310,21,24,16,137,14,25,66,188,26*7D
$GPGSV,5,3,18,26,07,313,11,28,13,247,19,29,38,026,28,31,01,269,09*7C
$GPGSV,5,4,18,32,14,207,19,36,52,277,31,40,85,352,,41,58,082,*75
$GPGSV,5,5,18,49,32,274,,50,10,089,*78
$GLGSV,3,1,10,67,28,044,25,68,65,105,27,69,36,186,15,73,07,310,*66
$GLGSV,3,2,10,78,00,155,,79,37,190,32,80,44,266,32,81,02,064,*6A
$GLGSV,3,3,10,82,07,021,11,83,03,334,09*6F
$GNGLL,0419.83585,S,05539.69256,E,081737.00,A,A*6B
$GNRMC,081738.00,A,0419.83590,S,05539.69267,E,0.031,,260525,,,A*7F
$GNVTG,,T,,M,0.031,N,0.058,K,A*32
$GNGGA,081738.00,0419.83590,S,05539.69267,E,1,12,0.74,-4.9,M,-47.6,M,,*5F
$GNGSA,A,3,25,23,12,15,10,29,18,24,28,26,,,1.40,0.74,1.19*19
$GNGSA,A,3,68,79,80,67,82,69,,,,,,,1.40,0.74,1.19*1F
$GPGSV,5,1,18,10,43,239,25,12,36,154,18,13,04,062,12,15,39,072,38*73
$GPGSV,5,2,18,18,19,339,19,23,65,310,20,24,16,137,15,25,66,188,27*76
$GPGSV,5,3,18,26,07,313,12,28,13,247,19,29,38,026,27,31,01,269,10*78
$GPGSV,5,4,18,32,14,207,20,36,52,277,34,40,85,352,,41,58,082,*7A
$GPGSV,5,5,18,49,32,274,,50,10,089,*78
$GLGSV,3,1,10,67,28,044,24,68,65,105,26,69,36,186,17,73,07,310,*64
$GLGSV,3,2,10,78,00,155,,79,37,190,33,80,44,266,33,81,02,064,*6A
$GLGSV,3,3,10,82,07,021,11,83,03,334,11*66
$GNGLL,0419.83590,S,05539.69267,E,081738.00,A,A*62
$GNRMC,081739.00,A,0419.83581,S,05539.69271,E,0.152,,260525,,,A*7D
$GNVTG,,T,,M,0.152,N,0.281,K,A*30
$GNGGA,081739.00,0419.83581,S,05539.69271,E,1,12,0.71,-3.6,M,-47.6,M,,*54
$GNGSA,A,3,25,23,12,15,10,29,18,24,28,26,,,1.44,0.71,1.25*17
$GNGSA,A,3,68,79,80,67,82,69,,,,,,,1.44,0.71,1.25*11
$GPGSV,5,1,18,10,43,239,26,12,36,154,19,13,04,062,14,15,39,072,37*78
$GPGSV,5,2,18,18,19,339,20,23,65,310,22,24,16,137,15,25,66,188,28*71
$GPGSV,5,3,18,26,07,313,11,28,13,247,19,29,38,026,26,31,01,269,11*7B
$GPGSV,5,4,18,32,14,207,21,36,52,277,31,40,85,352,,41,58,082,*7E
$GPGSV,5,5,18,49,32,274,,50,10,089,*78
$GLGSV,3,1,10,67,28,044,24,68,65,105,26,69,36,186,19,73,07,310,*6A
$GLGSV,3,2,10,78,00,155,,79,37,190,31,80,44,266,31,81,02,064,*6A
$GLGSV,3,3,10,82,07,021,10,83,03,334,09*6E
$GNGLL,0419.83581,S,05539.69271,E,081739.00,A,A*64
$GNRMC,081740.00,A,0419.83579,S,05539.69274,E,0.164,,260525,,,A*74
$GNVTG,,T,,M,0.164,N,0.304,K,A*39
$GNGGA,081740.00,0419.83579,S,05539.69274,E,1,12,0.71,-2.8,M,-47.6,M,,*57
$GNGSA,A,3,25,23,12,15,10,29,18,24,28,26,,,1.44,0.71,1.25*17
$GNGSA,A,3,68,79,80,67,82,69,,,,,,,1.44,0.71,1.25*11
$GPGSV,5,1,18,10,43,239,26,12,36,154,19,13,04,062,11,15,39,072,36*7C
$GPGSV,5,2,18,18,19,339,22,23,65,310,20,24,16,137,13,25,66,188,24*7B
$GPGSV,5,3,18,26,07,313,13,28,13,247,19,29,38,026,26,31,01,269,10*78
$GPGSV,5,4,18,32,14,207,21,36,52,277,33,40,85,352,,41,58,082,*7C
$GPGSV,5,5,18,49,32,274,,50,10,089,*78
$GLGSV,3,1,10,67,28,044,24,68,65,105,27,69,36,186,19,73,07,310,*6B
$GLGSV,3,2,10,78,00,155,,79,37,190,31,80,44,266,31,81,02,064,*6A
$GLGSV,3,3,10,82,07,021,09,83,03,334,10*6E
$GNGLL,0419.83579,S,05539.69274,E,081740.00,A,A*68
$GNRMC,081741.00,A,0419.83585,S,05539.69278,E,0.058,,260525,,,A*74
$GNVTG,,T,,M,0.058,N,0.107,K,A*36
$GNGGA,081741.00,0419.83585,S,05539.69278,E,1,12,0.80,-2.4,M,-47.6,M,,*5B
$GNGSA,A,3,25,23,12,15,10,29,18,28,26,,,,1.64,0.80,1.44*1A
$GNGSA,A,3,68,79,80,67,82,69,,,,,,,1.64,0.80,1.44*1A
$GPGSV,5,1,18,10,43,239,27,12,36,154,22,13,03,061,09,15,39,072,35*7B
$GPGSV,5,2,18,18,19,339,22,23,65,310,19,24,16,137,10,25,66,188,25*73
$GPGSV,5,3,18,26,07,313,07,28,13,247,20,29,38,026,29,31,01,269,08*71
$GPGSV,5,4,18,32,14,207,22,36,52,277,32,40,85,352,,41,58,082,*7E
$GPGSV,5,5,18,49,32,274,,50,10,089,*78
$GLGSV,3,1,10,67,28,044,24,68,65,105,27,69,36,186,20,73,07,310,*61
$GLGSV,3,2,10,78,00,155,,79,37,190,30,80,44,266,30,81,02,064,*6A
$GLGSV,3,3,10,82,07,021,07,83,03,334,06*67
$GNGLL,0419.83585,S,05539.69278,E,081741.00,A,A*66
$GNRMC,081742.00,A,0419.83591,S,05539.69287,E,0.071,,260525,,,A*79
$GNVTG,,T,,M,0.071,N,0.131,K,A*38
$GNGGA,081742.00,0419.83591,S,05539.69287,E,1,12,0.80,-2.1,M,-47.6,M,,*58
$GNGSA,A,3,25,23,12,15,10,29,18,24,28,26,,,1.64,0.80,1.44*1C
$GNGSA,A,3,68,79,80,67,82,69,,,,,,,1.64,0.80,1.44*1A
$GPGSV,5,1,18,10,43,239,29,12,36,154,21,13,03,061,08,15,39,072,36*74
$GPGSV,5,2,18,18,19,339,21,23,65,310,20,24,16,137,10,25,66,188,26*79
$GPGSV,5,3,18,26,07,313,09,28,13,247,21,29,38,026,30,31,01,269,10*7F
$GPGSV,5,4,18,32,14,207,22,36,52,277,32,40,85,352,,41,58,082,*7E
$GPGSV,5,5,18,49,32,274,,50,10,089,*78
$GLGSV,3,1,10,67,28,044,25,68,65,105,25,69,36,186,20,73,07,310,*62
$GLGSV,3,2,10,78,00,155,,79,37,190,28,80,44,266,30,81,02,064,*63
$GLGSV,3,3,10,82,07,021,12,83,03,334,11*65
$GNGLL,0419.83591,S,05539.69287,E,081742.00,A,A*60
$GNRMC,081743.00,A,0419.83599,S,05539.69293,E,0.024,,260525,,,A*75
$GNVTG,,T,,M,0.024,N,0.045,K,A*3A
$GNGGA,081743.00,0419.83599,S,05539.69293,E,1,12,0.80,-1.7,M,-47.6,M,,*51
$GNGSA,A,3,25,23,12,15,10,29,18,24,28,26,,,1.64,0.80,1.44*1C
$GNGSA,A,3,68,79,80,67,82,69,,,,,,,1.64,0.80,1.44*1A
$GPGSV,5,1,18,10,43,239,27,12,36,154,23,13,03,061,08,15,39,071,37*7A
$GPGSV,5,2,18,18,19,339,22,23,65,310,20,24,16,137,12,25,66,188,31*7E
$GPGSV,5,3,18,26,07,313,08,28,13,247,21,29,38,026,30,31,01,269,07*78
$GPGSV,5,4,18,32,14,207,20,36,52,277,32,40,85,352,,41,58,082,*7C
$GPGSV,5,5,18,49,32,274,,50,10,089,*78
$GLGSV,3,1,10,67,28,044,25,68,65,105,23,69,36,186,20,73,07,310,*64
$GLGSV,3,2,10,78,00,155,,79,37,190,27,80,44,266,31,81,02,064,*6D
$GLGSV,3,3,10,82,07,021,10,83,03,334,06*61
$GNGLL,0419.83599,S,05539.69293,E,081743.00,A,A*6C
$GNRMC,081746.00,A,0419.83625,S,05539.69302,E,0.087,,260525,,,A*74
$GNVTG,,T,,M,0.087,N,0.161,K,A*34
$GNGGA,081746.00,0419.83625,S,05539.69302,E,1,12,0.86,-1.4,M,-47.6,M,,*5C
$GNGSA,A,3,25,23,12,15,10,29,18,24,28,26,,,1.90,0.86,1.69*1E
$GNGSA,A,3,68,79,80,67,82,69,,,,,,,1.90,0.86,1.69*18
$GPGSV,5,1,18,10,43,239,27,12,36,154,21,13,03,061,10,15,39,071,37*71
$GPGSV,5,2,18,18,19,340,21,23,65,310,24,24,16,137,12,25,66,188,32*74
$GPGSV,5,3,18,26,07,313,11,28,13,247,15,29,38,026,30,31,01,269,12*73
$GPGSV,5,4,18,32,14,207,22,36,52,277,32,40,85,352,,41,58,082,*7E
$GPGSV,5,5,18,49,32,274,,50,10,089,*78
$GLGSV,3,1,10,67,28,044,27,68,65,105,25,69,36,186,25,73,07,310,*65
$GLGSV,3,2,10,78,00,155,,79,37,190,26,80,44,266,31,81,02,064,*6C
$GLGSV,3,3,10,82,07,021,08,83,03,334,06*68
$GNGLL,0419.83625,S,05539.69302,E,081746.00,A,A*64
$GNRMC,081747.00,A,0419.83631,S,05539.69302,E,0.132,,260525,,,A*7F
$GNVTG,,T,,M,0.132,N,0.244,K,A*3F
$GNGGA,081747.00,0419.83631,S,05539.69302,E,1,12,0.86,-1.2,M,-47.6,M,,*5E
$GNGSA,A,3,25,23,12,15,10,29,18,28,26,,,,1.90,0.86,1.69*18
$GNGSA,A,3,68,79,80,67,69,,,,,,,,1.90,0.86,1.69*12
$GPGSV,5,1,18,10,43,239,26,12,36,154,19,13,03,061,10,15,39,071,36*7A
$GPGSV,5,2,18,18,19,340,19,23,65,310,22,24,16,137,10,25,66,188,32*7B
$GPGSV,5,3,18,26,07,313,12,28,13,247,18,29,38,026,34,31,01,269,12*79
$GPGSV,5,4,18,32,14,207,20,36,52,277,31,40,85,352,,41,58,082,*7F
$GPGSV,5,5,18,49,32,274,,50,10,089,*78
$GLGSV,3,1,10,67,28,044,27,68,65,105,25,69,36,186,28,73,07,310,*68
$GLGSV,3,2,10,78,00,155,,79,37,190,25,80,44,266,31,81,02,064,*6F
$GLGSV,3,3,10,82,07,021,06,83,03,334,08*68
$GNGLL,0419.83631,S,05539.69302,E,081747.00,A,A*60
$GNRMC,081748.00,A,0419.83640,S,05539.69307,E,0.046,,260525,,,A*71
$GNVTG,,T,,M,0.046,N,0.086,K,A*31
$GNGGA,081748.00,0419.83640,S,05539.69307,E,1,12,0.86,-1.0,M,-47.6,M,,*50
$GNRMC,081749.00,A,0419.83646,S,05539.69310,E,0.079,,260525,,,A*7C
$GNVTG,,T,,M,0.079,N,0.146,K,A*30
$GNGGA,081749.00,0419.83646,S,05539.69310,E,1,12,0.86,-0.7,M,-47.6,M,,*57
$GNGSA,A,3,25,23,12,15,10,29,18,24,28,26,,,1.90,0.86,1.69*1E
$GNGSA,A,3,68,79,80,67,82,69,,,,,,,1.90,0.86,1.69*18
$GPGSV,5,1,18,10,43,239,25,12,36,154,20,13,03,061,10,15,39,071,35*70
$GPGSV,5,2,18,18,19,340,14,23,65,310,20,24,16,137,09,25,66,188,30*7E
$GPGSV,5,3,18,26,07,313,11,28,13,247,21,29,38,026,30,31,01,269,10*76
$GPGSV,5,4,18,32,14,207,19,36,52,277,32,40,85,352,,41,58,082,*76
$GPGSV,5,5,18,49,32,274,,50,10,089,*78
$GLGSV,3,1,10,67,28,044,28,68,65,105,25,69,36,186,28,73,07,310,*67
$GLGSV,3,2,10,78,00,155,,79,37,190,26,80,44,266,30,81,02,064,*6D
$GLGSV,3,3,10,82,07,021,09,83,03,334,10*6E
$GNGLL,0419.83646,S,05539.69310,E,081749.00,A,A*6D
$GNRMC,081750.00,A,0419.83655,S,05539.69312,E,0.054,,260525,,,A*7B
$GNVTG,,T,,M,0.054,N,0.101,K,A*3C
$GNGGA,081750.00,0419.83655,S,05539.69312,E,1,12,0.83,-0.4,M,-47.6,M,,*59
$GNGSA,A,3,25,23,12,15,10,29,18,24,28,26,,,1.80,0.83,1.59*19
$GNGSA,A,3,68,79,80,67,82,69,,,,,,,1.80,0.83,1.59*1F
$GLGSV,3,1,10,67,28,044,28,68,65,105,26,69,36,186,26,73,07,310,*6A
$GLGSV,3,2,10,78,00,155,,79,37,190,27,80,44,266,29,81,02,064,*64
$GLGSV,3,3,10,82,07,021,08,83,03,334,11*6E
$GNGLL,0419.83664,S,05539.69315,E,081751.00,A,A*61
$GPGSV,5,5,18,49,32,274,,50,10,089,*78
$GLGSV,3,1,10,67,28,044,28,68,65,105,26,69,36,186,27,73,07,310,*6B
$GLGSV,3,2,10,78,00,155,,79,37,190,26,80,44,266,29,81,02,064,*65
$GLGSV,3,3,10,82,07,021,10,83,03,334,09*6E
$GNGLL,0419.83671,S,05539.69316,E,081752.00,A,A*65
$GNRMC,081754.00,A,0419.83677,S,05539.69320,E,0.031,,260525,,,A*7D
$GNRMC,081755.00,A,0419.83679,S,05539.69323,E,0.065,,260525,,,A*70
$GNVTG,,T,,M,0.065,N,0.121,K,A*3C
$GNGGA,081755.00,0419.83679,S,05539.69323,E,1,12,0.86,0.3,M,-47.6,M,,*7F
$GNGSA,A,3,25,23,12,15,10,29,18,24,28,26,,,1.90,0.86,1.69*1E
$GNGSA,A,3,68,79,80,67,82,69,,,,,,,1.90,0.86,1.69*18
$GPGSV,5,1,18,10,43,239,26,12,36,154,22,13,03,061,10,15,39,071,37*73
$GPGSV,5,2,18,18,19,340,21,23,65,312,16,24,16,137,13,25,66,188,32*76
$GPGSV,5,3,18,26,08,313,10,28,13,247,20,29,38,026,31,31,01,269,11*79
$GPGSV,5,4,18,32,14,207,14,36,52,277,32,40,85,352,,41,58,082,*7B
$GPGSV,5,5,18,49,32,274,,50,10,089,*78
$GLGSV,3,1,10,67,28,044,28,68,65,105,19,69,36,186,29,73,07,310,*69
$GLGSV,3,2,10,78,00,155,,79,37,190,27,80,44,266,29,81,02,064,*64
$GLGSV,3,3,10,82,07,021,09,83,03,334,08*67
$GNGLL,0419.83679,S,05539.69323,E,081755.00,A,A*6C
$GNRMC,081756.00,A,0419.83686,S,05539.69328,E,0.055,,260525,,,A*7B
$GNVTG,,T,,M,0.055,N,0.103,K,A*3F
$GNGGA,081756.00,0419.83686,S,05539.69328,E,1,12,0.86,0.5,M,-47.6,M,,*71
$GNGSA,A,3,25,23,12,15,10,29,18,24,28,26,,,1.90,0.86,1.69*1E
$GNGSA,A,3,68,79,80,67,82,69,,,,,,,1.90,0.86,1.69*18
$GPGSV,5,1,18,10,43,239,27,12,36,154,22,13,03,061,10,15,39,071,36*73
$GPGSV,5,2,18,18,19,340,20,23,65,312,18,24,16,137,09,25,66,188,30*70
$GPGSV,5,3,18,26,08,313,09,28,13,247,20,29,38,027,32,31,01,269,07*74
$GPGSV,5,4,18,32,14,207,15,36,52,277,31,40,85,352,,41,58,082,*79
$GPGSV,5,5,18,49,32,274,,50,10,089,*78
$GLGSV,3,1,10,67,28,044,27,68,65,105,14,69,36,186,29,73,07,310,*6B
$GLGSV,3,2,10,78,00,155,,79,37,190,27,80,44,266,28,81,02,064,*65
$GLGSV,3,3,10,82,07,021,10,83,03,334,09*6E
$GNGLL,0419.83686,S,05539.69328,E,081756.00,A,A*64
$GNRMC,081757.00,A,0419.83689,S,05539.69327,E,0.064,,260525,,,A*78
$GNVTG,,T,,M,0.064,N,0.118,K,A*37
$GNGGA,081757.00,0419.83689,S,05539.69327,E,1,12,0.86,0.7,M,-47.6,M,,*72
$GNGSA,A,3,25,23,12,15,10,29,18,24,28,26,,,1.90,0.86,1.69*1E
$GNGSA,A,3,68,79,80,67,82,69,,,,,,,1.90,0.86,1.69*18
$GPGSV,5,1,18,10,43,239,26,12,36,154,22,13,03,061,10,15,39,071,36*72
$GPGSV,5,2,18,18,19,340,20,23,65,312,20,24,16,137,09,25,66,188,30*7B
$GPGSV,5,3,18,26,08,313,07,28,13,247,17,29,38,027,31,31,01,269,08*72
$GPGSV,5,4,18,32,14,207,18,36,52,277,30,40,85,352,,41,58,082,*75
$GPGSV,5,5,18,49,32,274,,50,10,089,*78
$GLGSV,3,1,10,67,28,044,27,68,65,105,15,69,36,186,29,73,07,310,*6A
$GLGSV,3,2,10,78,00,155,,79,37,190,26,80,44,266,28,81,02,064,*64
$GLGSV,3,3,10,82,07,021,08,83,03,334,07*69
$GNRMC,081800.00,A,0419.83694,S,05539.69327,E,0.099,,260525,,,A*7B
$GNVTG,,T,,M,0.099,N,0.184,K,A*30
$GNGGA,081800.00,0419.83694,S,05539.69327,E,1,12,0.86,1.9,M,-47.6,M,,*7C
$GNGSA,A,3,25,23,12,15,10,29,18,28,26,,,,1.90,0.86,1.69*18
$GNGSA,A,3,68,79,80,67,82,69,,,,,,,1.90,0.86,1.69*18
$GPGSV,5,1,18,10,43,239,27,12,36,154,19,13,03,061,,15,39,071,37*7B
$GPGSV,5,2,18,18,19,340,21,23,65,312,20,24,16,137,09,25,66,188,28*73
$GPGSV,5,3,18,26,08,313,09,28,13,247,14,29,38,027,29,31,01,268,04*7B
$GPGSV,5,4,18,32,14,207,15,36,52,277,32,40,85,352,,41,58,082,*7A
$GPGSV,5,5,18,49,32,274,,50,10,089,*78
$GNRMC,081801.00,A,0419.83689,S,05539.69327,E,0.139,,260525,,,A*7D
$GNVTG,,T,,M,0.139,N,0.258,K,A*39
$GNGGA,081801.00,0419.83689,S,05539.69327,E,1,12,0.80,2.3,M,-47.6,M,,*7E
$GNGSA,A,3,25,23,12,15,10,29,18,28,26,,,,1.64,0.80,1.44*1A
$GNGSA,A,3,68,79,80,67,82,69,,,,,,,1.64,0.80,1.44*1A
$GPGSV,5,1,18,10,43,239,29,12,36,154,19,13,03,061,,15,39,071,38*7A
$GPGSV,5,2,18,18,19,340,19,23,65,312,22,24,16,137,09,25,66,188,27*75
$GPGSV,5,3,18,26,08,313,09,28,13,247,16,29,38,027,30,31,01,268,11*75
$GPGSV,5,4,18,32,14,207,13,36,52,277,31,40,85,352,,41,58,082,*7F
$GPGSV,5,5,18,49,32,274,,50,10,089,*78
$GLGSV,3,1,10,67,28,044,26,68,65,105,16,69,36,186,31,73,07,310,*61
$GLGSV,3,2,10,78,00,155,,79,37,190,26,80,44,266,27,81,02,064,*6B
$GLGSV,3,3,10,82,07,021,09,83,03,334,08*67
$GNGLL,0419.83689,S,05539.69327,E,081801.00,A,A*69
$GNRMC,081802.00,A,0419.83688,S,05539.69330,E,0.059,,260525,,,A*7E
$GNVTG,,T,,M,0.059,N,0.109,K,A*39
$GNGGA,081802.00,0419.83688,S,05539.69330,E,1,12,0.69,2.4,M,-47.6,M,,*7A
$GNGSA,A,3,25,23,12,15,10,29,18,24,28,26,,,1.30,0.69,1.11*1A
$GNGSA,A,3,68,79,80,67,82,69,,,,,,,1.30,0.69,1.11*1C
$GPGSV,5,1,18,10,43,239,29,12,36,154,20,13,03,061,,15,39,071,39*71
$GPGSV,5,2,18,18,19,340,19,23,65,312,21,24,16,137,12,25,66,188,27*7C
$GPGSV,5,3,18,26,08,313,09,28,13,247,18,29,38,027,33,31,01,268,10*79
$GPGSV,5,4,18,32,14,207,13,36,52,277,35,40,85,352,,41,58,082,*7B
$GPGSV,5,5,18,49,32,274,,50,10,089,*78
$GLGSV,3,1,10,67,28,044,25,68,65,105,14,69,36,186,31,73,07,310,*60
$GNRMC,081803.00,A,0419.83691,S,05539.69329,E,0.122,,260525,,,A*72
$GNVTG,,T,,M,0.122,N,0.225,K,A*39
$GNGGA,081803.00,0419.83691,S,05539.69329,E,1,12,0.80,1.7,M,-47.6,M,,*7C
$GNGSA,A,3,25,23,12,15,10,29,18,24,28,26,,,1.64,0.80,1.44*1C
$GNGSA,A,3,68,79,80,67,82,69,,,,,,,1.64,0.80,1.44*1A
$GNRMC,081804.00,A,0419.83690,S,05539.69329,E,0.233,,260525,,,A*77
$GNVTG,,T,,M,0.233,N,0.431,K,A*39
$GNGGA,081804.00,0419.83690,S,05539.69329,E,1,12,0.80,1.7,M,-47.6,M,,*7A
$GNGSA,A,3,25,23,12,15,10,29,18,24,28,26,,,1.64,0.80,1.44*1C
$GNGSA,A,3,68,79,80,67,82,69,,,,,,,1.64,0.80,1.44*1A
$GPGSV,5,1,18,10,43,239,29,12,36,154,22,13,03,061,,15,39,071,37*7D
$GPGSV,5,2,18,18,19,340,22,23,65,312,22,24,16,137,09,25,66,188,27*7D
$GPGSV,5,3,18,26,08,313,13,28,13,247,18,29,38,027,31,31,01,268,11*71
$GPGSV,5,4,18,32,14,207,11,36,52,277,31,40,85,352,,41,58,082,*7D
$GPGSV,5,5,18,49,32,274,,50,10,089,*78
$GLGSV,3,1,10,67,28,044,23,68,65,105,11,69,36,186,31,73,07,310,*63
$GLGSV,3,2,10,78,00,155,,79,37,190,27,80,44,266,26,81,02,064,*6B
$GLGSV,3,3,10,82,07,021,10,83,03,334,07*60
$GNGLL,0419.83690,S,05539.69329,E,081804.00,A,A*6A
$GNRMC,081805.00,A,0419.83699,S,05539.69333,E,0.147,,260525,,,A*74
$GNVTG,,T,,M,0.147,N,0.272,K,A*38
$GNGGA,081805.00,0419.83699,S,05539.69333,E,1,12,0.77,1.6,M,-47.6,M,,*70
$GNGSA,A,3,25,23,12,15,10,29,18,24,28,26,,,1.53,0.77,1.32*11
$GNGSA,A,3,68,79,80,67,82,69,,,,,,,1.53,0.77,1.32*17
$GPGSV,5,1,18,10,43,239,29,12,36,154,23,13,03,061,,15,39,071,38*73
$GPGSV,5,2,18,18,19,340,23,23,65,312,23,24,16,137,10,25,66,188,27*75
$GPGSV,5,3,18,26,08,313,13,28,13,247,19,29,38,027,31,31,01,268,10*71
$GPGSV,5,4,18,32,14,207,10,36,52,277,32,40,85,352,,41,58,082,*7F
$GPGSV,5,5,18,49,32,274,,50,10,089,*78
$GLGSV,3,1,10,67,28,044,24,68,65,105,11,69,36,186,31,73,07,310,*64
$GLGSV,3,2,10,78,00,155,,79,37,190,28,80,44,266,27,81,02,064,*65
$GLGSV,3,3,10,82,07,021,10,83,03,334,12*64
$GNGLL,0419.83699,S,05539.69333,E,081805.00,A,A*69
$GNRMC,081807.00,A,0419.83705,S,05539.69341,E,0.128,,260525,,,A*7E
$GNVTG,,T,,M,0.128,N,0.237,K,A*30
$GNGGA,081807.00,0419.83705,S,05539.69341,E,1,12,0.80,1.6,M,-47.6,M,,*7B
$GNGSA,A,3,25,23,12,15,10,29,18,24,28,26,,,1.64,0.80,1.44*1C
$GNGSA,A,3,68,79,80,67,82,69,,,,,,,1.64,0.80,1.44*1A
$GPGSV,5,1,18,10,43,239,29,12,36,154,24,13,03,061,,15,39,071,35*79
$GPGSV,5,2,18,18,19,340,22,23,65,312,23,24,16,137,07,25,66,188,27*72
$GPGSV,5,3,18,26,08,313,09,28,13,247,21,29,38,027,30,31,01,268,09*78
$GPGSV,5,4,18,32,14,207,08,36,52,277,31,40,85,352,,41,58,082,*75
$GPGSV,5,5,18,49,32,274,,50,10,089,*78
$GLGSV,3,1,10,67,28,044,21,68,65,105,10,69,36,186,30,73,07,310,*61
$GLGSV,3,2,10,78,00,155,,79,37,190,28,80,44,266,28,81,02,064,*6A
$GLGSV,3,3,10,82,07,021,09,83,03,334,09*66
$GNGLL,0419.83705,S,05539.69341,E,081807.00,A,A*6A
$GNRMC,081808.00,A,0419.83710,S,05539.69349,E,0.022,,260525,,,A*76
$GNVTG,,T,,M,0.022,N,0.040,K,A*39
$GNGGA,081808.00,0419.83710,S,05539.69349,E,1,12,0.78,2.1,M,-47.6,M,,*7B
$GNGSA,A,3,25,23,12,15,10,29,18,24,28,26,,,1.46,0.78,1.24*1D
$GNGSA,A,3,68,79,80,67,82,69,,,,,,,1.46,0.78,1.24*1B
$GPGSV,5,1,18,10,43,239,30,12,36,154,24,13,03,061,,15,39,071,36*72
$GPGSV,5,2,18,18,19,340,22,23,65,312,24,24,16,137,13,25,66,188,28*7F
$GPGSV,5,3,18,26,08,313,12,28,13,247,22,29,38,027,31,31,01,268,11*79
$GPGSV,5,4,18,32,14,207,,36,52,277,31,40,85,352,,41,58,082,*7D
$GPGSV,5,5,18,49,32,274,,50,10,089,*78
$GLGSV,3,1,10,67,28,044,20,68,65,105,14,69,36,186,30,73,07,310,*64
$GLGSV,3,2,10,78,00,155,,79,37,190,28,80,44,266,27,81,02,064,*65
$GLGSV,3,3,10,82,07,021,12,83,03,334,11*65
$GNGLL,0419.83710,S,05539.69349,E,081808.00,A,A*69
$GNRMC,081809.00,A,0419.83714,S,05539.69358,E,0.044,,260525,,,A*73
$GNVTG,,T,,M,0.044,N,0.082,K,A*37
$GNGGA,081809.00,0419.83714,S,05539.69358,E,1,12,0.80,2.5,M,-47.6,M,,*7D
$GNGSA,A,3,25,23,12,15,10,29,18,24,28,26,,,1.64,0.80,1.44*1C
$GNGSA,A,3,68,79,80,67,82,69,,,,,,,1.64,0.80,1.44*1A
$GPGSV,5,1,18,10,43,239,30,12,36,154,24,13,03,061,,15,39,071,36*72
$GPGSV,5,2,18,18,19,340,24,23,65,312,24,24,16,137,10,25,66,188,29*7B
$GPGSV,5,3,18,26,08,313,11,28,13,247,23,29,38,027,31,31,01,268,07*7C
$GPGSV,5,4,18,32,14,207,,36,52,277,31,40,85,352,,41,58,082,*7D
$GPGSV,5,5,18,49,32,274,,50,10,089,*78
$GLGSV,3,1,10,67,28,044,21,68,65,105,16,69,36,186,30,73,07,310,*67
$GLGSV,3,2,10,78,00,155,,79,37,190,28,80,44,266,27,81,02,064,*65
$GLGSV,3,3,10,82,07,021,10,83,03,334,09*6E
$GNGLL,0419.83714,S,05539.69358,E,081809.00,A,A*6C
$GNRMC,081811.00,A,0419.83721,S,05539.69377,E,0.080,,260525,,,A*79
$GNVTG,,T,,M,0.080,N,0.148,K,A*38
$GNGGA,081811.00,0419.83721,S,05539.69377,E,1,12,0.77,4.0,M,-47.6,M,,*74
$GNGSA,A,3,25,23,12,15,10,29,18,24,28,26,,,1.53,0.77,1.32*11
$GNGSA,A,3,68,79,80,67,82,69,,,,,,,1.53,0.77,1.32*17
$GPGSV,5,1,18,10,43,239,28,12,36,154,25,13,03,061,,15,39,071,36*7A
$GPGSV,5,2,18,18,19,340,26,23,65,312,27,24,16,137,08,25,66,188,29*73
$GPGSV,5,3,18,26,08,313,09,28,13,247,21,29,38,027,29,31,01,268,11*79
$GPGSV,5,4,18,32,14,207,,36,52,277,31,40,85,352,,41,58,082,*7D
$GPGSV,5,5,18,49,32,274,,50,10,089,*78
$GLGSV,3,1,10,67,28,044,21,68,65,105,19,69,36,186,29,73,07,310,*60
$GLGSV,3,2,10,78,00,155,,79,37,190,28,80,44,266,26,81,02,064,*64
$GLGSV,3,3,10,82,07,021,16,83,03,334,10*60
