$GNRMC,133035.00,A,0419.72708,S,05539.92697,E,0.053,,030625,,,D*7A
$GNVTG,,T,,M,0.053,N,0.099,K,D*3E
$GNGGA,133035.00,0419.72708,S,05539.92697,E,2,12,0.60,7.7,M,-47.6,M,,0000*79
$GNGSA,A,3,31,27,28,08,26,16,10,18,32,02,04,,1.18,0.60,1.02*18
$GNGSA,A,3,85,73,71,80,83,,,,,,,,1.18,0.60,1.02*1D
$GPGSV,5,1,18,01,03,330,26,02,29,335,38,04,22,253,23,08,35,267,32*78
$GPGSV,5,2,18,10,15,053,33,16,26,187,34,18,10,138,30,23,01,091,*77
$GPGSV,5,3,18,26,34,153,37,27,48,219,22,28,47,049,36,31,73,091,37*7E
$GPGSV,5,4,18,32,10,021,26,36,52,277,32,40,84,353,38,41,58,082,36*76
$GPGSV,5,5,18,49,32,274,,50,10,089,*78
$GLGSV,3,1,10,70,09,358,,71,18,313,31,72,09,266,,73,35,133,31*65
$GLGSV,3,2,10,74,20,183,22,80,15,076,29,83,09,155,25,84,64,155,21*60
$GLGSV,3,3,10,85,59,331,39,86,03,334,22*67
$GNGLL,0419.72708,S,05539.92697,E,133035.00,A,D*67
$GNRMC,133036.00,A,0419.72708,S,05539.92695,E,0.053,,030625,,,D*7B
$GNVTG,,T,,M,0.053,N,0.099,K,D*3E
$GNGGA,133036.00,0419.72708,S,05539.92695,E,2,12,0.60,7.6,M,-47.6,M,,0000*79
$GNGSA,A,3,31,27,28,08,26,16,10,18,32,02,04,,1.18,0.60,1.02*18
$GNGSA,A,3,85,73,71,80,83,,,,,,,,1.18,0.60,1.02*1D
$GPGSV,5,1,18,01,03,330,23,02,29,335,36,04,22,253,19,08,35,267,23*7A
$GPGSV,5,2,18,10,15,053,30,16,26,187,34,18,10,138,29,23,01,091,*7C
$GPGSV,5,3,18,26,34,153,36,27,48,219,31,28,47,049,35,31,73,091,38*71
$GPGSV,5,4,18,32,10,021,26,36,52,277,30,40,84,353,38,41,58,082,34*76
$GPGSV,5,5,18,49,32,274,,50,10,089,*78
$GLGSV,3,1,10,70,09,358,,71,18,313,32,72,09,266,,73,35,133,26*60
$GLGSV,3,2,10,74,20,183,21,80,15,076,30,83,09,155,24,84,64,155,20*6B
$GLGSV,3,3,10,85,59,331,37,86,03,334,20*6B
$GNGLL,0419.72708,S,05539.92695,E,133036.00,A,D*66
$GNRMC,133037.00,A,0419.72708,S,05539.92695,E,0.018,,030625,,,D*75
$GNVTG,,T,,M,0.018,N,0.033,K,D*31
$GNGGA,133037.00,0419.72708,S,05539.92695,E,2,12,0.65,7.5,M,-47.6,M,,0000*7E
$GNGSA,A,3,31,27,28,08,26,16,10,18,32,02,,,1.24,0.65,1.06*12
$GNGSA,A,3,85,73,71,80,83,,,,,,,,1.24,0.65,1.06*13
$GPGSV,5,1,18,01,03,330,22,02,29,335,38,04,22,253,,08,35,267,34*7B
$GPGSV,5,2,18,10,15,053,31,16,26,187,39,18,10,138,29,23,01,091,*70
$GPGSV,5,3,18,26,34,153,36,27,48,219,32,28,47,049,37,31,73,091,40*7F
$GPGSV,5,4,18,32,10,021,26,36,52,277,32,40,84,353,40,41,58,082,37*78
$GPGSV,5,5,18,49,32,274,,50,10,089,*78
$GLGSV,3,1,10,70,09,358,,71,18,313,35,72,09,266,,73,35,133,35*65
$GLGSV,3,2,10,74,20,183,25,80,15,076,33,83,09,155,31,84,64,155,21*69
$GLGSV,3,3,10,85,59,331,44,86,03,334,20*6F
$GNGLL,0419.72708,S,05539.92695,E,133037.00,A,D*67
$GNRMC,133038.00,A,0419.72709,S,05539.92695,E,0.049,,030625,,,D*7F
$GNVTG,,T,,M,0.049,N,0.090,K,D*3C
$GNGGA,133038.00,0419.72709,S,05539.92695,E,2,12,0.65,7.5,M,-47.6,M,,0000*70
$GNGSA,A,3,31,27,28,08,26,16,10,18,32,02,,,1.24,0.65,1.06*12
$GNGSA,A,3,85,73,71,80,83,,,,,,,,1.24,0.65,1.06*13
$GPGSV,5,1,18,01,03,330,21,02,29,335,40,04,22,253,26,08,35,267,36*71
$GPGSV,5,2,18,10,15,053,35,16,26,187,39,18,10,138,30,23,01,091,*7C
$GPGSV,5,3,18,26,34,153,37,27,48,219,34,28,47,049,37,31,73,091,41*79
$GPGSV,5,4,18,32,10,021,28,36,52,277,38,40,84,353,41,41,58,082,39*73
$GPGSV,5,5,18,49,32,274,,50,10,089,*78
$GLGSV,3,1,10,70,09,358,,71,18,313,35,72,09,266,,73,35,133,34*64
$GLGSV,3,2,10,74,20,183,26,80,15,076,35,83,09,155,30,84,64,155,21*6D
$GLGSV,3,3,10,85,59,331,43,86,03,334,19*62
$GNGLL,0419.72709,S,05539.92695,E,133038.00,A,D*69
$GNRMC,133039.00,A,0419.72709,S,05539.92694,E,0.034,,030625,,,D*75
$GNVTG,,T,,M,0.034,N,0.064,K,D*3D
$GNGGA,133039.00,0419.72709,S,05539.92694,E,2,12,0.60,7.5,M,-47.6,M,,0000*75
$GNGSA,A,3,31,27,28,08,26,16,10,18,32,02,04,,1.18,0.60,1.02*18
$GNGSA,A,3,85,73,71,80,83,,,,,,,,1.18,0.60,1.02*1D
$GPGSV,5,1,18,01,03,330,20,02,29,335,40,04,22,253,27,08,35,267,37*70
$GPGSV,5,2,18,10,15,053,34,16,26,187,40,18,10,138,30,23,01,091,*73
$GPGSV,5,3,18,26,34,153,38,27,48,219,35,28,47,049,37,31,73,091,42*74
$GPGSV,5,4,18,32,10,021,28,36,52,277,40,40,84,353,42,41,58,082,40*71
$GPGSV,5,5,18,49,32,274,,50,10,089,*78
$GLGSV,3,1,10,70,09,358,,71,18,313,34,72,09,266,,73,35,133,33*62
$GLGSV,3,2,10,74,20,183,26,80,15,076,32,83,09,155,29,84,64,155,21*62
$GLGSV,3,3,10,85,59,331,41,86,03,334,18*61
$GNGLL,0419.72709,S,05539.92694,E,133039.00,A,D*69
$GNRMC,133040.00,A,0419.72709,S,05539.92693,E,0.028,,030625,,,D*71
$GNVTG,,T,,M,0.028,N,0.051,K,D*36
$GNGGA,133040.00,0419.72709,S,05539.92693,E,2,12,0.60,7.5,M,-47.6,M,,0000*7C
$GNGSA,A,3,31,27,28,08,26,16,10,18,32,02,04,,1.18,0.60,1.02*18
$GNGSA,A,3,85,73,71,80,83,,,,,,,,1.18,0.60,1.02*1D
$GPGSV,5,1,18,01,03,330,20,02,29,335,40,04,22,253,27,08,35,267,38*7F
$GPGSV,5,2,18,10,15,053,34,16,27,187,40,18,10,138,30,23,01,091,*72
$GPGSV,5,3,18,26,34,153,38,27,48,219,36,28,47,049,37,31,73,091,42*77
$GPGSV,5,4,18,32,10,021,28,36,52,277,40,40,84,353,42,41,58,082,40*71
$GPGSV,5,5,18,49,32,274,,50,10,089,*78
$GLGSV,3,1,10,70,09,358,,71,18,313,34,72,09,266,,73,35,133,33*62
$GLGSV,3,2,10,74,20,183,26,80,15,076,31,83,09,155,28,84,64,155,21*60
$GLGSV,3,3,10,85,59,331,41,86,03,334,14*6D
$GNGLL,0419.72709,S,05539.92693,E,133040.00,A,D*60
$GNRMC,133041.00,A,0419.72709,S,05539.92689,E,0.009,,030625,,,D*78
$GNVTG,,T,,M,0.009,N,0.017,K,D*37
$GNGGA,133041.00,0419.72709,S,05539.92689,E,2,12,0.60,7.5,M,-47.6,M,,0000*76
$GNGSA,A,3,31,27,28,08,26,16,10,18,32,02,04,,1.18,0.60,1.02*18
$GNGSA,A,3,85,73,71,80,83,,,,,,,,1.18,0.60,1.02*1D
$GPGSV,5,1,18,01,03,330,19,02,29,335,40,04,22,253,28,08,35,267,38*7A
$GPGSV,5,2,18,10,15,053,33,16,27,187,40,18,10,138,28,23,01,091,*7C
$GPGSV,5,3,18,26,34,153,38,27,48,219,36,28,47,049,38,31,73,091,42*78
$GPGSV,5,4,18,32,10,021,28,36,52,277,40,40,84,353,42,41,58,082,40*71
$GPGSV,5,5,18,49,32,274,,50,10,089,*78
$GLGSV,3,1,10,70,09,358,,71,18,313,35,72,09,266,,73,35,133,33*63
$GLGSV,3,2,10,74,20,183,27,80,15,076,32,83,09,155,28,84,64,155,22*61
$GLGSV,3,3,10,85,59,331,42,86,03,334,09*62
$GNGLL,0419.72709,S,05539.92689,E,133041.00,A,D*6A
$GNRMC,133042.00,A,0419.72710,S,05539.92689,E,0.018,,030625,,,D*73
$GNVTG,,T,,M,0.018,N,0.033,K,D*31
$GNGGA,133042.00,0419.72710,S,05539.92689,E,2,12,0.60,7.4,M,-47.6,M,,0000*7C
$GNGSA,A,3,31,27,28,08,26,16,10,18,32,02,04,,1.18,0.60,1.02*18
$GNGSA,A,3,85,73,71,80,83,,,,,,,,1.18,0.60,1.02*1D
$GPGSV,5,1,18,01,03,330,19,02,29,335,40,04,22,253,28,08,35,267,38*7A
$GPGSV,5,2,18,10,15,053,34,16,27,187,40,18,10,139,28,23,01,091,*7A
$GPGSV,5,3,18,26,34,153,38,27,48,219,36,28,47,049,37,31,73,091,42*77
$GPGSV,5,4,18,32,10,021,28,36,52,277,40,40,84,353,42,41,58,082,40*71
$GPGSV,5,5,18,49,32,274,,50,10,089,*78
$GLGSV,3,1,10,70,09,358,,71,18,313,35,72,09,266,,73,35,133,36*66
$GLGSV,3,2,10,74,20,183,27,80,15,076,32,83,09,155,28,84,64,155,22*61
$GLGSV,3,3,10,85,59,331,43,86,03,334,07*6D
$GNGLL,0419.72710,S,05539.92689,E,133042.00,A,D*61
$GNRMC,133043.00,A,0419.72710,S,05539.92690,E,0.017,,030625,,,D*75
$GNVTG,,T,,M,0.017,N,0.032,K,D*3F
$GNGGA,133043.00,0419.72710,S,05539.92690,E,2,12,0.60,7.4,M,-47.6,M,,0000*75
$GNGSA,A,3,31,27,28,08,26,16,10,18,32,02,04,,1.18,0.60,1.02*18
$GNGSA,A,3,85,73,71,80,83,,,,,,,,1.18,0.60,1.02*1D
$GPGSV,5,1,18,01,03,330,19,02,29,335,40,04,22,253,27,08,35,267,37*7A
$GPGSV,5,2,18,10,15,053,33,16,27,187,40,18,10,139,27,23,01,091,*72
$GPGSV,5,3,18,26,34,153,39,27,48,219,36,28,47,049,38,31,73,091,42*79
$GPGSV,5,4,18,32,10,021,27,36,52,277,40,40,84,353,42,41,58,082,39*70
$GPGSV,5,5,18,49,32,274,,50,10,089,*78
$GLGSV,3,1,10,70,09,358,,71,18,313,35,72,09,266,,73,35,133,34*64
$GLGSV,3,2,10,74,20,183,28,80,15,076,33,83,09,155,29,84,64,155,22*6E
$GLGSV,3,3,10,85,59,331,42,86,03,334,06*6D
$GNGLL,0419.72710,S,05539.92690,E,133043.00,A,D*68
$GNRMC,133044.00,A,0419.72710,S,05539.92689,E,0.019,,030625,,,D*74
$GNVTG,,T,,M,0.019,N,0.036,K,D*35
$GNGGA,133044.00,0419.72710,S,05539.92689,E,2,12,0.60,7.3,M,-47.6,M,,0000*7D
$GNGSA,A,3,31,27,28,08,26,16,10,18,32,02,04,,1.18,0.60,1.02*18
$GNGSA,A,3,85,73,71,80,83,,,,,,,,1.18,0.60,1.02*1D
$GPGSV,5,1,18,01,03,330,21,02,29,335,40,04,22,253,27,08,35,267,37*71
$GPGSV,5,2,18,10,15,053,33,16,27,187,40,18,10,139,27,23,01,091,*72
$GPGSV,5,3,18,26,34,153,38,27,48,219,36,28,47,049,37,31,73,091,42*77
$GPGSV,5,4,18,32,10,021,26,36,52,277,40,40,84,353,42,41,58,082,39*71
$GPGSV,5,5,18,49,32,274,,50,10,089,*78
$GLGSV,3,1,10,70,09,358,,71,18,313,35,72,09,266,,73,35,133,34*64
$GLGSV,3,2,10,74,20,183,27,80,15,076,33,83,09,155,29,84,64,155,22*61
$GLGSV,3,3,10,85,59,331,42,86,03,334,06*6D
$GNGLL,0419.72710,S,05539.92689,E,133044.00,A,D*67
$GNRMC,133045.00,A,0419.72711,S,05539.92687,E,0.034,,030625,,,D*75
$GNVTG,,T,,M,0.034,N,0.063,K,D*3A
$GNGGA,133045.00,0419.72711,S,05539.92687,E,2,12,0.60,7.3,M,-47.6,M,,0000*73
$GNGSA,A,3,31,27,28,08,26,16,10,18,32,02,04,,1.18,0.60,1.02*18
$GNGSA,A,3,85,73,71,80,83,,,,,,,,1.18,0.60,1.02*1D
$GPGSV,5,1,18,01,03,330,22,02,29,335,40,04,22,253,26,08,35,267,37*73
$GPGSV,5,2,18,10,15,053,34,16,27,187,40,18,10,139,27,23,01,091,*75
$GPGSV,5,3,18,26,34,153,38,27,48,219,36,28,47,049,37,31,73,091,42*77
$GPGSV,5,4,18,32,10,021,24,36,52,277,40,40,84,353,42,41,58,082,40*7D
$GPGSV,5,5,18,49,32,274,,50,10,089,*78
$GLGSV,3,1,10,70,09,358,,71,18,313,35,72,09,266,,73,35,133,33*63
$GLGSV,3,2,10,74,20,183,27,80,15,076,32,83,09,155,29,84,64,155,22*60
$GLGSV,3,3,10,85,59,331,41,86,03,334,18*61
$GNGLL,0419.72711,S,05539.92687,E,133045.00,A,D*69
$GNRMC,133046.00,A,0419.72711,S,05539.92686,E,0.024,,030625,,,D*76
$GNVTG,,T,,M,0.024,N,0.044,K,D*3E
$GNGGA,133046.00,0419.72711,S,05539.92686,E,2,12,0.60,7.3,M,-47.6,M,,0000*71
$GNGSA,A,3,31,27,28,08,26,16,10,18,32,02,04,,1.18,0.60,1.02*18
$GNGSA,A,3,85,73,71,80,83,,,,,,,,1.18,0.60,1.02*1D
$GPGSV,5,1,18,01,03,330,22,02,29,335,41,04,22,253,26,08,35,267,37*72
$GPGSV,5,2,18,10,15,053,33,16,27,187,40,18,10,139,29,23,01,092,*7F
$GPGSV,5,3,18,26,34,153,38,27,48,219,36,28,47,049,37,31,73,091,42*77
$GPGSV,5,4,18,32,10,021,25,36,52,277,39,40,84,353,42,41,58,082,40*72
$GPGSV,5,5,18,49,32,274,,50,10,089,*78
$GLGSV,3,1,10,70,09,358,,71,18,313,32,72,09,266,,73,35,133,33*64
$GLGSV,3,2,10,74,20,183,26,80,15,076,32,83,09,155,29,84,64,155,21*62
$GLGSV,3,3,10,85,59,331,40,86,03,334,18*60
$GNGLL,0419.72711,S,05539.92686,E,133046.00,A,D*6B
$GNRMC,133047.00,A,0419.72711,S,05539.92685,E,0.019,,030625,,,D*7A
$GNVTG,,T,,M,0.019,N,0.036,K,D*35
$GNGGA,133047.00,0419.72711,S,05539.92685,E,2,12,0.60,7.3,M,-47.6,M,,0000*73
$GNGSA,A,3,31,27,28,08,26,16,10,18,32,02,04,,1.18,0.60,1.02*18
$GNGSA,A,3,85,73,71,80,83,,,,,,,,1.18,0.60,1.02*1D
$GPGSV,5,1,18,01,03,330,19,02,29,335,40,04,22,253,26,08,35,267,37*7B
$GPGSV,5,2,18,10,15,053,32,16,27,187,39,18,10,139,28,23,01,092,*71
$GPGSV,5,3,18,26,34,153,37,27,48,219,35,28,47,049,37,31,73,091,41*78
$GPGSV,5,4,18,32,10,021,25,36,52,277,39,40,84,353,42,41,58,082,38*7D
$GPGSV,5,5,18,49,32,274,,50,10,089,*78
$GLGSV,3,1,10,70,09,358,,71,18,313,32,72,09,266,,73,35,133,31*66
$GLGSV,3,2,10,74,20,183,27,80,15,076,28,83,09,155,29,84,64,155,21*68
$GLGSV,3,3,10,85,59,331,40,86,03,334,18*60
$GNGLL,0419.72711,S,05539.92685,E,133047.00,A,D*69
$GNRMC,133048.00,A,0419.72711,S,05539.92684,E,0.025,,030625,,,D*7B
$GNVTG,,T,,M,0.025,N,0.047,K,D*3C
$GNGGA,133048.00,0419.72711,S,05539.92684,E,2,12,0.60,7.3,M,-47.6,M,,0000*7D
$GNGSA,A,3,31,27,28,08,26,16,10,18,32,02,04,,1.18,0.60,1.02*18
$GNGSA,A,3,85,73,71,80,83,,,,,,,,1.18,0.60,1.02*1D
$GPGSV,5,1,18,01,03,330,15,02,29,335,40,04,22,253,26,08,35,267,37*77
$GPGSV,5,2,18,10,15,053,29,16,27,187,39,18,10,139,29,23,01,092,*7A
$GPGSV,5,3,18,26,34,153,37,27,48,219,35,28,47,049,37,31,73,091,41*78
$GPGSV,5,4,18,32,10,021,31,36,52,277,38,40,84,353,42,41,58,082,38*79
$GPGSV,5,5,18,49,32,274,,50,10,089,*78
$GLGSV,3,1,10,70,09,358,,71,18,313,32,72,09,266,,73,35,133,33*64
$GLGSV,3,2,10,74,20,183,26,80,15,076,29,83,09,155,30,84,64,155,20*61
$GLGSV,3,3,10,85,59,331,40,86,03,334,18*60
$GNGLL,0419.72711,S,05539.92684,E,133048.00,A,D*67
$GNRMC,133049.00,A,0419.72711,S,05539.92682,E,0.029,,030625,,,D*70
$GNVTG,,T,,M,0.029,N,0.053,K,D*35
$GNGGA,133049.00,0419.72711,S,05539.92682,E,2,12,0.60,7.3,M,-47.6,M,,0000*7A
$GNGSA,A,3,31,27,28,08,26,16,10,18,32,02,04,,1.18,0.60,1.02*18
$GNGSA,A,3,85,73,71,80,83,,,,,,,,1.18,0.60,1.02*1D
$GPGSV,5,1,18,01,03,330,14,02,29,335,40,04,22,253,28,08,35,267,37*78
$GPGSV,5,2,18,10,15,053,35,16,27,187,39,18,10,139,34,23,01,092,*7B
$GPGSV,5,3,18,26,34,153,39,27,48,219,36,28,47,049,37,31,73,091,41*75
$GPGSV,5,4,18,32,10,021,29,36,52,277,39,40,84,353,41,41,58,082,39*73
$GPGSV,5,5,18,49,32,274,,50,10,089,*78
$GLGSV,3,1,10,70,09,358,,71,18,313,33,72,09,266,,73,35,133,33*65
$GLGSV,3,2,10,74,20,183,27,80,15,076,30,83,09,155,22,84,64,155,21*6A
$GLGSV,3,3,10,85,59,331,41,86,03,334,18*61
$GNGLL,0419.72711,S,05539.92682,E,133049.00,A,D*60
$GNRMC,133050.00,A,0419.72711,S,05539.92680,E,0.003,,030625,,,D*72
$GNVTG,,T,,M,0.003,N,0.006,K,D*3D
$GNGGA,133050.00,0419.72711,S,05539.92680,E,2,12,0.60,7.3,M,-47.6,M,,0000*70
$GNGSA,A,3,31,27,28,08,26,16,10,18,32,02,04,,1.18,0.60,1.02*18
$GNGSA,A,3,85,73,71,80,83,,,,,,,,1.18,0.60,1.02*1D
$GPGSV,5,1,18,01,03,330,15,02,29,335,40,04,22,253,31,08,35,267,39*7F
$GPGSV,5,2,18,10,15,053,33,16,27,187,39,18,10,139,33,23,01,092,*7A
$GPGSV,5,3,18,26,34,153,38,27,48,218,35,28,47,049,38,31,73,091,41*79
$GPGSV,5,4,18,32,10,021,29,36,52,277,40,40,84,353,41,41,58,082,39*7D
$GPGSV,5,5,18,49,32,274,,50,10,089,*78
$GLGSV,3,1,10,70,09,358,,71,18,313,33,72,09,266,,73,35,133,33*65
$GLGSV,3,2,10,74,20,183,26,80,15,076,32,83,09,155,23,84,64,155,20*69
$GLGSV,3,3,10,85,59,331,42,86,03,334,18*62
$GNGLL,0419.72711,S,05539.92680,E,133050.00,A,D*6A
$GNRMC,133051.00,A,0419.72711,S,05539.92679,E,0.008,,030625,,,D*7E
$GNVTG,,T,,M,0.008,N,0.015,K,D*34
$GNGGA,133051.00,0419.72711,S,05539.92679,E,2,12,0.60,7.3,M,-47.6,M,,0000*77
$GNGSA,A,3,31,27,28,08,26,16,10,18,32,02,04,,1.18,0.60,1.02*18
$GNGSA,A,3,85,73,71,80,83,,,,,,,,1.18,0.60,1.02*1D
$GPGSV,5,1,18,01,03,330,18,02,29,335,39,04,22,253,31,08,35,267,39*7C
$GPGSV,5,2,18,10,15,053,33,16,27,187,39,18,10,139,33,23,01,092,21*79
$GPGSV,5,3,18,26,34,153,39,27,48,218,36,28,47,048,40,31,73,091,41*75
$GPGSV,5,4,18,32,10,021,32,36,52,277,41,40,84,353,42,41,58,082,40*7B
$GPGSV,5,5,18,49,32,274,,50,10,089,*78
$GLGSV,3,1,10,70,09,358,,71,18,313,32,72,09,266,,73,35,133,32*65
$GLGSV,3,2,10,74,20,183,28,80,15,076,31,83,09,155,24,84,64,155,22*61
$GLGSV,3,3,10,85,59,331,39,86,03,334,20*65
$GNGLL,0419.72711,S,05539.92679,E,133051.00,A,D*6D
$GNRMC,133052.00,A,0419.72711,S,05539.92678,E,0.010,,030625,,,D*75
$GNVTG,,T,,M,0.010,N,0.019,K,D*31
$GNGGA,133052.00,0419.72711,S,05539.92678,E,2,12,0.60,7.2,M,-47.6,M,,0000*74
$GNGSA,A,3,31,27,28,08,26,16,10,18,32,02,04,,1.18,0.60,1.02*18
$GNGSA,A,3,85,73,71,80,83,,,,,,,,1.18,0.60,1.02*1D
$GPGSV,5,1,18,01,03,330,16,02,29,335,42,04,22,253,32,08,35,267,39*7D
$GPGSV,5,2,18,10,15,053,34,16,27,187,40,18,10,139,34,23,01,092,*74
$GPGSV,5,3,18,26,34,153,42,27,48,218,37,28,47,048,40,31,73,091,42*7B
$GPGSV,5,4,18,32,10,021,32,36,52,277,41,40,84,353,44,41,58,082,40*7D
$GPGSV,5,5,18,49,32,274,,50,10,089,*78
$GLGSV,3,1,10,70,09,358,,71,18,313,32,72,09,266,,73,35,133,32*65
$GLGSV,3,2,10,74,20,183,27,80,15,076,31,83,09,155,23,84,64,155,21*6A
$GLGSV,3,3,10,85,59,331,39,86,03,334,20*65
$GNGLL,0419.72711,S,05539.92678,E,133052.00,A,D*6F
$GNRMC,133053.00,A,0419.72711,S,05539.92677,E,0.034,,030625,,,D*7D
$GNVTG,,T,,M,0.034,N,0.063,K,D*3A
$GNGGA,133053.00,0419.72711,S,05539.92677,E,2,12,0.60,7.2,M,-47.6,M,,0000*7A
$GNGSA,A,3,31,27,28,08,26,16,10,18,32,02,04,,1.18,0.60,1.02*18
$GNGSA,A,3,85,73,71,80,83,,,,,,,,1.18,0.60,1.02*1D
$GPGSV,5,1,18,01,03,330,18,02,29,335,42,04,22,253,31,08,35,267,40*7E
$GPGSV,5,2,18,10,15,053,35,16,27,187,41,18,10,139,34,23,01,092,*74
$GPGSV,5,3,18,26,34,153,42,27,48,218,37,28,47,048,40,31,73,091,42*7B
$GPGSV,5,4,18,32,10,021,33,36,52,277,41,40,84,353,43,41,58,082,41*7A
$GPGSV,5,5,18,49,32,274,,50,10,089,*78
$GLGSV,3,1,10,70,09,358,,71,18,313,34,72,09,266,,73,35,133,32*63
$GLGSV,3,2,10,74,20,183,27,80,15,076,32,83,09,155,24,84,64,155,22*6D
$GLGSV,3,3,10,85,59,331,41,86,03,334,21*6B
$GNGLL,0419.72711,S,05539.92677,E,133053.00,A,D*61
$GNRMC,133054.00,A,0419.72711,S,05539.92676,E,0.018,,030625,,,D*75
$GNVTG,,T,,M,0.018,N,0.034,K,D*36
$GNGGA,133054.00,0419.72711,S,05539.92676,E,2,12,0.60,7.2,M,-47.6,M,,0000*7C
$GNGSA,A,3,31,27,28,08,26,16,10,18,32,02,04,,1.18,0.60,1.02*18
$GNGSA,A,3,85,73,71,80,83,,,,,,,,1.18,0.60,1.02*1D
$GPGSV,5,1,18,01,03,330,21,02,29,335,42,04,22,253,30,08,35,267,40*75
$GPGSV,5,2,18,10,15,053,35,16,27,187,41,18,10,139,35,23,01,092,*75
$GPGSV,5,3,18,26,34,153,41,27,48,218,37,28,47,048,40,31,73,089,42*71
$GPGSV,5,4,18,32,10,021,33,36,52,277,40,40,84,353,43,41,58,082,41*7B
$GPGSV,5,5,18,49,32,274,,50,10,089,*78
$GLGSV,3,1,10,70,09,358,,71,18,313,35,72,09,266,,73,35,133,32*62
$GLGSV,3,2,10,74,20,183,25,80,15,076,32,83,09,155,26,84,64,155,23*6C
$GLGSV,3,3,10,85,59,331,41,86,03,334,21*6B
$GNGLL,0419.72711,S,05539.92676,E,133054.00,A,D*67
$GNRMC,133055.00,A,0419.72710,S,05539.92673,E,0.030,,030625,,,D*7A
$GNVTG,,T,,M,0.030,N,0.056,K,D*38
$GNGGA,133055.00,0419.72710,S,05539.92673,E,2,12,0.60,7.2,M,-47.6,M,,0000*79
$GNGSA,A,3,31,27,28,08,26,16,10,18,32,02,04,,1.18,0.60,1.02*18
$GNGSA,A,3,85,73,71,80,83,,,,,,,,1.18,0.60,1.02*1D
$GPGSV,5,1,18,01,03,330,20,02,29,335,42,04,22,253,29,08,35,267,40*7C
$GPGSV,5,2,18,10,15,053,33,16,27,187,41,18,10,139,35,23,01,092,22*73
$GPGSV,5,3,18,26,34,153,41,27,48,218,37,28,47,048,39,31,73,089,42*7F
$GPGSV,5,4,18,32,10,022,33,36,52,277,40,40,84,353,43,41,58,082,40*79
$GPGSV,5,5,18,49,32,274,,50,10,089,*78
$GLGSV,3,1,10,70,09,358,,71,18,313,35,72,09,266,,73,35,133,32*62
$GLGSV,3,2,10,74,20,183,26,80,15,076,33,83,09,155,27,84,64,155,23*6F
$GLGSV,3,3,10,85,59,331,40,86,03,334,21*6A
$GNGLL,0419.72710,S,05539.92673,E,133055.00,A,D*62
$GNRMC,133056.00,A,0419.72709,S,05539.92672,E,0.013,,030625,,,D*71
$GNVTG,,T,,M,0.013,N,0.025,K,D*3D
$GNGGA,133056.00,0419.72709,S,05539.92672,E,2,12,0.60,7.2,M,-47.6,M,,0000*73
$GNGSA,A,3,31,27,28,08,26,16,10,18,32,02,04,,1.18,0.60,1.02*18
$GNGSA,A,3,85,73,71,80,83,,,,,,,,1.18,0.60,1.02*1D
$GPGSV,5,1,18,01,03,330,19,02,29,335,41,04,22,253,29,08,35,267,40*75
$GPGSV,5,2,18,10,15,053,33,16,27,187,41,18,10,139,34,23,01,092,24*74
$GPGSV,5,3,18,26,34,153,41,27,48,218,37,28,47,048,39,31,73,089,42*7F
$GPGSV,5,4,18,32,10,022,33,36,52,277,40,40,84,353,43,41,58,082,41*78
$GPGSV,5,5,18,49,32,274,,50,10,089,*78
$GLGSV,3,1,10,70,09,358,,71,18,313,35,72,09,266,,73,35,133,32*62
$GLGSV,3,2,10,74,20,183,25,80,15,076,33,83,09,155,27,84,64,155,23*6C
$GLGSV,3,3,10,85,59,331,40,86,03,334,21*6A
$GNGLL,0419.72709,S,05539.92672,E,133056.00,A,D*68
$GNRMC,133057.00,A,0419.72708,S,05539.92672,E,0.004,,030625,,,D*77
$GNVTG,,T,,M,0.004,N,0.006,K,D*3A
$GNGGA,133057.00,0419.72708,S,05539.92672,E,2,12,0.60,7.2,M,-47.6,M,,0000*73
$GNGSA,A,3,31,27,28,08,26,16,10,18,32,02,04,,1.18,0.60,1.02*18
$GNGSA,A,3,85,73,71,80,83,,,,,,,,1.18,0.60,1.02*1D
$GPGSV,5,1,18,01,03,330,19,02,29,335,41,04,22,253,30,08,35,267,40*7D
$GPGSV,5,2,18,10,15,053,33,16,27,187,41,18,10,139,34,23,01,092,21*71
$GPGSV,5,3,18,26,34,153,41,27,48,218,37,28,47,048,39,31,73,089,42*7F
$GPGSV,5,4,18,32,10,022,33,36,52,277,40,40,84,353,43,41,58,082,41*78
$GPGSV,5,5,18,49,32,274,,50,10,089,*78
$GLGSV,3,1,10,70,09,358,,71,18,313,35,72,09,266,,73,35,133,32*62
$GLGSV,3,2,10,74,20,183,26,80,15,076,33,83,09,155,27,84,64,155,24*68
$GLGSV,3,3,10,85,59,331,40,86,03,334,*69
$GNGLL,0419.72708,S,05539.92672,E,133057.00,A,D*68
$GNRMC,133058.00,A,0419.72708,S,05539.92672,E,0.013,,030625,,,D*7E
$GNVTG,,T,,M,0.013,N,0.024,K,D*3C
$GNGGA,133058.00,0419.72708,S,05539.92672,E,2,12,0.60,7.1,M,-47.6,M,,0000*7F
$GNGSA,A,3,31,27,28,08,26,16,10,18,32,02,04,,1.18,0.60,1.02*18
$GNGSA,A,3,85,73,71,80,83,,,,,,,,1.18,0.60,1.02*1D
$GPGSV,5,1,18,01,03,330,19,02,29,335,41,04,22,253,30,08,35,267,40*7D
$GPGSV,5,2,18,10,15,053,33,16,27,187,41,18,10,139,35,23,01,092,*73
$GPGSV,5,3,18,26,34,153,41,27,48,218,37,28,47,048,39,31,73,089,42*7F
$GPGSV,5,4,18,32,10,022,33,36,52,277,40,40,84,353,43,41,58,082,41*78
$GPGSV,5,5,18,49,32,274,,50,10,089,*78
$GLGSV,3,1,10,70,09,358,,71,18,313,35,72,09,266,,73,35,133,32*62
$GLGSV,3,2,10,74,20,183,25,80,15,076,33,83,09,155,26,84,64,155,23*6D
$GLGSV,3,3,10,85,59,331,40,86,03,334,*69
$GNGLL,0419.72708,S,05539.92672,E,133058.00,A,D*67
$GNRMC,133059.00,A,0419.72708,S,05539.92671,E,0.028,,030625,,,D*74
$GNVTG,,T,,M,0.028,N,0.053,K,D*34
$GNGGA,133059.00,0419.72708,S,05539.92671,E,2,12,0.60,7.1,M,-47.6,M,,0000*7D
$GNGSA,A,3,31,27,28,08,26,16,10,18,32,02,04,,1.18,0.60,1.02*18
$GNGSA,A,3,85,73,71,80,83,,,,,,,,1.18,0.60,1.02*1D
$GPGSV,5,1,18,01,03,330,19,02,29,335,41,04,22,253,30,08,35,267,40*7D
$GPGSV,5,2,18,10,15,053,32,16,27,187,41,18,10,139,34,23,01,092,*73
$GPGSV,5,3,18,26,34,153,41,27,48,218,37,28,47,048,39,31,73,089,42*7F
$GPGSV,5,4,18,32,10,022,33,36,52,277,40,40,84,353,43,41,58,082,41*78
$GPGSV,5,5,18,49,32,274,,50,10,089,*78
$GLGSV,3,1,10,70,09,358,,71,18,313,35,72,09,266,,73,35,133,32*62
$GLGSV,3,2,10,74,20,183,25,80,15,076,33,83,09,155,25,84,64,155,23*6E
$GLGSV,3,3,10,85,59,331,40,86,03,334,*69
$GNGLL,0419.72708,S,05539.92671,E,133059.00,A,D*65
$GNRMC,133100.00,A,0419.72707,S,05539.92671,E,0.013,,030625,,,D*7E
$GNVTG,,T,,M,0.013,N,0.024,K,D*3C
$GNGGA,133100.00,0419.72707,S,05539.92671,E,2,12,0.60,7.1,M,-47.6,M,,0000*7F
$GNGSA,A,3,31,27,28,08,26,16,10,18,32,02,04,,1.18,0.60,1.02*18
$GNGSA,A,3,85,73,71,80,83,,,,,,,,1.18,0.60,1.02*1D
$GPGSV,5,1,18,01,03,330,20,02,29,335,41,04,22,253,30,08,35,267,40*77
$GPGSV,5,2,18,10,15,053,33,16,27,187,40,18,10,139,34,23,01,092,*73
$GPGSV,5,3,18,26,34,153,41,27,48,218,37,28,47,048,39,31,73,089,42*7F
$GPGSV,5,4,18,32,10,022,33,36,52,277,40,40,84,353,43,41,58,082,40*79
$GPGSV,5,5,18,49,32,274,,50,10,089,*78
$GLGSV,3,1,10,70,09,358,,71,18,313,34,72,09,266,,73,35,133,33*62
$GLGSV,3,2,10,74,20,183,24,80,15,076,33,83,09,155,25,84,64,155,22*6E
$GLGSV,3,3,10,85,59,331,40,86,03,334,*69
$GNGLL,0419.72707,S,05539.92671,E,133100.00,A,D*67
$GNRMC,133101.00,A,0419.72707,S,05539.92670,E,0.034,,030625,,,D*7B
$GNVTG,,T,,M,0.034,N,0.063,K,D*3A
$GNGGA,133101.00,0419.72707,S,05539.92670,E,2,12,0.60,7.1,M,-47.6,M,,0000*7F
$GNGSA,A,3,31,27,28,08,26,16,10,18,32,02,04,,1.18,0.60,1.02*18
$GNGSA,A,3,85,73,71,80,83,,,,,,,,1.18,0.60,1.02*1D
$GPGSV,5,1,18,01,03,330,18,02,29,335,40,04,22,253,28,08,35,267,38*7B
$GPGSV,5,2,18,10,15,053,30,16,27,187,39,18,10,139,33,23,01,092,*79
$GPGSV,5,3,18,26,34,153,37,27,48,218,36,28,47,048,38,31,73,089,41*7D
$GPGSV,5,4,18,32,10,022,30,36,52,277,39,40,84,353,42,41,58,082,39*7B
$GPGSV,5,5,18,49,32,274,,50,10,089,*78
$GLGSV,3,1,10,70,09,358,,71,18,313,34,72,09,266,,73,35,133,33*62
$GLGSV,3,2,10,74,20,183,25,80,15,076,33,83,09,155,26,84,64,155,22*6C
$GLGSV,3,3,10,85,59,331,40,86,03,334,20*6B
$GNGLL,0419.72707,S,05539.92670,E,133101.00,A,D*67
$GNRMC,133102.00,A,0419.72708,S,05539.92670,E,0.009,,030625,,,D*79
$GNVTG,,T,,M,0.009,N,0.017,K,D*37
$GNGGA,133102.00,0419.72708,S,05539.92670,E,2,12,0.60,7.1,M,-47.6,M,,0000*73
$GNGSA,A,3,31,27,28,08,26,16,10,18,32,02,04,,1.18,0.60,1.02*18
$GNGSA,A,3,85,73,71,80,83,,,,,,,,1.18,0.60,1.02*1D
$GPGSV,5,1,18,01,03,330,16,02,29,335,40,04,22,253,26,08,35,267,38*7B
$GPGSV,5,2,18,10,15,053,35,16,27,187,38,18,10,139,31,23,01,092,*7F
$GPGSV,5,3,18,26,34,153,38,27,48,218,36,28,47,048,37,31,73,089,41*7D
$GPGSV,5,4,18,32,10,022,29,36,52,277,38,40,84,353,42,41,58,082,39*72
$GPGSV,5,5,18,49,32,274,,50,10,089,*78
$GLGSV,3,1,10,70,09,358,,71,18,313,34,72,09,266,,73,35,133,33*62
$GLGSV,3,2,10,74,20,183,25,80,15,076,31,83,09,155,27,84,64,155,21*6C
$GLGSV,3,3,10,85,59,331,39,86,03,334,20*65
$GNGLL,0419.72708,S,05539.92670,E,133102.00,A,D*6B
$GNRMC,133103.00,A,0419.72708,S,05539.92670,E,0.010,,030625,,,D*70
$GNVTG,,T,,M,0.010,N,0.018,K,D*30
$GNGGA,133103.00,0419.72708,S,05539.92670,E,2,12,0.60,7.0,M,-47.6,M,,0000*73
$GNGSA,A,3,31,27,28,08,26,16,10,18,32,02,04,,1.18,0.60,1.02*18
$GNGSA,A,3,85,73,71,80,83,,,,,,,,1.18,0.60,1.02*1D
$GPGSV,5,1,18,01,03,330,18,02,29,335,40,04,22,253,25,08,35,267,38*76
$GPGSV,5,2,18,10,15,053,35,16,27,187,38,18,10,139,30,23,01,092,*7E
$GPGSV,5,3,18,26,34,153,38,27,48,218,36,28,47,048,38,31,73,089,41*72
$GPGSV,5,4,18,32,10,022,29,36,52,277,39,40,84,353,42,41,58,082,40*7D
$GPGSV,5,5,18,49,32,274,,50,10,089,*78
$GLGSV,3,1,10,70,09,358,,71,18,313,35,72,09,266,,73,35,133,33*63
$GLGSV,3,2,10,74,20,183,26,80,15,076,30,83,09,155,28,84,64,155,21*61
$GLGSV,3,3,10,85,59,331,39,86,03,334,23*66
$GNGLL,0419.72708,S,05539.92670,E,133103.00,A,D*6A
$GNRMC,133104.00,A,0419.72708,S,05539.92669,E,0.033,,030625,,,D*7E
$GNVTG,,T,,M,0.033,N,0.062,K,D*3C
$GNGGA,133104.00,0419.72708,S,05539.92669,E,2,12,0.60,7.0,M,-47.6,M,,0000*7C
$GNGSA,A,3,31,27,28,08,26,16,10,18,32,02,04,,1.18,0.60,1.02*18
$GNGSA,A,3,85,73,71,80,83,,,,,,,,1.18,0.60,1.02*1D
$GPGSV,5,1,18,01,03,330,20,02,29,335,40,04,22,253,24,08,35,267,38*7C
$GPGSV,5,2,18,10,15,053,34,16,27,187,38,18,10,139,30,23,01,092,*7F
$GPGSV,5,3,18,26,34,153,38,27,48,218,36,28,47,048,37,31,73,089,41*7D
$GPGSV,5,4,18,32,10,022,28,36,52,277,39,40,84,353,42,41,58,082,40*7C
$GPGSV,5,5,18,49,32,274,,50,10,089,*78
$GLGSV,3,1,10,70,09,358,,71,18,313,34,72,09,266,,73,35,133,34*65
$GLGSV,3,2,10,74,20,183,26,80,15,076,30,83,09,155,28,84,64,155,21*61
$GLGSV,3,3,10,85,59,331,39,86,03,334,25*60
$GNGLL,0419.72708,S,05539.92669,E,133104.00,A,D*65
$GNRMC,133105.00,A,0419.72709,S,05539.92667,E,0.040,,030625,,,D*74
$GNVTG,,T,,M,0.040,N,0.075,K,D*3E
$GNGGA,133105.00,0419.72709,S,05539.92667,E,2,12,0.60,7.0,M,-47.6,M,,0000*72
$GNGSA,A,3,31,27,28,08,26,16,10,18,32,02,04,,1.18,0.60,1.02*18
$GNGSA,A,3,85,73,71,80,83,,,,,,,,1.18,0.60,1.02*1D
$GPGSV,5,1,18,01,03,330,20,02,29,335,40,04,22,253,24,08,35,267,38*7C
$GPGSV,5,2,18,10,15,053,34,16,27,187,38,18,10,139,30,23,01,092,*7F
$GPGSV,5,3,18,26,34,153,38,27,48,218,36,28,47,048,38,31,73,089,41*72
$GPGSV,5,4,18,32,10,022,28,36,52,277,39,40,84,353,42,41,58,082,40*7C
$GPGSV,5,5,18,49,32,274,,50,10,089,*78
$GLGSV,3,1,10,70,09,358,,71,18,313,35,72,09,266,,73,35,133,34*64
$GLGSV,3,2,10,74,20,183,26,80,15,076,30,83,09,155,28,84,64,155,22*62
$GLGSV,3,3,10,85,59,331,39,86,03,334,25*60
$GNGLL,0419.72709,S,05539.92667,E,133105.00,A,D*6B
$GNRMC,133106.00,A,0419.72709,S,05539.92666,E,0.031,,030625,,,D*70
$GNVTG,,T,,M,0.031,N,0.057,K,D*38
$GNGGA,133106.00,0419.72709,S,05539.92666,E,2,12,0.60,7.0,M,-47.6,M,,0000*70
$GNGSA,A,3,31,27,28,08,26,16,10,18,32,02,04,,1.18,0.60,1.02*18
$GNGSA,A,3,85,73,71,80,83,,,,,,,,1.18,0.60,1.02*1D
$GPGSV,5,1,18,01,03,330,20,02,29,335,39,04,22,253,23,08,35,267,38*75
$GPGSV,5,2,18,10,15,053,34,16,27,187,38,18,10,139,30,23,01,092,*7F
$GPGSV,5,3,18,26,34,153,38,27,48,218,36,28,47,048,37,31,73,089,41*7D
$GPGSV,5,4,18,32,10,022,27,36,52,277,39,40,84,353,42,41,58,082,40*73
$GPGSV,5,5,18,49,32,274,,50,10,089,*78
$GLGSV,3,1,10,70,09,358,,71,18,313,34,72,09,266,,73,35,133,34*65
$GLGSV,3,2,10,74,20,183,26,80,15,076,30,83,09,155,28,84,64,155,21*61
$GLGSV,3,3,10,85,59,331,39,86,03,334,25*60
$GNGLL,0419.72709,S,05539.92666,E,133106.00,A,D*69
$GNRMC,133107.00,A,0419.72709,S,05539.92666,E,0.007,,030625,,,D*74
$GNVTG,,T,,M,0.007,N,0.014,K,D*3A
$GNGGA,133107.00,0419.72709,S,05539.92666,E,2,12,0.60,7.0,M,-47.6,M,,0000*71
$GNGSA,A,3,31,27,28,08,26,16,10,18,32,02,04,,1.18,0.60,1.02*18
$GNGSA,A,3,85,73,71,80,83,,,,,,,,1.18,0.60,1.02*1D
$GPGSV,5,1,18,01,03,330,20,02,29,335,40,04,22,253,23,08,35,267,37*74
$GPGSV,5,2,18,10,15,053,34,16,27,187,38,18,10,139,30,23,01,092,*7F
$GPGSV,5,3,18,26,34,153,38,27,48,218,35,28,47,048,37,31,73,089,41*7E
$GPGSV,5,4,18,32,10,022,25,36,52,277,38,40,84,353,42,41,58,082,40*70
$GPGSV,5,5,18,49,32,274,,50,10,089,*78
$GLGSV,3,1,10,70,09,358,,71,18,314,34,72,09,266,,73,35,133,35*63
$GLGSV,3,2,10,74,20,183,26,80,15,076,29,83,09,155,28,84,64,155,21*69
$GLGSV,3,3,10,85,59,331,39,86,03,334,25*60
$GNGLL,0419.72709,S,05539.92666,E,133107.00,A,D*68
$GNRMC,133108.00,A,0419.72710,S,05539.92666,E,0.030,,030625,,,D*77
$GNVTG,,T,,M,0.030,N,0.055,K,D*3B
$GNGGA,133108.00,0419.72710,S,05539.92666,E,2,12,0.60,6.9,M,-47.6,M,,0000*7E
$GNGSA,A,3,31,27,28,08,26,16,10,18,32,02,04,,1.18,0.60,1.02*18
$GNGSA,A,3,85,73,71,80,83,,,,,,,,1.18,0.60,1.02*1D
$GPGSV,5,1,18,01,03,330,19,02,29,335,40,04,22,253,23,08,35,267,37*7E
$GPGSV,5,2,18,10,15,053,34,16,27,187,38,18,10,139,31,23,01,092,*7E
$GPGSV,5,3,18,26,34,153,38,27,48,218,36,28,47,048,38,31,73,089,41*72
$GPGSV,5,4,18,32,10,022,24,36,52,277,38,40,84,353,42,41,58,082,40*71
$GPGSV,5,5,18,49,32,274,,50,10,089,*78
$GLGSV,3,1,10,70,09,358,,71,18,314,34,72,09,266,,73,35,133,35*63
$GLGSV,3,2,10,74,20,183,26,80,15,076,29,83,09,155,28,84,64,155,21*69
$GLGSV,3,3,10,85,59,331,39,86,03,334,26*63
$GNGLL,0419.72710,S,05539.92666,E,133108.00,A,D*6F
$GNRMC,133109.00,A,0419.72710,S,05539.92667,E,0.012,,030625,,,D*77
$GNVTG,,T,,M,0.012,N,0.022,K,D*3B
$GNGGA,133109.00,0419.72710,S,05539.92667,E,2,12,0.60,7.0,M,-47.6,M,,0000*76
$GNGSA,A,3,31,27,28,08,26,16,10,18,32,02,04,,1.18,0.60,1.02*18
$GNGSA,A,3,85,73,71,80,83,,,,,,,,1.18,0.60,1.02*1D
$GPGSV,5,1,18,01,03,330,20,02,29,335,40,04,22,253,22,08,35,267,37*75
$GPGSV,5,2,18,10,15,053,34,16,27,187,38,18,10,139,31,23,01,092,*7E
$GPGSV,5,3,18,26,34,153,38,27,48,218,36,28,47,048,37,31,73,089,41*7D
$GPGSV,5,4,18,32,10,022,23,36,52,277,38,40,84,353,42,41,58,082,40*76
$GPGSV,5,5,18,49,32,274,,50,10,089,*78
$GLGSV,3,1,10,70,09,358,,71,18,314,33,72,09,266,,73,35,133,35*64
$GLGSV,3,2,10,74,20,183,26,80,15,076,30,83,09,155,28,84,64,155,20*60
$GLGSV,3,3,10,85,59,331,39,86,03,334,26*63
$GNGLL,0419.72710,S,05539.92667,E,133109.00,A,D*6F
$GNRMC,133110.00,A,0419.72710,S,05539.92667,E,0.033,,030625,,,D*7C
$GNVTG,,T,,M,0.033,N,0.062,K,D*3C
$GNGGA,133110.00,0419.72710,S,05539.92667,E,2,12,0.60,7.0,M,-47.6,M,,0000*7E
$GNGSA,A,3,31,27,28,08,26,16,10,18,32,02,04,,1.18,0.60,1.02*18
$GNGSA,A,3,85,73,71,80,83,,,,,,,,1.18,0.60,1.02*1D
$GPGSV,5,1,18,01,03,330,20,02,29,335,40,04,22,253,22,08,35,267,37*75
$GPGSV,5,2,18,10,15,053,35,16,27,187,38,18,10,139,31,23,01,092,*7F
$GPGSV,5,3,18,26,34,153,38,27,48,218,36,28,47,048,38,31,73,089,41*72
$GPGSV,5,4,18,32,10,022,23,36,52,277,38,40,84,353,42,41,58,082,39*78
$GPGSV,5,5,18,49,32,274,,50,10,089,*78
$GLGSV,3,1,10,70,09,358,,71,18,314,33,72,09,266,,73,35,133,35*64
$GLGSV,3,2,10,74,20,183,26,80,15,076,30,83,09,155,28,84,64,155,21*61
$GLGSV,3,3,10,85,59,331,39,86,03,334,26*63
$GNGLL,0419.72710,S,05539.92667,E,133110.00,A,D*67
$GNRMC,133111.00,A,0419.72711,S,05539.92667,E,0.018,,030625,,,D*75
$GNVTG,,T,,M,0.018,N,0.034,K,D*36
$GNGGA,133111.00,0419.72711,S,05539.92667,E,2,12,0.60,6.9,M,-47.6,M,,0000*76
$GNGSA,A,3,31,27,28,08,26,16,10,18,32,02,04,,1.18,0.60,1.02*18
$GNGSA,A,3,85,73,71,80,83,,,,,,,,1.18,0.60,1.02*1D
$GPGSV,5,1,18,01,03,330,19,02,29,335,40,04,22,253,23,08,35,267,37*7E
$GPGSV,5,2,18,10,15,053,35,16,27,187,38,18,10,139,32,23,01,092,*7C
$GPGSV,5,3,18,26,34,153,38,27,48,218,35,28,47,048,38,31,73,089,41*71
$GPGSV,5,4,18,32,10,022,22,36,52,277,38,40,84,353,42,41,58,082,39*79
$GPGSV,5,5,18,49,32,274,,50,10,089,*78
$GLGSV,3,1,10,70,09,358,,71,18,314,33,72,09,266,,73,35,133,35*64
$GLGSV,3,2,10,74,20,183,26,80,15,076,31,83,09,155,28,84,64,155,22*63
$GLGSV,3,3,10,85,59,331,39,86,03,334,26*63
$GNGLL,0419.72711,S,05539.92667,E,133111.00,A,D*67
$GNRMC,133112.00,A,0419.72711,S,05539.92667,E,0.014,,030625,,,D*7A
$GNVTG,,T,,M,0.014,N,0.025,K,D*3A
$GNGGA,133112.00,0419.72711,S,05539.92667,E,2,12,0.60,7.0,M,-47.6,M,,0000*7D
$GNGSA,A,3,31,27,28,08,26,16,10,18,32,02,04,,1.18,0.60,1.02*18
$GNGSA,A,3,85,73,71,80,83,,,,,,,,1.18,0.60,1.02*1D
$GPGSV,5,1,18,01,03,330,19,02,29,335,40,04,22,253,23,08,35,267,37*7E
$GPGSV,5,2,18,10,15,053,34,16,27,187,38,18,10,139,31,23,01,092,*7E
$GPGSV,5,3,18,26,34,153,38,27,48,218,36,28,47,048,38,31,73,089,41*72
$GPGSV,5,4,18,32,10,022,21,36,52,277,38,40,84,353,42,41,58,082,39*7A
$GPGSV,5,5,18,49,32,274,,50,10,089,*78
$GLGSV,3,1,10,70,09,358,,71,18,314,33,72,09,266,,73,35,133,35*64
$GLGSV,3,2,10,74,20,183,25,80,15,076,30,83,09,155,28,84,64,155,21*62
$GLGSV,3,3,10,85,59,331,39,86,03,334,25*60
$GNGLL,0419.72711,S,05539.92667,E,133112.00,A,D*64
$GNRMC,133113.00,A,0419.72711,S,05539.92668,E,0.009,,030625,,,D*78
$GNVTG,,T,,M,0.009,N,0.017,K,D*37
$GNGGA,133113.00,0419.72711,S,05539.92668,E,2,12,0.60,7.0,M,-47.6,M,,0000*73
$GNGSA,A,3,31,27,28,08,26,16,10,18,32,02,04,,1.18,0.60,1.02*18
$GNGSA,A,3,85,73,71,80,83,,,,,,,,1.18,0.60,1.02*1D
$GPGSV,5,1,18,01,03,330,19,02,29,335,40,04,22,253,24,08,35,267,37*79
$GPGSV,5,2,18,10,15,053,34,16,27,187,38,18,10,139,31,23,01,092,*7E
$GPGSV,5,3,18,26,34,153,38,27,48,218,36,28,47,048,38,31,73,089,41*72
$GPGSV,5,4,18,32,10,022,21,36,52,277,38,40,84,353,42,41,58,082,39*7A
$GPGSV,5,5,18,49,32,274,,50,10,089,*78
$GLGSV,3,1,10,70,09,358,,71,18,314,33,72,09,266,,73,35,133,35*64
$GLGSV,3,2,10,74,20,183,26,80,15,076,30,83,09,155,29,84,64,155,21*60
$GLGSV,3,3,10,85,59,331,39,86,03,334,24*61
$GNGLL,0419.72711,S,05539.92668,E,133113.00,A,D*6A
$GNRMC,133114.00,A,0419.72712,S,05539.92667,E,0.059,,030625,,,D*76
$GNVTG,,T,,M,0.059,N,0.110,K,D*34
$GNGGA,133114.00,0419.72712,S,05539.92667,E,2,12,0.60,6.9,M,-47.6,M,,0000*70
$GNGSA,A,3,31,27,28,08,26,16,10,18,32,02,04,,1.18,0.60,1.02*18
$GNGSA,A,3,85,73,71,80,83,,,,,,,,1.18,0.60,1.02*1D
$GPGSV,5,1,18,01,03,330,20,02,29,335,40,04,22,253,23,08,35,267,37*74
$GPGSV,5,2,18,10,15,053,34,16,27,187,38,18,10,139,31,23,01,092,*7E
$GPGSV,5,3,18,26,34,153,37,27,48,218,36,28,47,048,38,31,73,089,41*7D
$GPGSV,5,4,18,32,10,022,21,36,52,277,39,40,84,353,42,41,58,082,39*7B
$GPGSV,5,5,18,49,32,274,,50,10,089,*78
$GLGSV,3,1,10,70,09,358,,71,18,314,33,72,09,266,,73,35,133,35*64
$GLGSV,3,2,10,74,20,183,25,80,15,076,30,83,09,155,28,84,64,155,21*62
$GLGSV,3,3,10,85,59,331,39,86,03,334,24*61
$GNGLL,0419.72712,S,05539.92667,E,133114.00,A,D*61
$GNRMC,133115.00,A,0419.72713,S,05539.92667,E,0.016,,030625,,,D*7D
$GNVTG,,T,,M,0.016,N,0.030,K,D*3C
$GNGGA,133115.00,0419.72713,S,05539.92667,E,2,12,0.60,6.8,M,-47.6,M,,0000*71
$GNGSA,A,3,31,27,28,08,26,16,10,18,32,02,04,,1.18,0.60,1.02*18
$GNGSA,A,3,85,73,71,80,83,,,,,,,,1.18,0.60,1.02*1D
$GPGSV,5,1,18,01,03,330,19,02,29,335,40,04,22,253,26,08,35,267,37*7B
$GPGSV,5,2,18,10,15,053,27,16,27,187,39,18,10,139,32,23,01,092,*7E
$GPGSV,5,3,18,26,34,153,38,27,48,218,36,28,47,048,38,31,73,089,41*72
$GPGSV,5,4,18,32,10,022,24,36,52,277,39,40,84,353,42,41,58,082,39*7E
$GPGSV,5,5,18,49,32,274,,50,10,089,*78
$GLGSV,3,1,10,70,09,358,,71,18,314,34,72,09,266,,73,35,133,34*62
$GLGSV,3,2,10,74,20,183,26,80,15,076,30,83,09,155,27,84,64,155,21*6E
$GLGSV,3,3,10,85,59,331,39,86,03,334,22*67
$GNGLL,0419.72713,S,05539.92667,E,133115.00,A,D*61
$GNRMC,133116.00,A,0419.72714,S,05539.92667,E,0.033,,030625,,,D*7E
$GNVTG,,T,,M,0.033,N,0.061,K,D*3F
$GNGGA,133116.00,0419.72714,S,05539.92667,E,2,12,0.60,6.8,M,-47.6,M,,0000*75
$GNGSA,A,3,31,27,28,08,26,16,10,18,32,02,04,,1.18,0.60,1.02*18
$GNGSA,A,3,85,73,71,80,83,,,,,,,,1.18,0.60,1.02*1D
$GPGSV,5,1,18,01,03,330,16,02,29,335,40,04,22,253,28,08,35,267,36*7B
$GPGSV,5,2,18,10,15,053,30,16,27,187,39,18,10,139,31,23,01,092,*7B
$GPGSV,5,3,18,26,34,153,37,27,48,218,34,28,47,048,38,31,73,089,41*7F
$GPGSV,5,4,18,32,10,022,27,36,52,277,37,40,84,353,41,41,58,082,39*70
$GPGSV,5,5,18,49,32,274,,50,10,089,*78
$GLGSV,3,1,10,70,09,358,,71,18,314,34,72,09,266,,73,35,133,34*62
$GLGSV,3,2,10,74,20,183,25,80,15,076,31,83,09,155,27,84,64,155,22*6F
$GLGSV,3,3,10,85,59,331,39,86,03,334,21*64
$GNGLL,0419.72714,S,05539.92667,E,133116.00,A,D*65
$GNRMC,133117.00,A,0419.72714,S,05539.92667,E,0.018,,030625,,,D*76
$GNVTG,,T,,M,0.018,N,0.033,K,D*31
$GNGGA,133117.00,0419.72714,S,05539.92667,E,2,12,0.60,6.9,M,-47.6,M,,0000*75
$GNGSA,A,3,31,27,28,08,26,16,10,18,32,02,04,,1.18,0.60,1.02*18
$GNGSA,A,3,85,73,71,80,83,,,,,,,,1.18,0.60,1.02*1D
$GPGSV,5,1,18,01,03,330,,02,29,335,40,04,22,253,29,08,35,267,37*7C
$GPGSV,5,2,18,10,15,053,30,16,27,187,38,18,10,139,31,23,01,092,*7A
$GPGSV,5,3,18,26,34,153,37,27,48,218,33,28,47,048,38,31,73,089,42*7B
$GPGSV,5,4,18,32,10,022,29,36,52,277,37,40,84,353,41,41,58,082,39*7E
$GPGSV,5,5,18,49,32,274,,50,10,089,*78
$GLGSV,3,1,10,70,09,358,,71,18,314,33,72,09,266,,73,35,133,34*65
$GLGSV,3,2,10,74,20,183,26,80,15,076,30,83,09,155,26,84,64,155,22*6C
$GLGSV,3,3,10,85,59,331,40,86,03,334,19*61
$GNGLL,0419.72714,S,05539.92667,E,133117.00,A,D*64
$GNRMC,133118.00,A,0419.72714,S,05539.92668,E,0.023,,030625,,,D*7E
$GNVTG,,T,,M,0.023,N,0.043,K,D*3E
$GNGGA,133118.00,0419.72714,S,05539.92668,E,2,12,0.60,6.9,M,-47.6,M,,0000*75
$GNGSA,A,3,31,27,28,08,26,16,10,18,32,02,04,,1.18,0.60,1.02*18
$GNGSA,A,3,85,73,71,80,83,,,,,,,,1.18,0.60,1.02*1D
$GPGSV,5,1,18,01,03,330,,02,29,335,40,04,22,253,29,08,35,267,37*7C
$GPGSV,5,2,18,10,15,053,32,16,27,187,39,18,10,139,33,23,01,092,*7B
$GPGSV,5,3,18,26,34,153,40,27,48,218,34,28,47,048,38,31,73,089,40*7E
$GPGSV,5,4,18,32,10,022,30,36,52,277,37,40,84,353,42,41,58,082,39*75
$GPGSV,5,5,18,49,32,274,,50,10,089,*78
$GLGSV,3,1,10,70,09,358,,71,18,314,34,72,09,266,,73,35,133,34*62
$GLGSV,3,2,10,74,20,183,25,80,15,076,30,83,09,155,27,84,64,155,21*6D
$GLGSV,3,3,10,85,59,331,39,86,03,334,20*65
$GNGLL,0419.72714,S,05539.92668,E,133118.00,A,D*64
$GNRMC,133119.00,A,0419.72715,S,05539.92669,E,0.006,,030625,,,D*78
$GNVTG,,T,,M,0.006,N,0.011,K,D*3E
$GNGGA,133119.00,0419.72715,S,05539.92669,E,2,12,0.60,6.8,M,-47.6,M,,0000*75
$GNGSA,A,3,31,27,28,08,26,16,10,18,32,02,04,,1.18,0.60,1.02*18
$GNGSA,A,3,85,73,71,80,83,,,,,,,,1.18,0.60,1.02*1D
$GPGSV,5,1,18,01,03,330,21,02,29,335,42,04,22,253,29,08,35,267,38*72
$GPGSV,5,2,18,10,15,053,34,16,27,187,40,18,10,139,33,23,01,092,22*73
$GPGSV,5,3,18,26,34,153,39,27,48,218,35,28,47,048,38,31,73,089,41*70
$GPGSV,5,4,18,32,10,022,31,36,52,277,38,40,84,353,43,41,58,082,41*75
$GPGSV,5,5,18,49,32,274,,50,10,089,*78
$GLGSV,3,1,10,70,09,358,,71,18,314,32,72,09,266,,73,35,133,33*63
$GLGSV,3,2,10,74,20,183,25,80,15,076,30,83,09,155,28,84,64,155,21*62
$GLGSV,3,3,10,85,59,331,39,86,03,334,21*64
$GNGLL,0419.72715,S,05539.92669,E,133119.00,A,D*65
$GNRMC,133120.00,A,0419.72712,S,05539.92672,E,0.085,,030625,,,A*71
$GNVTG,,T,,M,0.085,N,0.158,K,A*3C
$GNGGA,133120.00,0419.72712,S,05539.92672,E,1,12,0.60,6.9,M,-47.6,M,,*70
$GNGSA,A,3,31,27,28,08,26,16,10,18,32,02,04,,1.18,0.60,1.02*18
$GNGSA,A,3,85,73,71,80,83,,,,,,,,1.18,0.60,1.02*1D
$GPGSV,5,1,18,01,03,330,20,02,29,335,42,04,22,253,28,08,35,267,38*72
$GPGSV,5,2,18,10,15,053,33,16,27,187,40,18,10,139,33,23,01,092,*74
$GPGSV,5,3,18,26,34,153,39,27,48,218,35,28,47,048,38,31,73,089,41*70
$GPGSV,5,4,18,32,10,022,30,36,52,277,38,40,84,353,43,41,58,082,41*74
$GPGSV,5,5,18,49,32,274,,50,10,089,*78
$GLGSV,3,1,10,70,09,358,,71,18,314,32,72,09,266,,73,35,133,33*63
$GLGSV,3,2,10,74,20,183,25,80,15,076,29,83,09,155,29,84,64,155,20*6A
$GLGSV,3,3,10,85,59,331,40,86,03,334,20*6B
$GNGLL,0419.72712,S,05539.92672,E,133120.00,A,A*67
$GNRMC,133121.00,A,0419.72711,S,05539.92674,E,0.024,,030625,,,A*7E
$GNVTG,,T,,M,0.024,N,0.044,K,A*3B
$GNGGA,133121.00,0419.72711,S,05539.92674,E,1,12,0.60,7.0,M,-47.6,M,,*7C
$GNGSA,A,3,31,27,28,08,26,16,10,18,32,02,04,,1.18,0.60,1.02*18
$GNGSA,A,3,85,73,71,80,83,,,,,,,,1.18,0.60,1.02*1D
$GPGSV,5,1,18,01,03,330,19,02,29,335,41,04,22,253,28,08,35,267,38*7B
$GPGSV,5,2,18,10,15,053,33,16,27,187,40,18,10,139,33,23,01,092,*74
$GPGSV,5,3,18,26,34,153,39,27,48,218,35,28,47,048,39,31,73,089,41*71
$GPGSV,5,4,18,32,10,022,30,36,52,277,38,40,84,353,43,41,58,082,41*74
$GPGSV,5,5,18,49,32,274,,50,10,089,*78
$GLGSV,3,1,10,70,09,359,,71,18,314,32,72,09,266,,73,35,133,33*62
$GLGSV,3,2,10,74,20,183,25,80,15,076,29,83,09,155,30,84,64,155,20*62
$GLGSV,3,3,10,85,59,331,41,86,03,334,19*60
$GNGLL,0419.72711,S,05539.92674,E,133121.00,A,A*63
$GNRMC,133122.00,A,0419.72710,S,05539.92677,E,0.027,,030625,,,A*7C
$GNVTG,,T,,M,0.027,N,0.050,K,A*3D
$GNGGA,133122.00,0419.72710,S,05539.92677,E,1,12,0.60,7.0,M,-47.6,M,,*7D
$GNGSA,A,3,31,27,28,08,26,16,10,18,32,02,04,,1.18,0.60,1.02*18
$GNGSA,A,3,85,73,71,80,83,,,,,,,,1.18,0.60,1.02*1D
$GPGSV,5,1,18,01,03,330,18,02,29,335,41,04,22,253,28,08,35,267,38*7A
$GPGSV,5,2,18,10,15,053,32,16,27,187,40,18,10,139,34,23,01,092,*72
$GPGSV,5,3,18,26,34,153,40,27,48,218,35,28,47,048,39,31,73,089,42*7C
$GPGSV,5,4,18,32,10,022,30,36,52,277,38,40,84,353,43,41,58,082,41*74
$GPGSV,5,5,18,49,32,274,,50,10,089,*78
$GLGSV,3,1,10,70,09,359,,71,18,314,32,72,09,266,,73,35,133,32*63
$GLGSV,3,2,10,74,20,183,24,80,15,076,29,83,09,155,29,84,64,155,20*6B
$GLGSV,3,3,10,85,59,331,41,86,03,334,19*60
$GNGLL,0419.72710,S,05539.92677,E,133122.00,A,A*62
$GNRMC,133123.00,A,0419.72709,S,05539.92680,E,0.041,,030625,,,A*7D
$GNVTG,,T,,M,0.041,N,0.076,K,A*39
$GNGGA,133123.00,0419.72709,S,05539.92680,E,1,12,0.60,7.0,M,-47.6,M,,*7C
$GNGSA,A,3,31,27,28,08,26,16,10,18,32,02,04,,1.18,0.60,1.02*18
$GNGSA,A,3,85,73,71,80,83,,,,,,,,1.18,0.60,1.02*1D
$GPGSV,5,1,18,01,03,330,19,02,29,335,40,04,22,253,28,08,35,267,38*7A
$GPGSV,5,2,18,10,15,053,32,16,27,187,40,18,10,139,34,23,01,092,*72
$GPGSV,5,3,18,26,34,153,40,27,48,218,35,28,47,048,40,31,73,089,42*72
$GPGSV,5,4,18,32,10,022,29,36,52,277,38,40,84,353,43,41,58,082,40*7D
$GPGSV,5,5,18,49,32,274,,50,10,089,*78
$GLGSV,3,1,10,70,09,359,,71,18,314,32,72,09,266,,73,35,133,32*63
$GLGSV,3,2,10,74,20,183,25,80,15,076,30,83,09,155,29,84,64,155,19*68
$GLGSV,3,3,10,85,59,331,41,86,03,334,19*60
$GNGLL,0419.72709,S,05539.92680,E,133123.00,A,A*63
$GNRMC,133124.00,A,0419.72708,S,05539.92684,E,0.019,,030625,,,A*72
$GNVTG,,T,,M,0.019,N,0.036,K,A*30
$GNGGA,133124.00,0419.72708,S,05539.92684,E,1,12,0.60,7.0,M,-47.6,M,,*7E
$GNGSA,A,3,31,27,28,08,26,16,10,18,32,02,04,,1.18,0.60,1.02*18
$GNGSA,A,3,85,73,71,80,83,,,,,,,,1.18,0.60,1.02*1D
$GPGSV,5,1,18,01,03,330,19,02,29,335,40,04,22,253,29,08,35,267,38*7B
$GPGSV,5,2,18,10,15,053,32,16,27,187,40,18,10,139,34,23,01,092,*72
$GPGSV,5,3,18,26,34,153,40,27,48,218,35,28,47,048,40,31,73,089,41*71
$GPGSV,5,4,18,32,10,022,29,36,52,277,38,40,84,353,43,41,58,082,40*7D
$GPGSV,5,5,18,49,32,274,,50,10,089,*78
$GLGSV,3,1,10,70,09,359,,71,18,314,32,72,09,266,,73,36,132,32*61
$GLGSV,3,2,10,74,20,183,25,80,15,076,31,83,09,155,29,84,64,155,17*67
$GLGSV,3,3,10,85,59,331,41,86,03,334,21*6B
$GNGLL,0419.72708,S,05539.92684,E,133124.00,A,A*61
$GNRMC,133125.00,A,0419.72708,S,05539.92686,E,0.026,,030625,,,A*7D
$GNVTG,,T,,M,0.026,N,0.048,K,A*35
$GNGGA,133125.00,0419.72708,S,05539.92686,E,1,12,0.60,7.0,M,-47.6,M,,*7D
$GNGSA,A,3,31,27,28,08,26,16,10,18,32,02,04,,1.18,0.60,1.02*18
$GNGSA,A,3,85,73,71,80,83,,,,,,,,1.18,0.60,1.02*1D
$GPGSV,5,1,18,01,03,330,18,02,29,335,40,04,22,253,29,08,35,267,38*7A
$GPGSV,5,2,18,10,15,053,31,16,27,187,40,18,10,139,35,23,01,092,*70
$GPGSV,5,3,18,26,34,153,40,27,48,218,35,28,47,048,40,31,73,089,41*71
$GPGSV,5,4,18,32,10,022,29,36,52,277,38,40,84,353,43,41,58,082,40*7D
$GPGSV,5,5,18,49,32,274,,50,10,089,*78
$GLGSV,3,1,10,70,09,359,,71,18,314,31,72,09,266,,73,36,132,32*62
$GLGSV,3,2,10,74,20,182,24,80,15,076,32,83,09,155,29,84,64,155,18*6B
$GLGSV,3,3,10,85,59,331,39,86,03,334,21*64
$GNGLL,0419.72708,S,05539.92686,E,133125.00,A,A*62
$GNRMC,133126.00,A,0419.72707,S,05539.92689,E,0.038,,030625,,,A*71
$GNVTG,,T,,M,0.038,N,0.071,K,A*30
$GNGGA,133126.00,0419.72707,S,05539.92689,E,1,12,0.60,7.1,M,-47.6,M,,*7F
$GNGSA,A,3,31,27,28,08,26,16,10,18,32,02,04,,1.18,0.60,1.02*18
$GNGSA,A,3,85,73,71,80,83,,,,,,,,1.18,0.60,1.02*1D
$GPGSV,5,1,18,01,03,330,15,02,29,335,40,04,22,253,28,08,35,267,38*76
$GPGSV,5,2,18,10,15,053,32,16,27,187,40,18,10,139,34,23,01,092,*72
$GPGSV,5,3,18,26,34,153,40,27,48,218,35,28,47,048,40,31,73,089,42*72
$GPGSV,5,4,18,32,10,022,29,36,52,277,38,40,84,353,44,41,58,082,40*7A
$GPGSV,5,5,18,49,32,274,,50,10,089,*78
$GLGSV,3,1,10,70,09,359,,71,18,314,31,72,09,266,,73,36,132,31*61
$GLGSV,3,2,10,74,20,182,23,80,15,076,31,83,09,155,28,84,64,155,18*6E
$GLGSV,3,3,10,85,59,331,39,86,03,334,20*65
$GNGLL,0419.72707,S,05539.92689,E,133126.00,A,A*61
$GNRMC,133127.00,A,0419.72707,S,05539.92691,E,0.013,,030625,,,A*70
$GNVTG,,T,,M,0.013,N,0.023,K,A*3E
$GNGGA,133127.00,0419.72707,S,05539.92691,E,1,12,0.60,7.1,M,-47.6,M,,*77
$GNGSA,A,3,31,27,28,08,26,16,10,18,32,02,04,,1.18,0.60,1.02*18
$GNGSA,A,3,85,73,71,80,83,,,,,,,,1.18,0.60,1.02*1D
$GPGSV,5,1,18,01,03,330,15,02,29,335,40,04,22,253,28,08,35,267,38*76
$GPGSV,5,2,18,10,15,053,32,16,27,187,40,18,10,139,34,23,01,092,*72
$GPGSV,5,3,18,26,34,153,40,27,48,218,35,28,47,048,40,31,73,089,41*71
$GPGSV,5,4,18,32,10,022,29,36,52,277,38,40,84,353,44,41,58,082,40*7A
$GPGSV,5,5,18,49,32,274,,50,10,089,*78
$GLGSV,3,1,10,70,09,359,,71,18,314,31,72,09,266,,73,36,132,31*61
$GLGSV,3,2,10,74,20,182,23,80,15,076,31,83,09,155,28,84,64,155,17*61
$GLGSV,3,3,10,85,59,331,39,86,03,334,20*65
$GNGLL,0419.72707,S,05539.92691,E,133127.00,A,A*69
$GNRMC,133128.00,A,0419.72707,S,05539.92692,E,0.015,,030625,,,A*7A
$GNVTG,,T,,M,0.015,N,0.028,K,A*33
$GNGGA,133128.00,0419.72707,S,05539.92692,E,1,12,0.60,7.2,M,-47.6,M,,*78
$GNGSA,A,3,31,27,28,08,26,16,10,18,32,02,04,,1.18,0.60,1.02*18
$GNGSA,A,3,85,73,71,80,83,,,,,,,,1.18,0.60,1.02*1D
$GPGSV,5,1,18,01,03,330,12,02,29,335,40,04,22,253,27,08,35,267,38*7E
$GPGSV,5,2,18,10,15,053,32,16,27,187,40,18,10,139,34,23,01,092,*72
$GPGSV,5,3,18,26,34,153,40,27,48,218,35,28,47,048,40,31,73,089,42*72
$GPGSV,5,4,18,32,10,022,29,36,52,277,39,40,84,353,44,41,58,082,40*7B
$GPGSV,5,5,18,49,32,274,,50,10,089,*78
$GLGSV,3,1,10,70,09,359,,71,18,314,31,72,09,266,,73,36,132,30*60
$GLGSV,3,2,10,74,20,182,22,80,15,076,31,83,09,155,28,84,64,155,17*60
$GLGSV,3,3,10,85,59,331,39,86,03,334,20*65
$GNGLL,0419.72707,S,05539.92692,E,133128.00,A,A*65
$GNRMC,133129.00,A,0419.72708,S,05539.92693,E,0.037,,030625,,,A*75
$GNVTG,,T,,M,0.037,N,0.068,K,A*37
$GNGGA,133129.00,0419.72708,S,05539.92693,E,1,12,0.60,7.3,M,-47.6,M,,*76
$GNGSA,A,3,31,27,28,08,26,16,10,18,32,02,04,,1.18,0.60,1.02*18
$GNGSA,A,3,85,73,71,80,83,,,,,,,,1.18,0.60,1.02*1D
$GPGSV,5,1,18,01,03,330,11,02,29,335,40,04,22,253,27,08,35,267,38*7D
$GPGSV,5,2,18,10,15,053,32,16,27,187,40,18,10,139,33,23,01,092,*75
$GPGSV,5,3,18,26,34,153,40,27,48,218,35,28,47,048,39,31,73,089,42*7C
$GPGSV,5,4,18,32,10,022,28,36,52,277,38,40,84,353,44,41,58,082,40*7B
$GPGSV,5,5,18,49,32,274,,50,10,089,*78
$GLGSV,3,1,10,70,09,359,,71,18,314,31,72,09,266,,73,36,132,30*60
$GLGSV,3,2,10,74,20,182,23,80,15,076,30,83,09,155,28,84,64,155,16*61
$GLGSV,3,3,10,85,59,331,40,86,03,334,21*6A
$GNGLL,0419.72708,S,05539.92693,E,133129.00,A,A*6A
$GNRMC,133130.00,A,0419.72709,S,05539.92693,E,0.065,,030625,,,A*7B
$GNVTG,,T,,M,0.065,N,0.121,K,A*3C
$GNGGA,133130.00,0419.72709,S,05539.92693,E,1,12,0.60,7.3,M,-47.6,M,,*7F
$GNGSA,A,3,31,27,28,08,26,16,10,18,32,02,04,,1.18,0.60,1.02*18
$GNGSA,A,3,85,73,71,80,83,,,,,,,,1.18,0.60,1.02*1D
$GPGSV,5,1,18,01,03,330,15,02,29,335,40,04,22,253,27,08,35,267,38*79
$GPGSV,5,2,18,10,15,053,32,16,27,187,40,18,10,139,34,23,01,092,*72
$GPGSV,5,3,18,26,34,153,40,27,48,218,36,28,47,048,40,31,73,089,42*71
$GPGSV,5,4,18,32,10,022,29,36,52,277,38,40,84,353,43,41,58,082,40*7D
$GPGSV,5,5,18,49,32,274,,50,10,089,*78
$GLGSV,3,1,10,70,09,359,,71,18,314,31,72,09,266,,73,36,132,30*60
$GLGSV,3,2,10,74,20,182,23,80,15,076,30,83,09,155,28,84,64,155,15*62
$GLGSV,3,3,10,85,59,331,40,86,03,334,22*69
$GNGLL,0419.72709,S,05539.92693,E,133130.00,A,A*63
$GNRMC,133131.00,A,0419.72709,S,05539.92694,E,0.014,,030625,,,A*7B
$GNVTG,,T,,M,0.014,N,0.027,K,A*3D
$GNGGA,133131.00,0419.72709,S,05539.92694,E,1,12,0.60,7.4,M,-47.6,M,,*7E
$GNGSA,A,3,31,27,28,08,26,16,10,18,32,02,04,,1.18,0.60,1.02*18
$GNGSA,A,3,85,73,71,80,83,,,,,,,,1.18,0.60,1.02*1D
$GPGSV,5,1,18,01,03,330,17,02,29,335,39,04,22,253,28,08,35,267,38*7A
$GPGSV,5,2,18,10,15,053,32,16,27,187,40,18,10,139,34,23,01,092,*72
$GPGSV,5,3,18,26,34,153,40,27,48,218,36,28,47,048,40,31,73,089,42*71
$GPGSV,5,4,18,32,10,022,30,36,52,277,39,40,84,353,43,41,58,082,40*74
$GPGSV,5,5,18,49,32,274,,50,10,089,*78
$GLGSV,3,1,10,70,09,359,,71,18,314,32,72,09,266,,73,36,132,30*63
$GLGSV,3,2,10,74,20,182,24,80,15,076,31,83,09,155,28,84,64,155,17*66
$GLGSV,3,3,10,85,59,331,39,86,03,334,22*67
$GNGLL,0419.72709,S,05539.92694,E,133131.00,A,A*65
$GNRMC,133132.00,A,0419.72709,S,05539.92696,E,0.017,,030625,,,A*79
$GNVTG,,T,,M,0.017,N,0.032,K,A*3A
$GNGGA,133132.00,0419.72709,S,05539.92696,E,1,12,0.60,7.5,M,-47.6,M,,*7E
$GNGSA,A,3,31,27,28,08,26,16,10,18,32,02,04,,1.18,0.60,1.02*18
$GNGSA,A,3,85,73,71,80,83,,,,,,,,1.18,0.60,1.02*1D
$GPGSV,5,1,18,01,03,330,18,02,29,335,39,04,22,253,28,08,35,267,38*75
$GPGSV,5,2,18,10,15,053,32,16,27,187,40,18,10,139,33,23,01,092,*75
$GPGSV,5,3,18,26,34,153,40,27,48,218,35,28,47,048,40,31,73,089,42*72
$GPGSV,5,4,18,32,10,022,30,36,52,277,38,40,84,353,43,41,58,082,40*75
$GPGSV,5,5,18,49,32,274,,50,10,089,*78
$GLGSV,3,1,10,70,09,359,,71,18,314,32,72,09,266,,73,36,132,30*63
$GLGSV,3,2,10,74,20,182,24,80,15,076,31,83,09,155,28,84,64,155,17*66
$GLGSV,3,3,10,85,59,331,39,86,03,334,22*67
$GNGLL,0419.72709,S,05539.92696,E,133132.00,A,A*64
$GNRMC,133133.00,A,0419.72710,S,05539.92697,E,0.051,,030625,,,A*73
$GNVTG,,T,,M,0.051,N,0.095,K,A*35
$GNGGA,133133.00,0419.72710,S,05539.92697,E,1,12,0.60,7.5,M,-47.6,M,,*76
$GNGSA,A,3,31,27,28,08,26,16,10,18,32,02,04,,1.18,0.60,1.02*18
$GNGSA,A,3,85,73,71,80,83,,,,,,,,1.18,0.60,1.02*1D
$GPGSV,5,1,18,01,03,330,18,02,29,335,40,04,22,253,28,08,35,267,38*7B
$GPGSV,5,2,18,10,15,053,32,16,27,187,40,18,10,139,33,23,01,092,*75
$GPGSV,5,3,18,26,34,153,40,27,48,218,35,28,47,048,39,31,73,089,42*7C
$GPGSV,5,4,18,32,10,022,30,36,52,277,38,40,84,353,43,41,58,082,41*74
$GPGSV,5,5,18,49,32,274,,50,10,089,*78
$GLGSV,3,1,10,70,09,359,,71,18,314,32,72,09,266,,73,36,132,30*63
$GLGSV,3,2,10,74,20,182,24,80,15,076,31,83,09,155,28,84,64,155,18*69
$GLGSV,3,3,10,85,59,331,39,86,03,334,22*67
$GNGLL,0419.72710,S,05539.92697,E,133133.00,A,A*6C
$GNRMC,133134.00,A,0419.72710,S,05539.92700,E,0.005,,030625,,,A*7A
$GNVTG,,T,,M,0.005,N,0.009,K,A*31
$GNGGA,133134.00,0419.72710,S,05539.92700,E,1,12,0.60,7.6,M,-47.6,M,,*7D
$GNGSA,A,3,31,27,28,08,26,16,10,18,32,02,04,,1.18,0.60,1.02*18
$GNGSA,A,3,85,73,71,80,83,,,,,,,,1.18,0.60,1.02*1D
$GPGSV,5,1,18,01,03,330,15,02,29,335,40,04,22,253,28,08,35,267,38*76
$GPGSV,5,2,18,10,15,053,32,16,27,187,40,18,10,139,33,23,01,092,24*73
$GPGSV,5,3,18,26,34,153,40,27,48,218,36,28,47,048,40,31,73,089,42*71
$GPGSV,5,4,18,32,10,022,29,36,52,277,38,40,84,353,44,41,58,082,41*7B
$GPGSV,5,5,18,49,32,274,,50,10,089,*78
$GLGSV,3,1,10,70,09,359,,71,18,314,33,72,09,266,,73,36,132,30*62
$GLGSV,3,2,10,74,20,182,23,80,15,076,31,83,08,155,28,84,64,155,18*6F
$GLGSV,3,3,10,85,59,331,39,86,03,334,22*67
$GNGLL,0419.72710,S,05539.92700,E,133134.00,A,A*64
$GNRMC,133135.00,A,0419.72711,S,05539.92701,E,0.013,,030625,,,A*7C
$GNVTG,,T,,M,0.013,N,0.025,K,A*38
$GNGGA,133135.00,0419.72711,S,05539.92701,E,1,12,0.60,7.6,M,-47.6,M,,*7C
$GNGSA,A,3,31,27,28,08,26,16,10,18,32,02,04,,1.18,0.60,1.02*18
$GNGSA,A,3,85,73,71,80,83,,,,,,,,1.18,0.60,1.02*1D
$GPGSV,5,1,18,01,03,330,,02,29,335,40,04,22,253,28,08,35,267,38*72
$GPGSV,5,2,18,10,15,053,32,16,27,187,40,18,10,139,33,23,01,092,*75
$GPGSV,5,3,18,26,34,153,40,27,48,218,35,28,47,048,40,31,73,089,42*72
$GPGSV,5,4,18,32,10,022,29,36,52,277,38,40,84,353,43,41,58,082,41*7C
$GPGSV,5,5,18,49,32,274,,50,10,089,*78
$GLGSV,3,1,10,70,09,359,,71,18,314,32,72,09,266,,73,36,132,30*63
$GLGSV,3,2,10,74,20,182,24,80,15,076,31,83,08,155,28,84,63,156,18*6C
$GLGSV,3,3,10,85,59,331,40,86,03,334,22*69
$GNGLL,0419.72711,S,05539.92701,E,133135.00,A,A*65
$GNRMC,133136.00,A,0419.72711,S,05539.92702,E,0.014,,030625,,,A*7B
$GNVTG,,T,,M,0.014,N,0.025,K,A*3F
$GNGGA,133136.00,0419.72711,S,05539.92702,E,1,12,0.60,7.7,M,-47.6,M,,*7D
$GNGSA,A,3,31,27,28,08,26,16,10,18,32,02,04,,1.18,0.60,1.02*18
$GNGSA,A,3,85,73,71,80,83,,,,,,,,1.18,0.60,1.02*1D
$GPGSV,5,1,18,01,03,330,,02,29,335,40,04,22,253,29,08,35,267,38*73
$GPGSV,5,2,18,10,15,053,33,16,27,187,40,18,10,139,33,23,01,092,*74
$GPGSV,5,3,18,26,34,153,40,27,48,218,35,28,47,048,39,31,73,089,42*7C
$GPGSV,5,4,18,32,10,022,29,36,52,277,39,40,84,353,43,41,58,082,41*7D
$GPGSV,5,5,18,49,32,274,,50,10,089,*78
$GLGSV,3,1,10,70,09,359,,71,18,314,34,72,09,266,,73,36,132,31*64
$GLGSV,3,2,10,74,20,182,25,80,15,076,31,83,08,155,28,84,63,156,18*6D
$GLGSV,3,3,10,85,60,330,39,86,03,334,23*6D
$GNGLL,0419.72711,S,05539.92702,E,133136.00,A,A*65
$GNRMC,133137.00,A,0419.72711,S,05539.92705,E,0.056,,030625,,,A*7B
$GNVTG,,T,,M,0.056,N,0.104,K,A*3B
$GNGGA,133137.00,0419.72711,S,05539.92705,E,1,12,0.60,7.7,M,-47.6,M,,*7B
$GNGSA,A,3,31,27,28,08,26,16,10,18,32,02,04,,1.18,0.60,1.02*18
$GNGSA,A,3,85,73,71,80,83,,,,,,,,1.18,0.60,1.02*1D
$GPGSV,5,1,18,01,03,330,,02,29,335,41,04,22,253,29,08,35,267,38*72
$GPGSV,5,2,18,10,15,053,34,16,27,187,40,18,10,139,31,23,01,092,*71
$GPGSV,5,3,18,26,34,153,38,27,48,218,35,28,47,048,39,31,73,089,42*73
$GPGSV,5,4,18,32,10,022,26,36,52,277,39,40,84,353,43,41,58,082,41*72
$GPGSV,5,5,18,49,32,274,,50,10,089,*78
$GLGSV,3,1,10,70,09,359,,71,18,314,34,72,09,266,,73,36,132,32*67
$GLGSV,3,2,10,74,20,182,25,80,15,076,31,83,08,155,28,84,63,156,19*6C
$GLGSV,3,3,10,85,60,330,39,86,04,334,22*6B
$GNGLL,0419.72711,S,05539.92705,E,133137.00,A,A*63
$GNRMC,133138.00,A,0419.72710,S,05539.92706,E,0.027,,030625,,,A*70
$GNVTG,,T,,M,0.027,N,0.050,K,A*3D
$GNGGA,133138.00,0419.72710,S,05539.92706,E,1,12,0.60,7.6,M,-47.6,M,,*77
$GNGSA,A,3,31,27,28,08,26,16,10,18,32,02,04,,1.18,0.60,1.02*18
$GNGSA,A,3,85,73,71,80,83,,,,,,,,1.18,0.60,1.02*1D
$GPGSV,5,1,18,01,03,330,,02,29,335,40,04,22,253,28,08,35,267,36*7C
$GPGSV,5,2,18,10,15,053,34,16,27,187,39,18,10,139,32,23,01,092,*7C
$GPGSV,5,3,18,26,34,153,38,27,48,218,35,28,47,048,40,31,73,089,40*7F
$GPGSV,5,4,18,32,10,022,28,36,52,277,38,40,84,353,41,41,58,082,38*71
$GPGSV,5,5,18,49,32,274,,50,10,089,*78
$GLGSV,3,1,10,70,09,359,,71,18,314,27,72,09,266,,73,36,132,32*65
$GLGSV,3,2,10,74,20,182,25,80,15,076,31,83,08,155,27,84,63,156,19*63
$GLGSV,3,3,10,85,60,330,37,86,04,334,21*66
$GNGLL,0419.72710,S,05539.92706,E,133138.00,A,A*6E
