$GNRMC,054645.00,A,0419.85150,S,05539.74468,E,0.721,,270525,,,A*70
$GNVTG,,T,,M,0.721,N,1.336,K,A*3E
$GNGGA,054645.00,0419.85150,S,05539.74468,E,1,12,0.84,33.4,M,-47.6,M,,*4C
$GNGSA,A,3,05,24,12,20,18,15,13,25,,,,,1.41,0.84,1.14*1A
$GNGSA,A,3,79,78,83,82,67,80,68,,,,,,1.41,0.84,1.14*17
$GPGSV,4,1,16,05,57,058,32,12,61,028,27,13,15,127,13,15,34,160,24*79
$GPGSV,4,2,16,18,34,266,21,20,24,038,25,22,00,138,09,23,26,206,10*7C
$GPGSV,4,3,16,24,44,195,30,25,37,343,18,29,10,329,,36,52,277,*7D
$GPGSV,4,4,16,40,86,351,,41,58,082,33,49,32,274,,50,10,089,*79
$GLGSV,3,1,09,67,18,088,13,68,29,139,24,69,14,189,,78,18,154,09*69
$GLGSV,3,2,09,79,71,152,37,80,49,335,22,82,08,002,11,83,23,313,16*6B
$GLGSV,3,3,09,84,13,259,*5C
$GNGLL,0419.85150,S,05539.74468,E,054645.00,A,A*6A
$GNRMC,054646.00,A,0419.85133,S,05539.74438,E,1.254,213.79,270525,,,A*65
$GNVTG,213.79,T,,M,1.254,N,2.321,K,A*2D
$GNGGA,054646.00,0419.85133,S,05539.74438,E,1,12,0.72,33.7,M,-47.6,M,,*45
$GNGSA,A,3,05,24,12,20,18,15,13,25,,,,,1.33,0.72,1.12*10
$GNGSA,A,3,79,78,83,82,67,80,68,,,,,,1.33,0.72,1.12*1D
$GPGSV,4,1,16,05,57,058,36,12,61,028,25,13,15,127,08,15,34,160,22*73
$GPGSV,4,2,16,18,34,266,18,20,24,038,24,22,00,138,09,23,26,206,09*7F
$GPGSV,4,3,16,24,44,195,34,25,37,343,17,29,10,329,,36,52,277,*76
$GPGSV,4,4,16,40,86,351,,41,58,082,36,49,32,274,,50,10,089,*7C
$GLGSV,3,1,09,67,18,088,13,68,29,139,22,69,14,189,,78,18,154,08*6E
$GLGSV,3,2,09,79,71,152,37,80,49,335,22,82,08,002,13,83,23,313,16*69
$GLGSV,3,3,09,84,13,259,*5C
$GNGLL,0419.85133,S,05539.74438,E,054646.00,A,A*69
$GNRMC,054647.00,A,0419.85127,S,05539.74420,E,0.476,,270525,,,A*7F
$GNVTG,,T,,M,0.476,N,0.881,K,A*39
$GNGGA,054647.00,0419.85127,S,05539.74420,E,1,12,0.77,33.9,M,-47.6,M,,*43
$GNGSA,A,3,05,24,12,20,18,15,13,,,,,,1.51,0.77,1.29*1E
$GNGSA,A,3,79,78,83,82,67,80,68,,,,,,1.51,0.77,1.29*14
$GPGSV,4,1,16,05,57,058,41,12,61,028,31,13,15,127,20,15,34,160,30*7F
$GPGSV,4,2,16,18,34,266,19,20,24,038,31,22,00,138,08,23,26,206,09*7B
$GPGSV,4,3,16,24,44,195,34,25,37,343,,29,10,329,,36,52,277,*70
$GPGSV,4,4,16,40,86,351,,41,58,082,40,49,32,274,,50,10,089,*7D
$GLGSV,3,1,09,67,18,088,14,68,29,139,25,69,14,189,,78,17,154,08*61
$GLGSV,3,2,09,79,71,152,41,80,49,335,24,82,08,002,18,83,23,313,19*6A
$GLGSV,3,3,09,84,13,259,*5C
$GNGLL,0419.85127,S,05539.74420,E,054647.00,A,A*64
$GNRMC,054648.00,A,0419.85140,S,05539.74431,E,0.436,,270525,,,A*75
$GNVTG,,T,,M,0.436,N,0.808,K,A*3C
$GNGGA,054648.00,0419.85140,S,05539.74431,E,1,12,0.73,33.8,M,-47.6,M,,*48
$GNGSA,A,3,05,24,12,20,18,15,13,23,,,,,1.34,0.73,1.13*11
$GNGSA,A,3,79,78,83,82,67,80,68,,,,,,1.34,0.73,1.13*1A
$GPGSV,4,1,16,05,57,058,42,12,61,028,35,13,15,127,13,15,34,160,30*78
$GPGSV,4,2,16,18,34,266,21,20,24,038,30,22,00,138,08,23,26,206,10*79
$GPGSV,4,3,16,24,44,195,34,25,37,343,,29,10,329,,36,52,277,*70
$GPGSV,4,4,16,40,86,351,,41,58,082,40,49,32,274,,50,10,089,*7D
$GLGSV,3,1,09,67,18,088,17,68,29,139,26,69,14,189,,78,17,154,15*6D
$GLGSV,3,2,09,79,71,153,41,80,49,335,24,82,08,002,13,83,23,313,21*6B
$GLGSV,3,3,09,84,13,259,*5C
$GNGLL,0419.85140,S,05539.74431,E,054648.00,A,A*6A
$GNRMC,054649.00,A,0419.85147,S,05539.74434,E,0.116,,270525,,,A*71
$GNVTG,,T,,M,0.116,N,0.215,K,A*3D
$GNGGA,054649.00,0419.85147,S,05539.74434,E,1,12,0.73,33.9,M,-47.6,M,,*4A
$GNGSA,A,3,05,24,12,20,18,15,13,23,,,,,1.34,0.73,1.13*11
$GNGSA,A,3,79,78,83,82,67,80,68,,,,,,1.34,0.73,1.13*1A
$GPGSV,4,1,16,05,57,058,40,12,61,028,33,13,15,127,13,15,34,160,28*75
$GPGSV,4,2,16,18,34,266,20,20,24,038,29,22,00,138,08,23,26,206,08*79
$GPGSV,4,3,16,24,44,195,36,25,37,343,25,29,10,329,,36,52,277,*75
$GPGSV,4,4,16,40,86,351,,41,58,082,38,49,32,274,,50,10,089,*72
$GLGSV,3,1,09,67,18,088,19,68,29,139,25,69,14,189,,78,17,154,14*61
$GLGSV,3,2,09,79,71,153,41,80,50,335,34,82,08,002,15,83,23,313,19*6F
$GLGSV,3,3,09,84,13,259,*5C
$GNGLL,0419.85147,S,05539.74434,E,054649.00,A,A*69
$GNRMC,054650.00,A,0419.85159,S,05539.74441,E,0.487,,270525,,,A*79
$GNVTG,,T,,M,0.487,N,0.901,K,A*3E
$GNGGA,054650.00,0419.85159,S,05539.74441,E,1,12,0.73,33.9,M,-47.6,M,,*4F
$GNGSA,A,3,05,24,12,20,18,15,13,25,23,,,,1.34,0.73,1.13*16
$GNGSA,A,3,79,78,83,82,67,80,68,,,,,,1.34,0.73,1.13*1A
$GPGSV,4,1,16,05,57,058,41,12,61,028,40,13,15,127,14,15,34,160,31*7F
$GPGSV,4,2,16,18,34,266,17,20,24,038,30,22,00,138,07,23,26,206,10*73
$GPGSV,4,3,16,24,44,195,36,25,37,343,24,29,10,329,,36,52,277,*74
$GPGSV,4,4,16,40,86,351,,41,58,082,42,49,32,274,,50,10,089,*7F
$GLGSV,3,1,09,67,18,088,20,68,29,139,25,69,14,189,,78,17,154,10*6F
$GLGSV,3,2,09,79,71,153,41,80,50,335,28,82,08,002,09,83,23,313,18*6E
$GLGSV,3,3,09,84,13,259,*5C
$GNGLL,0419.85159,S,05539.74441,E,054650.00,A,A*6C
$GNRMC,054651.00,A,0419.85157,S,05539.74443,E,0.472,,270525,,,A*7E
$GNVTG,,T,,M,0.472,N,0.874,K,A*37
$GNGGA,054651.00,0419.85157,S,05539.74443,E,1,12,0.66,33.8,M,-47.6,M,,*47
$GNGSA,A,3,05,24,12,20,18,15,13,25,23,,,,1.29,0.66,1.11*1C
$GNGSA,A,3,79,78,83,82,67,80,68,,,,,,1.29,0.66,1.11*10
$GPGSV,4,1,16,05,57,058,36,12,61,028,36,13,15,127,14,15,34,160,25*7B
$GPGSV,4,2,16,18,34,266,18,20,24,038,22,22,00,138,,23,26,206,14*7C
$GPGSV,4,3,16,24,44,195,30,25,37,343,30,29,10,329,,36,52,277,*77
$GPGSV,4,4,16,40,86,351,,41,58,082,36,49,32,274,,50,10,089,*7C
$GLGSV,3,1,09,67,18,088,18,68,29,139,23,69,14,189,,78,17,154,12*60
$GLGSV,3,2,09,79,71,153,35,80,50,335,28,82,08,002,08,83,23,313,18*6C
$GLGSV,3,3,09,84,13,259,*5C
$GNGLL,0419.85157,S,05539.74443,E,054651.00,A,A*61
$GNRMC,054652.00,A,0419.85149,S,05539.74417,E,0.873,,270525,,,A*7E
$GNVTG,,T,,M,0.873,N,1.617,K,A*30
$GNGGA,054652.00,0419.85149,S,05539.74417,E,1,12,0.66,34.2,M,-47.6,M,,*47
$GNGSA,A,3,05,24,12,20,18,15,13,25,23,,,,1.29,0.66,1.11*1C
$GNGSA,A,3,79,78,83,82,67,80,68,,,,,,1.29,0.66,1.11*10
$GPGSV,4,1,16,05,57,058,31,12,61,028,30,13,15,127,13,15,34,160,30*79
$GPGSV,4,2,16,18,34,266,19,20,24,038,30,22,00,138,,23,26,206,16*7C
$GPGSV,4,3,16,24,44,195,25,25,37,343,29,29,10,329,,36,52,277,*7B
$GPGSV,4,4,16,40,86,351,,41,58,082,38,49,32,274,,50,10,089,*72
$GLGSV,3,1,09,67,18,088,18,68,29,139,24,69,14,189,,78,17,154,10*65
$GLGSV,3,2,09,79,71,153,35,80,50,335,29,82,08,002,19,83,23,314,21*60
$GLGSV,3,3,09,84,13,259,*5C
$GNGLL,0419.85149,S,05539.74417,E,054652.00,A,A*6C
$GNRMC,054653.00,A,0419.85153,S,05539.74414,E,0.308,,270525,,,A*70
$GNVTG,,T,,M,0.308,N,0.570,K,A*34
$GNGGA,054653.00,0419.85153,S,05539.74414,E,1,12,0.66,33.8,M,-47.6,M,,*43
$GNGSA,A,3,05,24,12,20,18,15,13,25,23,,,,1.29,0.66,1.11*1C
$GNGSA,A,3,79,78,83,82,67,80,68,,,,,,1.29,0.66,1.11*10
$GPGSV,4,1,16,05,57,058,31,12,61,028,31,13,15,127,13,15,34,160,24*7D
$GPGSV,4,2,16,18,34,266,19,20,24,038,24,22,00,138,,23,26,206,13*7C
$GPGSV,4,3,16,24,44,195,25,25,37,343,23,29,10,329,,36,52,277,*71
$GPGSV,4,4,16,40,86,351,,41,58,082,27,49,32,274,,50,10,089,*7C
$GLGSV,3,1,09,67,18,088,16,68,29,139,23,69,14,189,,78,17,154,13*6F
$GLGSV,3,2,09,79,71,153,26,80,50,335,30,82,08,002,14,83,23,314,21*67
$GLGSV,3,3,09,84,13,260,*56
$GNGLL,0419.85153,S,05539.74414,E,054653.00,A,A*65
$GNRMC,054654.00,A,0419.85157,S,05539.74410,E,0.286,,270525,,,A*70
$GNVTG,,T,,M,0.286,N,0.529,K,A*3F
$GNGGA,054654.00,0419.85157,S,05539.74410,E,1,12,0.66,33.6,M,-47.6,M,,*4A
$GNGSA,A,3,05,24,12,20,18,15,13,25,23,,,,1.29,0.66,1.11*1C
$GNGSA,A,3,79,78,83,82,67,80,68,,,,,,1.29,0.66,1.11*10
$GPGSV,4,1,16,05,57,058,35,12,61,028,35,13,15,127,11,15,34,160,22*79
$GPGSV,4,2,16,18,34,266,19,20,24,038,26,22,00,138,,23,26,206,19*74
$GPGSV,4,3,16,24,44,195,25,25,37,343,25,29,10,329,,36,52,277,*77
$GPGSV,4,4,16,40,86,351,,41,58,082,,49,32,274,,50,10,089,*79
$GLGSV,3,1,09,67,18,088,14,68,29,139,21,69,14,189,,78,17,154,07*6A
$GLGSV,3,2,09,79,71,153,32,80,50,335,28,82,08,002,17,83,23,314,23*6A
$GLGSV,3,3,09,84,13,260,*56
$GNGLL,0419.85157,S,05539.74410,E,054654.00,A,A*62
$GNRMC,054655.00,A,0419.85158,S,05539.74407,E,0.325,,270525,,,A*70
$GNVTG,,T,,M,0.325,N,0.602,K,A*3D
$GNGGA,054655.00,0419.85158,S,05539.74407,E,1,12,0.75,33.5,M,-47.6,M,,*43
$GNGSA,A,3,05,24,12,20,18,15,25,23,,,,,1.41,0.75,1.20*10
$GNGSA,A,3,79,78,83,82,67,80,68,,,,,,1.41,0.75,1.20*1E
$GPGSV,4,1,16,05,57,058,31,12,61,028,36,13,15,127,10,15,34,160,20*7D
$GPGSV,4,2,16,18,34,266,17,20,24,038,27,22,00,138,,23,26,206,20*71
$GPGSV,4,3,16,24,44,195,23,25,37,343,25,29,10,329,,36,52,277,*71
$GPGSV,4,4,16,40,86,351,,41,58,082,,49,32,274,,50,10,089,*79
$GLGSV,3,1,09,67,18,088,14,68,29,139,19,69,14,189,,78,17,154,11*66
$GLGSV,3,2,09,79,71,153,33,80,50,335,27,82,08,002,17,83,23,314,22*65
$GLGSV,3,3,09,84,13,260,*56
$GNGLL,0419.85158,S,05539.74407,E,054655.00,A,A*6A
$GNRMC,054656.00,A,0419.85148,S,05539.74409,E,0.268,,270525,,,A*74
$GNVTG,,T,,M,0.268,N,0.497,K,A*3B
$GNGGA,054656.00,0419.85148,S,05539.74409,E,1,12,0.75,33.3,M,-47.6,M,,*49
$GNGSA,A,3,05,24,12,20,18,15,25,23,,,,,1.41,0.75,1.20*10
$GNGSA,A,3,79,78,83,82,67,80,68,,,,,,1.41,0.75,1.20*1E
$GPGSV,4,1,16,05,57,058,35,12,61,028,38,13,15,127,10,15,34,160,20*77
$GPGSV,4,2,16,18,34,266,15,20,24,038,26,22,00,138,,23,26,206,18*79
$GPGSV,4,3,16,24,44,195,22,25,37,343,26,29,10,329,,36,52,277,*73
$GPGSV,4,4,16,40,86,351,,41,58,082,,49,32,274,,50,10,089,*79
$GLGSV,3,1,09,67,18,088,13,68,29,139,17,69,14,189,,78,17,154,14*6A
$GLGSV,3,2,09,79,71,153,35,80,50,335,28,82,08,002,11,83,23,314,20*68
$GLGSV,3,3,09,84,13,260,*56
$GNGLL,0419.85148,S,05539.74409,E,054656.00,A,A*66
$GNRMC,054657.00,A,0419.85125,S,05539.74410,E,0.090,,270525,,,A*73
$GNVTG,,T,,M,0.090,N,0.167,K,A*34
$GNGGA,054657.00,0419.85125,S,05539.74410,E,1,12,0.68,32.3,M,-47.6,M,,*46
$GNGSA,A,3,05,24,12,20,18,15,25,23,,,,,1.34,0.68,1.15*18
$GNGSA,A,3,79,78,83,82,67,80,68,,,,,,1.34,0.68,1.15*16
$GPGSV,4,1,16,05,57,058,33,12,61,028,32,13,15,127,08,15,34,160,22*70
$GPGSV,4,2,16,18,34,266,14,20,24,038,25,22,00,138,,23,26,206,13*70
$GPGSV,4,3,16,24,44,195,19,25,37,343,25,29,10,329,,36,52,277,*78
$GPGSV,4,4,16,40,86,351,,41,58,082,,49,32,274,,50,10,089,*79
$GLGSV,3,1,09,67,18,088,13,68,29,139,15,69,14,189,,78,17,154,18*64
$GLGSV,3,2,09,79,71,153,39,80,50,335,27,82,08,002,11,83,23,314,18*60
$GLGSV,3,3,09,84,13,260,*56
$GNGLL,0419.85125,S,05539.74410,E,054657.00,A,A*64
$GNRMC,054658.00,A,0419.85095,S,05539.74424,E,0.149,,270525,,,A*74
$GNVTG,,T,,M,0.149,N,0.275,K,A*31
$GNGGA,054658.00,0419.85095,S,05539.74424,E,1,12,0.72,31.4,M,-47.6,M,,*4B
$GNGSA,A,3,05,24,12,20,18,15,13,25,,,,,1.33,0.72,1.12*10
$GNGSA,A,3,79,78,83,82,67,80,68,,,,,,1.33,0.72,1.12*1D
$GPGSV,4,1,16,05,57,058,39,12,61,028,37,13,15,127,11,15,34,160,24*71
$GPGSV,4,2,16,18,34,266,17,20,24,038,23,22,00,138,,23,26,206,09*7E
$GPGSV,4,3,16,24,44,195,28,25,37,343,26,29,10,329,,36,52,277,*79
$GPGSV,4,4,16,40,86,351,,41,58,082,,49,32,274,,50,10,089,*79
$GLGSV,3,1,09,67,18,088,14,68,29,139,18,69,14,189,,78,17,154,18*6E
$GLGSV,3,2,09,79,71,153,40,80,50,335,29,82,08,002,12,83,23,314,19*62
$GLGSV,3,3,09,84,13,260,*56
$GNGLL,0419.85095,S,05539.74424,E,054658.00,A,A*66
$GNRMC,054659.00,A,0419.85076,S,05539.74428,E,0.101,,270525,,,A*78
$GNVTG,,T,,M,0.101,N,0.186,K,A*32
$GNGGA,054659.00,0419.85076,S,05539.74428,E,1,12,0.74,31.4,M,-47.6,M,,*4D
$GNGSA,A,3,05,24,12,20,18,15,13,25,23,,,,1.53,0.74,1.33*12
$GNGSA,A,3,79,78,83,82,67,80,68,,,,,,1.53,0.74,1.33*1E
$GPGSV,4,1,16,05,57,058,37,12,61,028,39,13,15,127,12,15,34,160,26*70
$GPGSV,4,2,16,18,34,266,17,20,24,038,23,22,00,138,,23,26,206,10*76
$GPGSV,4,3,16,24,44,195,30,25,37,343,25,29,10,329,,36,52,277,*73
$GPGSV,4,4,16,40,86,351,,41,58,082,,49,32,274,,50,10,089,*79
$GLGSV,3,1,09,67,18,088,16,68,29,139,18,69,14,189,,78,17,154,11*65
$GLGSV,3,2,09,79,71,153,40,80,50,335,34,82,08,002,10,83,23,314,22*64
$GLGSV,3,3,09,84,13,260,*56
$GNGLL,0419.85076,S,05539.74428,E,054659.00,A,A*66
$GNRMC,054700.00,A,0419.85071,S,05539.74429,E,0.118,,270525,,,A*7B
$GNVTG,,T,,M,0.118,N,0.218,K,A*3E
$GNGGA,054700.00,0419.85071,S,05539.74429,E,1,12,0.71,31.1,M,-47.6,M,,*46
$GNGSA,A,3,05,24,12,20,18,15,13,25,23,,,,1.33,0.71,1.13*13
$GNGSA,A,3,79,78,83,82,67,80,68,,,,,,1.33,0.71,1.13*1F
$GPGSV,4,1,16,05,57,058,39,12,61,028,39,13,15,127,14,15,34,160,26*78
$GPGSV,4,2,16,18,34,266,17,20,24,038,31,22,00,138,,23,26,206,17*72
$GPGSV,4,3,16,24,44,195,32,25,37,343,27,29,10,329,,36,52,277,*73
$GPGSV,4,4,16,40,86,351,,41,58,082,,49,32,274,,50,10,089,*79
$GLGSV,3,1,09,67,18,088,16,68,29,139,17,69,14,189,,78,17,154,13*68
$GLGSV,3,2,09,79,71,153,40,80,50,335,34,82,08,002,11,83,23,314,23*64
$GLGSV,3,3,09,84,13,260,*56
$GNGLL,0419.85071,S,05539.74429,E,054700.00,A,A*6D
$GNRMC,054701.00,A,0419.85066,S,05539.74425,E,0.087,,270525,,,A*77
$GNVTG,,T,,M,0.087,N,0.162,K,A*37
$GNGGA,054701.00,0419.85066,S,05539.74425,E,1,12,0.71,31.2,M,-47.6,M,,*4E
$GNGSA,A,3,05,24,12,20,18,15,13,25,23,,,,1.33,0.71,1.13*13
$GNGSA,A,3,79,78,83,82,67,80,68,,,,,,1.33,0.71,1.13*1F
$GPGSV,4,1,16,05,57,058,38,12,61,028,39,13,15,127,15,15,34,160,26*78
$GPGSV,4,2,16,18,34,266,18,20,24,038,29,22,00,138,,23,26,206,17*74
$GPGSV,4,3,16,24,44,195,30,25,37,343,28,29,10,329,,36,52,277,*7E
$GPGSV,4,4,16,40,86,351,,41,58,082,,49,32,274,,50,10,089,*79
$GLGSV,3,1,09,67,18,088,14,68,29,139,18,69,14,189,,78,17,154,16*60
$GLGSV,3,2,09,79,71,153,42,80,50,335,33,82,08,002,11,83,23,314,23*61
$GLGSV,3,3,09,84,13,260,*56
$GNGLL,0419.85066,S,05539.74425,E,054701.00,A,A*66
$GNRMC,054702.00,A,0419.85061,S,05539.74418,E,0.100,,270525,,,A*73
$GNVTG,,T,,M,0.100,N,0.186,K,A*33
$GNGGA,054702.00,0419.85061,S,05539.74418,E,1,12,0.69,30.8,M,-47.6,M,,*46
$GNGSA,A,3,05,24,12,20,18,15,13,25,23,,,,1.45,0.69,1.28*13
$GNGSA,A,3,79,78,83,82,67,80,68,,,,,,1.45,0.69,1.28*1F
$GPGSV,4,1,16,05,56,057,36,12,61,028,39,13,15,127,16,15,34,160,24*79
$GPGSV,4,2,16,18,34,266,15,20,24,038,27,22,00,138,,23,26,206,15*75
$GPGSV,4,3,16,24,44,195,29,25,37,343,28,29,10,329,,36,52,277,*76
$GPGSV,4,4,16,40,86,351,,41,58,082,,49,32,274,,50,10,089,*79
$GLGSV,3,1,09,67,18,088,13,68,29,139,19,69,14,189,,78,17,154,18*68
$GLGSV,3,2,09,79,71,153,41,80,50,335,28,82,08,002,11,83,23,314,23*68
$GLGSV,3,3,09,84,13,260,*56
$GNGLL,0419.85061,S,05539.74418,E,054702.00,A,A*6C
$GNRMC,054703.00,A,0419.85064,S,05539.74422,E,0.062,,270525,,,A*7B
$GNVTG,,T,,M,0.062,N,0.114,K,A*3D
$GNGGA,054703.00,0419.85064,S,05539.74422,E,1,12,0.71,30.4,M,-47.6,M,,*4E
$GNGSA,A,3,05,24,12,20,18,15,13,25,23,,,,1.33,0.71,1.13*13
$GNGSA,A,3,79,78,83,82,67,80,68,,,,,,1.33,0.71,1.13*1F
$GPGSV,4,1,16,05,56,057,38,12,61,028,38,13,15,127,16,15,34,160,23*71
$GPGSV,4,2,16,18,34,266,14,20,24,038,26,22,00,138,,23,26,206,17*77
$GPGSV,4,3,16,24,44,195,30,25,37,343,27,29,10,329,,36,52,277,*71
$GPGSV,4,4,16,40,86,351,,41,58,082,,49,32,274,,50,10,089,*79
$GLGSV,3,1,09,67,18,088,10,68,29,139,20,69,14,189,,78,17,154,19*60
$GLGSV,3,2,09,79,71,153,41,80,50,335,29,82,08,002,11,83,23,314,25*6F
$GLGSV,3,3,09,84,13,260,*56
$GNGLL,0419.85064,S,05539.74422,E,054703.00,A,A*61
$GNRMC,054704.00,A,0419.85062,S,05539.74414,E,0.380,,270525,,,A*70
$GNVTG,,T,,M,0.380,N,0.704,K,A*35
$GNGGA,054704.00,0419.85062,S,05539.74414,E,1,12,0.71,30.7,M,-47.6,M,,*49
$GNGSA,A,3,05,24,12,20,18,15,13,25,23,,,,1.33,0.71,1.13*13
$GNGSA,A,3,79,78,83,82,67,80,68,,,,,,1.33,0.71,1.13*1F
$GPGSV,4,1,16,05,56,057,40,12,61,028,38,13,15,127,18,15,34,160,30*72
$GPGSV,4,2,16,18,34,266,14,20,24,038,25,22,00,138,,23,26,206,16*75
$GPGSV,4,3,16,24,44,195,31,25,37,343,27,29,10,329,,36,52,277,*70
$GPGSV,4,4,16,40,86,351,,41,58,082,,49,32,274,,50,10,089,*79
$GLGSV,3,1,09,67,18,088,11,68,29,139,21,69,14,189,,78,17,154,18*61
$GLGSV,3,2,09,79,71,153,41,80,50,335,28,82,08,002,11,83,23,314,24*6F
$GLGSV,3,3,09,84,13,260,*56
$GNGLL,0419.85062,S,05539.74414,E,054704.00,A,A*65
$GNRMC,054705.00,A,0419.85058,S,05539.74403,E,0.058,,270525,,,A*78
$GNVTG,,T,,M,0.058,N,0.107,K,A*36
$GNGGA,054705.00,0419.85058,S,05539.74403,E,1,12,0.77,30.4,M,-47.6,M,,*42
$GNGSA,A,3,05,24,12,20,18,15,13,25,23,,,,1.37,0.77,1.14*16
$GNGSA,A,3,79,78,83,82,67,80,68,,,,,,1.37,0.77,1.14*1A
$GPGSV,4,1,16,05,56,057,42,12,61,028,37,13,15,127,21,15,34,160,27*73
$GPGSV,4,2,16,18,34,266,15,20,24,038,24,22,00,138,,23,26,206,16*75
$GPGSV,4,3,16,24,44,195,32,25,37,343,30,29,10,329,,36,52,277,*75
$GPGSV,4,4,16,40,86,351,,41,58,082,,49,32,274,,50,10,089,*79
$GLGSV,3,1,09,67,18,088,13,68,29,139,21,69,14,189,,78,17,154,17*6C
$GLGSV,3,2,09,79,71,153,41,80,50,335,34,82,08,002,18,83,23,314,25*6A
$GLGSV,3,3,09,84,13,260,*56
$GNGLL,0419.85058,S,05539.74403,E,054705.00,A,A*6B
$GNRMC,054706.00,A,0419.85052,S,05539.74408,E,0.116,,270525,,,A*71
$GNVTG,,T,,M,0.116,N,0.215,K,A*3D
$GNGGA,054706.00,0419.85052,S,05539.74408,E,1,12,0.77,30.4,M,-47.6,M,,*40
$GNGSA,A,3,05,24,12,20,18,15,13,25,23,,,,1.37,0.77,1.14*16
$GNGSA,A,3,79,78,83,82,67,80,68,,,,,,1.37,0.77,1.14*1A
$GPGSV,4,1,16,05,56,057,41,12,61,028,37,13,15,127,22,15,34,160,24*70
$GPGSV,4,2,16,18,34,266,19,20,24,038,26,22,00,138,,23,26,206,19*74
$GPGSV,4,3,16,24,44,195,35,25,37,343,32,29,10,329,,36,52,277,*70
$GPGSV,4,4,16,40,86,351,,41,58,082,,49,32,274,,50,10,089,*79
$GLGSV,3,1,09,67,18,088,15,68,29,139,21,69,14,189,,78,17,154,13*6E
$GLGSV,3,2,09,79,71,153,39,80,50,335,35,82,08,002,18,83,23,314,25*64
$GLGSV,3,3,09,84,13,260,*56
$GNGLL,0419.85052,S,05539.74408,E,054706.00,A,A*69
$GNRMC,054707.00,A,0419.85047,S,05539.74404,E,0.122,,270525,,,A*7F
$GNVTG,,T,,M,0.122,N,0.227,K,A*3B
$GNGGA,054707.00,0419.85047,S,05539.74404,E,1,12,0.74,30.1,M,-47.6,M,,*4F
$GNGSA,A,3,05,24,12,20,18,15,13,25,23,,,,1.31,0.74,1.08*1E
$GNGSA,A,3,79,78,83,82,67,80,68,,,,,,1.31,0.74,1.08*12
$GPGSV,4,1,16,05,56,057,41,12,61,028,39,13,15,127,21,15,34,160,25*7C
$GPGSV,4,2,16,18,34,266,22,20,24,038,27,22,00,138,,23,26,206,19*7D
$GPGSV,4,3,16,24,44,195,34,25,37,343,31,29,10,329,,36,52,277,*72
$GPGSV,4,4,16,40,86,351,,41,58,082,,49,32,274,,50,10,089,*79
$GLGSV,3,1,09,67,18,088,15,68,29,139,22,69,14,189,,78,17,154,15*6B
$GLGSV,3,2,09,79,71,153,39,80,50,335,35,82,08,002,08,83,23,314,24*64
$GLGSV,3,3,09,84,13,260,*56
$GNGLL,0419.85047,S,05539.74404,E,054707.00,A,A*60
$GNRMC,054708.00,A,0419.85044,S,05539.74407,E,0.051,,270525,,,A*75
$GNVTG,,T,,M,0.051,N,0.094,K,A*34
$GNGGA,054708.00,0419.85044,S,05539.74407,E,1,12,0.74,30.0,M,-47.6,M,,*41
$GNGSA,A,3,05,24,12,20,18,15,13,25,23,,,,1.31,0.74,1.08*1E
$GNGSA,A,3,79,78,83,82,67,80,68,,,,,,1.31,0.74,1.08*12
$GPGSV,4,1,16,05,56,057,41,12,61,028,36,13,15,127,19,15,34,160,26*7B
$GPGSV,4,2,16,18,34,266,23,20,24,038,28,22,00,138,,23,26,206,17*7D
$GPGSV,4,3,16,24,44,195,33,25,37,343,30,29,10,329,,36,52,277,*74
$GPGSV,4,4,16,40,86,351,,41,58,082,,49,32,274,,50,10,089,*79
$GLGSV,3,1,09,67,18,088,16,68,29,139,25,69,14,189,,78,17,154,18*62
$GLGSV,3,2,09,79,71,153,39,80,50,335,36,82,08,002,08,83,23,314,25*66
$GLGSV,3,3,09,84,13,260,*56
$GNGLL,0419.85044,S,05539.74407,E,054708.00,A,A*6F
$GNRMC,054709.00,A,0419.85045,S,05539.74415,E,0.197,,270525,,,A*7D
$GNVTG,,T,,M,0.197,N,0.364,K,A*33
$GNGGA,054709.00,0419.85045,S,05539.74415,E,1,12,0.70,29.9,M,-47.6,M,,*47
$GNGSA,A,3,05,24,12,20,18,15,13,25,23,,,,1.29,0.70,1.08*13
$GNGSA,A,3,79,78,83,82,67,80,68,,,,,,1.29,0.70,1.08*1F
$GPGSV,4,1,16,05,56,057,41,12,61,029,36,13,15,127,19,15,34,160,24*78
$GPGSV,4,2,16,18,34,266,21,20,24,038,28,22,00,138,,23,26,206,17*7F
$GPGSV,4,3,16,24,44,195,33,25,37,343,32,29,10,329,,36,52,277,*76
$GPGSV,4,4,16,40,86,351,,41,58,082,,49,32,274,,50,10,089,*79
$GLGSV,3,1,09,67,18,088,15,68,29,139,26,69,14,189,,78,17,154,16*6C
$GLGSV,3,2,09,79,71,153,38,80,50,335,38,82,08,002,08,83,23,314,24*68
$GLGSV,3,3,09,84,13,260,*56
$GNGLL,0419.85045,S,05539.74415,E,054709.00,A,A*6C
$GNRMC,054710.00,A,0419.85046,S,05539.74421,E,0.026,,270525,,,A*7A
$GNVTG,,T,,M,0.026,N,0.049,K,A*34
$GNGGA,054710.00,0419.85046,S,05539.74421,E,1,12,0.70,29.8,M,-47.6,M,,*4A
$GNGSA,A,3,05,24,12,20,18,15,13,25,23,,,,1.29,0.70,1.08*13
$GNGSA,A,3,79,78,83,82,67,80,68,,,,,,1.29,0.70,1.08*1F
$GPGSV,4,1,16,05,56,057,41,12,61,029,36,13,15,127,18,15,34,160,23*7E
$GPGSV,4,2,16,18,34,266,21,20,24,038,28,22,00,138,,23,26,206,18*70
$GPGSV,4,3,16,24,44,195,32,25,37,343,31,29,10,329,,36,52,277,*74
$GPGSV,4,4,16,40,86,351,,41,58,082,,49,32,274,,50,10,089,*79
$GLGSV,3,1,09,67,18,088,16,68,29,139,27,69,14,189,,78,17,154,16*6E
$GLGSV,3,2,09,79,71,153,38,80,50,335,37,82,08,002,08,83,23,314,23*60
$GLGSV,3,3,09,84,13,260,*56
$GNGLL,0419.85046,S,05539.74421,E,054710.00,A,A*60
$GNRMC,054711.00,A,0419.85052,S,05539.74425,E,0.158,,270525,,,A*72
$GNVTG,,T,,M,0.158,N,0.292,K,A*38
$GNGGA,054711.00,0419.85052,S,05539.74425,E,1,12,0.70,29.8,M,-47.6,M,,*4A
$GNGSA,A,3,05,24,12,20,18,15,13,25,23,,,,1.29,0.70,1.08*13
$GNGSA,A,3,79,78,83,82,67,80,68,,,,,,1.29,0.70,1.08*1F
$GPGSV,4,1,16,05,56,057,41,12,61,029,38,13,15,127,18,15,34,160,29*7A
$GPGSV,4,2,16,18,34,266,19,20,24,038,27,22,00,138,,23,26,206,18*74
$GPGSV,4,3,16,24,44,195,32,25,37,343,31,29,10,329,,36,52,277,*74
$GPGSV,4,4,16,40,86,351,,41,58,082,,49,32,274,,50,10,089,*79
$GLGSV,3,1,09,67,18,088,18,68,29,139,26,69,14,189,,78,17,154,15*62
$GLGSV,3,2,09,79,71,153,39,80,50,335,34,82,08,002,08,83,23,314,22*63
$GLGSV,3,3,09,84,13,260,*56
$GNGLL,0419.85052,S,05539.74425,E,054711.00,A,A*60
$GNRMC,054712.00,A,0419.85057,S,05539.74433,E,0.162,,270525,,,A*7A
$GNVTG,,T,,M,0.162,N,0.300,K,A*3B
$GNGGA,054712.00,0419.85057,S,05539.74433,E,1,12,0.70,29.8,M,-47.6,M,,*4B
$GNGSA,A,3,05,24,12,20,18,15,13,25,23,,,,1.29,0.70,1.08*13
$GNGSA,A,3,79,78,83,82,67,80,68,,,,,,1.29,0.70,1.08*1F
$GPGSV,4,1,16,05,56,057,42,12,61,029,38,13,15,127,19,15,34,159,29*72
$GPGSV,4,2,16,18,34,266,20,20,24,038,27,22,00,138,,23,26,206,18*7E
$GPGSV,4,3,16,24,44,195,32,25,37,343,32,29,10,329,,36,52,277,*77
$GPGSV,4,4,16,40,86,351,,41,58,082,,49,32,274,,50,10,089,*79
$GLGSV,3,1,09,67,18,088,17,68,29,139,25,69,14,189,,78,17,154,14*6F
$GLGSV,3,2,09,79,71,153,39,80,50,335,35,82,08,002,11,83,23,314,20*68
$GLGSV,3,3,09,84,13,260,*56
$GNGLL,0419.85057,S,05539.74433,E,054712.00,A,A*61
$GNRMC,054713.00,A,0419.85057,S,05539.74434,E,0.013,,270525,,,A*7B
$GNVTG,,T,,M,0.013,N,0.023,K,A*3E
$GNGGA,054713.00,0419.85057,S,05539.74434,E,1,12,0.70,29.7,M,-47.6,M,,*42
$GNGSA,A,3,05,24,12,20,18,15,13,25,23,,,,1.29,0.70,1.08*13
$GNGSA,A,3,79,78,83,82,67,80,68,,,,,,1.29,0.70,1.08*1F
$GPGSV,4,1,16,05,56,057,41,12,61,029,36,13,15,127,19,15,34,159,28*7E
$GPGSV,4,2,16,18,34,266,18,20,24,038,27,22,00,138,,23,26,206,19*74
$GPGSV,4,3,16,24,44,195,31,25,37,343,32,29,10,329,,36,52,277,*74
$GPGSV,4,4,16,40,86,351,,41,58,082,,49,32,274,,50,10,089,*79
$GLGSV,3,1,09,67,18,088,16,68,29,139,23,69,14,189,,78,17,154,14*68
$GLGSV,3,2,09,79,71,153,39,80,50,335,36,82,08,002,12,83,23,314,18*63
$GLGSV,3,3,09,84,13,260,*56
$GNGLL,0419.85057,S,05539.74434,E,054713.00,A,A*67
$GNRMC,054714.00,A,0419.85059,S,05539.74437,E,0.035,,270525,,,A*75
$GNVTG,,T,,M,0.035,N,0.064,K,A*39
$GNGGA,054714.00,0419.85059,S,05539.74437,E,1,12,0.70,29.8,M,-47.6,M,,*47
$GNGSA,A,3,05,24,12,20,18,15,13,25,23,,,,1.29,0.70,1.08*13
$GNGSA,A,3,79,78,83,82,67,80,68,,,,,,1.29,0.70,1.08*1F
$GPGSV,4,1,16,05,56,057,40,12,61,029,36,13,15,127,19,15,34,159,26*71
$GPGSV,4,2,16,18,34,266,16,20,24,038,27,22,00,138,,23,26,206,18*7B
$GPGSV,4,3,16,24,44,195,32,25,37,343,31,29,10,329,,36,52,277,*74
$GPGSV,4,4,16,40,86,351,,41,58,082,,49,32,274,,50,10,089,*79
$GLGSV,3,1,09,67,18,088,16,68,29,139,22,69,14,189,,78,17,154,16*6B
$GLGSV,3,2,09,79,71,153,38,80,50,335,36,82,08,002,14,83,23,314,18*64
$GLGSV,3,3,09,84,13,260,*56
$GNGLL,0419.85059,S,05539.74437,E,054714.00,A,A*6D
$GNRMC,054715.00,A,0419.85059,S,05539.74438,E,0.042,,270525,,,A*7B
$GNVTG,,T,,M,0.042,N,0.078,K,A*34
$GNGGA,054715.00,0419.85059,S,05539.74438,E,1,12,0.72,29.9,M,-47.6,M,,*4A
$GNGSA,A,3,05,24,12,20,18,15,13,25,23,,,,1.33,0.72,1.12*11
$GNGSA,A,3,79,78,83,82,67,80,68,,,,,,1.33,0.72,1.12*1D
$GPGSV,4,1,16,05,56,057,41,12,61,029,37,13,15,127,19,15,34,159,25*72
$GPGSV,4,2,16,18,34,266,14,20,24,038,27,22,00,138,,23,26,206,16*77
$GPGSV,4,3,16,24,44,195,32,25,37,343,29,29,10,329,,36,52,277,*7D
$GPGSV,4,4,16,40,86,351,,41,58,082,,49,32,274,,50,10,089,*79
$GLGSV,3,1,09,67,18,088,17,68,29,139,23,69,14,189,,78,17,154,16*6B
$GLGSV,3,2,09,79,71,153,39,80,50,335,35,82,08,002,13,83,23,314,20*6A
$GLGSV,3,3,09,84,13,260,*56
$GNGLL,0419.85059,S,05539.74438,E,054715.00,A,A*63
$GNRMC,054716.00,A,0419.85062,S,05539.74442,E,0.149,,270525,,,A*77
$GNVTG,,T,,M,0.149,N,0.276,K,A*32
$GNGGA,054716.00,0419.85062,S,05539.74442,E,1,12,0.72,29.9,M,-47.6,M,,*4C
$GNGSA,A,3,05,24,12,20,18,15,13,25,23,,,,1.33,0.72,1.12*11
$GNGSA,A,3,79,78,83,82,67,80,68,,,,,,1.33,0.72,1.12*1D
$GPGSV,4,1,16,05,56,057,41,12,61,029,36,13,15,127,17,15,34,159,23*7B
$GPGSV,4,2,16,18,34,266,13,20,24,038,27,22,00,138,,23,26,206,17*71
$GPGSV,4,3,16,24,44,195,33,25,37,343,30,29,10,329,,36,52,277,*74
$GPGSV,4,4,16,40,86,351,,41,58,082,,49,32,274,,50,10,089,*79
$GLGSV,3,1,09,67,18,088,19,68,29,139,24,69,14,189,,78,17,154,16*62
$GLGSV,3,2,09,79,71,153,40,80,50,335,36,82,08,002,16,83,23,314,20*62
$GLGSV,3,3,09,84,13,260,*56
$GNGLL,0419.85062,S,05539.74442,E,054716.00,A,A*65
$GNRMC,054717.00,A,0419.85067,S,05539.74439,E,0.047,,270525,,,A*70
$GNVTG,,T,,M,0.047,N,0.088,K,A*3E
$GNGGA,054717.00,0419.85067,S,05539.74439,E,1,12,0.72,30.0,M,-47.6,M,,*45
$GNGSA,A,3,05,24,12,20,18,15,13,25,23,,,,1.33,0.72,1.12*11
$GNGSA,A,3,79,78,83,82,67,80,68,,,,,,1.33,0.72,1.12*1D
$GPGSV,4,1,16,05,56,057,41,12,61,029,36,13,15,127,16,15,34,159,23*7A
$GPGSV,4,2,16,18,34,266,12,20,24,038,27,22,00,138,,23,26,206,18*7F
$GPGSV,4,3,16,24,44,195,32,25,37,343,30,29,10,329,,36,52,277,*75
$GPGSV,4,4,16,40,86,351,34,41,58,082,,49,32,274,,50,10,089,*7E
$GLGSV,3,1,09,67,18,088,18,68,29,139,23,69,14,189,,78,17,154,14*66
$GLGSV,3,2,09,79,71,153,39,80,50,335,37,82,08,002,13,83,23,314,19*62
$GLGSV,3,3,09,84,13,260,*56
$GNGLL,0419.85067,S,05539.74439,E,054717.00,A,A*6D
$GNRMC,054718.00,A,0419.85071,S,05539.74433,E,0.075,,270525,,,A*73
$GNVTG,,T,,M,0.075,N,0.140,K,A*3A
$GNGGA,054718.00,0419.85071,S,05539.74433,E,1,12,0.72,29.9,M,-47.6,M,,*46
$GNGSA,A,3,05,24,12,20,18,15,13,25,23,,,,1.33,0.72,1.12*11
$GNGSA,A,3,79,78,83,82,67,80,68,,,,,,1.33,0.72,1.12*1D
$GPGSV,4,1,16,05,56,057,41,12,61,029,37,13,15,127,17,15,34,159,25*7C
$GPGSV,4,2,16,18,34,266,11,20,24,038,27,22,00,139,,23,26,206,20*76
$GPGSV,4,3,16,24,44,195,31,25,37,343,30,29,10,329,,36,52,277,*76
$GPGSV,4,4,16,40,86,351,35,41,58,082,,49,32,274,,50,10,089,*7F
$GLGSV,3,1,09,67,18,088,16,68,29,139,24,69,14,189,,78,17,154,17*6C
$GLGSV,3,2,09,79,71,153,40,80,50,335,38,82,08,002,15,83,23,314,18*64
$GLGSV,3,3,09,84,13,260,*56
$GNGLL,0419.85071,S,05539.74433,E,054718.00,A,A*6F
$GNRMC,054719.00,A,0419.85075,S,05539.74428,E,0.073,,270525,,,A*7A
$GNVTG,,T,,M,0.073,N,0.136,K,A*3D
$GNGGA,054719.00,0419.85075,S,05539.74428,E,1,12,0.72,29.9,M,-47.6,M,,*49
$GNGSA,A,3,05,24,12,20,18,15,13,25,23,,,,1.33,0.72,1.12*11
$GNGSA,A,3,79,78,83,82,67,80,68,,,,,,1.33,0.72,1.12*1D
$GPGSV,4,1,16,05,56,057,42,12,61,029,37,13,15,127,18,15,34,159,25*70
$GPGSV,4,2,16,18,34,266,10,20,24,038,27,22,00,139,,23,27,206,20*76
$GPGSV,4,3,16,24,44,195,32,25,37,343,31,29,10,329,,36,52,277,*74
$GPGSV,4,4,16,40,86,351,39,41,58,082,,49,32,274,,50,10,089,*73
$GLGSV,3,1,09,67,18,088,14,68,29,139,26,69,14,189,,78,17,154,12*69
$GLGSV,3,2,09,79,71,153,41,80,50,335,38,82,08,002,09,83,23,314,20*63
$GLGSV,3,3,09,84,13,260,*56
$GNGLL,0419.85075,S,05539.74428,E,054719.00,A,A*60
$GNRMC,054720.00,A,0419.85081,S,05539.74422,E,0.076,,270525,,,A*74
$GNVTG,,T,,M,0.076,N,0.140,K,A*39
$GNGGA,054720.00,0419.85081,S,05539.74422,E,1,12,0.92,29.7,M,-47.6,M,,*42
$GNGSA,A,3,05,24,12,20,18,15,13,25,23,,,,1.47,0.92,1.15*1B
$GNGSA,A,3,79,78,83,82,67,80,68,,,,,,1.47,0.92,1.15*17
$GPGSV,4,1,16,05,56,057,40,12,61,029,38,13,15,127,20,15,34,159,21*72
$GPGSV,4,2,16,18,34,266,13,20,24,038,25,22,00,139,,23,27,206,21*76
$GPGSV,4,3,16,24,44,194,32,25,37,343,30,29,10,329,,36,52,277,*74
$GPGSV,4,4,16,40,86,351,38,41,58,082,,49,32,274,,50,10,089,*72
$GLGSV,3,1,09,67,18,088,13,68,29,139,24,69,14,189,,78,17,154,13*6D
$GLGSV,3,2,09,79,71,153,41,80,50,335,37,82,08,002,08,83,23,314,24*69
$GLGSV,3,3,09,84,13,260,*56
$GNGLL,0419.85081,S,05539.74422,E,054720.00,A,A*6B
$GNRMC,054721.00,A,0419.85083,S,05539.74420,E,0.146,,270525,,,A*77
$GNVTG,,T,,M,0.146,N,0.271,K,A*3A
$GNGGA,054721.00,0419.85083,S,05539.74420,E,1,12,0.77,29.7,M,-47.6,M,,*48
$GNGSA,A,3,05,24,12,20,18,15,13,25,23,,,,1.37,0.77,1.14*16
$GNGSA,A,3,79,78,83,82,67,80,68,,,,,,1.37,0.77,1.14*1A
$GPGSV,4,1,16,05,56,057,40,12,61,029,38,13,15,127,18,15,34,159,19*72
$GPGSV,4,2,16,18,34,266,13,20,24,038,21,22,00,139,,23,27,206,21*72
$GPGSV,4,3,16,24,44,194,32,25,38,343,29,29,10,329,,36,52,277,*73
$GPGSV,4,4,16,40,86,351,38,41,58,082,,49,32,274,,50,10,089,*72
$GLGSV,3,1,09,67,18,088,13,68,29,139,22,69,14,189,,78,17,154,10*68
$GLGSV,3,2,09,79,71,153,41,80,50,335,37,82,08,002,09,83,23,314,25*69
$GLGSV,3,3,09,84,13,260,*56
$GNGLL,0419.85083,S,05539.74420,E,054721.00,A,A*6A
$GNRMC,054722.00,A,0419.85088,S,05539.74415,E,0.028,,270525,,,A*70
$GNVTG,,T,,M,0.028,N,0.051,K,A*33
$GNGGA,054722.00,0419.85088,S,05539.74415,E,1,12,0.77,29.6,M,-47.6,M,,*47
$GNGSA,A,3,05,24,12,20,18,15,13,25,23,,,,1.37,0.77,1.14*16
$GNGSA,A,3,79,78,83,82,67,80,68,,,,,,1.37,0.77,1.14*1A
$GPGSV,4,1,16,05,56,057,40,12,61,029,38,13,15,127,15,15,34,159,19*7F
$GPGSV,4,2,16,18,34,266,17,20,24,038,21,22,00,139,,23,27,206,20*77
$GPGSV,4,3,16,24,44,194,32,25,38,343,28,29,10,329,,36,52,277,*72
$GPGSV,4,4,16,40,86,351,37,41,58,082,,49,32,274,,50,10,089,*7D
$GLGSV,3,1,09,67,18,088,14,68,29,139,21,69,14,189,,78,17,154,16*6A
$GLGSV,3,2,09,79,71,153,40,80,50,335,38,82,08,002,08,83,23,314,26*65
$GLGSV,3,3,09,84,13,260,*56
$GNGLL,0419.85088,S,05539.74415,E,054722.00,A,A*64
$GNRMC,054723.00,A,0419.85092,S,05539.74412,E,0.040,,270525,,,A*73
$GNVTG,,T,,M,0.040,N,0.074,K,A*3A
$GNGGA,054723.00,0419.85092,S,05539.74412,E,1,12,0.79,29.4,M,-47.6,M,,*46
$GNGSA,A,3,05,24,12,20,18,15,13,25,23,,,,1.44,0.79,1.21*1A
$GNGSA,A,3,79,78,83,82,67,80,68,,,,,,1.44,0.79,1.21*16
$GPGSV,4,1,16,05,56,057,40,12,61,029,37,13,15,127,15,15,34,159,21*7B
$GPGSV,4,2,16,18,34,266,12,20,24,038,19,22,00,139,,23,27,206,21*78
$GPGSV,4,3,16,24,44,194,32,25,38,343,27,29,10,329,,36,52,277,*7D
$GPGSV,4,4,16,40,86,351,38,41,58,082,,49,32,274,,50,10,089,*72
$GLGSV,3,1,09,67,18,088,10,68,29,139,21,69,14,189,,78,17,154,09*60
$GLGSV,3,2,09,79,71,153,41,80,50,335,39,82,08,002,11,83,23,314,26*6D
$GLGSV,3,3,09,84,13,260,*56
$GNGLL,0419.85092,S,05539.74412,E,054723.00,A,A*69
$GNRMC,054724.00,A,0419.85096,S,05539.74414,E,0.104,,270525,,,A*77
$GNVTG,,T,,M,0.104,N,0.192,K,A*32
$GNGGA,054724.00,0419.85096,S,05539.74414,E,1,12,0.77,29.2,M,-47.6,M,,*4B
$GNGSA,A,3,05,24,12,20,18,15,13,25,23,,,,1.37,0.77,1.14*16
$GNGSA,A,3,79,78,83,82,67,80,68,,,,,,1.37,0.77,1.14*1A
$GPGSV,4,1,16,05,56,057,40,12,61,029,38,13,15,127,16,15,34,159,20*76
$GPGSV,4,2,16,18,34,266,14,20,24,038,19,22,00,139,,23,27,206,22*7D
$GPGSV,4,3,16,24,44,194,32,25,38,343,26,29,10,329,,36,52,277,*7C
$GPGSV,4,4,16,40,86,351,36,41,58,082,,49,32,274,,50,10,089,*7C
$GLGSV,3,1,09,67,18,088,09,68,29,139,22,69,14,189,,78,17,154,10*63
$GLGSV,3,2,09,79,71,153,40,80,50,335,39,82,08,002,08,83,23,314,26*64
$GLGSV,3,3,09,84,13,260,*56
$GNGLL,0419.85096,S,05539.74414,E,054724.00,A,A*6C
$GNRMC,054725.00,A,0419.85098,S,05539.74411,E,0.047,,270525,,,A*7B
$GNVTG,,T,,M,0.047,N,0.087,K,A*31
$GNGGA,054725.00,0419.85098,S,05539.74411,E,1,12,0.77,29.2,M,-47.6,M,,*41
$GNGSA,A,3,05,24,12,20,18,15,13,25,23,,,,1.37,0.77,1.14*16
$GNGSA,A,3,79,78,83,82,67,80,68,,,,,,1.37,0.77,1.14*1A
$GPGSV,4,1,16,05,56,057,40,12,61,029,36,13,15,127,16,15,34,159,24*7C
$GPGSV,4,2,16,18,34,266,12,20,24,038,18,22,00,139,,23,27,206,21*79
$GPGSV,4,3,16,24,44,194,34,25,38,343,28,29,10,329,,36,52,277,*74
$GPGSV,4,4,16,40,86,351,36,41,58,082,,49,32,274,,50,10,089,*7C
$GLGSV,3,1,09,67,18,088,11,68,29,139,22,69,14,189,,78,17,154,17*6D
$GLGSV,3,2,09,79,71,153,40,80,50,335,38,82,08,002,16,83,23,314,24*68
$GLGSV,3,3,09,84,13,260,*56
$GNGLL,0419.85098,S,05539.74411,E,054725.00,A,A*66
$GNRMC,054726.00,A,0419.85097,S,05539.74411,E,0.026,,270525,,,A*70
$GNVTG,,T,,M,0.026,N,0.049,K,A*34
$GNGGA,054726.00,0419.85097,S,05539.74411,E,1,12,0.84,29.3,M,-47.6,M,,*40
$GNGSA,A,3,05,24,12,20,15,13,25,23,,,,,1.41,0.84,1.13*15
$GNGSA,A,3,79,78,83,82,67,80,68,,,,,,1.41,0.84,1.13*10
$GPGSV,4,1,16,05,56,057,40,12,61,029,36,13,15,127,14,15,34,159,24*7E
$GPGSV,4,2,16,18,34,266,04,20,24,038,22,22,00,139,,23,27,206,21*77
$GPGSV,4,3,16,24,44,194,34,25,38,343,28,29,10,329,,36,52,277,*74
$GPGSV,4,4,16,40,86,351,34,41,58,082,,49,32,274,,50,10,089,*7E
$GLGSV,3,1,09,67,18,088,12,68,29,139,23,69,14,189,,78,17,154,10*68
$GLGSV,3,2,09,79,71,153,41,80,50,335,38,82,08,002,16,83,23,314,25*68
$GLGSV,3,3,09,84,13,260,*56
$GNGLL,0419.85097,S,05539.74411,E,054726.00,A,A*6A
$GNRMC,054727.00,A,0419.85100,S,05539.74413,E,0.059,,270525,,,A*74
$GNVTG,,T,,M,0.059,N,0.109,K,A*39
$GNGGA,054727.00,0419.85100,S,05539.74413,E,1,12,0.84,29.0,M,-47.6,M,,*4F
$GNGSA,A,3,05,24,12,20,15,13,25,23,,,,,1.41,0.84,1.13*15
$GNGSA,A,3,79,78,83,82,67,80,68,,,,,,1.41,0.84,1.13*10
$GPGSV,4,1,16,05,56,057,40,12,61,029,39,13,15,127,17,15,34,159,26*70
$GPGSV,4,2,16,18,34,266,09,20,24,038,25,22,00,139,,23,27,206,20*7C
$GPGSV,4,3,16,24,44,194,33,25,38,343,28,29,10,329,,36,52,277,*73
$GPGSV,4,4,16,40,86,351,37,41,58,082,,49,32,274,,50,10,089,*7D
$GLGSV,3,1,09,67,18,088,08,68,29,139,22,69,14,189,,78,17,154,10*62
$GLGSV,3,2,09,79,71,153,39,80,50,335,35,82,08,002,09,83,23,314,23*62
$GLGSV,3,3,09,84,13,260,*56
$GNGLL,0419.85100,S,05539.74413,E,054727.00,A,A*66
$GNRMC,054728.00,A,0419.85102,S,05539.74412,E,0.089,,270525,,,A*75
$GNVTG,,T,,M,0.089,N,0.165,K,A*3E
$GNGGA,054728.00,0419.85102,S,05539.74412,E,1,12,0.72,28.9,M,-47.6,M,,*42
$GNGSA,A,3,05,24,12,20,18,15,13,25,23,,,,1.33,0.72,1.12*11
$GNGSA,A,3,79,78,83,82,67,80,68,,,,,,1.33,0.72,1.12*1D
$GPGSV,4,1,16,05,56,057,40,12,61,029,37,13,15,127,17,15,34,159,22*7A
$GPGSV,4,2,16,18,34,266,19,20,24,038,27,22,00,139,,23,27,206,22*7D
$GPGSV,4,3,16,24,44,194,31,25,38,343,31,29,10,329,,36,52,277,*79
$GPGSV,4,4,16,40,86,351,36,41,58,082,,49,32,274,,50,10,089,*7C
$GLGSV,3,1,09,67,18,088,10,68,29,139,22,69,14,189,,78,17,154,08*62
$GLGSV,3,2,09,79,71,153,37,80,50,335,35,82,08,002,09,83,23,314,23*6C
$GLGSV,3,3,09,84,13,260,*56
$GNGLL,0419.85102,S,05539.74412,E,054728.00,A,A*6A
$GNRMC,054729.00,A,0419.85104,S,05539.74413,E,0.124,,270525,,,A*75
$GNVTG,,T,,M,0.124,N,0.230,K,A*3B
$GNGGA,054729.00,0419.85104,S,05539.74413,E,1,12,0.82,28.5,M,-47.6,M,,*47
$GNGSA,A,3,05,24,12,20,18,15,13,25,23,,,,1.64,0.82,1.42*19
$GNGSA,A,3,79,78,83,82,67,80,68,,,,,,1.64,0.82,1.42*15
$GPGSV,4,1,16,05,56,057,40,12,61,029,35,13,15,127,16,15,34,159,20*7B
$GPGSV,4,2,16,18,34,266,24,20,24,038,28,22,00,139,,23,27,206,21*7F
$GPGSV,4,3,16,24,44,194,30,25,38,343,31,29,10,329,,36,52,277,*78
$GPGSV,4,4,16,40,86,351,36,41,58,082,,49,32,274,,50,10,089,*7C
$GLGSV,3,1,09,67,18,088,09,68,29,139,23,69,14,189,,78,17,154,10*62
$GLGSV,3,2,09,79,71,153,37,80,50,335,37,82,08,002,10,83,23,314,22*67
$GLGSV,3,3,09,84,13,260,*56
$GNGLL,0419.85104,S,05539.74413,E,054729.00,A,A*6C
$GNRMC,054730.00,A,0419.85107,S,05539.74418,E,0.093,,270525,,,A*78
$GNVTG,,T,,M,0.093,N,0.173,K,A*32
$GNGGA,054730.00,0419.85107,S,05539.74418,E,1,12,0.72,28.5,M,-47.6,M,,*48
$GNGSA,A,3,05,24,12,20,18,15,13,25,23,,,,1.33,0.72,1.12*11
$GNGSA,A,3,79,78,83,82,67,80,68,,,,,,1.33,0.72,1.12*1D
$GPGSV,4,1,16,05,56,057,38,12,61,029,35,13,15,127,16,15,34,159,19*7E
$GPGSV,4,2,16,18,34,266,25,20,24,038,28,22,00,139,,23,27,206,21*7E
$GPGSV,4,3,16,24,44,194,28,25,38,343,30,29,10,329,,36,52,277,*70
$GPGSV,4,4,16,40,86,351,33,41,58,082,,49,32,274,,50,10,089,*79
$GLGSV,3,1,09,67,18,088,09,68,29,139,23,69,14,189,,78,17,154,10*62
$GLGSV,3,2,09,79,71,153,38,80,50,335,38,82,08,002,13,83,23,314,24*62
$GLGSV,3,3,09,84,13,260,*56
$GNGLL,0419.85107,S,05539.74418,E,054730.00,A,A*6C
$GNRMC,054731.00,A,0419.85111,S,05539.74424,E,0.080,,270525,,,A*73
$GNVTG,,T,,M,0.080,N,0.148,K,A*38
$GNGGA,054731.00,0419.85111,S,05539.74424,E,1,12,0.72,28.3,M,-47.6,M,,*47
$GNGSA,A,3,05,24,12,20,18,15,13,25,23,,,,1.33,0.72,1.12*11
$GNGSA,A,3,79,78,83,82,67,80,68,,,,,,1.33,0.72,1.12*1D
$GPGSV,4,1,16,05,56,057,41,12,61,029,38,13,15,127,17,15,34,159,18*7D
$GPGSV,4,2,16,18,34,266,25,20,24,038,28,22,00,139,,23,27,206,22*7D
$GPGSV,4,3,16,24,44,194,29,25,38,343,29,29,10,329,,36,52,277,*79
$GPGSV,4,4,16,40,86,351,33,41,58,082,,49,32,274,,50,10,089,*79
$GLGSV,3,1,09,67,18,088,09,68,29,139,23,69,14,189,,78,17,154,10*62
$GLGSV,3,2,09,79,71,153,38,80,50,335,38,82,08,002,13,83,23,314,23*65
$GLGSV,3,3,09,84,13,260,*56
$GNGLL,0419.85111,S,05539.74424,E,054731.00,A,A*65
$GNRMC,054732.00,A,0419.85115,S,05539.74430,E,0.066,,270525,,,A*79
$GNVTG,,T,,M,0.066,N,0.123,K,A*3D
$GNGGA,054732.00,0419.85115,S,05539.74430,E,1,12,0.77,28.2,M,-47.6,M,,*41
$GNGSA,A,3,05,24,12,20,18,15,13,25,23,,,,1.55,0.77,1.35*11
$GNGSA,A,3,79,83,82,67,80,68,,,,,,,1.55,0.77,1.35*12
$GPGSV,4,1,16,05,56,057,40,12,61,029,37,13,15,127,17,15,34,159,17*7C
$GPGSV,4,2,16,18,34,266,26,20,24,038,28,22,00,139,,23,27,206,22*7E
$GPGSV,4,3,16,24,44,194,29,25,38,343,29,29,10,329,,36,52,277,*79
$GPGSV,4,4,16,40,86,351,33,41,58,082,,49,32,274,,50,10,089,*79
$GLGSV,3,1,09,67,18,088,09,68,29,139,22,69,14,189,,78,17,154,10*63
$GLGSV,3,2,09,79,71,153,39,80,50,335,37,82,08,002,13,83,23,314,22*6A
$GLGSV,3,3,09,84,13,260,*56
$GNGLL,0419.85115,S,05539.74430,E,054732.00,A,A*67
$GNRMC,054733.00,A,0419.85115,S,05539.74437,E,0.019,,270525,,,A*77
$GNVTG,,T,,M,0.019,N,0.035,K,A*33
$GNGGA,054733.00,0419.85115,S,05539.74437,E,1,12,0.74,28.2,M,-47.6,M,,*44
$GNGSA,A,3,05,24,12,20,18,15,13,25,23,,,,1.39,0.74,1.18*17
$GNGSA,A,3,79,83,82,67,80,68,,,,,,,1.39,0.74,1.18*14
$GPGSV,4,1,16,05,56,057,40,12,61,029,36,13,15,127,16,15,34,159,19*72
$GPGSV,4,2,16,18,34,266,26,20,24,038,29,22,00,139,,23,27,206,23*7E
$GPGSV,4,3,16,24,44,194,30,25,38,343,31,29,10,329,,36,52,277,*78
$GPGSV,4,4,16,40,86,351,33,41,58,082,,49,32,274,,50,10,089,*79
$GLGSV,3,1,09,67,18,088,09,68,29,139,23,69,14,189,,78,17,154,10*62
$GLGSV,3,2,09,79,71,153,39,80,50,335,37,82,08,002,13,83,23,314,19*62
$GLGSV,3,3,09,84,13,260,*56
$GNGLL,0419.85115,S,05539.74437,E,054733.00,A,A*61
$GNRMC,054734.00,A,0419.85117,S,05539.74442,E,0.116,,270525,,,A*7E
$GNVTG,,T,,M,0.116,N,0.214,K,A*3C
$GNGGA,054734.00,0419.85117,S,05539.74442,E,1,12,0.68,28.2,M,-47.6,M,,*4E
$GNGSA,A,3,05,24,12,20,18,15,13,25,23,,,,1.33,0.68,1.14*1C
$GNGSA,A,3,79,83,82,67,80,68,,,,,,,1.33,0.68,1.14*1F
$GPGSV,4,1,16,05,56,057,40,12,61,029,37,13,15,127,14,15,34,159,21*7A
$GPGSV,4,2,16,18,34,266,27,20,24,038,30,22,00,139,,23,27,206,22*76
$GPGSV,4,3,16,24,44,194,29,25,38,343,29,29,10,329,,36,52,277,*79
$GPGSV,4,4,16,40,86,351,35,41,58,082,,49,32,274,,50,10,089,*7F
$GLGSV,3,1,09,67,18,088,09,68,29,139,25,69,14,189,,78,17,154,10*64
$GLGSV,3,2,09,79,71,153,38,80,50,335,37,82,08,002,13,83,23,314,18*62
$GLGSV,3,3,09,84,13,260,*56
$GNGLL,0419.85117,S,05539.74442,E,054734.00,A,A*66
$GNRMC,054735.00,A,0419.85120,S,05539.74448,E,0.146,,270525,,,A*74
$GNVTG,,T,,M,0.146,N,0.271,K,A*3A
$GNGGA,054735.00,0419.85120,S,05539.74448,E,1,12,0.76,28.0,M,-47.6,M,,*4C
$GNGSA,A,3,05,24,12,20,18,15,13,25,23,,,,1.47,0.76,1.25*12
$GNGSA,A,3,79,83,67,80,68,,,,,,,,1.47,0.76,1.25*1B
$GPGSV,4,1,16,05,56,057,40,12,61,029,34,13,15,127,09,15,34,159,23*77
$GPGSV,4,2,16,18,34,266,25,20,24,038,29,22,00,139,,23,27,206,22*7C
$GPGSV,4,3,16,24,44,194,28,25,38,343,28,29,10,329,,36,52,277,*79
$GPGSV,4,4,16,40,86,351,34,41,58,082,,49,32,274,,50,10,089,*7E
$GLGSV,3,1,09,67,18,088,12,68,29,139,25,69,14,189,,78,17,154,12*6C
$GLGSV,3,2,09,79,71,153,37,80,50,335,38,82,08,002,08,83,23,314,15*65
$GLGSV,3,3,09,84,13,260,*56
$GNGLL,0419.85120,S,05539.74448,E,054735.00,A,A*69
$GNRMC,054736.00,A,0419.85118,S,05539.74450,E,0.050,,270525,,,A*73
$GNVTG,,T,,M,0.050,N,0.092,K,A*33
$GNGGA,054736.00,0419.85118,S,05539.74450,E,1,12,0.77,28.3,M,-47.6,M,,*4F
$GNGSA,A,3,05,24,12,20,18,15,13,25,23,,,,1.55,0.77,1.35*11
$GNGSA,A,3,79,83,67,80,68,,,,,,,,1.55,0.77,1.35*18
$GPGSV,4,1,16,05,56,057,40,12,61,029,37,13,15,127,10,15,34,159,25*7A
$GPGSV,4,2,16,18,34,266,25,20,24,038,30,22,00,139,,23,27,206,22*74
$GPGSV,4,3,16,24,44,194,32,25,38,343,29,29,10,329,,36,52,277,*73
$GPGSV,4,4,16,40,86,351,33,41,58,082,,49,32,274,,50,10,089,*79
$GLGSV,3,1,09,67,18,088,12,68,29,139,26,69,14,189,,78,17,154,12*6F
$GLGSV,3,2,09,79,71,153,38,80,50,335,37,82,08,002,08,83,23,314,13*63
$GLGSV,3,3,09,84,13,260,*56
$GNGLL,0419.85118,S,05539.74450,E,054736.00,A,A*68
$GNRMC,054737.00,A,0419.85115,S,05539.74450,E,0.016,,270525,,,A*7D
$GNVTG,,T,,M,0.016,N,0.030,K,A*39
$GNGGA,054737.00,0419.85115,S,05539.74450,E,1,12,0.77,28.6,M,-47.6,M,,*46
$GNGSA,A,3,05,24,12,20,18,15,13,25,23,,,,1.55,0.77,1.35*11
$GNGSA,A,3,79,83,67,80,68,,,,,,,,1.55,0.77,1.35*18
$GPGSV,4,1,16,05,56,057,42,12,61,029,38,13,15,127,11,15,34,159,25*76
$GPGSV,4,2,16,18,34,266,26,20,24,038,29,22,00,139,,23,27,206,23*7E
$GPGSV,4,3,16,24,44,194,31,25,38,343,28,29,10,329,,36,52,277,*71
$GPGSV,4,4,16,40,86,351,37,41,58,082,,49,32,274,,50,10,089,*7D
$GLGSV,3,1,09,67,18,088,11,68,29,139,27,69,14,189,,78,17,154,18*67
$GLGSV,3,2,09,79,71,153,38,80,50,335,37,82,08,002,10,83,23,314,17*6E
$GLGSV,3,3,09,84,13,260,*56
$GNGLL,0419.85115,S,05539.74450,E,054737.00,A,A*64
$GNRMC,054738.00,A,0419.85113,S,05539.74450,E,0.022,,270525,,,A*73
$GNVTG,,T,,M,0.022,N,0.040,K,A*39
$GNGGA,054738.00,0419.85113,S,05539.74450,E,1,12,0.80,29.0,M,-47.6,M,,*40
$GNGSA,A,3,05,24,12,20,18,15,13,25,23,,,,1.56,0.80,1.34*1B
$GNGSA,A,3,79,78,83,82,67,80,68,,,,,,1.56,0.80,1.34*17
$GPGSV,4,1,16,05,56,057,41,12,61,029,38,13,15,127,13,15,34,159,27*75
$GPGSV,4,2,16,18,34,266,25,20,24,038,29,22,00,139,,23,27,206,25*7B
$GPGSV,4,3,16,24,44,194,32,25,38,343,29,29,10,329,,36,52,277,*73
$GPGSV,4,4,16,40,86,351,36,41,58,082,,49,32,274,,50,10,089,*7C
$GLGSV,3,1,09,67,18,088,11,68,29,139,28,69,14,189,,78,17,154,18*68
$GLGSV,3,2,09,79,71,153,39,80,50,335,37,82,08,002,10,83,23,314,20*6B
$GLGSV,3,3,09,84,13,260,*56
$GNGLL,0419.85113,S,05539.74450,E,054738.00,A,A*6D
$GNRMC,054739.00,A,0419.85110,S,05539.74445,E,0.166,,270525,,,A*74
$GNVTG,,T,,M,0.166,N,0.308,K,A*37
$GNGGA,054739.00,0419.85110,S,05539.74445,E,1,12,0.72,29.2,M,-47.6,M,,*49
$GNGSA,A,3,05,24,12,20,18,15,13,25,23,,,,1.33,0.72,1.12*11
$GNGSA,A,3,79,78,83,82,67,80,68,,,,,,1.33,0.72,1.12*1D
$GPGSV,4,1,16,05,56,057,40,12,61,029,37,13,15,127,13,15,34,159,27*7B
$GPGSV,4,2,16,18,34,266,23,20,24,038,29,22,00,139,,23,27,206,24*7C
$GPGSV,4,3,16,24,44,194,32,25,38,343,29,29,10,329,,36,52,277,*73
$GPGSV,4,4,16,40,86,351,36,41,58,082,,49,32,274,,50,10,089,*7C
$GLGSV,3,1,09,67,18,088,11,68,29,139,27,69,14,189,,78,17,154,18*67
$GLGSV,3,2,09,79,71,153,39,80,50,335,36,82,08,002,10,83,23,314,21*6B
$GLGSV,3,3,09,84,13,260,*56
$GNGLL,0419.85110,S,05539.74445,E,054739.00,A,A*6B
$GNRMC,054740.00,A,0419.85111,S,05539.74449,E,0.099,,270525,,,A*76
$GNVTG,,T,,M,0.099,N,0.183,K,A*37
$GNGGA,054740.00,0419.85111,S,05539.74449,E,1,12,0.73,29.2,M,-47.6,M,,*4B
$GNGSA,A,3,05,24,12,20,18,15,13,25,23,,,,1.34,0.73,1.12*17
$GNGSA,A,3,79,78,83,82,67,80,68,,,,,,1.34,0.73,1.12*1B
$GPGSV,4,1,16,05,56,057,41,12,61,029,38,13,15,127,11,15,34,159,26*76
$GPGSV,4,2,16,18,34,266,20,20,24,038,29,22,00,139,,23,27,206,24*7F
$GPGSV,4,3,16,24,44,194,31,25,38,343,28,29,10,329,,36,52,277,*71
$GPGSV,4,4,16,40,86,351,36,41,58,082,,49,32,274,,50,10,089,*7C
$GLGSV,3,1,09,67,18,088,11,68,29,139,26,69,14,189,,78,17,154,18*66
$GLGSV,3,2,09,79,71,153,39,80,50,335,36,82,08,002,10,83,23,314,22*68
$GLGSV,3,3,09,84,13,260,*56
$GNGLL,0419.85111,S,05539.74449,E,054740.00,A,A*68
$GNRMC,054741.00,A,0419.85112,S,05539.74454,E,0.108,,270525,,,A*71
$GNVTG,,T,,M,0.108,N,0.200,K,A*36
$GNGGA,054741.00,0419.85112,S,05539.74454,E,1,12,0.75,29.2,M,-47.6,M,,*43
$GNGSA,A,3,05,24,12,20,18,15,13,25,23,,,,1.49,0.75,1.28*12
$GNGSA,A,3,79,78,83,82,67,80,68,,,,,,1.49,0.75,1.28*1E
$GPGSV,4,1,16,05,56,057,40,12,61,029,37,13,15,127,12,15,34,159,25*78
$GPGSV,4,2,16,18,34,266,18,20,24,038,28,22,00,139,,23,27,206,25*74
$GPGSV,4,3,16,24,44,194,30,25,38,343,28,29,10,329,,36,52,277,*70
$GPGSV,4,4,16,40,86,351,36,41,58,082,,49,32,274,,50,10,089,*7C
$GLGSV,3,1,09,67,18,088,17,68,29,139,26,69,14,189,,78,17,154,14*6C
$GLGSV,3,2,09,79,71,153,39,80,50,335,36,82,08,002,11,83,23,314,22*69
$GLGSV,3,3,09,84,13,260,*56
$GNGLL,0419.85112,S,05539.74454,E,054741.00,A,A*66
$GNRMC,054742.00,A,0419.85111,S,05539.74456,E,0.039,,270525,,,A*70
$GNVTG,,T,,M,0.039,N,0.073,K,A*33
$GNGGA,054742.00,0419.85111,S,05539.74456,E,1,12,0.72,29.3,M,-47.6,M,,*47
$GNGSA,A,3,05,24,12,20,18,15,13,25,23,,,,1.33,0.72,1.12*11
$GNGSA,A,3,79,78,83,82,67,80,68,,,,,,1.33,0.72,1.12*1D
$GPGSV,4,1,16,05,56,057,42,12,61,029,37,13,15,127,09,15,34,159,25*70
$GPGSV,4,2,16,18,34,266,20,20,24,038,29,22,00,139,,23,27,206,25*7E
$GPGSV,4,3,16,24,44,194,29,25,38,343,29,29,10,329,,36,52,277,*79
$GPGSV,4,4,16,40,86,351,38,41,58,082,,49,32,274,,50,10,089,*72
$GLGSV,3,1,09,67,18,088,20,68,29,139,26,69,14,189,,78,17,154,14*68
$GLGSV,3,2,09,79,71,153,39,80,50,335,36,82,08,002,11,83,23,314,22*69
$GLGSV,3,3,09,84,13,260,*56
$GNGLL,0419.85111,S,05539.74456,E,054742.00,A,A*64
$GNRMC,054743.00,A,0419.85109,S,05539.74453,E,0.038,,270525,,,A*7C
$GNVTG,,T,,M,0.038,N,0.071,K,A*30
$GNGGA,054743.00,0419.85109,S,05539.74453,E,1,12,0.72,29.2,M,-47.6,M,,*4B
$GNGSA,A,3,05,24,12,20,18,15,13,25,23,,,,1.33,0.72,1.12*11
$GNGSA,A,3,79,78,83,82,67,80,68,,,,,,1.33,0.72,1.12*1D
$GPGSV,4,1,16,05,56,057,41,12,61,029,40,13,15,127,10,15,34,159,26*78
$GPGSV,4,2,16,18,34,266,20,20,24,038,28,22,00,139,,23,27,206,25*7F
$GPGSV,4,3,16,24,44,194,29,25,38,343,28,29,10,329,,36,52,277,*78
$GPGSV,4,4,16,40,86,351,36,41,58,082,,49,32,274,,50,10,089,*7C
$GLGSV,3,1,09,67,18,088,18,68,29,139,25,69,14,189,,78,17,154,10*64
$GLGSV,3,2,09,79,71,153,39,80,50,335,36,82,08,002,08,83,23,314,22*61
$GLGSV,3,3,09,84,13,260,*56
$GNGLL,0419.85109,S,05539.74453,E,054743.00,A,A*69
$GNRMC,054744.00,A,0419.85107,S,05539.74448,E,0.041,,270525,,,A*71
$GNVTG,,T,,M,0.041,N,0.077,K,A*38
$GNGGA,054744.00,0419.85107,S,05539.74448,E,1,12,0.79,29.0,M,-47.6,M,,*41
$GNGSA,A,3,05,24,12,20,18,15,13,25,23,,,,1.67,0.79,1.48*14
$GNGSA,A,3,79,78,83,82,67,80,68,,,,,,1.67,0.79,1.48*18
$GPGSV,4,1,16,05,56,057,40,12,61,029,37,13,15,127,08,15,34,159,25*73
$GPGSV,4,2,16,18,34,266,19,20,24,038,27,22,00,139,,23,27,206,23*7C
$GPGSV,4,3,16,24,44,194,28,25,38,343,27,29,10,329,,36,52,277,*76
$GPGSV,4,4,16,40,86,351,34,41,58,082,,49,32,274,,50,10,089,*7E
$GLGSV,3,1,09,67,18,088,19,68,29,139,25,69,14,189,,78,17,154,09*6D
$GLGSV,3,2,09,79,71,153,39,80,50,335,36,82,08,002,11,83,23,314,21*6A
$GLGSV,3,3,09,84,13,260,*56
$GNGLL,0419.85107,S,05539.74448,E,054744.00,A,A*6A
$GNRMC,054745.00,A,0419.85104,S,05539.74446,E,0.004,,270525,,,A*7C
$GNVTG,,T,,M,0.004,N,0.007,K,A*3E
$GNGGA,054745.00,0419.85104,S,05539.74446,E,1,12,0.72,28.9,M,-47.6,M,,*4E
$GNGSA,A,3,05,24,12,20,18,15,13,25,23,,,,1.33,0.72,1.12*11
$GNGSA,A,3,79,78,83,82,67,80,68,,,,,,1.33,0.72,1.12*1D
$GPGSV,4,1,16,05,56,057,42,12,61,029,38,13,15,127,10,15,34,159,26*74
$GPGSV,4,2,16,18,34,266,18,20,24,038,27,22,00,139,,23,27,206,23*7D
$GPGSV,4,3,16,24,44,194,28,25,38,343,28,29,10,329,,36,52,277,*79
$GPGSV,4,4,16,40,86,351,35,41,58,082,,49,32,274,,50,10,089,*7F
$GLGSV,3,1,09,67,18,088,18,68,29,139,25,69,14,189,,78,17,154,11*65
$GLGSV,3,2,09,79,71,153,39,80,50,335,36,82,08,002,09,83,23,314,22*60
$GLGSV,3,3,09,84,13,260,*56
$GNGLL,0419.85104,S,05539.74446,E,054745.00,A,A*66
$GNRMC,054746.00,A,0419.85100,S,05539.74448,E,0.213,,270525,,,A*71
$GNVTG,,T,,M,0.213,N,0.395,K,A*32
$GNGGA,054746.00,0419.85100,S,05539.74448,E,1,12,0.72,28.9,M,-47.6,M,,*47
$GNGSA,A,3,05,24,12,20,18,15,13,25,23,,,,1.33,0.72,1.12*11
$GNGSA,A,3,79,78,83,82,67,80,68,,,,,,1.33,0.72,1.12*1D
$GPGSV,4,1,16,05,56,057,39,12,61,029,36,13,15,127,08,15,34,159,27*7E
$GPGSV,4,2,16,18,34,266,17,20,24,038,27,22,00,139,,23,27,206,23*72
$GPGSV,4,3,16,24,44,194,27,25,38,343,29,29,10,329,,36,52,277,*77
$GPGSV,4,4,16,40,86,351,35,41,58,082,,49,32,274,,50,10,089,*7F
$GLGSV,3,1,09,67,18,088,16,68,29,139,25,69,14,189,,78,17,154,08*63
$GLGSV,3,2,09,79,71,153,38,80,50,335,34,82,08,002,07,83,23,314,21*6E
$GLGSV,3,3,09,84,13,260,*56
$GNGLL,0419.85100,S,05539.74448,E,054746.00,A,A*6F
$GNRMC,054747.00,A,0419.85096,S,05539.74449,E,0.105,,270525,,,A*7B
$GNVTG,,T,,M,0.105,N,0.195,K,A*34
$GNGGA,054747.00,0419.85096,S,05539.74449,E,1,12,0.74,29.1,M,-47.6,M,,*46
$GNGSA,A,3,05,24,12,20,18,15,13,25,23,,,,1.39,0.74,1.18*17
$GNGSA,A,3,79,78,83,82,67,80,68,,,,,,1.39,0.74,1.18*1B
$GPGSV,4,1,16,05,56,057,39,12,61,029,37,13,15,127,11,15,34,159,27*77
$GPGSV,4,2,16,18,34,266,16,20,24,038,29,22,00,139,,23,27,206,23*7D
$GPGSV,4,3,16,24,44,194,27,25,38,343,29,29,10,329,,36,52,277,*77
$GPGSV,4,4,16,40,86,351,35,41,58,082,,49,32,274,,50,10,089,*7F
$GLGSV,3,1,09,67,18,088,13,68,29,139,25,69,14,189,,78,17,154,08*66
$GLGSV,3,2,09,79,71,153,38,80,50,335,35,82,08,002,12,83,23,314,21*6B
$GLGSV,3,3,09,84,13,260,*56
$GNGLL,0419.85096,S,05539.74449,E,054747.00,A,A*61
$GNRMC,054748.00,A,0419.85094,S,05539.74452,E,0.244,,270525,,,A*7A
$GNVTG,,T,,M,0.244,N,0.452,K,A*3C
$GNGGA,054748.00,0419.85094,S,05539.74452,E,1,12,0.72,29.0,M,-47.6,M,,*46
$GNGSA,A,3,05,24,12,20,18,15,13,25,23,,,,1.33,0.72,1.12*11
$GNGSA,A,3,79,78,83,82,67,80,68,,,,,,1.33,0.72,1.12*1D
$GPGSV,4,1,16,05,56,057,40,12,61,029,38,13,15,127,10,15,34,159,27*77
$GPGSV,4,2,16,18,34,266,15,20,24,038,29,22,00,139,,23,27,206,23*7E
$GPGSV,4,3,16,24,44,194,27,25,38,343,29,29,10,329,,36,52,277,*77
$GPGSV,4,4,16,40,86,351,35,41,58,082,,49,32,274,,50,10,089,*7F
$GLGSV,3,1,09,67,18,088,13,68,29,139,25,69,14,189,,78,17,154,07*69
$GLGSV,3,2,09,79,71,153,39,80,50,335,35,82,08,002,12,83,23,314,20*6B
$GLGSV,3,3,09,84,13,260,*56
$GNGLL,0419.85094,S,05539.74452,E,054748.00,A,A*66
$GNRMC,054749.00,A,0419.85094,S,05539.74452,E,0.044,,270525,,,A*79
$GNVTG,,T,,M,0.044,N,0.081,K,A*34
$GNGGA,054749.00,0419.85094,S,05539.74452,E,1,12,0.72,29.0,M,-47.6,M,,*47
$GNGSA,A,3,05,24,12,20,18,15,13,25,23,,,,1.33,0.72,1.12*11
$GNGSA,A,3,79,78,83,82,67,80,68,,,,,,1.33,0.72,1.12*1D
$GPGSV,4,1,16,05,56,057,40,12,61,029,38,13,15,127,16,15,34,159,28*7E
$GPGSV,4,2,16,18,34,266,17,20,24,038,30,22,00,139,,23,27,206,21*76
$GPGSV,4,3,16,24,44,194,28,25,38,343,29,29,10,329,,36,52,277,*78
$GPGSV,4,4,16,40,86,351,36,41,58,082,,49,32,274,,50,10,089,*7C
$GLGSV,3,1,09,67,18,088,10,68,29,139,24,69,14,189,,78,17,154,09*65
$GLGSV,3,2,09,79,71,153,38,80,50,335,36,82,08,002,08,83,23,314,18*69
$GLGSV,3,3,09,84,13,260,*56
$GNGLL,0419.85094,S,05539.74452,E,054749.00,A,A*67
$GNRMC,054750.00,A,0419.85091,S,05539.74451,E,0.053,,270525,,,A*71
$GNVTG,,T,,M,0.053,N,0.099,K,A*3B
$GNGGA,054750.00,0419.85091,S,05539.74451,E,1,12,0.79,29.0,M,-47.6,M,,*42
$GNGSA,A,3,05,24,12,20,18,15,13,25,23,,,,1.67,0.79,1.47*1B
$GNGSA,A,3,79,78,83,82,67,80,68,,,,,,1.67,0.79,1.47*17
$GPGSV,4,1,16,05,56,057,38,12,61,029,37,13,15,127,10,15,34,159,29*79
$GPGSV,4,2,16,18,34,266,19,20,24,038,29,22,00,139,,23,27,206,20*71
$GPGSV,4,3,16,24,44,194,27,25,38,343,29,29,10,329,,36,52,277,*77
$GPGSV,4,4,16,40,86,351,36,41,58,082,,49,32,274,,50,10,089,*7C
$GLGSV,3,1,09,67,18,088,10,68,29,139,24,69,14,189,,78,17,154,14*69
$GLGSV,3,2,09,79,71,153,39,80,50,335,35,82,08,002,08,83,23,314,17*64
$GLGSV,3,3,09,84,13,260,*56
$GNGLL,0419.85091,S,05539.74451,E,054750.00,A,A*69
$GNRMC,054751.00,A,0419.85089,S,05539.74448,E,0.021,,270525,,,A*74
$GNVTG,,T,,M,0.021,N,0.039,K,A*34
$GNGGA,054751.00,0419.85089,S,05539.74448,E,1,12,0.72,29.0,M,-47.6,M,,*49
$GNGSA,A,3,05,24,12,20,18,15,13,25,23,,,,1.33,0.72,1.12*11
$GNGSA,A,3,79,78,83,82,67,80,68,,,,,,1.33,0.72,1.12*1D
$GPGSV,4,1,16,05,56,057,39,12,61,029,37,13,15,127,16,15,34,159,28*7F
$GPGSV,4,2,16,18,34,266,19,20,24,038,29,22,00,139,,23,27,206,20*71
$GPGSV,4,3,16,24,44,194,28,25,38,343,29,29,10,329,,36,52,277,*78
$GPGSV,4,4,16,40,86,351,35,41,58,082,,49,32,274,,50,10,089,*7F
$GLGSV,3,1,09,67,18,087,11,68,29,139,25,69,14,189,,78,17,154,12*60
$GLGSV,3,2,09,79,71,153,39,80,50,335,35,82,08,002,08,83,23,314,18*6B
$GLGSV,3,3,09,84,13,260,*56
$GNGLL,0419.85089,S,05539.74448,E,054751.00,A,A*69
$GNRMC,054752.00,A,0419.85089,S,05539.74447,E,0.116,,270525,,,A*7D
$GNVTG,,T,,M,0.116,N,0.215,K,A*3D
$GNGGA,054752.00,0419.85089,S,05539.74447,E,1,12,0.72,28.7,M,-47.6,M,,*43
$GNGSA,A,3,05,24,12,20,18,15,13,25,23,,,,1.33,0.72,1.12*11
$GNGSA,A,3,79,78,83,82,67,80,68,,,,,,1.33,0.72,1.12*1D
$GPGSV,4,1,16,05,56,057,40,12,61,029,37,13,15,127,14,15,34,159,27*7C
$GPGSV,4,2,16,18,34,266,18,20,24,038,29,22,00,139,,23,27,206,19*7A
$GPGSV,4,3,16,24,44,194,28,25,38,343,29,29,10,329,,36,52,277,*78
$GPGSV,4,4,16,40,86,351,34,41,58,082,,49,32,274,,50,10,089,*7E
$GLGSV,3,1,09,67,18,087,12,68,29,139,25,69,14,189,,78,17,154,18*69
$GLGSV,3,2,09,79,71,153,40,80,50,335,35,82,08,002,10,83,23,314,18*6C
$GLGSV,3,3,09,84,13,260,*56
$GNGLL,0419.85089,S,05539.74447,E,054752.00,A,A*65
$GNRMC,054753.00,A,0419.85088,S,05539.74444,E,0.071,,270525,,,A*7E
$GNVTG,,T,,M,0.071,N,0.131,K,A*38
$GNGGA,054753.00,0419.85088,S,05539.74444,E,1,12,0.74,28.7,M,-47.6,M,,*46
$GNGSA,A,3,05,24,12,20,18,15,13,25,23,,,,1.38,0.74,1.17*19
$GNGSA,A,3,79,78,83,82,67,80,68,,,,,,1.38,0.74,1.17*15
$GPGSV,4,1,16,05,56,057,41,12,61,029,38,13,15,127,18,15,34,159,27*7E
$GPGSV,4,2,16,18,34,266,16,20,24,038,28,22,00,139,,23,27,206,19*75
$GPGSV,4,3,16,24,44,194,26,25,38,343,29,29,10,329,,36,52,277,*76
$GPGSV,4,4,16,40,86,351,34,41,58,082,,49,32,274,,50,10,089,*7E
$GLGSV,3,1,09,67,18,087,11,68,29,139,25,69,14,189,,78,17,154,13*61
$GLGSV,3,2,09,79,71,153,40,80,50,335,35,82,08,002,09,83,23,314,19*65
$GLGSV,3,3,09,84,13,260,*56
$GNGLL,0419.85088,S,05539.74444,E,054753.00,A,A*66
$GNRMC,054754.00,A,0419.85085,S,05539.74442,E,0.035,,270525,,,A*72
$GNVTG,,T,,M,0.035,N,0.065,K,A*38
$GNGGA,054754.00,0419.85085,S,05539.74442,E,1,12,0.72,28.6,M,-47.6,M,,*4D
$GNGSA,A,3,05,24,12,20,18,15,13,25,23,,,,1.33,0.72,1.12*11
$GNGSA,A,3,79,78,83,82,67,80,68,,,,,,1.33,0.72,1.12*1D
$GPGSV,4,1,16,05,56,057,41,12,61,029,38,13,15,127,11,15,34,159,28*78
$GPGSV,4,2,16,18,34,266,15,20,24,038,28,22,00,139,,23,27,206,20*7C
$GPGSV,4,3,16,24,44,194,27,25,38,343,29,29,10,329,,36,52,277,*77
$GPGSV,4,4,16,40,86,351,36,41,58,082,,49,32,274,,50,10,089,*7C
$GLGSV,3,1,09,67,18,087,12,68,29,139,22,69,14,189,,78,17,154,14*62
$GLGSV,3,2,09,79,71,153,40,80,50,335,36,82,08,002,13,83,23,314,19*6D
$GLGSV,3,3,09,84,13,260,*56
$GNGLL,0419.85085,S,05539.74442,E,054754.00,A,A*6A
$GNRMC,054755.00,A,0419.85079,S,05539.74442,E,0.099,,270525,,,A*76
$GNVTG,,T,,M,0.099,N,0.183,K,A*37
$GNGGA,054755.00,0419.85079,S,05539.74442,E,1,12,0.76,28.5,M,-47.6,M,,*48
$GNGSA,A,3,05,24,12,20,18,15,13,25,23,,,,1.36,0.76,1.12*10
$GNGSA,A,3,79,78,83,82,67,80,68,,,,,,1.36,0.76,1.12*1C
$GPGSV,4,1,16,05,56,057,39,12,61,029,40,13,15,127,10,15,34,159,28*79
$GPGSV,4,2,16,18,34,266,15,20,24,038,27,22,00,139,,23,27,206,19*79
$GPGSV,4,3,16,24,44,194,26,25,38,343,29,29,10,329,,36,52,277,*76
$GPGSV,4,4,16,40,86,351,36,41,58,082,,49,32,274,,50,10,089,*7C
$GLGSV,3,1,09,67,18,087,11,68,29,139,22,69,14,189,,78,17,154,14*61
$GLGSV,3,2,09,79,71,153,41,80,50,335,33,82,08,002,12,83,23,314,21*63
$GLGSV,3,3,09,84,13,260,*56
$GNGLL,0419.85079,S,05539.74442,E,054755.00,A,A*68
$GNRMC,054756.00,A,0419.85076,S,05539.74442,E,0.035,,270525,,,A*7C
$GNVTG,,T,,M,0.035,N,0.065,K,A*38
$GNGGA,054756.00,0419.85076,S,05539.74442,E,1,12,0.71,28.5,M,-47.6,M,,*43
$GNGSA,A,3,05,24,12,20,18,15,13,25,23,,,,1.50,0.71,1.32*15
$GNGSA,A,3,79,83,82,67,80,68,,,,,,,1.50,0.71,1.32*16
$GPGSV,4,1,16,05,56,057,38,12,61,029,37,13,15,127,10,15,34,159,27*77
$GPGSV,4,2,16,18,34,266,14,20,24,038,25,22,00,139,,23,27,206,21*71
$GPGSV,4,3,16,24,44,194,23,25,38,343,19,29,10,329,,36,52,277,*70
$GPGSV,4,4,16,40,86,351,31,41,58,082,,49,32,274,,50,10,089,*7B
$GLGSV,3,1,09,67,18,087,12,68,29,139,22,69,14,189,,78,17,154,06*61
$GLGSV,3,2,09,79,71,153,42,80,50,335,27,82,08,002,08,83,23,314,23*6C
$GLGSV,3,3,09,84,13,260,*56
$GNGLL,0419.85076,S,05539.74442,E,054756.00,A,A*64
$GNRMC,054757.00,A,0419.85068,S,05539.74422,E,0.668,,270525,,,A*7A
$GNVTG,,T,,M,0.668,N,1.237,K,A*32
$GNGGA,054757.00,0419.85068,S,05539.74422,E,1,12,0.68,28.4,M,-47.6,M,,*42
$GNGSA,A,3,05,24,12,20,18,15,13,23,,,,,1.29,0.68,1.10*14
$GNGSA,A,3,79,78,83,82,67,80,68,,,,,,1.29,0.68,1.10*1F
$GPGSV,4,1,16,05,56,057,41,12,61,029,39,13,15,127,13,15,34,159,27*74
$GPGSV,4,2,16,18,34,266,13,20,24,038,24,22,00,139,,23,27,206,21*77
$GPGSV,4,3,16,24,44,194,21,25,38,343,,29,10,329,,36,52,277,*7A
$GPGSV,4,4,16,40,86,351,35,41,58,082,,49,32,274,,50,10,089,*7F
$GLGSV,3,1,09,67,18,087,14,68,29,139,24,69,14,189,,78,17,154,10*66
$GLGSV,3,2,09,79,71,153,43,80,50,335,29,82,08,002,07,83,23,314,22*6D
$GLGSV,3,3,09,84,13,260,*56
$GNGLL,0419.85068,S,05539.74422,E,054757.00,A,A*6C
$GNRMC,054758.00,A,0419.85064,S,05539.74414,E,0.068,,270525,,,A*7A
$GNVTG,,T,,M,0.068,N,0.126,K,A*36
$GNGGA,054758.00,0419.85064,S,05539.74414,E,1,12,0.68,28.6,M,-47.6,M,,*46
$GNGSA,A,3,05,24,12,20,18,15,13,23,,,,,1.29,0.68,1.10*14
$GNGSA,A,3,79,78,83,82,67,80,68,,,,,,1.29,0.68,1.10*1F
$GPGSV,4,1,16,05,56,057,40,12,61,029,41,13,15,127,10,15,34,159,27*79
$GPGSV,4,2,16,18,34,266,12,20,24,038,26,22,00,139,,23,27,206,21*74
$GPGSV,4,3,16,24,44,194,26,25,38,343,22,29,10,329,,36,52,277,*7D
$GPGSV,4,4,16,40,86,351,36,41,58,082,,49,32,274,,50,10,089,*7C
$GLGSV,3,1,09,67,18,087,15,68,29,139,23,69,14,189,,78,17,154,13*63
$GLGSV,3,2,09,79,71,153,43,80,50,335,28,82,08,002,10,83,23,314,22*6A
$GLGSV,3,3,09,84,13,260,*56
$GNGLL,0419.85064,S,05539.74414,E,054758.00,A,A*6A
$GNRMC,054759.00,A,0419.85063,S,05539.74411,E,0.039,,270525,,,A*7D
$GNVTG,,T,,M,0.039,N,0.072,K,A*32
$GNGGA,054759.00,0419.85063,S,05539.74411,E,1,12,0.76,28.5,M,-47.6,M,,*49
$GNGSA,A,3,05,24,12,20,18,15,23,,,,,,1.61,0.76,1.43*13
$GNGSA,A,3,79,78,83,82,67,80,68,,,,,,1.61,0.76,1.43*1A
$GPGSV,4,1,16,05,56,057,40,12,61,029,39,13,15,127,07,15,34,159,26*71
$GPGSV,4,2,16,18,34,266,11,20,24,038,27,22,00,139,,23,27,206,21*76
$GPGSV,4,3,16,24,44,194,28,25,38,343,24,29,10,329,,36,52,277,*75
$GPGSV,4,4,16,40,86,351,37,41,58,082,,49,32,274,,50,10,089,*7D
$GLGSV,3,1,09,67,18,087,16,68,29,139,23,69,14,189,,78,17,154,14*67
$GLGSV,3,2,09,79,71,153,43,80,50,335,27,82,08,002,10,83,23,314,21*66
$GLGSV,3,3,09,84,13,260,*56
$GNGLL,0419.85063,S,05539.74411,E,054759.00,A,A*69
$GNRMC,054800.00,A,0419.85067,S,05539.74412,E,0.253,,270525,,,A*77
$GNVTG,,T,,M,0.253,N,0.469,K,A*32
$GNGGA,054800.00,0419.85067,S,05539.74412,E,1,12,0.66,28.2,M,-47.6,M,,*4B
$GNGSA,A,3,05,24,12,20,18,15,13,25,23,,,,1.28,0.66,1.10*1C
$GNGSA,A,3,79,78,83,82,67,80,68,,,,,,1.28,0.66,1.10*10
$GPGSV,4,1,16,05,56,057,41,12,61,029,43,13,15,127,18,15,34,159,25*70
$GPGSV,4,2,16,18,34,266,12,20,24,038,28,22,00,139,,23,27,206,20*7B
$GPGSV,4,3,16,24,44,194,28,25,38,343,24,29,10,329,,36,52,277,*75
$GPGSV,4,4,16,40,86,351,39,41,58,082,,49,32,274,,50,10,089,*73
$GLGSV,3,1,09,67,18,087,15,68,29,139,23,69,14,189,,78,17,154,08*69
$GLGSV,3,2,09,79,71,153,43,80,50,335,26,82,08,002,09,83,23,314,20*6E
$GLGSV,3,3,09,84,13,260,*56
$GNGLL,0419.85067,S,05539.74412,E,054800.00,A,A*6D
$GNRMC,054801.00,A,0419.85070,S,05539.74419,E,0.283,,270525,,,A*76
$GNVTG,,T,,M,0.283,N,0.525,K,A*36
$GNGGA,054801.00,0419.85070,S,05539.74419,E,1,12,0.66,28.1,M,-47.6,M,,*44
$GNGSA,A,3,05,24,12,20,18,15,13,25,23,,,,1.28,0.66,1.10*1C
$GNGSA,A,3,79,78,83,82,67,80,68,,,,,,1.28,0.66,1.10*10
$GPGSV,4,1,16,05,56,057,39,12,61,029,41,13,15,127,16,15,34,159,26*70
$GPGSV,4,2,16,18,34,266,13,20,24,038,28,22,00,139,,23,27,206,21*7B
$GPGSV,4,3,16,24,44,194,28,25,38,343,23,29,10,329,,36,52,277,*72
$GPGSV,4,4,16,40,86,351,36,41,58,082,,49,32,274,,50,10,089,*7C
$GLGSV,3,1,09,67,18,087,16,68,29,139,22,69,14,189,,78,17,154,08*6B
$GLGSV,3,2,09,79,71,153,43,80,50,335,26,82,08,002,09,83,23,314,17*6A
