$GNRMC,054236.00,A,0419.84025,S,05539.74211,E,0.023,,270525,,,A*7F
$GNVTG,,T,,M,0.023,N,0.043,K,A*3B
$GNGGA,054236.00,0419.84025,S,05539.74211,E,1,12,0.75,23.6,M,-47.6,M,,*4B
$GNGSA,A,3,05,24,12,20,18,15,13,25,,,,,1.51,0.75,1.32*11
$GNGSA,A,3,79,78,83,67,80,68,,,,,,,1.51,0.75,1.32*16
$GPGSV,5,1,17,05,58,061,28,11,00,030,,12,59,026,26,13,15,129,26*7A
$GPGSV,5,2,17,15,33,162,37,18,34,263,15,20,25,039,27,22,01,137,*7E
$GPGSV,5,3,17,23,25,206,27,24,45,196,35,25,36,343,34,29,10,327,11*7C
$GPGSV,5,4,17,36,52,277,,40,86,351,35,41,58,082,,49,32,274,*7A
$GPGSV,5,5,17,50,10,089,*4A
$GLGSV,3,1,09,67,18,090,20,68,28,142,34,69,12,191,,78,20,153,22*66
$GLGSV,3,2,09,79,73,148,35,80,47,337,27,82,09,001,,83,24,312,21*69
$GLGSV,3,3,09,84,13,257,*52
$GNGLL,0419.84025,S,05539.74211,E,054236.00,A,A*60
$GNRMC,054237.00,A,0419.84023,S,05539.74210,E,0.160,,270525,,,A*7F
$GNVTG,,T,,M,0.160,N,0.296,K,A*37
$GNGGA,054237.00,0419.84023,S,05539.74210,E,1,12,0.75,23.5,M,-47.6,M,,*4E
$GNGSA,A,3,05,24,12,20,18,15,13,25,,,,,1.51,0.75,1.32*11
$GNGSA,A,3,79,78,83,67,80,68,,,,,,,1.51,0.75,1.32*16
$GPGSV,5,1,17,05,58,061,26,11,00,030,,12,59,026,25,13,15,129,24*75
$GPGSV,5,2,17,15,33,162,34,18,34,263,15,20,25,039,25,22,01,137,*7F
$GPGSV,5,3,17,23,25,206,26,24,45,196,32,25,36,343,36,29,10,327,11*78
$GPGSV,5,4,17,36,52,277,,40,86,351,,41,58,082,,49,32,274,*7C
$GPGSV,5,5,17,50,10,089,*4A
$GLGSV,3,1,09,67,18,090,17,68,28,142,31,69,12,191,,78,20,153,20*65
$GLGSV,3,2,09,79,73,148,31,80,47,337,27,82,09,001,,83,24,312,19*66
$GLGSV,3,3,09,84,13,257,*52
$GNGLL,0419.84023,S,05539.74210,E,054237.00,A,A*66
$GNRMC,054238.00,A,0419.84022,S,05539.74204,E,0.064,,270525,,,A*71
$GNVTG,,T,,M,0.064,N,0.118,K,A*37
$GNGGA,054238.00,0419.84022,S,05539.74204,E,1,12,0.76,23.3,M,-47.6,M,,*40
$GNGSA,A,3,05,24,12,20,18,15,13,25,,,,,1.61,0.76,1.42*16
$GNGSA,A,3,79,78,83,67,80,68,,,,,,,1.61,0.76,1.42*11
$GPGSV,5,1,17,05,58,061,28,11,00,030,,12,59,026,23,13,15,129,25*7C
$GPGSV,5,2,17,15,33,162,37,18,34,263,16,20,25,039,24,22,01,137,*7E
$GPGSV,5,3,17,23,25,206,26,24,45,196,35,25,36,343,36,29,10,327,11*7F
$GPGSV,5,4,17,36,52,277,,40,86,351,,41,58,082,,49,32,274,*7C
$GPGSV,5,5,17,50,10,089,*4A
$GLGSV,3,1,09,67,18,090,13,68,28,142,35,69,12,191,,78,20,153,19*6F
$GLGSV,3,2,09,79,73,148,32,80,47,337,28,82,09,001,,83,24,312,18*6B
$GLGSV,3,3,09,84,13,257,*52
$GNGLL,0419.84022,S,05539.74204,E,054238.00,A,A*6D
$GNRMC,054239.00,A,0419.84021,S,05539.74204,E,0.055,,270525,,,A*71
$GNVTG,,T,,M,0.055,N,0.101,K,A*3D
$GNGGA,054239.00,0419.84021,S,05539.74204,E,1,12,0.76,23.3,M,-47.6,M,,*42
$GNGSA,A,3,05,24,12,20,18,15,13,25,,,,,1.61,0.76,1.42*16
$GNGSA,A,3,79,78,83,67,80,68,,,,,,,1.61,0.76,1.42*11
$GPGSV,5,1,17,05,58,061,28,11,00,030,,12,59,026,24,13,15,129,26*78
$GPGSV,5,2,17,15,33,162,38,18,34,263,16,20,25,039,24,22,01,137,*71
$GPGSV,5,3,17,23,25,206,26,24,45,196,36,25,36,343,35,29,10,327,11*7F
$GPGSV,5,4,17,36,52,277,,40,86,351,,41,58,082,,49,32,274,*7C
$GPGSV,5,5,17,50,10,089,*4A
$GLGSV,3,1,09,67,18,090,14,68,28,142,35,69,12,191,,78,20,153,21*63
$GLGSV,3,2,09,79,73,148,34,80,47,337,28,82,09,001,,83,24,312,19*6C
$GLGSV,3,3,09,84,13,257,*52
$GNGLL,0419.84021,S,05539.74204,E,054239.00,A,A*6F
$GNRMC,054240.00,A,0419.84020,S,05539.74200,E,0.113,,270525,,,A*79
$GNVTG,,T,,M,0.113,N,0.209,K,A*35
$GNGGA,054240.00,0419.84020,S,05539.74200,E,1,12,0.75,23.3,M,-47.6,M,,*4A
$GNGSA,A,3,05,24,12,20,18,15,13,25,,,,,1.51,0.75,1.32*11
$GNGSA,A,3,79,78,83,67,80,68,,,,,,,1.51,0.75,1.32*16
$GPGSV,5,1,17,05,58,061,29,11,00,030,,12,59,026,26,13,15,129,27*7A
$GPGSV,5,2,17,15,33,162,38,18,34,263,15,20,25,039,23,22,01,137,*75
$GPGSV,5,3,17,23,25,206,27,24,45,196,36,25,36,343,34,29,10,327,11*7F
$GPGSV,5,4,17,36,52,277,,40,86,351,,41,58,082,,49,32,274,*7C
$GPGSV,5,5,17,50,10,089,*4A
$GLGSV,3,1,09,67,18,090,14,68,28,142,35,69,12,191,,78,20,153,22*60
$GLGSV,3,2,09,79,73,148,35,80,47,337,27,82,09,001,,83,24,312,22*6A
$GLGSV,3,3,09,84,13,257,*52
$GNGLL,0419.84020,S,05539.74200,E,054240.00,A,A*64
$GNRMC,054241.00,A,0419.84013,S,05539.74197,E,0.094,,270525,,,A*7B
$GNVTG,,T,,M,0.094,N,0.174,K,A*32
$GNGGA,054241.00,0419.84013,S,05539.74197,E,1,12,0.75,23.3,M,-47.6,M,,*46
$GNGSA,A,3,05,24,12,20,18,15,13,25,,,,,1.51,0.75,1.32*11
$GNGSA,A,3,79,78,83,67,80,68,,,,,,,1.51,0.75,1.32*16
$GPGSV,5,1,17,05,58,061,28,11,00,030,,12,59,026,25,13,15,129,26*79
$GPGSV,5,2,17,15,33,162,35,18,34,263,14,20,25,039,22,22,01,137,*78
$GPGSV,5,3,17,23,25,206,26,24,45,196,36,25,36,343,37,29,10,327,11*7D
$GPGSV,5,4,17,36,52,277,,40,86,351,,41,58,082,,49,32,274,*7C
$GPGSV,5,5,17,50,10,089,*4A
$GLGSV,3,1,09,67,18,090,22,68,28,142,36,69,12,191,,78,20,153,23*67
$GLGSV,3,2,09,79,73,148,35,80,47,337,29,82,09,001,,83,24,312,22*64
$GLGSV,3,3,09,84,13,257,*52
$GNGLL,0419.84013,S,05539.74197,E,054241.00,A,A*68
$GNRMC,054242.00,A,0419.84007,S,05539.74187,E,0.095,,270525,,,A*7D
$GNVTG,,T,,M,0.095,N,0.176,K,A*31
$GNGGA,054242.00,0419.84007,S,05539.74187,E,1,12,0.75,22.9,M,-47.6,M,,*4A
$GNGSA,A,3,05,24,12,20,18,15,13,25,,,,,1.51,0.75,1.32*11
$GNGSA,A,3,79,78,83,67,80,68,,,,,,,1.51,0.75,1.32*16
$GPGSV,5,1,17,05,58,061,30,11,00,030,,12,59,026,24,13,15,129,25*72
$GPGSV,5,2,17,15,33,162,37,18,34,263,17,20,25,039,24,22,01,137,*7F
$GPGSV,5,3,17,23,25,206,25,24,45,196,36,25,36,343,39,29,10,327,14*75
$GPGSV,5,4,17,36,52,277,31,40,86,351,,41,58,082,,49,32,274,*7E
$GPGSV,5,5,17,50,10,089,*4A
$GLGSV,3,1,09,67,18,090,20,68,28,142,36,69,12,191,,78,20,153,25*63
$GLGSV,3,2,09,79,73,148,35,80,47,337,30,82,09,001,,83,24,312,22*6C
$GLGSV,3,3,09,84,13,257,*52
$GNGLL,0419.84007,S,05539.74187,E,054242.00,A,A*6F
$GNRMC,054243.00,A,0419.84003,S,05539.74187,E,0.134,,270525,,,A*72
$GNVTG,,T,,M,0.134,N,0.249,K,A*34
$GNGGA,054243.00,0419.84003,S,05539.74187,E,1,12,0.75,22.7,M,-47.6,M,,*41
$GNGSA,A,3,05,24,12,20,18,15,13,25,,,,,1.51,0.75,1.32*11
$GNGSA,A,3,79,78,83,67,80,68,,,,,,,1.51,0.75,1.32*16
$GPGSV,5,1,17,05,58,061,34,11,00,030,,12,59,026,22,13,15,129,25*70
$GPGSV,5,2,17,15,33,162,39,18,34,263,16,20,25,039,25,22,01,137,*71
$GPGSV,5,3,17,23,25,206,27,24,45,196,37,25,36,343,39,29,10,327,17*75
$GPGSV,5,4,17,36,52,277,35,40,86,351,,41,58,082,,49,32,274,*7A
$GPGSV,5,5,17,50,10,089,*4A
$GLGSV,3,1,09,67,18,090,20,68,28,142,36,69,12,191,,78,20,153,25*63
$GLGSV,3,2,09,79,73,148,34,80,47,337,30,82,09,001,,83,24,312,22*6D
$GLGSV,3,3,09,84,13,257,*52
$GNGLL,0419.84003,S,05539.74187,E,054243.00,A,A*6A
$GNRMC,054244.00,A,0419.83997,S,05539.74194,E,0.094,,270525,,,A*7F
$GNVTG,,T,,M,0.094,N,0.174,K,A*32
$GNGGA,054244.00,0419.83997,S,05539.74194,E,1,12,0.86,22.7,M,-47.6,M,,*4B
$GNGSA,A,3,05,24,12,20,15,13,25,,,,,,1.59,0.86,1.34*1A
$GNGSA,A,3,79,78,83,67,80,68,,,,,,,1.59,0.86,1.34*14
$GPGSV,5,1,17,05,58,061,31,11,00,030,,12,59,026,31,13,15,129,24*76
$GPGSV,5,2,17,15,33,162,37,18,34,263,17,20,25,039,22,22,01,137,*79
$GPGSV,5,3,17,23,25,206,26,24,45,196,37,25,36,343,38,29,10,327,20*71
$GPGSV,5,4,17,36,52,277,34,40,86,351,,41,58,082,,49,32,274,*7B
$GPGSV,5,5,17,50,10,089,*4A
$GLGSV,3,1,09,67,18,090,20,68,28,142,36,69,12,191,,78,20,153,25*63
$GLGSV,3,2,09,79,73,148,35,80,47,337,29,82,09,001,,83,24,312,21*67
$GLGSV,3,3,09,84,13,257,*52
$GNGLL,0419.83997,S,05539.74194,E,054244.00,A,A*6C
$GNRMC,054245.00,A,0419.83994,S,05539.74199,E,0.030,,270525,,,A*7E
$GNVTG,,T,,M,0.030,N,0.055,K,A*3E
$GNGGA,054245.00,0419.83994,S,05539.74199,E,1,12,0.75,22.5,M,-47.6,M,,*4A
$GNGSA,A,3,05,24,12,20,18,15,13,25,,,,,1.51,0.75,1.32*11
$GNGSA,A,3,79,78,83,67,80,68,,,,,,,1.51,0.75,1.32*16
$GPGSV,5,1,17,05,58,061,30,11,00,030,,12,59,026,32,13,15,129,21*71
$GPGSV,5,2,17,15,33,162,38,18,34,263,17,20,25,039,20,22,01,137,*74
$GPGSV,5,3,17,23,25,206,27,24,45,196,39,25,36,343,37,29,10,327,20*71
$GPGSV,5,4,17,36,52,277,34,40,86,351,,41,58,082,,49,32,274,*7B
$GPGSV,5,5,17,50,10,089,*4A
$GLGSV,3,1,09,67,18,090,20,68,28,142,36,69,12,191,,78,20,153,24*62
$GLGSV,3,2,09,79,73,148,36,80,47,337,28,82,09,001,,83,24,312,21*65
$GLGSV,3,3,09,84,13,257,*52
$GNGLL,0419.83994,S,05539.74199,E,054245.00,A,A*63
$GNRMC,054246.00,A,0419.83991,S,05539.74203,E,0.176,,270525,,,A*7B
$GNVTG,,T,,M,0.176,N,0.326,K,A*3A
$GNGGA,054246.00,0419.83991,S,05539.74203,E,1,12,0.75,22.3,M,-47.6,M,,*4A
$GNGSA,A,3,05,24,12,20,18,15,13,25,,,,,1.51,0.75,1.32*11
$GNGSA,A,3,79,78,83,67,80,68,,,,,,,1.51,0.75,1.32*16
$GPGSV,5,1,17,05,58,061,32,11,00,030,,12,59,026,30,13,15,129,19*7A
$GPGSV,5,2,17,15,33,162,38,18,34,263,18,20,25,039,20,22,01,137,*7B
$GPGSV,5,3,17,23,25,206,29,24,45,196,37,25,36,343,33,29,10,327,20*75
$GPGSV,5,4,17,36,52,277,34,40,86,351,,41,58,082,,49,32,274,*7B
$GPGSV,5,5,17,50,10,089,*4A
$GLGSV,3,1,09,67,18,090,20,68,28,142,36,69,12,191,,78,20,153,23*65
$GLGSV,3,2,09,79,73,148,36,80,47,337,28,82,09,001,,83,24,312,21*65
$GLGSV,3,3,09,84,13,257,*52
$GNGLL,0419.83991,S,05539.74203,E,054246.00,A,A*65
$GNRMC,054247.00,A,0419.83990,S,05539.74206,E,0.117,,270525,,,A*79
$GNVTG,,T,,M,0.117,N,0.216,K,A*3F
$GNGGA,054247.00,0419.83990,S,05539.74206,E,1,12,0.74,22.4,M,-47.6,M,,*49
$GNGSA,A,3,05,24,12,20,18,15,25,,,,,,1.48,0.74,1.28*11
$GNGSA,A,3,79,78,83,67,80,68,,,,,,,1.48,0.74,1.28*14
$GPGSV,5,1,17,05,58,061,32,11,00,030,,12,59,026,29,13,15,129,*7A
$GPGSV,5,2,17,15,33,162,38,18,34,263,21,20,25,039,20,22,01,137,*71
$GPGSV,5,3,17,23,25,206,30,24,45,196,38,25,36,343,34,29,10,327,18*7E
$GPGSV,5,4,17,36,52,277,33,40,86,351,,41,58,082,,49,32,274,*7C
$GPGSV,5,5,17,50,10,089,*4A
$GLGSV,3,1,09,67,18,090,20,68,28,142,36,69,12,191,,78,20,153,22*64
$GLGSV,3,2,09,79,73,148,35,80,47,337,27,82,09,001,,83,24,312,23*6B
$GLGSV,3,3,09,84,13,257,*52
$GNGLL,0419.83990,S,05539.74206,E,054247.00,A,A*60
$GNRMC,054248.00,A,0419.83989,S,05539.74210,E,0.034,,270525,,,A*79
$GNVTG,,T,,M,0.034,N,0.063,K,A*3F
$GNGGA,054248.00,0419.83989,S,05539.74210,E,1,12,0.74,22.4,M,-47.6,M,,*49
$GNGSA,A,3,05,24,12,20,18,15,25,,,,,,1.48,0.74,1.28*11
$GNGSA,A,3,79,78,83,67,80,68,,,,,,,1.48,0.74,1.28*14
$GPGSV,5,1,17,05,58,061,32,11,00,030,,12,59,026,29,13,15,129,15*7E
$GPGSV,5,2,17,15,33,162,38,18,34,263,25,20,25,039,19,22,01,137,*7F
$GPGSV,5,3,17,23,25,206,28,24,45,196,38,25,36,343,34,29,10,327,16*79
$GPGSV,5,4,17,36,52,277,34,40,86,351,,41,58,082,,49,32,274,*7B
$GPGSV,5,5,17,50,10,089,*4A
$GLGSV,3,1,09,67,18,090,19,68,28,142,36,69,12,191,,78,20,153,23*6F
$GLGSV,3,2,09,79,73,148,36,80,47,337,26,82,09,001,,83,24,312,24*6E
$GLGSV,3,3,09,84,13,257,*52
$GNGLL,0419.83989,S,05539.74210,E,054248.00,A,A*60
$GNRMC,054249.00,A,0419.83988,S,05539.74214,E,0.026,,270525,,,A*7E
$GNVTG,,T,,M,0.026,N,0.048,K,A*35
$GNGGA,054249.00,0419.83988,S,05539.74214,E,1,12,0.76,22.2,M,-47.6,M,,*49
$GNGSA,A,3,05,24,12,20,18,15,25,,,,,,1.59,0.76,1.39*13
$GNGSA,A,3,79,78,83,67,80,68,,,,,,,1.59,0.76,1.39*16
$GPGSV,5,1,17,05,58,061,33,11,00,030,,12,59,026,29,13,15,129,15*7F
$GPGSV,5,2,17,15,33,162,38,18,34,263,26,20,25,039,19,22,01,137,*7C
$GPGSV,5,3,17,23,25,206,29,24,45,196,40,25,36,343,34,29,10,327,18*79
$GPGSV,5,4,17,36,52,277,33,40,86,351,,41,58,082,,49,32,274,*7C
$GPGSV,5,5,17,50,10,089,*4A
$GLGSV,3,1,09,67,18,090,18,68,28,142,35,69,12,191,,78,20,153,24*6A
$GLGSV,3,2,09,79,73,148,35,80,47,337,26,82,09,001,,83,24,312,22*6B
$GLGSV,3,3,09,84,13,257,*52
$GNGLL,0419.83988,S,05539.74214,E,054249.00,A,A*64
$GNRMC,054250.00,A,0419.83987,S,05539.74219,E,0.025,,270525,,,A*77
$GNVTG,,T,,M,0.025,N,0.047,K,A*39
$GNGGA,054250.00,0419.83987,S,05539.74219,E,1,12,0.76,22.0,M,-47.6,M,,*41
$GNGSA,A,3,05,24,12,20,18,15,25,,,,,,1.59,0.76,1.39*13
$GNGSA,A,3,79,78,83,67,80,68,,,,,,,1.59,0.76,1.39*16
$GPGSV,5,1,17,05,58,061,33,11,00,030,,12,59,026,31,13,15,129,14*77
$GPGSV,5,2,17,15,33,162,38,18,34,263,25,20,25,039,19,22,01,137,*7F
$GPGSV,5,3,17,23,25,206,30,24,45,196,39,25,36,343,34,29,10,327,20*74
$GPGSV,5,4,17,36,52,277,32,40,86,351,,41,58,082,,49,32,274,*7D
$GPGSV,5,5,17,50,10,089,*4A
$GLGSV,3,1,09,67,18,090,17,68,28,142,35,69,12,191,,78,20,153,23*62
$GLGSV,3,2,09,79,73,148,36,80,47,337,27,82,09,001,,83,24,312,21*6A
$GLGSV,3,3,09,84,13,257,*52
$GNGLL,0419.83987,S,05539.74219,E,054250.00,A,A*6E
$GNRMC,054251.00,A,0419.83985,S,05539.74223,E,0.004,,270525,,,A*7E
$GNVTG,,T,,M,0.004,N,0.007,K,A*3E
$GNGGA,054251.00,0419.83985,S,05539.74223,E,1,12,0.76,21.8,M,-47.6,M,,*40
$GNGSA,A,3,05,24,12,20,18,15,25,,,,,,1.59,0.76,1.39*13
$GNGSA,A,3,79,78,83,67,80,68,,,,,,,1.59,0.76,1.39*16
$GPGSV,5,1,17,05,58,061,33,11,00,030,,12,59,026,31,13,15,129,12*71
$GPGSV,5,2,17,15,33,162,38,18,34,263,24,20,25,039,18,22,01,137,*7F
$GPGSV,5,3,17,23,25,206,29,24,45,196,39,25,36,343,34,29,10,327,18*77
$GPGSV,5,4,17,36,52,277,33,40,86,351,,41,58,082,,49,32,274,*7C
$GPGSV,5,5,17,50,10,089,*4A
$GLGSV,3,1,09,67,18,090,14,68,28,142,35,69,12,191,,78,20,153,23*61
$GLGSV,3,2,09,79,73,148,35,80,47,337,26,82,09,001,,83,24,312,21*68
$GLGSV,3,3,09,84,13,257,*52
$GNGLL,0419.83985,S,05539.74223,E,054251.00,A,A*64
$GNRMC,054252.00,A,0419.83981,S,05539.74231,E,0.059,,270525,,,A*72
$GNVTG,,T,,M,0.059,N,0.110,K,A*31
$GNGGA,054252.00,0419.83981,S,05539.74231,E,1,12,0.77,21.8,M,-47.6,M,,*45
$GNGSA,A,3,05,24,12,20,18,15,13,25,,,,,1.61,0.77,1.41*14
$GNGSA,A,3,79,78,83,67,80,68,,,,,,,1.61,0.77,1.41*13
$GPGSV,5,1,17,05,58,061,33,11,00,030,,12,59,026,30,13,15,129,16*74
$GPGSV,5,2,17,15,33,162,38,18,34,263,26,20,25,039,19,22,01,137,*7C
$GPGSV,5,3,17,23,25,206,28,24,45,196,39,25,36,343,35,29,10,327,*7E
$GPGSV,5,4,17,36,52,277,34,40,86,351,,41,58,082,,49,32,274,*7B
$GPGSV,5,5,17,50,10,089,*4A
$GLGSV,3,1,09,67,18,090,12,68,28,142,35,69,12,191,,78,20,153,23*67
$GLGSV,3,2,09,79,73,148,34,80,47,337,23,82,09,001,,83,24,312,24*69
$GLGSV,3,3,09,84,13,257,*52
$GNGLL,0419.83981,S,05539.74231,E,054252.00,A,A*60
$GNRMC,054253.00,A,0419.83977,S,05539.74238,E,0.027,,270525,,,A*7A
$GNVTG,,T,,M,0.027,N,0.051,K,A*3C
$GNGGA,054253.00,0419.83977,S,05539.74238,E,1,12,0.77,21.7,M,-47.6,M,,*4B
$GNGSA,A,3,05,24,12,20,18,15,13,25,,,,,1.61,0.77,1.41*14
$GNGSA,A,3,79,78,83,67,80,68,,,,,,,1.61,0.77,1.41*13
$GPGSV,5,1,17,05,58,061,33,11,00,030,,12,59,026,30,13,15,129,17*75
$GPGSV,5,2,17,15,33,162,38,18,34,263,27,20,25,039,22,22,01,137,*75
$GPGSV,5,3,17,23,25,206,28,24,45,196,39,25,36,343,35,29,10,327,*7E
$GPGSV,5,4,17,36,52,277,33,40,86,351,,41,58,082,,49,32,274,*7C
$GPGSV,5,5,17,50,10,089,*4A
$GLGSV,3,1,09,67,18,090,10,68,28,142,35,69,13,191,,78,20,153,24*63
$GLGSV,3,2,09,79,73,148,34,80,47,337,20,82,09,001,,83,24,312,26*68
$GLGSV,3,3,09,84,13,257,*52
$GNGLL,0419.83977,S,05539.74238,E,054253.00,A,A*61
$GNRMC,054254.00,A,0419.83975,S,05539.74240,E,0.033,,270525,,,A*75
$GNVTG,,T,,M,0.033,N,0.060,K,A*3B
$GNGGA,054254.00,0419.83975,S,05539.74240,E,1,12,0.77,21.6,M,-47.6,M,,*40
$GNGSA,A,3,05,24,12,20,18,15,13,25,,,,,1.61,0.77,1.41*14
$GNGSA,A,3,79,78,83,67,80,68,,,,,,,1.61,0.77,1.41*13
$GPGSV,5,1,17,05,58,061,33,11,00,030,,12,59,026,32,13,15,129,18*78
$GPGSV,5,2,17,15,33,162,38,18,34,263,26,20,25,039,22,22,01,137,*74
$GPGSV,5,3,17,23,25,206,28,24,45,196,39,25,36,343,36,29,10,327,*7D
$GPGSV,5,4,17,36,52,277,32,40,86,351,,41,58,082,,49,32,274,*7D
$GPGSV,5,5,17,50,10,089,*4A
$GLGSV,3,1,09,67,18,090,14,68,28,142,35,69,13,191,,78,20,153,24*67
$GLGSV,3,2,09,79,73,148,34,80,47,337,15,82,09,001,,83,24,312,27*6F
$GLGSV,3,3,09,84,13,257,*52
$GNGLL,0419.83975,S,05539.74240,E,054254.00,A,A*6B
$GNRMC,054255.00,A,0419.83974,S,05539.74246,E,0.062,,270525,,,A*77
$GNVTG,,T,,M,0.062,N,0.114,K,A*3D
$GNGGA,054255.00,0419.83974,S,05539.74246,E,1,12,0.77,21.4,M,-47.6,M,,*44
$GNGSA,A,3,05,24,12,20,18,15,13,25,,,,,1.61,0.77,1.41*14
$GNGSA,A,3,79,78,83,67,80,68,,,,,,,1.61,0.77,1.41*13
$GPGSV,5,1,17,05,58,061,34,11,00,030,,12,59,026,32,13,15,129,22*76
$GPGSV,5,2,17,15,33,162,38,18,34,263,27,20,25,039,21,22,01,137,*76
$GPGSV,5,3,17,23,25,206,29,24,45,196,39,25,36,343,35,29,10,327,*7F
$GPGSV,5,4,17,36,52,277,32,40,86,351,,41,58,082,,49,32,274,*7D
$GPGSV,5,5,17,50,10,089,*4A
$GLGSV,3,1,09,67,18,090,14,68,28,142,34,69,13,191,,78,20,153,25*67
$GLGSV,3,2,09,79,73,148,34,80,47,337,13,82,09,001,,83,24,312,26*68
$GLGSV,3,3,09,84,13,257,*52
$GNGLL,0419.83974,S,05539.74246,E,054255.00,A,A*6D
$GNRMC,054256.00,A,0419.83973,S,05539.74246,E,0.066,,270525,,,A*77
$GNVTG,,T,,M,0.066,N,0.122,K,A*3C
$GNGGA,054256.00,0419.83973,S,05539.74246,E,1,12,0.76,21.3,M,-47.6,M,,*46
$GNGSA,A,3,05,24,12,20,18,15,13,25,,,,,1.53,0.76,1.33*11
$GNGSA,A,3,79,78,83,67,80,68,,,,,,,1.53,0.76,1.33*16
$GPGSV,5,1,17,05,58,061,32,11,00,030,,12,59,026,33,13,15,129,24*77
$GPGSV,5,2,17,15,33,162,37,18,34,263,27,20,25,039,20,22,01,137,*78
$GPGSV,5,3,17,23,25,206,29,24,45,196,39,25,36,343,35,29,10,327,*7F
$GPGSV,5,4,17,36,52,277,32,40,86,351,,41,58,082,,49,32,274,*7D
$GPGSV,5,5,17,50,10,089,*4A
$GLGSV,3,1,09,67,18,090,15,68,28,142,35,69,13,191,,78,20,153,25*67
$GLGSV,3,2,09,79,73,148,34,80,47,337,17,82,09,001,,83,24,312,24*6E
$GLGSV,3,3,09,84,13,257,*52
$GNGLL,0419.83973,S,05539.74246,E,054256.00,A,A*69
$GNRMC,054257.00,A,0419.83971,S,05539.74249,E,0.021,,270525,,,A*78
$GNVTG,,T,,M,0.021,N,0.039,K,A*34
$GNGGA,054257.00,0419.83971,S,05539.74249,E,1,12,0.76,21.3,M,-47.6,M,,*4A
$GNGSA,A,3,05,24,12,20,18,15,13,25,,,,,1.53,0.76,1.33*11
$GNGSA,A,3,79,78,83,67,80,68,,,,,,,1.53,0.76,1.33*16
$GPGSV,5,1,17,05,58,061,30,11,00,030,,12,59,026,33,13,15,129,24*75
$GPGSV,5,2,17,15,33,162,37,18,34,263,26,20,25,039,19,22,01,137,*73
$GPGSV,5,3,17,23,25,206,29,24,45,196,39,25,36,343,35,29,10,327,*7F
$GPGSV,5,4,17,36,52,277,32,40,86,351,,41,58,082,,49,32,274,*7D
$GPGSV,5,5,17,50,10,089,*4A
$GLGSV,3,1,09,67,18,090,13,68,28,142,35,69,13,191,,78,20,153,25*61
$GLGSV,3,2,09,79,73,148,34,80,47,337,21,82,09,001,,83,24,312,23*6C
$GLGSV,3,3,09,84,13,257,*52
$GNGLL,0419.83971,S,05539.74249,E,054257.00,A,A*65
$GNRMC,054258.00,A,0419.83971,S,05539.74250,E,0.047,,270525,,,A*7F
$GNVTG,,T,,M,0.047,N,0.088,K,A*3E
$GNGGA,054258.00,0419.83971,S,05539.74250,E,1,12,0.81,21.2,M,-47.6,M,,*44
$GNGSA,A,3,05,24,12,20,18,15,13,25,,,,,1.61,0.81,1.39*12
$GNGSA,A,3,79,78,83,80,68,,,,,,,,1.61,0.81,1.39*14
$GPGSV,5,1,17,05,58,061,30,11,00,030,,12,59,026,34,13,15,129,23*75
$GPGSV,5,2,17,15,33,162,38,18,34,263,25,20,25,039,20,22,01,137,*75
$GPGSV,5,3,17,23,25,206,29,24,45,196,39,25,36,343,35,29,10,327,*7F
$GPGSV,5,4,17,36,52,277,32,40,86,351,,41,58,082,,49,32,274,*7D
$GPGSV,5,5,17,50,10,089,*4A
$GLGSV,3,1,09,67,18,090,09,68,28,142,35,69,13,191,,78,20,153,25*6A
$GLGSV,3,2,09,79,73,148,33,80,47,337,24,82,09,001,,83,24,312,23*6E
$GLGSV,3,3,09,84,13,257,*52
$GNGLL,0419.83971,S,05539.74250,E,054258.00,A,A*62
$GNRMC,054259.00,A,0419.83971,S,05539.74251,E,0.035,,270525,,,A*7A
$GNVTG,,T,,M,0.035,N,0.065,K,A*38
$GNGGA,054259.00,0419.83971,S,05539.74251,E,1,12,0.76,20.9,M,-47.6,M,,*46
$GNGSA,A,3,05,24,12,20,18,15,13,25,,,,,1.53,0.76,1.33*11
$GNGSA,A,3,79,78,83,67,80,68,,,,,,,1.53,0.76,1.33*16
$GPGSV,5,1,17,05,58,061,29,11,00,030,,12,59,026,35,13,15,129,22*7D
$GPGSV,5,2,17,15,33,162,38,18,34,263,26,20,25,039,19,22,01,137,*7C
$GPGSV,5,3,17,23,25,206,29,24,45,196,39,25,36,343,34,29,10,327,*7E
$GPGSV,5,4,17,36,52,277,31,40,86,351,,41,58,082,,49,32,274,*7E
$GPGSV,5,5,17,50,10,089,*4A
$GLGSV,3,1,09,67,18,090,10,68,28,142,35,69,13,191,,78,20,153,24*63
$GLGSV,3,2,09,79,73,148,32,80,47,337,25,82,09,001,,83,24,312,26*6B
$GLGSV,3,3,09,84,13,257,*52
$GNGLL,0419.83971,S,05539.74251,E,054259.00,A,A*62
$GNRMC,054300.00,A,0419.83971,S,05539.74252,E,0.031,,270525,,,A*70
$GNVTG,,T,,M,0.031,N,0.057,K,A*3D
$GNGGA,054300.00,0419.83971,S,05539.74252,E,1,12,0.76,20.8,M,-47.6,M,,*49
$GNGSA,A,3,05,24,12,20,18,15,13,25,,,,,1.53,0.76,1.33*11
$GNGSA,A,3,79,78,83,67,80,68,,,,,,,1.53,0.76,1.33*16
$GPGSV,5,1,17,05,58,061,28,11,00,030,,12,59,026,34,13,15,129,22*7D
$GPGSV,5,2,17,15,33,162,38,18,34,263,27,20,25,039,19,22,01,137,*7D
$GPGSV,5,3,17,23,25,206,30,24,45,196,39,25,36,343,34,29,10,327,*76
$GPGSV,5,4,17,36,52,277,31,40,86,351,,41,58,082,,49,32,274,*7E
$GPGSV,5,5,17,50,10,089,*4A
$GLGSV,3,1,09,67,18,090,12,68,28,142,35,69,13,191,,78,20,153,24*61
$GLGSV,3,2,09,79,73,148,32,80,47,337,26,82,09,001,,83,24,312,27*69
$GLGSV,3,3,09,84,13,257,*52
$GNGLL,0419.83971,S,05539.74252,E,054300.00,A,A*6C
$GNRMC,054301.00,A,0419.83974,S,05539.74255,E,0.077,,270525,,,A*71
$GNVTG,,T,,M,0.077,N,0.143,K,A*3B
$GNGGA,054301.00,0419.83974,S,05539.74255,E,1,12,0.69,20.8,M,-47.6,M,,*44
$GNGSA,A,3,05,24,12,20,18,15,13,25,23,,,,1.47,0.69,1.30*18
$GNGSA,A,3,79,78,83,67,80,68,,,,,,,1.47,0.69,1.30*1E
$GPGSV,5,1,17,05,58,061,28,11,00,030,,12,59,026,34,13,15,129,21*7E
$GPGSV,5,2,17,15,33,162,38,18,34,263,26,20,25,039,22,22,01,137,*74
$GPGSV,5,3,17,23,25,206,30,24,45,196,39,25,36,343,34,29,10,327,*76
$GPGSV,5,4,17,36,52,277,32,40,86,351,,41,58,082,,49,32,274,*7D
$GPGSV,5,5,17,50,10,089,*4A
$GLGSV,3,1,09,67,18,090,15,68,28,142,35,69,13,191,,78,20,153,25*67
$GLGSV,3,2,09,79,73,148,32,80,47,337,27,82,09,001,,83,24,312,27*68
$GLGSV,3,3,09,84,13,257,*52
$GNGLL,0419.83974,S,05539.74255,E,054301.00,A,A*6F
$GNRMC,054302.00,A,0419.83975,S,05539.74257,E,0.054,,270525,,,A*70
$GNVTG,,T,,M,0.054,N,0.099,K,A*3C
$GNGGA,054302.00,0419.83975,S,05539.74257,E,1,12,0.69,20.8,M,-47.6,M,,*44
$GNGSA,A,3,05,24,12,20,18,15,13,25,23,,,,1.47,0.69,1.30*18
$GNGSA,A,3,79,78,83,67,80,68,,,,,,,1.47,0.69,1.30*1E
$GPGSV,5,1,17,05,58,061,30,11,00,030,,12,59,026,34,13,15,129,22*74
$GPGSV,5,2,17,15,33,162,37,18,34,263,26,20,25,039,23,22,01,137,*7A
$GPGSV,5,3,17,23,25,206,30,24,45,196,39,25,36,343,35,29,10,327,*77
$GPGSV,5,4,17,36,52,277,32,40,86,351,,41,58,082,,49,32,274,*7D
$GPGSV,5,5,17,50,10,089,*4A
$GLGSV,3,1,09,67,18,090,17,68,28,142,36,69,13,191,,78,19,154,25*6B
$GLGSV,3,2,09,79,73,148,32,80,47,337,28,82,09,001,,83,24,312,27*67
$GLGSV,3,3,09,84,13,257,*52
$GNGLL,0419.83975,S,05539.74257,E,054302.00,A,A*6F
$GNRMC,054303.00,A,0419.83977,S,05539.74259,E,0.014,,270525,,,A*79
$GNVTG,,T,,M,0.014,N,0.026,K,A*3C
$GNGGA,054303.00,0419.83977,S,05539.74259,E,1,12,0.69,20.8,M,-47.6,M,,*49
$GNGSA,A,3,05,24,12,20,18,15,13,25,23,,,,1.47,0.69,1.30*18
$GNGSA,A,3,79,78,83,67,80,68,,,,,,,1.47,0.69,1.30*1E
$GPGSV,5,1,17,05,58,061,29,11,00,030,,12,59,026,34,13,15,129,23*7D
$GPGSV,5,2,17,15,33,162,37,18,34,263,27,20,25,039,22,22,01,137,*7A
$GPGSV,5,3,17,23,25,206,30,24,45,196,39,25,36,343,35,29,10,327,*77
$GPGSV,5,4,17,36,52,277,32,40,86,351,,41,58,082,,49,32,274,*7D
$GPGSV,5,5,17,50,10,089,*4A
$GLGSV,3,1,09,67,18,090,17,68,28,142,36,69,13,191,,78,19,154,24*6A
$GLGSV,3,2,09,79,73,149,31,80,47,337,29,82,09,001,,83,24,312,26*65
$GLGSV,3,3,09,84,13,257,*52
$GNGLL,0419.83977,S,05539.74259,E,054303.00,A,A*62
$GNRMC,054304.00,A,0419.83977,S,05539.74267,E,0.033,,270525,,,A*76
$GNVTG,,T,,M,0.033,N,0.062,K,A*39
$GNGGA,054304.00,0419.83977,S,05539.74267,E,1,12,0.69,20.9,M,-47.6,M,,*42
$GNGSA,A,3,05,24,12,20,18,15,13,25,23,,,,1.47,0.69,1.30*18
$GNGSA,A,3,79,78,83,67,80,68,,,,,,,1.47,0.69,1.30*1E
$GPGSV,5,1,17,05,58,061,27,11,00,030,,12,59,026,34,13,15,129,24*74
$GPGSV,5,2,17,15,33,162,38,18,34,263,27,20,25,039,20,22,01,137,*77
$GPGSV,5,3,17,23,25,206,31,24,45,196,40,25,36,343,35,29,10,327,*78
$GPGSV,5,4,17,36,52,277,32,40,86,351,,41,58,082,,49,32,274,*7D
$GPGSV,5,5,17,50,10,089,*4A
$GLGSV,3,1,09,67,18,090,17,68,28,142,35,69,13,191,,78,19,154,24*69
$GLGSV,3,2,09,79,73,149,31,80,48,336,30,82,09,001,,83,24,312,26*63
$GLGSV,3,3,09,84,13,257,*52
$GNGLL,0419.83977,S,05539.74267,E,054304.00,A,A*68
$GNRMC,054305.00,A,0419.83978,S,05539.74278,E,0.037,,270525,,,A*72
$GNVTG,,T,,M,0.037,N,0.069,K,A*36
$GNGGA,054305.00,0419.83978,S,05539.74278,E,1,12,0.69,21.1,M,-47.6,M,,*4B
$GNGSA,A,3,05,24,12,20,18,15,13,25,23,,,,1.47,0.69,1.30*18
$GNGSA,A,3,79,78,83,67,80,68,,,,,,,1.47,0.69,1.30*1E
$GPGSV,5,1,17,05,58,061,26,11,00,030,22,12,59,026,34,13,15,129,23*72
$GPGSV,5,2,17,15,33,162,38,18,34,263,29,20,25,039,19,22,01,137,*73
$GPGSV,5,3,17,23,25,206,31,24,45,196,40,25,36,343,35,29,10,327,*78
$GPGSV,5,4,17,36,52,277,32,40,86,351,,41,58,082,,49,32,274,*7D
$GPGSV,5,5,17,50,10,089,*4A
$GLGSV,3,1,09,67,18,090,15,68,28,142,35,69,13,191,,78,19,154,25*6A
$GLGSV,3,2,09,79,73,149,30,80,48,336,30,82,09,001,,83,24,312,27*63
$GLGSV,3,3,09,84,13,257,*52
$GNGLL,0419.83978,S,05539.74278,E,054305.00,A,A*68
$GNRMC,054306.00,A,0419.83980,S,05539.74295,E,0.009,,270525,,,A*78
$GNVTG,,T,,M,0.009,N,0.017,K,A*32
$GNGGA,054306.00,0419.83980,S,05539.74295,E,1,12,0.69,21.3,M,-47.6,M,,*4E
$GNGSA,A,3,05,24,12,20,18,15,13,25,23,,,,1.47,0.69,1.30*18
$GNGSA,A,3,79,78,83,67,80,68,,,,,,,1.47,0.69,1.30*1E
$GPGSV,5,1,17,05,58,061,25,11,00,030,19,12,59,026,34,13,15,129,22*78
$GPGSV,5,2,17,15,33,162,38,18,34,263,30,20,25,039,19,22,01,137,*7B
$GPGSV,5,3,17,23,25,206,32,24,45,196,40,25,36,343,35,29,10,327,*7B
$GPGSV,5,4,17,36,52,277,32,40,86,351,,41,58,082,,49,32,274,*7D
$GPGSV,5,5,17,50,10,089,*4A
$GLGSV,3,1,09,67,18,090,12,68,28,142,35,69,13,191,,78,19,154,24*6C
$GLGSV,3,2,09,79,73,149,29,80,48,336,31,82,09,001,,83,24,312,28*65
$GLGSV,3,3,09,84,13,257,*52
$GNGLL,0419.83980,S,05539.74295,E,054306.00,A,A*6F
$GNRMC,054307.00,A,0419.83981,S,05539.74310,E,0.010,,270525,,,A*7C
$GNVTG,,T,,M,0.010,N,0.018,K,A*35
$GNGGA,054307.00,0419.83981,S,05539.74310,E,1,12,0.69,21.5,M,-47.6,M,,*44
$GNGSA,A,3,05,24,12,20,18,15,13,25,23,,,,1.47,0.69,1.30*18
$GNGSA,A,3,79,78,83,67,80,68,,,,,,,1.47,0.69,1.30*1E
$GPGSV,5,1,17,05,58,061,27,11,00,030,,12,59,026,34,13,15,129,22*72
$GPGSV,5,2,17,15,33,162,38,18,34,263,31,20,25,039,20,22,01,137,*70
$GPGSV,5,3,17,23,25,206,31,24,45,196,40,25,36,343,34,29,10,327,*79
$GPGSV,5,4,17,36,52,277,32,40,86,351,33,41,58,082,,49,32,274,*7D
$GPGSV,5,5,17,50,10,089,*4A
$GLGSV,3,1,09,67,18,090,13,68,28,142,35,69,13,191,,78,19,154,24*6D
$GLGSV,3,2,09,79,73,149,29,80,48,336,31,82,09,001,,83,24,312,27*6A
$GLGSV,3,3,09,84,13,257,*52
$GNGLL,0419.83981,S,05539.74310,E,054307.00,A,A*63
$GNRMC,054308.00,A,0419.83984,S,05539.74324,E,0.026,,270525,,,A*74
$GNVTG,,T,,M,0.026,N,0.048,K,A*35
$GNGGA,054308.00,0419.83984,S,05539.74324,E,1,12,0.69,21.6,M,-47.6,M,,*4A
$GNGSA,A,3,05,24,12,20,18,15,13,25,23,,,,1.47,0.69,1.30*18
$GNGSA,A,3,79,78,83,67,80,68,,,,,,,1.47,0.69,1.30*1E
$GPGSV,5,1,17,05,58,061,28,11,00,030,,12,59,026,34,13,15,129,21*7E
$GPGSV,5,2,17,15,33,162,38,18,34,263,31,20,25,039,20,22,01,137,*70
$GPGSV,5,3,17,23,25,206,30,24,45,196,39,25,36,343,35,29,10,327,*77
$GPGSV,5,4,17,36,52,277,32,40,86,351,32,41,58,082,,49,32,274,*7C
$GPGSV,5,5,17,50,10,089,*4A
$GLGSV,3,1,09,67,18,090,12,68,28,142,35,69,13,191,,78,19,154,25*6D
$GLGSV,3,2,09,79,73,149,31,80,48,336,31,82,09,001,,83,24,312,26*62
$GLGSV,3,3,09,84,13,258,*5D
$GNGLL,0419.83984,S,05539.74324,E,054308.00,A,A*6E
$GNRMC,054309.00,A,0419.83988,S,05539.74335,E,0.004,,270525,,,A*79
$GNVTG,,T,,M,0.004,N,0.007,K,A*3E
$GNGGA,054309.00,0419.83988,S,05539.74335,E,1,12,0.74,21.5,M,-47.6,M,,*48
$GNGSA,A,3,05,24,12,20,18,15,13,25,23,,,,1.55,0.74,1.36*11
$GNGSA,A,3,79,78,83,80,68,,,,,,,,1.55,0.74,1.36*16
$GPGSV,5,1,17,05,58,061,30,11,00,030,,12,59,026,34,13,15,129,22*74
$GPGSV,5,2,17,15,33,162,38,18,34,263,31,20,25,039,22,22,01,137,*72
$GPGSV,5,3,17,23,25,206,30,24,45,196,39,25,36,343,35,29,10,327,*77
$GPGSV,5,4,17,36,52,277,31,40,86,351,31,41,58,082,,49,32,274,*7C
$GPGSV,5,5,17,50,10,089,*4A
$GLGSV,3,1,09,67,18,090,09,68,28,142,35,69,13,191,,78,19,154,25*67
$GLGSV,3,2,09,79,73,149,31,80,48,336,32,82,09,001,,83,24,312,26*61
$GLGSV,3,3,09,84,13,258,*5D
$GNGLL,0419.83988,S,05539.74335,E,054309.00,A,A*63
$GNRMC,054310.00,A,0419.83992,S,05539.74342,E,0.012,,270525,,,A*7D
$GNVTG,,T,,M,0.012,N,0.022,K,A*3E
$GNGGA,054310.00,0419.83992,S,05539.74342,E,1,12,0.74,21.4,M,-47.6,M,,*4A
$GNGSA,A,3,05,24,12,20,18,15,13,25,23,,,,1.55,0.74,1.36*11
$GNGSA,A,3,79,78,83,80,68,,,,,,,,1.55,0.74,1.36*16
$GPGSV,5,1,17,05,58,061,31,11,00,030,,12,59,026,34,13,15,129,23*74
$GPGSV,5,2,17,15,33,162,38,18,34,263,30,20,25,039,22,22,01,137,*73
$GPGSV,5,3,17,23,25,206,29,24,45,196,39,25,36,343,35,29,10,327,*7F
$GPGSV,5,4,17,36,52,277,31,40,86,351,32,41,58,082,,49,32,274,*7F
$GPGSV,5,5,17,50,10,089,*4A
$GLGSV,3,1,09,67,18,090,07,68,28,142,35,69,13,191,,78,19,154,25*69
$GLGSV,3,2,09,79,73,149,31,80,48,336,32,82,09,001,,83,24,312,25*62
$GLGSV,3,3,09,84,13,258,*5D
$GNGLL,0419.83992,S,05539.74342,E,054310.00,A,A*60
$GNRMC,054311.00,A,0419.83995,S,05539.74349,E,0.017,,270525,,,A*75
$GNVTG,,T,,M,0.017,N,0.031,K,A*39
$GNGGA,054311.00,0419.83995,S,05539.74349,E,1,12,0.74,21.2,M,-47.6,M,,*41
$GNGSA,A,3,05,24,12,20,18,15,13,25,23,,,,1.55,0.74,1.36*11
$GNGSA,A,3,79,78,83,67,80,68,,,,,,,1.55,0.74,1.36*17
$GPGSV,5,1,17,05,58,061,32,11,00,030,,12,59,026,34,13,15,129,25*71
$GPGSV,5,2,17,15,33,162,38,18,34,263,30,20,25,039,21,22,01,137,*70
$GPGSV,5,3,17,23,25,206,29,24,45,196,40,25,36,343,35,29,10,327,*71
$GPGSV,5,4,17,36,52,277,32,40,86,351,32,41,58,082,,49,32,274,*7C
$GPGSV,5,5,17,50,10,089,*4A
$GLGSV,3,1,09,67,18,090,15,68,28,142,35,69,13,191,,78,19,154,23*6C
$GLGSV,3,2,09,79,73,149,31,80,48,336,31,82,09,001,,83,24,312,25*61
$GLGSV,3,3,09,84,13,258,*5D
$GNGLL,0419.83995,S,05539.74349,E,054311.00,A,A*6D
$GNRMC,054312.00,A,0419.83999,S,05539.74357,E,0.068,,270525,,,A*7D
$GNVTG,,T,,M,0.068,N,0.125,K,A*35
$GNGGA,054312.00,0419.83999,S,05539.74357,E,1,12,0.69,21.0,M,-47.6,M,,*4F
$GNGSA,A,3,05,24,12,20,18,15,13,25,23,,,,1.47,0.69,1.30*18
$GNGSA,A,3,79,78,83,67,80,68,,,,,,,1.47,0.69,1.30*1E
$GPGSV,5,1,17,05,58,061,32,11,00,030,,12,59,026,34,13,15,129,25*71
$GPGSV,5,2,17,15,33,162,38,18,34,263,30,20,25,039,19,22,01,137,*7B
$GPGSV,5,3,17,23,25,206,29,24,45,196,39,25,36,343,35,29,10,327,*7F
$GPGSV,5,4,17,36,52,277,32,40,86,351,32,41,58,082,,49,32,274,*7C
$GPGSV,5,5,17,50,10,089,*4A
$GLGSV,3,1,09,67,18,090,11,68,28,142,35,69,13,191,,78,19,154,24*6F
$GLGSV,3,2,09,79,73,149,31,80,48,336,31,82,09,001,,83,24,312,25*61
$GLGSV,3,3,09,84,13,258,*5D
$GNGLL,0419.83999,S,05539.74357,E,054312.00,A,A*6D
$GNRMC,054313.00,A,0419.84002,S,05539.74365,E,0.011,,270525,,,A*7F
$GNVTG,,T,,M,0.011,N,0.020,K,A*3F
$GNGGA,054313.00,0419.84002,S,05539.74365,E,1,12,0.69,20.8,M,-47.6,M,,*4A
$GNGSA,A,3,05,24,12,20,18,15,13,25,23,,,,1.47,0.69,1.30*18
$GNGSA,A,3,79,78,83,67,80,68,,,,,,,1.47,0.69,1.30*1E
$GPGSV,5,1,17,05,58,061,31,11,00,030,,12,59,026,34,13,15,129,25*72
$GPGSV,5,2,17,15,33,162,38,18,34,263,30,20,25,039,19,22,01,137,*7B
$GPGSV,5,3,17,23,25,206,30,24,45,196,39,25,36,343,35,29,10,327,*77
$GPGSV,5,4,17,36,52,277,32,40,86,351,32,41,58,082,,49,32,274,*7C
$GPGSV,5,5,17,50,10,089,*4A
$GLGSV,3,1,09,67,18,090,13,68,28,142,35,69,13,191,,78,19,154,25*6C
$GLGSV,3,2,09,79,73,149,31,80,48,336,32,82,09,001,,83,24,312,23*64
$GLGSV,3,3,09,84,13,258,*5D
$GNGLL,0419.84002,S,05539.74365,E,054313.00,A,A*61
$GNRMC,054314.00,A,0419.84006,S,05539.74369,E,0.014,,270525,,,A*75
$GNVTG,,T,,M,0.014,N,0.027,K,A*3D
$GNGGA,054314.00,0419.84006,S,05539.74369,E,1,12,0.69,20.7,M,-47.6,M,,*4A
$GNGSA,A,3,05,24,12,20,18,15,13,25,23,,,,1.47,0.69,1.30*18
$GNGSA,A,3,79,78,83,67,80,68,,,,,,,1.47,0.69,1.30*1E
$GPGSV,5,1,17,05,58,061,31,11,00,030,,12,59,026,34,13,15,129,26*71
$GPGSV,5,2,17,15,33,162,38,18,34,263,30,20,25,039,19,22,01,137,*7B
$GPGSV,5,3,17,23,25,206,29,24,45,196,38,25,36,343,35,29,10,327,21*7D
$GPGSV,5,4,17,36,52,277,31,40,86,351,32,41,58,082,,49,32,274,*7F
$GPGSV,5,5,17,50,10,089,*4A
$GLGSV,3,1,09,67,18,090,14,68,28,142,35,69,13,191,,78,19,154,25*6B
$GLGSV,3,2,09,79,73,149,31,80,48,336,32,82,09,001,,83,24,312,23*64
$GLGSV,3,3,09,84,13,258,*5D
$GNGLL,0419.84006,S,05539.74369,E,054314.00,A,A*6E
$GNRMC,054315.00,A,0419.84010,S,05539.74372,E,0.032,,270525,,,A*7D
$GNVTG,,T,,M,0.032,N,0.059,K,A*30
$GNGGA,054315.00,0419.84010,S,05539.74372,E,1,12,0.69,20.4,M,-47.6,M,,*45
$GNGSA,A,3,05,24,12,20,18,15,13,25,23,,,,1.47,0.69,1.30*18
$GNGSA,A,3,79,78,83,67,80,68,,,,,,,1.47,0.69,1.30*1E
$GPGSV,5,1,17,05,58,061,30,11,00,030,,12,59,026,34,13,15,129,27*71
$GPGSV,5,2,17,15,33,162,39,18,34,263,29,20,25,039,19,22,01,137,*72
$GPGSV,5,3,17,23,25,206,30,24,45,196,38,25,36,343,35,29,10,327,20*74
$GPGSV,5,4,17,36,52,277,32,40,86,351,31,41,58,082,,49,32,274,*7F
$GPGSV,5,5,17,50,10,089,*4A
$GLGSV,3,1,09,67,18,090,13,68,28,142,35,69,13,191,,78,19,154,26*6F
$GLGSV,3,2,09,79,73,149,32,80,48,336,32,82,09,001,,83,24,312,23*67
$GLGSV,3,3,09,84,13,258,*5D
$GNGLL,0419.84010,S,05539.74372,E,054315.00,A,A*62
$GNRMC,054316.00,A,0419.84014,S,05539.74374,E,0.044,,270525,,,A*7D
$GNVTG,,T,,M,0.044,N,0.081,K,A*34
$GNGGA,054316.00,0419.84014,S,05539.74374,E,1,12,0.69,20.4,M,-47.6,M,,*44
$GNGSA,A,3,05,24,12,20,18,15,13,25,23,,,,1.47,0.69,1.30*18
$GNGSA,A,3,79,78,83,67,80,68,,,,,,,1.47,0.69,1.30*1E
$GPGSV,5,1,17,05,58,061,29,11,00,030,,12,59,026,33,13,15,129,27*7E
$GPGSV,5,2,17,15,33,162,39,18,34,263,28,20,25,039,18,22,01,137,*72
$GPGSV,5,3,17,23,25,206,29,24,45,196,38,25,36,343,35,29,10,327,19*76
$GPGSV,5,4,17,36,52,277,32,40,86,351,32,41,58,082,,49,32,274,*7C
$GPGSV,5,5,17,50,10,089,*4A
$GLGSV,3,1,09,67,18,090,17,68,28,142,35,69,13,191,,78,19,154,26*6B
$GLGSV,3,2,09,79,73,149,32,80,48,336,31,82,09,001,,83,24,312,23*64
$GLGSV,3,3,09,84,13,258,*5D
$GNGLL,0419.84014,S,05539.74374,E,054316.00,A,A*63
$GNRMC,054317.00,A,0419.84018,S,05539.74373,E,0.052,,270525,,,A*70
$GNVTG,,T,,M,0.052,N,0.096,K,A*35
$GNGGA,054317.00,0419.84018,S,05539.74373,E,1,12,0.69,20.1,M,-47.6,M,,*4B
$GNGSA,A,3,05,24,12,20,18,15,13,25,23,,,,1.47,0.69,1.30*18
$GNGSA,A,3,79,78,83,67,80,68,,,,,,,1.47,0.69,1.30*1E
$GPGSV,5,1,17,05,58,060,28,11,00,030,,12,59,026,32,13,15,129,27*7F
$GPGSV,5,2,17,15,33,162,39,18,34,263,26,20,25,039,19,22,01,137,*7D
$GPGSV,5,3,17,23,25,206,27,24,45,196,37,25,36,343,35,29,10,327,16*78
$GPGSV,5,4,17,36,52,277,32,40,86,351,31,41,58,082,,49,32,274,*7F
$GPGSV,5,5,17,50,10,089,*4A
$GLGSV,3,1,09,67,18,090,12,68,28,142,35,69,13,191,,78,19,154,26*6E
$GLGSV,3,2,09,79,73,149,33,80,48,336,32,82,09,001,,83,24,312,24*61
$GLGSV,3,3,09,84,13,258,*5D
$GNGLL,0419.84018,S,05539.74373,E,054317.00,A,A*69
$GNRMC,054318.00,A,0419.84022,S,05539.74370,E,0.039,,270525,,,A*78
$GNVTG,,T,,M,0.039,N,0.073,K,A*33
$GNGGA,054318.00,0419.84022,S,05539.74370,E,1,12,0.69,19.9,M,-47.6,M,,*4C
$GNGSA,A,3,05,24,12,20,18,15,13,25,23,,,,1.47,0.69,1.30*18
$GNGSA,A,3,79,78,83,67,80,68,,,,,,,1.47,0.69,1.30*1E
$GPGSV,5,1,17,05,58,060,27,11,00,030,,12,59,026,32,13,15,129,26*71
$GPGSV,5,2,17,15,33,162,38,18,34,263,25,20,25,039,21,22,01,137,*74
$GPGSV,5,3,17,23,25,206,27,24,45,196,37,25,36,343,35,29,10,327,15*7B
$GPGSV,5,4,17,36,52,277,32,40,86,351,30,41,58,082,,49,32,274,*7E
$GPGSV,5,5,17,50,10,089,*4A
$GLGSV,3,1,09,67,18,090,17,68,28,142,36,69,13,191,,78,19,154,26*68
$GLGSV,3,2,09,79,73,149,32,80,48,336,32,82,09,001,,83,24,312,25*61
$GLGSV,3,3,09,84,13,258,*5D
$GNGLL,0419.84022,S,05539.74370,E,054318.00,A,A*6C
$GNRMC,054319.00,A,0419.84027,S,05539.74366,E,0.056,,270525,,,A*72
$GNVTG,,T,,M,0.056,N,0.104,K,A*3B
$GNGGA,054319.00,0419.84027,S,05539.74366,E,1,12,0.69,19.8,M,-47.6,M,,*4E
$GNGSA,A,3,05,24,12,20,18,15,13,25,23,,,,1.47,0.69,1.29*10
$GNGSA,A,3,79,78,83,67,80,68,,,,,,,1.47,0.69,1.29*16
$GPGSV,5,1,17,05,58,060,27,11,00,030,,12,59,026,32,13,15,129,26*71
$GPGSV,5,2,17,15,33,162,39,18,34,263,23,20,25,039,21,22,01,137,*73
$GPGSV,5,3,17,23,25,206,27,24,45,196,37,25,36,343,34,29,10,327,13*7C
$GPGSV,5,4,17,36,52,277,31,40,86,351,30,41,58,082,,49,32,274,*7D
$GPGSV,5,5,17,50,10,089,*4A
$GLGSV,3,1,09,67,18,090,19,68,28,142,36,69,13,191,,78,19,154,25*65
$GLGSV,3,2,09,79,73,149,32,80,48,336,32,82,09,001,,83,24,312,26*62
$GLGSV,3,3,09,84,13,258,*5D
$GNGLL,0419.84027,S,05539.74366,E,054319.00,A,A*6F
$GNRMC,054320.00,A,0419.84030,S,05539.74364,E,0.014,,270525,,,A*7A
$GNVTG,,T,,M,0.014,N,0.026,K,A*3C
$GNGGA,054320.00,0419.84030,S,05539.74364,E,1,12,0.69,19.7,M,-47.6,M,,*4F
$GNGSA,A,3,05,24,12,20,18,15,13,25,23,,,,1.47,0.69,1.29*10
$GNGSA,A,3,79,78,83,67,80,68,,,,,,,1.47,0.69,1.29*16
$GPGSV,5,1,17,05,58,060,27,11,00,030,,12,59,026,32,13,15,129,26*71
$GPGSV,5,2,17,15,33,162,39,18,34,263,21,20,25,039,22,22,01,137,*72
$GPGSV,5,3,17,23,25,206,28,24,45,196,37,25,36,343,34,29,10,327,10*70
$GPGSV,5,4,17,36,52,277,31,40,86,351,29,41,58,082,,49,32,274,*75
$GPGSV,5,5,17,50,10,089,*4A
$GLGSV,3,1,09,67,18,090,20,68,28,142,36,69,13,191,,78,19,154,24*6E
$GLGSV,3,2,09,79,73,149,32,80,48,336,32,82,09,001,,83,24,312,26*62
$GLGSV,3,3,09,84,13,258,*5D
$GNGLL,0419.84030,S,05539.74364,E,054320.00,A,A*61
$GNRMC,054321.00,A,0419.84033,S,05539.74360,E,0.065,,270525,,,A*7A
$GNVTG,,T,,M,0.065,N,0.120,K,A*3D
$GNGGA,054321.00,0419.84033,S,05539.74360,E,1,12,0.69,19.5,M,-47.6,M,,*4B
$GNGSA,A,3,05,24,12,20,18,15,13,25,23,,,,1.47,0.69,1.29*10
$GNGSA,A,3,79,78,83,67,80,68,,,,,,,1.47,0.69,1.29*16
$GPGSV,5,1,17,05,58,060,27,11,00,030,,12,59,026,32,13,15,129,25*72
$GPGSV,5,2,17,15,33,162,39,18,34,263,18,20,25,039,21,22,01,137,*7B
$GPGSV,5,3,17,23,25,206,28,24,45,196,37,25,36,343,34,29,10,327,11*71
$GPGSV,5,4,17,36,52,277,31,40,86,351,29,41,58,082,,49,32,274,*75
$GPGSV,5,5,17,50,10,089,*4A
$GLGSV,3,1,09,67,18,090,19,68,28,142,36,69,13,191,,78,19,154,23*63
$GLGSV,3,2,09,79,73,149,33,80,48,336,32,82,09,001,,83,24,312,25*60
$GLGSV,3,3,09,84,13,258,*5D
$GNGLL,0419.84033,S,05539.74360,E,054321.00,A,A*67
$GNRMC,054322.00,A,0419.84037,S,05539.74355,E,0.048,,270525,,,A*74
$GNVTG,,T,,M,0.048,N,0.088,K,A*31
$GNGGA,054322.00,0419.84037,S,05539.74355,E,1,12,0.69,19.4,M,-47.6,M,,*4B
$GNGSA,A,3,05,24,12,20,18,15,13,25,23,,,,1.47,0.69,1.29*10
$GNGSA,A,3,79,78,83,67,80,68,,,,,,,1.47,0.69,1.29*16
$GPGSV,5,1,17,05,58,060,29,11,00,030,,12,59,026,33,13,15,129,26*7E
$GPGSV,5,2,17,15,33,162,40,18,34,263,17,20,25,039,22,22,01,137,*79
$GPGSV,5,3,17,23,25,206,29,24,45,196,38,25,36,343,34,29,10,327,14*7A
$GPGSV,5,4,17,36,52,277,31,40,86,351,30,41,58,082,,49,32,274,*7D
$GPGSV,5,5,17,50,10,089,*4A
$GLGSV,3,1,09,67,18,090,20,68,28,142,36,69,13,191,,78,19,154,22*68
$GLGSV,3,2,09,79,73,149,34,80,48,336,31,82,09,001,,83,24,312,25*64
$GLGSV,3,3,09,84,13,258,*5D
$GNGLL,0419.84037,S,05539.74355,E,054322.00,A,A*66
$GNRMC,054323.00,A,0419.84040,S,05539.74349,E,0.039,,270525,,,A*7E
$GNVTG,,T,,M,0.039,N,0.073,K,A*33
$GNGGA,054323.00,0419.84040,S,05539.74349,E,1,12,0.69,19.2,M,-47.6,M,,*41
$GNGSA,A,3,05,24,12,20,18,15,13,25,23,,,,1.47,0.69,1.29*10
$GNGSA,A,3,79,78,83,67,80,68,,,,,,,1.47,0.69,1.29*16
$GPGSV,5,1,17,05,58,060,30,11,00,030,,12,59,026,33,13,15,129,26*76
$GPGSV,5,2,17,15,33,162,39,18,34,263,16,20,25,039,21,22,01,137,*75
$GPGSV,5,3,17,23,25,206,28,24,45,196,37,25,36,343,34,29,10,327,15*75
$GPGSV,5,4,17,36,52,277,32,40,86,351,31,41,58,082,,49,32,274,*7F
$GPGSV,5,5,17,50,10,089,*4A
$GLGSV,3,1,09,67,18,090,20,68,28,142,36,69,13,191,,78,19,154,22*68
$GLGSV,3,2,09,79,73,149,33,80,48,336,31,82,09,001,,83,24,312,25*63
$GLGSV,3,3,09,84,13,258,*5D
$GNGLL,0419.84040,S,05539.74349,E,054323.00,A,A*6A
$GNRMC,054324.00,A,0419.84042,S,05539.74346,E,0.032,,270525,,,A*7F
$GNVTG,,T,,M,0.032,N,0.059,K,A*30
$GNGGA,054324.00,0419.84042,S,05539.74346,E,1,12,0.69,19.0,M,-47.6,M,,*49
$GNGSA,A,3,05,24,12,20,18,15,13,25,23,,,,1.47,0.69,1.29*10
$GNGSA,A,3,79,78,83,67,80,68,,,,,,,1.47,0.69,1.29*16
$GPGSV,5,1,17,05,58,060,28,11,00,030,,12,59,026,33,13,15,129,26*7F
$GPGSV,5,2,17,15,33,162,40,18,34,263,13,20,25,039,21,22,01,137,*7E
$GPGSV,5,3,17,23,25,206,28,24,45,196,37,25,36,343,35,29,10,327,16*77
$GPGSV,5,4,17,36,52,277,32,40,86,351,31,41,58,082,,49,32,274,*7F
$GPGSV,5,5,17,50,10,089,*4A
$GLGSV,3,1,09,67,18,090,17,68,28,142,35,69,13,191,06,78,19,154,22*69
$GLGSV,3,2,09,79,73,149,34,80,48,336,31,82,09,001,,83,24,312,25*64
$GLGSV,3,3,09,84,13,258,*5D
$GNGLL,0419.84042,S,05539.74346,E,054324.00,A,A*60
$GNRMC,054325.00,A,0419.84044,S,05539.74345,E,0.083,,270525,,,A*71
$GNVTG,,T,,M,0.083,N,0.153,K,A*31
$GNGGA,054325.00,0419.84044,S,05539.74345,E,1,12,0.79,19.0,M,-47.6,M,,*4C
$GNGSA,A,3,05,24,12,20,15,13,25,23,,,,,1.63,0.79,1.42*13
$GNGSA,A,3,79,78,83,67,80,68,,,,,,,1.63,0.79,1.42*1C
$GPGSV,5,1,17,05,58,060,26,11,00,030,,12,59,026,33,13,15,128,27*71
$GPGSV,5,2,17,15,33,162,39,18,34,263,,20,25,039,20,22,01,137,*73
$GPGSV,5,3,17,23,25,206,28,24,45,196,37,25,36,343,35,29,10,327,16*77
$GPGSV,5,4,17,36,52,277,33,40,86,351,31,41,58,082,,49,32,274,*7E
$GPGSV,5,5,17,50,10,089,*4A
$GLGSV,3,1,09,67,18,090,16,68,28,142,35,69,13,191,,78,19,154,22*6E
$GLGSV,3,2,09,79,73,149,33,80,48,336,30,82,09,001,,83,24,312,25*62
$GLGSV,3,3,09,84,13,258,*5D
$GNGLL,0419.84044,S,05539.74345,E,054325.00,A,A*64
$GNRMC,054326.00,A,0419.84046,S,05539.74342,E,0.079,,270525,,,A*72
$GNVTG,,T,,M,0.079,N,0.147,K,A*31
$GNGGA,054326.00,0419.84046,S,05539.74342,E,1,12,0.79,19.2,M,-47.6,M,,*48
$GNGSA,A,3,05,24,12,20,15,13,25,23,,,,,1.63,0.79,1.42*13
$GNGSA,A,3,79,78,83,67,80,68,,,,,,,1.63,0.79,1.42*1C
$GPGSV,5,1,17,05,58,060,23,11,00,030,,12,59,026,33,13,15,128,27*74
$GPGSV,5,2,17,15,33,162,39,18,34,263,,20,25,039,20,22,01,137,*73
$GPGSV,5,3,17,23,25,206,30,24,45,196,38,25,36,343,35,29,10,327,17*70
$GPGSV,5,4,17,36,52,277,33,40,86,351,31,41,58,082,,49,32,274,*7E
$GPGSV,5,5,17,50,10,089,*4A
$GLGSV,3,1,09,67,18,090,16,68,28,142,35,69,13,191,,78,19,154,23*6F
$GLGSV,3,2,09,79,73,149,33,80,48,336,30,82,09,001,,83,24,312,23*64
$GLGSV,3,3,09,84,13,258,*5D
$GNGLL,0419.84046,S,05539.74342,E,054326.00,A,A*62
$GNRMC,054327.00,A,0419.84047,S,05539.74339,E,0.018,,270525,,,A*79
$GNVTG,,T,,M,0.018,N,0.033,K,A*34
$GNGGA,054327.00,0419.84047,S,05539.74339,E,1,12,0.79,19.3,M,-47.6,M,,*45
$GNGSA,A,3,05,24,12,20,15,13,25,23,,,,,1.63,0.79,1.42*13
$GNGSA,A,3,79,78,83,67,80,68,,,,,,,1.63,0.79,1.42*1C
$GPGSV,5,1,17,05,58,060,21,11,00,030,,12,59,026,32,13,15,128,27*77
$GPGSV,5,2,17,15,33,161,39,18,34,263,,20,25,039,22,22,01,137,*72
$GPGSV,5,3,17,23,25,206,30,24,45,196,37,25,36,343,35,29,10,327,16*7E
$GPGSV,5,4,17,36,52,277,33,40,86,351,32,41,58,082,,49,32,274,*7D
$GPGSV,5,5,17,50,10,089,*4A
$GLGSV,3,1,09,67,18,090,17,68,28,142,36,69,13,191,,78,19,154,23*6D
$GLGSV,3,2,09,79,73,149,33,80,48,336,29,82,09,001,,83,24,312,23*6C
$GLGSV,3,3,09,84,13,258,*5D
$GNGLL,0419.84047,S,05539.74339,E,054327.00,A,A*6E
$GNRMC,054328.00,A,0419.84046,S,05539.74335,E,0.028,,270525,,,A*78
$GNVTG,,T,,M,0.028,N,0.052,K,A*30
$GNGGA,054328.00,0419.84046,S,05539.74335,E,1,12,0.79,19.4,M,-47.6,M,,*40
$GNGSA,A,3,05,24,12,20,15,13,25,23,,,,,1.63,0.79,1.42*13
$GNGSA,A,3,79,78,83,67,80,68,,,,,,,1.63,0.79,1.42*1C
$GPGSV,5,1,17,05,58,060,17,11,00,030,,12,59,026,32,13,15,128,26*73
$GPGSV,5,2,17,15,33,161,40,18,34,263,19,20,25,039,23,22,01,137,*75
$GPGSV,5,3,17,23,25,206,30,24,45,196,37,25,36,343,35,29,10,327,17*7F
$GPGSV,5,4,17,36,52,277,32,40,86,351,31,41,58,082,,49,32,274,*7F
$GPGSV,5,5,17,50,10,089,*4A
$GLGSV,3,1,09,67,18,090,18,68,28,142,36,69,13,191,,78,19,154,23*62
$GLGSV,3,2,09,79,73,149,33,80,48,336,28,82,09,001,,83,24,312,22*6C
$GLGSV,3,3,09,84,13,258,*5D
$GNGLL,0419.84046,S,05539.74335,E,054328.00,A,A*6C
$GNRMC,054329.00,A,0419.84046,S,05539.74332,E,0.050,,270525,,,A*71
$GNVTG,,T,,M,0.050,N,0.092,K,A*33
$GNGGA,054329.00,0419.84046,S,05539.74332,E,1,12,0.79,19.5,M,-47.6,M,,*47
$GNGSA,A,3,05,24,12,20,15,13,25,23,,,,,1.63,0.79,1.42*13
$GNGSA,A,3,79,78,83,67,80,68,,,,,,,1.63,0.79,1.42*1C
$GPGSV,5,1,17,05,58,060,12,11,00,030,,12,59,026,32,13,15,128,27*77
$GPGSV,5,2,17,15,33,161,40,18,34,263,18,20,25,039,22,22,01,137,*75
$GPGSV,5,3,17,23,25,206,30,24,45,196,37,25,36,343,35,29,10,327,18*70
$GPGSV,5,4,17,36,52,277,32,40,86,351,31,41,58,082,,49,32,274,*7F
$GPGSV,5,5,17,50,10,089,*4A
$GLGSV,3,1,09,67,18,090,20,68,28,142,36,69,13,191,,78,19,154,22*68
$GLGSV,3,2,09,79,73,149,34,80,48,336,28,82,09,001,,83,24,312,22*6B
$GLGSV,3,3,09,84,13,258,*5D
$GNGLL,0419.84046,S,05539.74332,E,054329.00,A,A*6A
$GNRMC,054330.00,A,0419.84046,S,05539.74324,E,0.119,,270525,,,A*72
$GNVTG,,T,,M,0.119,N,0.220,K,A*34
$GNGGA,054330.00,0419.84046,S,05539.74324,E,1,12,0.79,19.7,M,-47.6,M,,*4A
$GNGSA,A,3,05,24,12,20,15,13,25,23,,,,,1.62,0.79,1.42*12
$GNGSA,A,3,79,78,83,67,80,68,,,,,,,1.62,0.79,1.42*1D
$GPGSV,5,1,17,05,58,060,15,11,00,030,,12,59,026,31,13,15,128,27*73
$GPGSV,5,2,17,15,33,161,38,18,34,264,15,20,25,039,20,22,01,137,*72
$GPGSV,5,3,17,23,25,206,31,24,45,196,37,25,36,343,34,29,10,327,18*70
$GPGSV,5,4,17,36,52,277,33,40,86,351,29,41,58,082,,49,32,274,*77
$GPGSV,5,5,17,50,10,089,*4A
$GLGSV,3,1,09,67,18,090,20,68,28,142,37,69,13,191,20,78,19,154,23*6A
$GLGSV,3,2,09,79,73,149,35,80,48,336,28,82,09,001,,83,24,312,23*6B
$GLGSV,3,3,09,84,13,258,*5D
$GNGLL,0419.84046,S,05539.74324,E,054330.00,A,A*65
$GNRMC,054331.00,A,0419.84047,S,05539.74323,E,0.020,,270525,,,A*7E
$GNVTG,,T,,M,0.020,N,0.036,K,A*3A
$GNGGA,054331.00,0419.84047,S,05539.74323,E,1,12,0.76,20.0,M,-47.6,M,,*4F
$GNGSA,A,3,05,24,12,20,15,13,25,23,,,,,1.51,0.76,1.30*18
$GNGSA,A,3,79,78,83,67,80,68,,,,,,,1.51,0.76,1.30*17
$GPGSV,5,1,17,05,58,060,16,11,00,030,,12,59,026,29,13,15,128,27*79
$GPGSV,5,2,17,15,33,161,40,18,34,264,12,20,25,039,20,22,01,137,*7A
$GPGSV,5,3,17,23,25,206,31,24,45,196,36,25,36,343,34,29,10,327,18*71
$GPGSV,5,4,17,36,52,277,33,40,86,351,28,41,58,082,,49,32,274,*76
$GPGSV,5,5,17,50,10,089,*4A
$GLGSV,3,1,09,67,18,090,19,68,28,142,36,69,13,191,,78,19,154,24*64
$GLGSV,3,2,09,79,73,149,35,80,48,336,29,82,09,001,,83,24,312,23*6A
$GLGSV,3,3,09,84,13,258,*5D
$GNGLL,0419.84047,S,05539.74323,E,054331.00,A,A*62
$GNRMC,054332.00,A,0419.84046,S,05539.74324,E,0.046,,270525,,,A*7B
$GNVTG,,T,,M,0.046,N,0.085,K,A*32
$GNGGA,054332.00,0419.84046,S,05539.74324,E,1,12,0.76,20.2,M,-47.6,M,,*48
$GNGSA,A,3,05,24,12,20,18,15,13,25,23,,,,1.51,0.76,1.30*11
$GNGSA,A,3,79,78,83,67,80,68,,,,,,,1.51,0.76,1.30*17
$GPGSV,5,1,17,05,58,060,22,11,00,030,,12,59,026,28,13,15,128,27*7F
$GPGSV,5,2,17,15,33,161,38,18,34,264,13,20,25,039,21,22,01,137,*75
$GPGSV,5,3,17,23,25,206,32,24,45,196,36,25,36,343,34,29,10,327,19*73
$GPGSV,5,4,17,36,52,277,32,40,86,351,28,41,58,082,,49,32,274,*77
$GPGSV,5,5,17,50,10,089,*4A
$GLGSV,3,1,09,67,18,090,19,68,28,142,36,69,13,191,,78,19,154,23*63
$GLGSV,3,2,09,79,73,149,35,80,48,336,31,82,09,001,,83,24,312,23*63
$GLGSV,3,3,09,84,13,258,*5D
$GNGLL,0419.84046,S,05539.74324,E,054332.00,A,A*67
$GNRMC,054333.00,A,0419.84045,S,05539.74326,E,0.122,,270525,,,A*78
$GNVTG,,T,,M,0.122,N,0.225,K,A*39
$GNGGA,054333.00,0419.84045,S,05539.74326,E,1,12,0.76,20.6,M,-47.6,M,,*4C
$GNGSA,A,3,05,24,12,20,18,15,13,25,23,,,,1.51,0.76,1.30*11
$GNGSA,A,3,79,78,83,67,80,68,,,,,,,1.51,0.76,1.30*17
$GPGSV,5,1,17,05,58,060,23,11,00,030,,12,59,026,28,13,15,128,28*71
$GPGSV,5,2,17,15,33,161,37,18,34,264,19,20,25,039,23,22,01,138,*7D
$GPGSV,5,3,17,23,25,206,30,24,45,196,36,25,36,343,34,29,10,327,17*7F
$GPGSV,5,4,17,36,52,277,33,40,86,351,28,41,58,082,,49,32,274,*76
$GPGSV,5,5,17,50,10,089,*4A
$GLGSV,3,1,09,67,18,090,19,68,28,142,37,69,13,191,,78,19,154,23*62
$GLGSV,3,2,09,79,73,149,36,80,48,336,30,82,09,001,,83,24,312,22*60
$GLGSV,3,3,09,84,13,258,*5D
$GNGLL,0419.84045,S,05539.74326,E,054333.00,A,A*67
$GNRMC,054334.00,A,0419.84042,S,05539.74328,E,0.146,,270525,,,A*74
$GNVTG,,T,,M,0.146,N,0.270,K,A*3B
$GNGGA,054334.00,0419.84042,S,05539.74328,E,1,12,0.76,20.8,M,-47.6,M,,*4C
$GNGSA,A,3,05,24,12,20,18,15,13,25,23,,,,1.51,0.76,1.30*11
$GNGSA,A,3,79,78,83,67,80,68,,,,,,,1.51,0.76,1.30*17
$GPGSV,5,1,17,05,58,060,22,11,00,030,,12,59,026,27,13,15,128,28*7F
$GPGSV,5,2,17,15,33,161,40,18,34,264,21,20,25,039,23,22,01,138,*76
$GPGSV,5,3,17,23,25,206,30,24,45,196,37,25,36,343,35,29,10,327,15*7D
$GPGSV,5,4,17,36,52,277,33,40,86,351,30,41,58,082,,49,32,274,*7F
$GPGSV,5,5,17,50,10,089,*4A
$GLGSV,3,1,09,67,18,090,19,68,28,142,37,69,13,191,,78,19,154,23*62
$GLGSV,3,2,09,79,73,149,37,80,48,336,29,82,09,001,,83,24,312,20*6B
$GLGSV,3,3,09,84,13,258,*5D
$GNGLL,0419.84042,S,05539.74328,E,054334.00,A,A*69
$GNRMC,054335.00,A,0419.84042,S,05539.74330,E,0.046,,270525,,,A*7D
$GNVTG,,T,,M,0.046,N,0.086,K,A*31
$GNGGA,054335.00,0419.84042,S,05539.74330,E,1,12,0.76,21.1,M,-47.6,M,,*4C
$GNGSA,A,3,05,24,12,20,18,15,13,25,23,,,,1.51,0.76,1.30*11
$GNGSA,A,3,79,78,83,67,80,68,,,,,,,1.51,0.76,1.30*17
$GPGSV,5,1,17,05,58,060,24,11,00,030,,12,59,026,26,13,15,128,27*77
$GPGSV,5,2,17,15,33,161,40,18,34,264,21,20,25,039,22,22,01,138,*77
$GPGSV,5,3,17,23,25,206,31,24,45,196,36,25,36,343,35,29,10,327,13*7B
$GPGSV,5,4,17,36,52,277,32,40,86,351,33,41,58,082,,49,32,274,*7D
$GPGSV,5,5,17,50,10,089,*4A
$GLGSV,3,1,09,67,18,090,19,68,28,142,37,69,13,191,,78,19,154,22*63
$GLGSV,3,2,09,79,73,149,34,80,48,336,30,82,09,001,,83,24,312,18*6B
$GLGSV,3,3,09,84,13,258,*5D
$GNGLL,0419.84042,S,05539.74330,E,054335.00,A,A*61
$GNRMC,054336.00,A,0419.84039,S,05539.74333,E,0.076,,270525,,,A*72
$GNVTG,,T,,M,0.076,N,0.140,K,A*39
$GNGGA,054336.00,0419.84039,S,05539.74333,E,1,12,0.76,21.2,M,-47.6,M,,*43
$GNGSA,A,3,05,24,12,20,18,15,13,25,23,,,,1.51,0.76,1.30*11
$GNGSA,A,3,79,78,83,67,80,68,,,,,,,1.51,0.76,1.30*17
$GPGSV,5,1,17,05,58,060,22,11,00,030,,12,59,026,26,13,15,128,27*71
$GPGSV,5,2,17,15,33,161,40,18,34,264,20,20,25,039,20,22,01,138,*74
$GPGSV,5,3,17,23,25,206,32,24,45,196,35,25,36,343,34,29,10,327,14*7D
$GPGSV,5,4,17,36,52,277,32,40,86,351,34,41,58,082,,49,32,274,*7A
$GPGSV,5,5,17,50,10,089,*4A
$GLGSV,3,1,09,67,18,090,18,68,28,142,37,69,13,191,,78,19,154,20*60
$GLGSV,3,2,09,79,73,149,34,80,48,336,29,82,09,001,,83,24,312,18*63
$GLGSV,3,3,09,84,13,258,*5D
$GNGLL,0419.84039,S,05539.74333,E,054336.00,A,A*6D
$GNRMC,054337.00,A,0419.84035,S,05539.74341,E,0.060,,270525,,,A*7D
$GNVTG,,T,,M,0.060,N,0.111,K,A*3A
$GNGGA,054337.00,0419.84035,S,05539.74341,E,1,12,0.76,21.5,M,-47.6,M,,*4C
$GNGSA,A,3,05,24,12,20,18,15,13,25,23,,,,1.51,0.76,1.30*11
$GNGSA,A,3,79,78,83,67,80,68,,,,,,,1.51,0.76,1.30*17
$GPGSV,5,1,17,05,58,060,20,11,00,030,,12,59,026,32,13,15,128,28*79
$GPGSV,5,2,17,15,33,161,40,18,34,264,21,20,25,039,20,22,01,138,*75
$GPGSV,5,3,17,23,25,206,33,24,45,196,36,25,36,343,34,29,10,327,14*7F
$GPGSV,5,4,17,36,52,277,31,40,86,351,33,41,58,082,,49,32,274,*7E
$GPGSV,5,5,17,50,10,089,*4A
$GLGSV,3,1,09,67,18,090,18,68,28,142,36,69,13,191,,78,19,154,17*65
$GLGSV,3,2,09,79,73,149,35,80,48,336,28,82,09,001,,83,24,312,18*63
$GLGSV,3,3,09,84,13,258,*5D
$GNGLL,0419.84035,S,05539.74341,E,054337.00,A,A*65
$GNRMC,054338.00,A,0419.84033,S,05539.74346,E,0.037,,270525,,,A*71
$GNVTG,,T,,M,0.037,N,0.069,K,A*36
$GNGGA,054338.00,0419.84033,S,05539.74346,E,1,12,0.69,21.6,M,-47.6,M,,*4F
$GNGSA,A,3,05,24,12,20,18,15,13,25,23,,,,1.47,0.69,1.29*10
$GNGSA,A,3,79,78,83,67,80,68,,,,,,,1.47,0.69,1.29*16
$GPGSV,5,1,17,05,58,060,23,11,00,030,,12,59,026,31,13,15,128,28*79
$GPGSV,5,2,17,15,33,161,40,18,34,264,24,20,25,039,22,22,01,138,*72
$GPGSV,5,3,17,23,25,206,31,24,45,196,36,25,36,343,35,29,10,327,15*7D
$GPGSV,5,4,17,36,52,277,30,40,86,351,34,41,58,082,,49,32,274,*78
$GPGSV,5,5,17,50,10,089,*4A
$GLGSV,3,1,09,67,18,090,17,68,28,142,36,69,13,191,,78,19,154,13*6E
$GLGSV,3,2,09,79,73,149,35,80,48,336,28,82,09,001,,83,24,312,17*6C
$GLGSV,3,3,09,84,13,258,*5D
$GNGLL,0419.84033,S,05539.74346,E,054338.00,A,A*6B
$GNRMC,054339.00,A,0419.84031,S,05539.74349,E,0.042,,270525,,,A*7F
$GNVTG,,T,,M,0.042,N,0.077,K,A*3B
$GNGGA,054339.00,0419.84031,S,05539.74349,E,1,12,0.70,21.8,M,-47.6,M,,*45
$GNGSA,A,3,05,24,12,20,18,15,13,25,23,,,,1.50,0.70,1.33*15
$GNGSA,A,3,79,83,67,80,68,,,,,,,,1.50,0.70,1.33*1C
$GPGSV,5,1,17,05,58,060,27,11,00,030,,12,59,026,28,13,15,128,27*7A
$GPGSV,5,2,17,15,33,161,41,18,34,264,25,20,25,039,23,22,01,138,*73
$GPGSV,5,3,17,23,25,206,31,24,45,196,37,25,36,343,35,29,10,327,16*7F
$GPGSV,5,4,17,36,52,277,29,40,86,351,34,41,58,082,,49,32,274,*70
$GPGSV,5,5,17,50,10,089,*4A
$GLGSV,3,1,09,67,18,090,18,68,28,142,35,69,13,191,,78,19,154,09*69
$GLGSV,3,2,09,79,73,149,34,80,48,336,28,82,09,001,,83,24,312,17*6D
$GLGSV,3,3,09,84,13,258,*5D
$GNGLL,0419.84031,S,05539.74349,E,054339.00,A,A*67
$GNRMC,054340.00,A,0419.84029,S,05539.74353,E,0.037,,270525,,,A*71
$GNVTG,,T,,M,0.037,N,0.069,K,A*36
$GNGGA,054340.00,0419.84029,S,05539.74353,E,1,12,0.70,21.8,M,-47.6,M,,*49
$GNGSA,A,3,05,24,12,20,18,15,13,25,23,,,,1.50,0.70,1.33*15
$GNGSA,A,3,79,83,67,80,68,,,,,,,,1.50,0.70,1.33*1C
$GPGSV,5,1,17,05,58,060,28,11,00,030,,12,59,026,28,13,15,128,28*7A
$GPGSV,5,2,17,15,33,161,41,18,34,264,25,20,25,039,23,22,01,138,*73
$GPGSV,5,3,17,23,25,206,31,24,45,196,38,25,36,343,34,29,10,328,14*7C
$GPGSV,5,4,17,36,52,277,30,40,86,351,35,41,58,082,,49,32,274,*79
$GPGSV,5,5,17,50,10,089,*4A
$GLGSV,3,1,09,67,18,090,18,68,28,142,35,69,13,191,,78,19,154,07*67
$GLGSV,3,2,09,79,73,149,33,80,48,336,28,82,09,001,,83,24,312,17*6A
$GLGSV,3,3,09,84,13,258,*5D
$GNGLL,0419.84029,S,05539.74353,E,054340.00,A,A*6B
$GNRMC,054341.00,A,0419.84029,S,05539.74353,E,0.039,,270525,,,A*7E
$GNVTG,,T,,M,0.039,N,0.071,K,A*31
$GNGGA,054341.00,0419.84029,S,05539.74353,E,1,12,0.69,21.9,M,-47.6,M,,*41
$GNGSA,A,3,05,24,12,20,18,15,13,25,23,,,,1.47,0.69,1.29*10
$GNGSA,A,3,79,78,83,67,80,68,,,,,,,1.47,0.69,1.29*16
$GPGSV,5,1,17,05,58,060,32,11,00,030,,12,59,026,26,13,15,128,27*70
$GPGSV,5,2,17,15,33,161,40,18,34,264,25,20,25,039,21,22,01,138,*70
$GPGSV,5,3,17,23,25,206,30,24,45,196,37,25,36,343,34,29,10,328,10*76
$GPGSV,5,4,17,36,52,277,32,40,86,351,34,41,58,082,,49,32,274,*7A
$GPGSV,5,5,17,50,10,089,*4A
$GLGSV,3,1,09,67,18,090,19,68,28,142,36,69,13,191,,78,19,154,14*67
$GLGSV,3,2,09,79,73,149,32,80,48,336,29,82,09,001,,83,24,312,19*64
$GLGSV,3,3,09,84,13,258,*5D
$GNGLL,0419.84029,S,05539.74353,E,054341.00,A,A*6A
$GNRMC,054342.00,A,0419.84028,S,05539.74356,E,0.088,,270525,,,A*73
$GNVTG,,T,,M,0.088,N,0.163,K,A*39
$GNGGA,054342.00,0419.84028,S,05539.74356,E,1,12,0.71,22.0,M,-47.6,M,,*45
$GNGSA,A,3,05,24,12,20,18,15,13,25,23,,,,1.48,0.71,1.31*1F
$GNGSA,A,3,79,78,83,67,80,68,,,,,,,1.48,0.71,1.31*19
$GPGSV,5,1,17,05,58,060,32,11,00,030,,12,59,026,27,13,15,128,28*7E
$GPGSV,5,2,17,15,33,161,40,18,34,264,24,20,25,039,19,22,01,138,*7A
$GPGSV,5,3,17,23,25,206,30,24,45,196,38,25,36,343,35,29,10,328,*79
$GPGSV,5,4,17,36,52,277,32,40,86,351,34,41,58,082,,49,32,274,*7A
$GPGSV,5,5,17,50,10,089,*4A
$GLGSV,3,1,09,67,18,090,20,68,28,142,37,69,13,191,,78,19,154,11*69
$GLGSV,3,2,09,79,73,149,31,80,48,336,26,82,09,001,,83,24,312,19*68
$GLGSV,3,3,09,84,13,258,*5D
$GNGLL,0419.84028,S,05539.74356,E,054342.00,A,A*6D
$GNRMC,054343.00,A,0419.84026,S,05539.74361,E,0.056,,270525,,,A*7B
$GNVTG,,T,,M,0.056,N,0.104,K,A*3B
$GNGGA,054343.00,0419.84026,S,05539.74361,E,1,12,0.78,22.1,M,-47.6,M,,*46
$GNGSA,A,3,05,24,12,20,18,15,13,25,23,,,,1.53,0.78,1.31*1C
$GNGSA,A,3,79,78,83,67,80,68,,,,,,,1.53,0.78,1.31*1A
$GPGSV,5,1,17,05,58,060,31,11,00,030,,12,59,026,26,13,15,128,26*72
$GPGSV,5,2,17,15,33,161,40,18,34,264,25,20,25,039,20,22,01,138,*71
$GPGSV,5,3,17,23,25,206,30,24,45,196,38,25,36,343,35,29,10,328,*79
$GPGSV,5,4,17,36,52,277,32,40,86,351,36,41,58,082,,49,32,274,*78
$GPGSV,5,5,17,50,10,089,*4A
$GLGSV,3,1,09,67,18,090,20,68,28,142,36,69,13,191,,78,19,154,16*6F
$GLGSV,3,2,09,79,73,149,29,80,48,336,25,82,09,001,,83,24,312,18*63
$GLGSV,3,3,09,84,13,258,*5D
$GNGLL,0419.84026,S,05539.74361,E,054343.00,A,A*66
$GNRMC,054344.00,A,0419.84025,S,05539.74364,E,0.035,,270525,,,A*7F
$GNVTG,,T,,M,0.035,N,0.066,K,A*3B
$GNGGA,054344.00,0419.84025,S,05539.74364,E,1,12,0.78,22.3,M,-47.6,M,,*45
$GNGSA,A,3,05,24,12,20,18,15,13,25,23,,,,1.53,0.78,1.31*1C
$GNGSA,A,3,79,78,83,67,80,68,,,,,,,1.53,0.78,1.31*1A
$GPGSV,5,1,17,05,58,060,29,11,00,030,,12,59,026,29,13,15,128,25*77
$GPGSV,5,2,17,15,33,161,40,18,34,264,24,20,25,039,22,22,01,138,*72
$GPGSV,5,3,17,23,25,206,30,24,45,196,38,25,36,343,36,29,10,328,*7A
$GPGSV,5,4,17,36,52,277,32,40,86,351,36,41,58,082,,49,32,274,*78
$GPGSV,5,5,17,50,10,089,*4A
$GLGSV,3,1,09,67,18,090,21,68,28,142,37,69,13,191,,78,19,154,14*6D
$GLGSV,3,2,09,79,73,149,28,80,48,336,26,82,09,001,,83,24,312,16*6F
$GLGSV,3,3,09,84,13,258,*5D
$GNGLL,0419.84025,S,05539.74364,E,054344.00,A,A*67
$GNRMC,054345.00,A,0419.84023,S,05539.74364,E,0.067,,270525,,,A*7F
$GNVTG,,T,,M,0.067,N,0.124,K,A*3B
$GNGGA,054345.00,0419.84023,S,05539.74364,E,1,12,0.76,22.3,M,-47.6,M,,*4C
$GNGSA,A,3,05,24,12,20,18,15,13,25,23,,,,1.51,0.76,1.30*11
$GNGSA,A,3,79,78,83,67,80,68,,,,,,,1.51,0.76,1.30*17
$GPGSV,5,1,17,05,58,060,30,11,00,030,,12,59,026,28,13,15,128,25*7E
$GPGSV,5,2,17,15,33,161,42,18,34,264,25,20,25,039,23,22,01,138,*70
$GPGSV,5,3,17,23,25,206,31,24,45,196,37,25,36,343,36,29,10,328,*74
$GPGSV,5,4,17,36,52,277,32,40,86,351,34,41,58,082,,49,32,274,*7A
$GPGSV,5,5,17,50,10,089,*4A
$GLGSV,3,1,09,67,18,090,18,68,28,142,37,69,13,191,,78,19,154,15*66
$GLGSV,3,2,09,79,73,149,30,80,48,336,28,82,09,001,,83,24,312,16*68
$GLGSV,3,3,09,84,13,258,*5D
$GNGLL,0419.84023,S,05539.74364,E,054345.00,A,A*60
$GNRMC,054346.00,A,0419.84022,S,05539.74363,E,0.080,,270525,,,A*73
$GNVTG,,T,,M,0.080,N,0.149,K,A*39
$GNGGA,054346.00,0419.84022,S,05539.74363,E,1,12,0.69,22.4,M,-47.6,M,,*40
$GNGSA,A,3,05,24,12,20,18,15,13,25,23,,,,1.47,0.69,1.29*10
$GNGSA,A,3,79,78,83,67,80,68,,,,,,,1.47,0.69,1.29*16
$GPGSV,5,1,17,05,58,060,32,11,00,030,,12,59,026,29,13,15,128,24*7C
$GPGSV,5,2,17,15,33,161,41,18,34,264,25,20,25,039,25,22,01,138,*75
$GPGSV,5,3,17,23,25,206,31,24,45,196,37,25,36,343,34,29,10,328,*76
$GPGSV,5,4,17,36,52,277,30,40,86,351,33,41,58,082,,49,32,274,*7F
$GPGSV,5,5,17,50,10,089,*4A
$GLGSV,3,1,09,67,18,090,16,68,28,142,38,69,13,191,,78,19,154,13*61
$GLGSV,3,2,09,79,73,149,29,80,48,336,28,82,09,001,,83,24,312,17*61
$GLGSV,3,3,09,84,13,258,*5D
$GNGLL,0419.84022,S,05539.74363,E,054346.00,A,A*65
$GNRMC,054347.00,A,0419.84018,S,05539.74372,E,0.031,,270525,,,A*71
$GNVTG,,T,,M,0.031,N,0.058,K,A*32
$GNGGA,054347.00,0419.84018,S,05539.74372,E,1,12,0.76,22.6,M,-47.6,M,,*44
$GNGSA,A,3,05,24,12,20,18,15,13,25,23,,,,1.51,0.76,1.30*11
$GNGSA,A,3,79,78,83,67,80,68,,,,,,,1.51,0.76,1.30*17
$GPGSV,5,1,17,05,58,060,31,11,00,030,,12,59,026,29,13,15,128,25*7E
$GPGSV,5,2,17,15,33,161,40,18,34,264,24,20,25,039,27,22,01,138,*77
$GPGSV,5,3,17,23,25,206,32,24,45,196,38,25,36,343,35,29,10,328,*7B
$GPGSV,5,4,17,36,52,277,30,40,86,351,31,41,58,082,,49,32,274,*7D
$GPGSV,5,5,17,50,10,089,*4A
$GLGSV,3,1,09,67,18,090,14,68,28,142,36,69,13,191,,78,19,154,11*6F
$GLGSV,3,2,09,79,73,149,28,80,48,336,26,82,09,001,,83,24,312,16*6F
$GLGSV,3,3,09,84,13,258,*5D
$GNGLL,0419.84018,S,05539.74372,E,054347.00,A,A*6D
$GNRMC,054348.00,A,0419.84014,S,05539.74379,E,0.074,,270525,,,A*78
$GNVTG,,T,,M,0.074,N,0.137,K,A*3B
$GNGGA,054348.00,0419.84014,S,05539.74379,E,1,12,0.76,22.8,M,-47.6,M,,*42
$GNGSA,A,3,05,24,12,20,18,15,13,25,23,,,,1.51,0.76,1.30*11
$GNGSA,A,3,79,78,83,67,80,68,,,,,,,1.51,0.76,1.30*17
$GPGSV,5,1,17,05,58,060,30,11,00,030,,12,59,026,29,13,15,128,25*7F
$GPGSV,5,2,17,15,33,161,40,18,34,264,23,20,25,039,26,22,01,138,*71
$GPGSV,5,3,17,23,25,206,32,24,45,196,37,25,36,343,35,29,10,328,19*7C
$GPGSV,5,4,17,36,52,277,30,40,86,351,30,41,58,082,,49,32,274,*7C
$GPGSV,5,5,17,50,10,089,*4A
$GLGSV,3,1,09,67,18,090,17,68,28,142,36,69,13,191,,78,19,154,14*69
$GLGSV,3,2,09,79,73,149,27,80,48,336,25,82,09,001,,83,24,312,18*6D
$GLGSV,3,3,09,84,13,258,*5D
$GNGLL,0419.84014,S,05539.74379,E,054348.00,A,A*65
$GNRMC,054349.00,A,0419.84011,S,05539.74384,E,0.017,,270525,,,A*7B
$GNVTG,,T,,M,0.017,N,0.032,K,A*3A
$GNGGA,054349.00,0419.84011,S,05539.74384,E,1,12,0.76,22.9,M,-47.6,M,,*45
$GNGSA,A,3,05,24,12,20,18,15,13,25,23,,,,1.51,0.76,1.30*11
$GNGSA,A,3,79,78,83,67,80,68,,,,,,,1.51,0.76,1.30*17
$GPGSV,5,1,17,05,58,060,31,11,00,030,,12,59,026,28,13,15,128,26*7C
$GPGSV,5,2,17,15,33,161,41,18,34,264,22,20,25,039,26,22,01,138,*71
$GPGSV,5,3,17,23,25,206,32,24,45,196,37,25,36,343,35,29,10,328,17*72
$GPGSV,5,4,17,36,52,277,28,40,86,351,31,41,58,082,,49,32,274,*74
$GPGSV,5,5,17,50,10,089,*4A
$GLGSV,3,1,09,67,18,090,12,68,28,142,36,69,13,191,,78,19,154,10*68
$GLGSV,3,2,09,79,73,149,28,80,48,336,26,82,09,001,,83,24,312,19*60
$GLGSV,3,3,09,84,13,258,*5D
$GNGLL,0419.84011,S,05539.74384,E,054349.00,A,A*63
$GNRMC,054350.00,A,0419.84008,S,05539.74393,E,0.233,,270525,,,A*79
$GNVTG,,T,,M,0.233,N,0.432,K,A*3A
$GNGGA,054350.00,0419.84008,S,05539.74393,E,1,12,0.69,23.1,M,-47.6,M,,*44
$GNGSA,A,3,05,24,12,20,18,15,13,25,23,,,,1.47,0.69,1.29*10
