b0L@
f N$T ':.NB  ?ej{4Ta:R 
Yi
FdG2,sHIJKST1SmU#~bDA\$GNRMC,114728.00,A,0419.76191,S,05539.80059,E,0.058,,270525,,,A*7A
$GNVTG,,T,,M,0.058,N,0.107,K,A*36
$GNGNS,114728.00,0419.76191,S,05539.80059,E,AA,13,0.72,11.2,-47.6,,*6B
$GNGGA,114728.00,0419.76191,S,05539.80059,E,1,12,0.72,11.2,M,-47.6,M,,*40
$GNGSA,A,3,32,28,18,26,29,27,16,10,31,,,,1.68,0.72,1.52*1C
$GNGSA,A,3,71,83,84,85,,,,,,,,,1.68,0.72,1.52*1C
$GPGSV,5,1,17,08,04,320,,10,18,358,17,16,25,247,23,18,32,078,27*74
$GPGSV,5,2,17,23,03,036,,25,01,127,08,26,29,215,14,27,39,314,32*71
$GPGSV,5,3,17,28,46,156,29,29,17,147,19,31,31,190,29,32,63,357,32*78
$GPGSV,5,4,17,36,52,277,,40,84,353,,41,58,082,,49,32,274,*7C
$GPGSV,5,5,17,50,10,089,*4A
$GLGSV,3,1,09,70,27,356,,71,50,300,22,72,27,236,20,73,14,148,*65
$GLGSV,3,2,09,74,15,193,,75,00,238,,83,14,136,09,84,49,083,08*6B
$GLGSV,3,3,09,85,35,009,28*54
$GNGLL,0419.76191,S,05539.80059,E,114728.00,A,A*69
$GNGRS,114728.00,1,1.1,-6.9,-5.3,-14.5,-9.6,-2.4,-20.5,-2.5,-18.3,,,*4D
$GNGRS,114728.00,1,-16.8,17.2,-14.3,7.8,,,,,,,,*6B
$GNGST,114728.00,62,,,,4.4,5.8,13*65
$GNZDA,114728.00,27,05,2025,00,00*74
$GNGBS,114728.00,4.4,5.8,13.3,,,,*6A
b0L@
f N$':.e ?eL{4Ta:R 
Yi
FdG2,HIJKS
T1SU#hbH$GNRMC,114729.00,A,0419.76186,S,05539.80077,E,0.192,,270525,,,A*76
$GNVTG,,T,,M,0.192,N,0.356,K,A*37
$GNGNS,114729.00,0419.76186,S,05539.80077,E,AA,13,0.72,11.2,-47.6,,*60
$GNGGA,114729.00,0419.76186,S,05539.80077,E,1,12,0.72,11.2,M,-47.6,M,,*4B
$GNGSA,A,3,32,28,18,26,29,27,16,10,31,,,,1.68,0.72,1.52*1C
$GNGSA,A,3,71,83,84,85,,,,,,,,,1.68,0.72,1.52*1C
$GPGSV,5,1,17,08,04,320,,10,18,358,16,16,25,247,22,18,32,078,26*75
$GPGSV,5,2,17,23,03,036,,25,01,127,,26,29,215,20,27,39,314,28*75
$GPGSV,5,3,17,28,46,156,29,29,17,147,15,31,31,190,26,32,63,357,31*78
$GPGSV,5,4,17,36,52,277,,40,84,353,,41,58,082,,49,32,274,*7C
$GPGSV,5,5,17,50,10,089,*4A
$GLGSV,3,1,09,70,27,356,,71,50,300,21,72,27,236,21,73,14,148,*67
$GLGSV,3,2,09,74,15,193,,75,00,238,,83,14,136,10,84,49,083,14*6E
$GLGSV,3,3,09,85,35,009,28*54
$GNGLL,0419.76186,S,05539.80077,E,114729.00,A,A*62
$GNGRS,114729.00,1,-1.8,-8.8,-5.8,15.2,19.7,-8.0,-18.9,-3.4,-16.9,,,*57
$GNGRS,114729.00,1,-15.3,16.7,4.0,-2.7,,,,,,,,*5E
$GNGST,114729.00,3304926,,,,4.4,5.8,13*59
$GNZDA,114729.00,27,05,2025,00,00*75
$GNGBS,114729.00,4.4,5.8,13.3,,,,*6B
b0L@
f N$ ': .; !?e*{4Ta:R 
Yi
FdG2,HIJKSwT1SU#EkbL,$GNRMC,114730.00,A,0419.76184,S,05539.80087,E,0.056,,270525,,,A*7A
$GNVTG,,T,,M,0.056,N,0.103,K,A*3C
$GNGNS,114730.00,0419.76184,S,05539.80087,E,AA,13,0.72,11.2,-47.6,,*65
$GNGGA,114730.00,0419.76184,S,05539.80087,E,1,12,0.72,11.2,M,-47.6,M,,*4E
$GNGSA,A,3,32,28,18,26,29,27,16,10,31,,,,1.68,0.72,1.52*1C
$GNGSA,A,3,71,83,84,85,,,,,,,,,1.68,0.72,1.52*1C
$GPGSV,5,1,17,08,04,320,,10,18,358,17,16,25,247,21,18,32,078,25*74
$GPGSV,5,2,17,23,03,036,,25,01,127,,26,29,215,16,27,39,314,32*7B
$GPGSV,5,3,17,28,46,156,32,29,17,147,17,31,31,190,27,32,63,357,33*73
$GPGSV,5,4,17,36,52,277,,40,84,353,,41,58,082,,49,32,274,*7C
$GPGSV,5,5,17,50,10,089,*4A
$GLGSV,3,1,09,70,27,356,,71,50,300,21,72,27,236,22,73,14,148,*64
$GLGSV,3,2,09,74,15,193,,75,00,238,,83,14,136,08,84,49,083,08*6A
$GLGSV,3,3,09,85,35,009,27*5B
$GNGLL,0419.76184,S,05539.80087,E,114730.00,A,A*67
$GNGRS,114730.00,1,0.4,-9.6,-4.9,14.3,16.8,-6.0,-18.6,-3.2,-7.5,,,*4B
$GNGRS,114730.00,1,-15.7,16.5,4.0,-4.4,,,,,,,,*55
$GNGST,114730.00,3299292,,,,4.3,5.8,13*57
$GNZDA,114730.00,27,05,2025,00,00*7D
$GNGBS,114730.00,4.3,5.8,13.2,,,,*65
b0L@
fmn N$':.[ ?e{4Ta:R 
Yi
FdG2,XHIJKST1SfU#rMb{P$GNRMC,114731.00,A,0419.76179,S,05539.80095,E,0.069,,270525,,,A*76
$GNVTG,,T,,M,0.069,N,0.127,K,A*36
$GNGNS,114731.00,0419.76179,S,05539.80095,E,AA,13,0.72,11.1,-47.6,,*66
$GNGGA,114731.00,0419.76179,S,05539.80095,E,1,12,0.72,11.1,M,-47.6,M,,*4D
$GNGSA,A,3,32,28,18,26,29,27,16,10,31,,,,1.68,0.72,1.52*1C
$GNGSA,A,3,71,83,84,85,,,,,,,,,1.68,0.72,1.52*1C
$GPGSV,5,1,17,08,04,320,,10,18,358,18,16,25,247,21,18,32,078,23*7D
$GPGSV,5,2,17,23,03,036,,25,01,127,,26,29,215,19,27,39,314,31*77
$GPGSV,5,3,17,28,46,156,31,29,17,147,17,31,31,190,28,32,63,357,27*7A
$GPGSV,5,4,17,36,52,277,,40,84,353,,41,58,082,,49,32,274,*7C
$GPGSV,5,5,17,50,10,089,*4A
$GLGSV,3,1,09,70,27,356,,71,50,300,21,72,27,236,24,73,14,148,*62
$GLGSV,3,2,09,74,15,193,,75,00,238,,83,14,136,18,84,49,083,12*60
$GLGSV,3,3,09,85,35,009,28*54
$GNGLL,0419.76179,S,05539.80095,E,114731.00,A,A*67
$GNGRS,114731.00,1,6.4,-8.5,-2.3,12.4,14.9,-1.2,-16.8,-1.5,-11.9,,,*7B
$GNGRS,114731.00,1,-17.0,-5.8,1.0,1.1,,,,,,,,*6B
$GNGST,114731.00,58,,,,4.3,5.8,13*63
$GNZDA,114731.00,27,05,2025,00,00*7C
$GNGBS,114731.00,4.3,5.8,13.2,,,,*64
b0Lp@
fV N$E ':y!.$ ?e){4Ta:R 
Yin
FdG2,=HIJKST1SU#dbpcT$GNRMC,114732.00,A,0419.76172,S,05539.80100,E,0.082,,270525,,,A*76
$GNVTG,,T,,M,0.082,N,0.151,K,A*32
$GNGNS,114732.00,0419.76172,S,05539.80100,E,AA,13,0.72,11.3,-47.6,,*61
$GNGGA,114732.00,0419.76172,S,05539.80100,E,1,12,0.72,11.3,M,-47.6,M,,*4A
$GNGSA,A,3,32,28,18,26,29,27,16,10,31,,,,1.68,0.72,1.52*1C
$GNGSA,A,3,71,83,84,85,,,,,,,,,1.68,0.72,1.52*1C
$GPGSV,5,1,17,08,04,320,,10,18,358,18,16,25,247,22,18,32,078,22*7F
$GPGSV,5,2,17,23,03,036,,25,01,127,,26,29,215,20,27,39,314,32*7E
$GPGSV,5,3,17,28,46,156,33,29,17,147,15,31,31,190,28,32,63,357,27*7A
$GPGSV,5,4,17,36,52,277,,40,84,353,,41,58,082,,49,32,274,*7C
$GPGSV,5,5,17,50,10,089,*4A
$GLGSV,3,1,09,70,27,356,,71,50,300,20,72,27,236,23,73,14,148,*64
$GLGSV,3,2,09,74,15,193,,75,00,238,,83,14,136,18,84,49,083,12*60
$GLGSV,3,3,09,85,35,009,28*54
$GNGLL,0419.76172,S,05539.80100,E,114732.00,A,A*62
$GNGRS,114732.00,1,5.5,-8.6,0.3,10.9,10.6,-1.3,-17.6,-1.7,-12.9,,,*5D
$GNGRS,114732.00,1,-17.3,17.1,3.9,-0.3,,,,,,,,*59
$GNGST,114732.00,3299459,,,,4.3,5.8,13*54
$GNZDA,114732.00,27,05,2025,00,00*7F
$GNGBS,114732.00,4.3,5.8,13.2,,,,*67
b0LX@
f N$ ':". ?e"{4Ta:R 
Yi
FdG2,HIJKST
1SiU#{ybXKXyd$GNRMC,114733.00,A,0419.76161,S,05539.80113,E,0.051,,270525,,,A*79
$GNVTG,,T,,M,0.051,N,0.094,K,A*34
$GNGNS,114733.00,0419.76161,S,05539.80113,E,AA,13,0.72,11.1,-47.6,,*62
$GNGGA,114733.00,0419.76161,S,05539.80113,E,1,12,0.72,11.1,M,-47.6,M,,*49
$GNGSA,A,3,32,28,18,26,29,27,16,10,31,,,,1.68,0.72,1.52*1C
$GNGSA,A,3,71,83,84,85,,,,,,,,,1.68,0.72,1.52*1C
$GPGSV,5,1,17,08,04,320,,10,18,358,17,16,25,247,24,18,32,078,21*75
$GPGSV,5,2,17,23,03,036,,25,01,127,,26,29,215,22,27,39,314,32*7C
$GPGSV,5,3,17,28,46,156,34,29,17,147,18,31,31,190,26,32,63,357,29*70
$GPGSV,5,4,17,36,52,277,,40,84,353,,41,58,082,,49,32,274,*7C
$GPGSV,5,5,17,50,10,089,*4A
$GLGSV,3,1,09,70,27,356,,71,50,300,19,72,27,236,21,73,14,148,*6C
$GLGSV,3,2,09,74,15,193,,75,00,238,,83,14,136,18,84,49,083,10*62
$GLGSV,3,3,09,85,35,009,28*54
$GNGLL,0419.76161,S,05539.80113,E,114733.00,A,A*63
$GNGRS,114733.00,1,8.0,-8.0,1.7,7.2,9.7,0.2,-18.9,0.0,-15.4,,,*5F
$GNGRS,114733.00,1,-18.9,17.2,3.6,0.1,,,,,,,,*7E
$GNGST,114733.00,3299669,,,,4.2,5.7,13*5A
$GNZDA,114733.00,27,05,2025,00,00*7E
$GNGBS,114733.00,4.2,5.7,13.2,,,,*68
b0L@@
fY N-$!':@". "?e{4Ta:R 
Yi
FdG2,HIJKST
1SU#b@3\Q$GNRMC,114734.00,A,0419.76152,S,05539.80126,E,0.012,,270525,,,A*7F
$GNVTG,,T,,M,0.012,N,0.022,K,A*3E
$GNGNS,114734.00,0419.76152,S,05539.80126,E,AA,13,0.72,11.0,-47.6,,*62
$GNGGA,114734.00,0419.76152,S,05539.80126,E,1,12,0.72,11.0,M,-47.6,M,,*49
$GNGSA,A,3,32,28,18,26,29,27,16,10,31,,,,1.68,0.72,1.52*1C
$GNGSA,A,3,71,83,84,85,,,,,,,,,1.68,0.72,1.52*1C
$GPGSV,5,1,17,08,04,320,,10,18,358,18,16,25,247,23,18,32,078,23*7F
$GPGSV,5,2,17,23,03,036,,25,01,127,,26,29,215,22,27,39,314,33*7D
$GPGSV,5,3,17,28,46,156,34,29,17,147,17,31,31,190,28,32,63,357,34*7D
$GPGSV,5,4,17,36,52,277,,40,84,353,,41,58,082,,49,32,274,*7C
$GPGSV,5,5,17,50,10,089,*4A
$GLGSV,3,1,09,70,27,356,,71,50,300,18,72,27,236,19,73,14,148,*66
$GLGSV,3,2,09,74,15,193,,75,00,238,,83,14,136,18,84,49,083,10*62
$GLGSV,3,3,09,85,35,009,30*5D
$GNGLL,0419.76152,S,05539.80126,E,114734.00,A,A*62
$GNGRS,114734.00,1,-1.0,-5.3,3.0,3.8,10.0,-1.9,-17.6,-1.7,-20.4,,,*4C
$GNGRS,114734.00,1,-18.7,6.8,-35.6,0.2,,,,,,,,*56
$GNGST,114734.00,60,,,,4.2,5.7,13*63
$GNZDA,114734.00,27,05,2025,00,00*79
$GNGBS,114734.00,4.2,5.7,13.1,,,,*6C
b0L(@
f N$c!':"."E !?e{4Ta:R 
Yih
FdG2,HIJKST
1S|U#qb(`)4$GNRMC,114735.00,A,0419.76138,S,05539.80144,E,0.047,,270525,,,A*76
$GNVTG,,T,,M,0.047,N,0.087,K,A*31
$GNGNS,114735.00,0419.76138,S,05539.80144,E,AA,13,0.72,10.8,-47.6,,*62
$GNGGA,114735.00,0419.76138,S,05539.80144,E,1,12,0.72,10.8,M,-47.6,M,,*49
$GNGSA,A,3,32,28,18,26,29,27,16,10,31,,,,1.68,0.72,1.52*1C
$GNGSA,A,3,71,83,84,85,,,,,,,,,1.68,0.72,1.52*1C
$GPGSV,5,1,17,08,04,320,,10,18,358,19,16,25,247,25,18,32,078,25*7E
$GPGSV,5,2,17,23,03,036,,25,01,127,,26,29,215,22,27,39,314,33*7D
$GPGSV,5,3,17,28,46,156,34,29,17,147,16,31,31,190,31,32,63,357,33*73
$GPGSV,5,4,17,36,52,277,,40,84,353,,41,58,082,,49,32,274,*7C
$GPGSV,5,5,17,50,10,089,*4A
$GLGSV,3,1,09,70,27,356,,71,50,300,18,72,27,236,19,73,14,148,*66
$GLGSV,3,2,09,74,15,193,,75,00,238,,83,14,136,18,84,49,083,10*62
$GLGSV,3,3,09,85,35,009,30*5D
$GNGLL,0419.76138,S,05539.80144,E,114735.00,A,A*6B
$GNGRS,114735.00,1,-0.4,-7.3,-1.0,3.6,13.5,-3.3,-18.5,-3.8,-20.7,,,*67
$GNGRS,114735.00,1,-18.9,16.7,3.8,1.6,,,,,,,,*74
$GNGST,114735.00,3301463,,,,4.1,5.6,13*56
$GNZDA,114735.00,27,05,2025,00,00*78
$GNGBS,114735.00,4.1,5.6,13.0,,,,*6E
b0L@
fK N$ ':E".aZ !?e5{4Ta:R 
Yi
FdG2,OHIJKST
1SiU#8bd$GNRMC,114736.00,A,0419.76129,S,05539.80152,E,0.017,,270525,,,A*77
$GNVTG,,T,,M,0.017,N,0.032,K,A*3A
$GNGNS,114736.00,0419.76129,S,05539.80152,E,AA,13,0.69,10.9,-47.6,,*6D
$GNGGA,114736.00,0419.76129,S,05539.80152,E,1,12,0.69,10.9,M,-47.6,M,,*46
$GNGSA,A,3,32,28,18,26,29,27,16,10,31,,,,1.59,0.69,1.43*14
$GNGSA,A,3,71,83,84,85,,,,,,,,,1.59,0.69,1.43*14
$GPGSV,5,1,17,08,04,320,,10,18,358,21,16,25,247,24,18,32,078,25*74
$GPGSV,5,2,17,23,03,036,,25,01,127,,26,29,215,21,27,39,314,32*7F
$GPGSV,5,3,17,28,46,156,34,29,17,147,18,31,31,190,31,32,63,357,33*7D
$GPGSV,5,4,17,36,52,277,,40,84,353,,41,58,082,,49,32,274,*7C
$GPGSV,5,5,17,50,10,089,*4A
$GLGSV,3,1,09,70,27,356,,71,50,300,18,72,27,236,19,73,14,148,*66
$GLGSV,3,2,09,74,15,193,,75,00,238,,83,14,136,18,84,49,083,10*62
$GLGSV,3,3,09,85,35,009,31*5C
$GNGLL,0419.76129,S,05539.80152,E,114736.00,A,A*6F
$GNGRS,114736.00,1,-2.0,-6.7,-0.7,5.1,10.4,0.7,-15.4,-6.9,-14.5,,,*45
$GNGRS,114736.00,1,-19.7,16.8,3.6,2.0,,,,,,,,*7C
$GNGST,114736.00,3183984,,,,4.1,5.6,13*59
$GNZDA,114736.00,27,05,2025,00,00*7B
$GNGBS,114736.00,4.1,5.6,13.0,,,,*6D
b0L@
f; N$!':".4j| "?e{4Ta:R 
Yi8
FdG2,HIJKSYT1SU#zbg$GNRMC,114737.00,A,0419.76120,S,05539.80157,E,0.022,,270525,,,A*7C
$GNVTG,,T,,M,0.022,N,0.041,K,A*38
$GNGNS,114737.00,0419.76120,S,05539.80157,E,AA,13,0.69,10.8,-47.6,,*61
$GNGGA,114737.00,0419.76120,S,05539.80157,E,1,12,0.69,10.8,M,-47.6,M,,*4A
$GNGSA,A,3,32,28,18,26,29,27,16,10,31,,,,1.59,0.69,1.43*14
$GNGSA,A,3,71,83,84,85,,,,,,,,,1.59,0.69,1.43*14
$GPGSV,5,1,17,08,04,320,,10,18,358,22,16,25,247,23,18,32,078,25*70
$GPGSV,5,2,17,23,03,036,,25,01,127,,26,29,215,21,27,39,314,33*7E
$GPGSV,5,3,17,28,46,156,34,29,17,147,17,31,31,190,30,32,63,357,34*74
$GPGSV,5,4,17,36,52,277,,40,84,353,,41,58,082,,49,32,274,*7C
$GPGSV,5,5,17,50,10,089,*4A
$GLGSV,3,1,09,70,27,356,,71,50,300,19,72,27,236,18,73,14,148,*66
$GLGSV,3,2,09,74,15,193,,75,00,238,,83,14,136,15,84,49,083,12*6D
$GLGSV,3,3,09,85,35,009,30*5D
$GNGLL,0419.76120,S,05539.80157,E,114737.00,A,A*62
$GNGRS,114737.00,1,-2.3,-7.2,-0.5,5.1,8.7,2.4,-14.8,-8.3,-14.1,,,*77
$GNGRS,114737.00,1,-18.9,6.0,10.4,1.9,,,,,,,,*71
$GNGST,114737.00,60,,,,4.0,5.5,13*60
$GNZDA,114737.00,27,05,2025,00,00*7A
$GNGBS,114737.00,4.0,5.5,12.9,,,,*66
b0L@
f N$$!':"".33 ?e{4Ta:R 
Yi
FdG2,HIJKST1SU#bkZ$GNRMC,114738.00,A,0419.76113,S,05539.80166,E,0.040,,270525,,,A*75
$GNVTG,,T,,M,0.040,N,0.074,K,A*3A
$GNGNS,114738.00,0419.76113,S,05539.80166,E,AA,13,0.72,11.0,-47.6,,*6F
$GNGGA,114738.00,0419.76113,S,05539.80166,E,1,12,0.72,11.0,M,-47.6,M,,*44
$GNGSA,A,3,32,28,18,26,29,27,16,10,31,,,,1.68,0.72,1.52*1C
$GNGSA,A,3,71,83,84,85,,,,,,,,,1.68,0.72,1.52*1C
$GPGSV,5,1,17,08,04,320,,10,18,358,20,16,25,247,23,18,32,078,26*71
$GPGSV,5,2,17,23,03,036,,25,01,127,,26,29,215,22,27,39,314,33*7D
$GPGSV,5,3,17,28,46,156,34,29,17,147,18,31,31,190,30,32,63,357,27*79
$GPGSV,5,4,17,36,52,277,,40,84,353,,41,58,082,,49,32,274,*7C
$GPGSV,5,5,17,50,10,089,*4A
$GLGSV,3,1,09,70,27,356,,71,50,300,22,72,27,236,20,73,14,148,*65
$GLGSV,3,2,09,74,15,193,,75,00,238,,83,14,136,15,84,49,083,12*6D
$GLGSV,3,3,09,85,35,009,30*5D
$GNGLL,0419.76113,S,05539.80166,E,114738.00,A,A*6F
$GNGRS,114738.00,1,-5.9,-7.2,0.1,0.4,10.1,0.3,-17.6,-8.7,-14.9,,,*67
$GNGRS,114738.00,1,-19.0,17.0,4.1,-0.9,,,,,,,,*5A
$GNGST,114738.00,143900,,,,4.0,5.5,13*66
$GNZDA,114738.00,27,05,2025,00,00*75
$GNGBS,114738.00,4.0,5.5,12.8,,,,*68
b0L@
fP N?$} ':I!.XlA ?eJ{4Ta:R 
Yi
FdG2,\HIJKST1SU#bo$GNRMC,114739.00,A,0419.76106,S,05539.80175,E,0.084,,270525,,,A*7A
$GNVTG,,T,,M,0.084,N,0.155,K,A*30
$GNGNS,114739.00,0419.76106,S,05539.80175,E,AA,13,0.72,10.8,-47.6,,*61
$GNGGA,114739.00,0419.76106,S,05539.80175,E,1,12,0.72,10.8,M,-47.6,M,,*4A
$GNGSA,A,3,32,28,18,26,29,27,16,10,31,,,,1.68,0.72,1.52*1C
$GNGSA,A,3,71,83,84,85,,,,,,,,,1.68,0.72,1.52*1C
$GPGSV,5,1,17,08,04,320,,10,18,358,20,16,25,247,24,18,32,078,27*77
$GPGSV,5,2,17,23,03,036,,25,01,127,,26,29,215,20,27,39,314,32*7E
$GPGSV,5,3,17,28,46,156,33,29,17,147,17,31,31,190,30,32,63,357,27*71
$GPGSV,5,4,17,36,52,277,,40,84,353,,41,58,082,,49,32,274,*7C
$GPGSV,5,5,17,50,10,089,*4A
$GLGSV,3,1,09,70,27,356,,71,50,300,24,72,27,236,19,73,14,148,*69
$GLGSV,3,2,09,74,15,193,,75,00,238,,83,14,136,13,84,49,083,15*6C
$GLGSV,3,3,09,85,35,009,30*5D
$GNGLL,0419.76106,S,05539.80175,E,114739.00,A,A*68
$GNGRS,114739.00,1,-4.4,-6.8,0.6,1.2,11.3,0.7,-16.1,-9.4,-14.7,,,*6C
$GNGRS,114739.00,1,-19.6,17.1,4.2,1.8,,,,,,,,*72
$GNGST,114739.00,215851,,,,3.9,5.4,13*6D
$GNZDA,114739.00,27,05,2025,00,00*74
$GNGBS,114739.00,3.9,5.4,12.8,,,,*66
b0L@
fG0 N$$ ':z .i "?eU{4Ta:R 
Yi
FdG2,SHIJKST1S[U#ZSbs_*$GNRMC,114740.00,A,0419.76098,S,05539.80187,E,0.069,,270525,,,A*7C
$GNVTG,,T,,M,0.069,N,0.127,K,A*36
$GNGNS,114740.00,0419.76098,S,05539.80187,E,AA,13,0.76,10.7,-47.6,,*6F
$GNGGA,114740.00,0419.76098,S,05539.80187,E,1,12,0.76,10.7,M,-47.6,M,,*44
$GNGSA,A,3,32,28,18,26,29,27,16,10,31,,,,1.81,0.76,1.64*1A
$GNGSA,A,3,71,83,84,85,,,,,,,,,1.81,0.76,1.64*1A
$GPGSV,5,1,17,08,04,320,,10,18,358,21,16,25,247,24,18,32,078,26*77
$GPGSV,5,2,17,23,03,036,,25,01,127,,26,29,215,18,27,39,314,32*75
$GPGSV,5,3,17,28,46,156,32,29,17,147,17,31,31,190,30,32,63,357,34*72
$GPGSV,5,4,17,36,52,277,,40,84,353,,41,58,082,,49,32,274,*7C
$GPGSV,5,5,17,50,10,089,*4A
$GLGSV,3,1,09,70,27,356,,71,50,300,23,72,27,236,19,73,14,148,*6E
$GLGSV,3,2,09,74,15,193,,75,00,238,,83,14,136,13,84,49,083,15*6C
$GLGSV,3,3,09,85,35,009,29*55
$GNGLL,0419.76098,S,05539.80187,E,114740.00,A,A*6D
$GNGRS,114740.00,1,-4.3,-6.6,-0.7,0.4,8.0,1.2,-14.9,-12.1,-16.0,,,*4F
$GNGRS,114740.00,1,-19.7,1.3,-27.3,6.6,,,,,,,,*5C
$GNGST,114740.00,52,,,,3.9,5.4,13*6E
$GNZDA,114740.00,27,05,2025,00,00*7A
$GNGBS,114740.00,3.9,5.4,12.7,,,,*67
b0L@
fh' N$ ':!.oB "?e{4Ta:R 
YiH
FdG2,#HIJKST1SU#@bw7$GNRMC,114741.00,A,0419.76093,S,05539.80194,E,0.041,,270525,,,A*7E
$GNVTG,,T,,M,0.041,N,0.076,K,A*39
$GNGNS,114741.00,0419.76093,S,05539.80194,E,AA,13,0.72,10.7,-47.6,,*63
$GNGGA,114741.00,0419.76093,S,05539.80194,E,1,12,0.72,10.7,M,-47.6,M,,*48
$GNGSA,A,3,32,28,18,26,29,27,16,10,31,,,,1.68,0.72,1.52*1C
$GNGSA,A,3,71,83,84,85,,,,,,,,,1.68,0.72,1.52*1C
$GPGSV,5,1,17,08,04,320,,10,18,358,19,16,25,247,24,18,32,078,26*7C
$GPGSV,5,2,17,23,03,036,,25,01,127,,26,29,215,18,27,39,314,32*75
$GPGSV,5,3,17,28,46,156,33,29,17,147,17,31,31,190,29,32,63,357,34*7B
$GPGSV,5,4,17,36,52,277,,40,84,353,,41,58,082,,49,32,274,*7C
$GPGSV,5,5,17,50,10,089,*4A
$GLGSV,3,1,09,70,27,356,,71,50,300,22,72,27,236,20,73,14,148,*65
$GLGSV,3,2,09,74,15,193,,75,00,238,,83,14,136,18,84,49,083,11*63
$GLGSV,3,3,09,85,35,009,29*55
$GNGLL,0419.76093,S,05539.80194,E,114741.00,A,A*65
$GNGRS,114741.00,1,-6.2,-6.6,-3.9,-0.9,3.9,1.5,-15.0,-14.3,-14.7,,,*6C
$GNGRS,114741.00,1,-17.6,16.9,4.0,5.4,,,,,,,,*70
$GNGST,114741.00,3304544,,,,3.9,5.3,13*5E
$GNZDA,114741.00,27,05,2025,00,00*7B
$GNGBS,114741.00,3.9,5.3,12.6,,,,*60
b0L@
g@ N$ ': .U  ?eC{4Ta:R 
Yi
FdG2,HIJKST1SpU#bs{$GNRMC,114742.00,A,0419.76086,S,05539.80204,E,0.107,,270525,,,A*70
$GNVTG,,T,,M,0.107,N,0.198,K,A*3B
$GNGNS,114742.00,0419.76086,S,05539.80204,E,AA,13,0.72,10.8,-47.6,,*61
$GNGGA,114742.00,0419.76086,S,05539.80204,E,1,12,0.72,10.8,M,-47.6,M,,*4A
$GNGSA,A,3,32,28,18,26,29,27,16,10,31,,,,1.68,0.72,1.52*1C
$GNGSA,A,3,71,83,84,85,,,,,,,,,1.68,0.72,1.52*1C
$GPGSV,5,1,17,08,04,320,,10,17,359,17,16,25,247,22,18,32,078,26*7A
$GPGSV,5,2,17,23,03,036,,25,01,127,,26,29,215,18,27,39,314,32*75
$GPGSV,5,3,17,28,46,156,32,29,17,147,17,31,31,190,29,32,63,357,32*7C
$GPGSV,5,4,17,36,52,277,,40,84,353,,41,58,082,,49,32,274,*7C
$GPGSV,5,5,17,50,10,089,*4A
$GLGSV,3,1,09,70,27,356,,71,50,300,21,72,27,236,23,73,14,148,*65
$GLGSV,3,2,09,74,15,193,,75,00,238,,83,14,136,13,84,49,083,09*61
$GLGSV,3,3,09,85,35,009,29*55
$GNGLL,0419.76086,S,05539.80204,E,114742.00,A,A*68
$GNGRS,114742.00,1,-7.0,-6.0,-3.0,-3.4,3.4,1.4,-14.7,-14.0,-15.4,,,*66
$GNGRS,114742.00,1,-18.0,17.0,3.7,6.5,,,,,,,,*70
$GNGST,114742.00,4665903,,,,3.8,5.3,13*56
$GNZDA,114742.00,27,05,2025,00,00*78
$GNGBS,114742.00,3.8,5.3,12.6,,,,*62
b0Lh@
g N$p ':. ?e{4Ta:R 
Yio
FdG2,HIJKST1SU#Pbh[b$GNRMC,114743.00,A,0419.76077,S,05539.80216,E,0.077,,270525,,,A*7A
$GNVTG,,T,,M,0.077,N,0.143,K,A*3B
$GNGNS,114743.00,0419.76077,S,05539.80216,E,AA,12,0.75,11.2,-47.6,,*60
$GNGGA,114743.00,0419.76077,S,05539.80216,E,1,12,0.75,11.2,M,-47.6,M,,*4A
$GNGSA,A,3,32,28,18,26,29,27,16,10,31,,,,1.81,0.75,1.64*19
$GNGSA,A,3,71,84,85,,,,,,,,,,1.81,0.75,1.64*12
$GPGSV,5,1,17,08,04,320,,10,17,359,17,16,25,247,23,18,32,078,26*7B
$GPGSV,5,2,17,23,03,036,,25,01,127,,26,29,215,17,27,39,314,32*7A
$GPGSV,5,3,17,28,46,156,31,29,17,147,16,31,31,190,31,32,63,357,30*75
$GPGSV,5,4,17,36,52,277,,40,84,353,,41,58,082,,49,32,274,*7C
$GPGSV,5,5,17,50,10,089,*4A
$GLGSV,3,1,09,70,27,356,,71,50,300,19,72,27,236,23,73,14,148,*6E
$GLGSV,3,2,09,74,15,193,,75,00,238,,83,14,136,09,84,49,083,11*63
$GLGSV,3,3,09,85,35,009,29*55
$GNGLL,0419.76077,S,05539.80216,E,114743.00,A,A*64
$GNGRS,114743.00,1,1.8,-5.0,-2.3,-4.0,2.9,1.5,-13.0,-15.7,-15.6,,,*4F
$GNGRS,114743.00,1,-16.0,10.1,8.5,,,,,,,,,*5D
$GNGST,114743.00,54,,,,3.8,5.2,13*6C
$GNZDA,114743.00,27,05,2025,00,00*79
$GNGBS,114743.00,3.8,5.2,12.6,,,,*62
b0LP@
g[ N.$ ':.! ?e{4Ta:R 
Yi
FdG2,HIJKSgT
1SU#bPC$GNRMC,114744.00,A,0419.76068,S,05539.80220,E,0.059,,270525,,,A*7A
$GNVTG,,T,,M,0.059,N,0.109,K,A*39
$GNGNS,114744.00,0419.76068,S,05539.80220,E,AA,13,0.72,11.5,-47.6,,*6D
$GNGGA,114744.00,0419.76068,S,05539.80220,E,1,12,0.72,11.5,M,-47.6,M,,*46
$GNGSA,A,3,32,28,18,26,29,27,16,10,31,,,,1.68,0.72,1.52*1C
$GNGSA,A,3,71,83,84,85,,,,,,,,,1.68,0.72,1.52*1C
$GPGSV,5,1,17,08,04,320,,10,17,359,16,16,25,247,24,18,32,078,28*73
$GPGSV,5,2,17,23,03,036,,25,01,127,,26,29,215,15,27,39,314,32*78
$GPGSV,5,3,17,28,46,156,31,29,17,147,18,31,31,190,33,32,63,357,29*71
$GPGSV,5,4,17,36,52,277,,40,84,353,,41,58,082,,49,32,274,*7C
$GPGSV,5,5,17,50,10,089,*4A
$GLGSV,3,1,09,70,27,356,,71,50,300,16,72,27,236,24,73,14,148,*66
$GLGSV,3,2,09,74,15,193,,75,00,238,,83,14,136,15,84,49,083,10*6F
$GLGSV,3,3,09,85,35,009,30*5D
$GNGLL,0419.76068,S,05539.80220,E,114744.00,A,A*68
$GNGRS,114744.00,1,4.2,-6.3,-4.7,-0.3,2.8,1.5,-10.9,-17.0,-13.8,,,*44
$GNGRS,114744.00,1,-5.6,16.4,4.0,6.8,,,,,,,,*44
$GNGST,114744.00,76496,,,,3.8,5.2,13*50
$GNZDA,114744.00,27,05,2025,00,00*7E
$GNGBS,114744.00,3.8,5.2,12.6,,,,*65
b0L8@
gNu N$l': . ?em{4Ta:R 
Yi
FdG2,HIJKS!T
1SU#b8+2$GNRMC,114745.00,A,0419.76063,S,05539.80219,E,0.175,,270525,,,A*75
$GNVTG,,T,,M,0.175,N,0.323,K,A*3C
$GNGNS,114745.00,0419.76063,S,05539.80219,E,AA,13,0.72,11.7,-47.6,,*6F
$GNGGA,114745.00,0419.76063,S,05539.80219,E,1,12,0.72,11.7,M,-47.6,M,,*44
$GNGSA,A,3,32,28,18,26,29,27,16,10,31,,,,1.68,0.72,1.52*1C
$GNGSA,A,3,71,83,84,85,,,,,,,,,1.68,0.72,1.52*1C
$GPGSV,5,1,17,08,04,320,,10,17,359,14,16,25,247,23,18,32,078,27*79
$GPGSV,5,2,17,23,03,036,,25,01,127,,26,29,215,14,27,39,314,31*7A
$GPGSV,5,3,17,28,46,156,32,29,17,147,18,31,31,190,31,32,63,357,31*79
$GPGSV,5,4,17,36,52,277,,40,84,353,,41,58,082,,49,32,274,*7C
$GPGSV,5,5,17,50,10,089,*4A
$GLGSV,3,1,09,70,27,356,,71,50,300,13,72,27,236,24,73,14,148,*63
$GLGSV,3,2,09,74,15,193,,75,00,238,,83,14,136,15,84,49,083,10*6F
$GLGSV,3,3,09,85,35,009,29*55
$GNGLL,0419.76063,S,05539.80219,E,114745.00,A,A*68
$GNGRS,114745.00,1,-4.0,-3.1,-3.6,-1.5,2.3,1.9,-9.1,-17.1,-13.7,,,*55
$GNGRS,114745.00,1,12.7,18.2,3.9,7.3,,,,,,,,*53
$GNGST,114745.00,113081,,,,3.7,5.2,13*6E
$GNZDA,114745.00,27,05,2025,00,00*7F
$GNGBS,114745.00,3.7,5.2,12.5,,,,*68
b0L @
g: NC$ ': .n ?e{4Ta:R 
Yi
FdG2,HIJKSCT1SU#sb o$GNRMC,114746.00,A,0419.76059,S,05539.80217,E,0.243,,270525,,,A*77
$GNVTG,,T,,M,0.243,N,0.449,K,A*31
$GNGNS,114746.00,0419.76059,S,05539.80217,E,AA,12,0.77,11.7,-47.6,,*6F
$GNGGA,114746.00,0419.76059,S,05539.80217,E,1,12,0.77,11.7,M,-47.6,M,,*45
$GNGSA,A,3,32,28,18,26,29,27,16,10,31,,,,1.88,0.77,1.71*16
$GNGSA,A,3,83,84,85,,,,,,,,,,1.88,0.77,1.71*10
$GPGSV,5,1,17,08,04,320,,10,17,359,15,16,25,247,21,18,32,078,26*7B
$GPGSV,5,2,17,23,03,036,,25,01,127,,26,29,215,12,27,39,314,32*7F
$GPGSV,5,3,17,28,46,156,32,29,17,147,17,31,31,190,31,32,63,357,31*76
$GPGSV,5,4,17,36,52,277,,40,84,353,,41,58,082,,49,32,274,*7C
$GPGSV,5,5,17,50,10,089,*4A
$GLGSV,3,1,09,70,27,356,,71,50,300,09,72,27,236,23,73,14,148,*6F
$GLGSV,3,2,09,74,15,193,,75,00,238,,83,14,136,13,84,49,083,07*6F
$GLGSV,3,3,09,85,35,009,28*54
$GNGLL,0419.76059,S,05539.80217,E,114746.00,A,A*6C
$GNGRS,114746.00,1,-2.6,-2.6,-1.9,-3.8,1.1,1.7,-8.1,-17.3,-12.9,,,*51
$GNGRS,114746.00,1,18.6,-103,5.0,,,,,,,,,*74
$GNGST,114746.00,52,,,,3.7,5.1,13*63
$GNZDA,114746.00,27,05,2025,00,00*7C
$GNGBS,114746.00,3.7,5.1,12.5,,,,*68
b0L@
gg NP$':.b ?ea{4Ta:R 
Yiy
FdG2,HIJKSPT1SU#mbF$GNRMC,114747.00,A,0419.76057,S,05539.80219,E,0.074,,270525,,,A*70
$GNVTG,,T,,M,0.074,N,0.138,K,A*34
$GNGNS,114747.00,0419.76057,S,05539.80219,E,AA,13,0.74,12.2,-47.6,,*6A
$GNGGA,114747.00,0419.76057,S,05539.80219,E,1,12,0.74,12.2,M,-47.6,M,,*41
$GNGSA,A,3,32,28,18,26,29,27,16,10,31,,,,1.74,0.74,1.58*1D
$GNGSA,A,3,71,83,84,85,,,,,,,,,1.74,0.74,1.58*1D
$GPGSV,5,1,17,08,04,320,,10,17,359,19,16,25,247,20,18,32,078,26*76
$GPGSV,5,2,17,23,03,036,,25,01,127,,26,29,215,12,27,39,314,31*7C
$GPGSV,5,3,17,28,46,156,26,29,17,147,15,31,31,190,31,32,63,357,31*71
$GPGSV,5,4,17,36,52,277,,40,84,353,,41,58,082,,49,32,274,*7C
$GPGSV,5,5,17,50,10,089,*4A
$GLGSV,3,1,09,70,27,356,,71,50,300,16,72,27,236,21,73,14,148,*63
$GLGSV,3,2,09,74,15,193,,75,00,238,,83,14,136,14,84,49,083,09*66
$GLGSV,3,3,09,85,35,009,27*5B
$GNGLL,0419.76057,S,05539.80219,E,114747.00,A,A*6D
$GNGRS,114747.00,1,1.0,-1.6,0.8,-6.3,2.6,2.1,-6.6,-19.0,-12.6,,,*52
$GNGRS,114747.00,1,33.0,18.7,3.9,1.1,,,,,,,,*54
$GNGST,114747.00,3435102,,,,3.7,5.1,13*57
$GNZDA,114747.00,27,05,2025,00,00*7D
$GNGBS,114747.00,3.7,5.1,12.5,,,,*69
b0L@
g N$X':.1 ?e{4Ta:R 
Yi2
FdG2,HIJKS
^T1SyU#bf$GNRMC,114748.00,A,0419.76051,S,05539.80217,E,0.076,,270525,,,A*75
$GNVTG,,T,,M,0.076,N,0.141,K,A*38
$GNGNS,114748.00,0419.76051,S,05539.80217,E,AA,13,0.72,12.6,-47.6,,*6F
$GNGGA,114748.00,0419.76051,S,05539.80217,E,1,12,0.72,12.6,M,-47.6,M,,*44
$GNGSA,A,3,32,28,18,26,29,27,16,10,31,,,,1.68,0.72,1.52*1C
$GNGSA,A,3,71,83,84,85,,,,,,,,,1.68,0.72,1.52*1C
$GPGSV,5,1,17,08,04,320,,10,17,359,18,16,25,246,22,18,32,078,27*75
$GPGSV,5,2,17,23,03,036,,25,01,127,,26,29,215,15,27,39,314,30*7A
$GPGSV,5,3,17,28,46,156,28,29,17,147,15,31,31,190,31,32,63,357,31*7F
$GPGSV,5,4,17,36,52,277,,40,84,353,,41,58,082,,49,32,274,*7C
$GPGSV,5,5,17,50,10,089,*4A
$GLGSV,3,1,09,70,27,356,,71,50,300,18,72,27,236,16,73,14,148,*69
$GLGSV,3,2,09,74,15,193,,75,00,238,,83,14,136,10,84,49,083,09*62
$GLGSV,3,3,09,85,35,009,27*5B
$GNGLL,0419.76051,S,05539.80217,E,114748.00,A,A*6A
$GNGRS,114748.00,1,-0.4,-9.7,2.5,-6.8,4.4,5.0,-6.0,-21.3,-15.4,,,*71
$GNGRS,114748.00,1,32.3,18.9,3.8,2.8,,,,,,,,*5C
$GNGST,114748.00,3300339,,,,3.7,5.1,13*53
$GNZDA,114748.00,27,05,2025,00,00*72
$GNGBS,114748.00,3.7,5.1,12.5,,,,*66
b0L@
g3 NJ$':.dv ?es{4Ta:R 
Yi
FdG2,HIJKST1S(U#Ub$GNRMC,114749.00,A,0419.76041,S,05539.80209,E,0.165,,270525,,,A*79
$GNVTG,,T,,M,0.165,N,0.306,K,A*3A
$GNGNS,114749.00,0419.76041,S,05539.80209,E,AA,12,0.76,12.7,-47.6,,*64
$GNGGA,114749.00,0419.76041,S,05539.80209,E,1,12,0.76,12.7,M,-47.6,M,,*4E
$GNGSA,A,3,32,28,18,26,29,27,16,10,31,,,,1.81,0.76,1.64*1A
$GNGSA,A,3,71,83,85,,,,,,,,,,1.81,0.76,1.64*16
$GPGSV,5,1,17,08,04,320,,10,17,359,16,16,25,246,22,18,32,078,27*7B
$GPGSV,5,2,17,23,03,036,,25,01,127,,26,29,215,19,27,39,314,28*7F
$GPGSV,5,3,17,28,46,156,29,29,17,147,14,31,31,190,31,32,63,357,30*7E
$GPGSV,5,4,17,36,52,277,,40,84,353,,41,58,082,,49,32,274,*7C
$GPGSV,5,5,17,50,10,089,*4A
$GLGSV,3,1,09,70,27,356,,71,50,300,21,72,27,236,14,73,14,148,*61
$GLGSV,3,2,09,74,15,193,,75,00,238,,83,14,136,18,84,49,083,07*64
$GLGSV,3,3,09,85,35,009,26*5A
$GNGLL,0419.76041,S,05539.80209,E,114749.00,A,A*65
$GNGRS,114749.00,1,-1.4,-14.4,3.3,-6.0,5.1,7.0,-5.0,-20.0,-16.7,,,*46
$GNGRS,114749.00,1,30.3,-13.1,-2.5,,,,,,,,,*74
$GNGST,114749.00,52,,,,3.7,5.1,13*6C
$GNZDA,114749.00,27,05,2025,00,00*73
$GNGBS,114749.00,3.7,5.1,12.5,,,,*67
b0L@
gT` N$':. ?e{4Ta:R 
Yi"
FdG2,HIJKST1SU#=b6$GNRMC,114750.00,A,0419.76034,S,05539.80205,E,0.070,,270525,,,A*7A
$GNVTG,,T,,M,0.070,N,0.129,K,A*30
$GNGNS,114750.00,0419.76034,S,05539.80205,E,AA,13,0.72,13.0,-47.6,,*61
$GNGGA,114750.00,0419.76034,S,05539.80205,E,1,12,0.72,13.0,M,-47.6,M,,*4A
$GNGSA,A,3,32,28,18,26,29,27,16,10,31,,,,1.68,0.72,1.52*1C
$GNGSA,A,3,71,83,84,85,,,,,,,,,1.68,0.72,1.52*1C
$GPGSV,5,1,17,08,04,320,,10,17,359,12,16,25,246,21,18,32,078,27*7C
$GPGSV,5,2,17,23,03,036,,25,01,127,,26,29,215,19,27,39,314,28*7F
$GPGSV,5,3,17,28,46,156,30,29,17,147,13,31,31,190,31,32,63,357,31*70
$GPGSV,5,4,17,36,52,277,,40,84,353,,41,58,082,,49,32,274,*7C
$GPGSV,5,5,17,50,10,089,*4A
$GLGSV,3,1,09,70,27,356,,71,50,300,20,72,27,236,,73,14,148,*65
$GLGSV,3,2,09,74,15,193,,75,00,238,,83,14,136,08,84,49,083,08*6A
$GLGSV,3,3,09,85,35,009,26*5A
$GNGLL,0419.76034,S,05539.80205,E,114750.00,A,A*63
$GNGRS,114750.00,1,-2.8,-12.6,2.5,-5.4,4.4,6.6,-4.2,-24.8,-18.3,,,*43
$GNGRS,114750.00,1,30.6,17.2,4.1,-3.8,,,,,,,,*74
$GNGST,114750.00,3299669,,,,3.7,5.1,13*5B
$GNZDA,114750.00,27,05,2025,00,00*7B
$GNGBS,114750.00,3.7,5.1,12.5,,,,*6F
b0L@

g7. N?$':.6p ?e{4Ta:R 
Yi
FdG2,HIJKST1SU#b$GNRMC,114751.00,A,0419.76027,S,05539.80208,E,0.116,,270525,,,A*75
$GNVTG,,T,,M,0.116,N,0.215,K,A*3D
$GNGNS,114751.00,0419.76027,S,05539.80208,E,AA,12,0.83,13.2,-47.6,,*62
$GNGGA,114751.00,0419.76027,S,05539.80208,E,1,12,0.83,13.2,M,-47.6,M,,*48
$GNGSA,A,3,32,28,18,26,29,27,16,31,,,,,2.13,0.83,1.96*14
$GNGSA,A,3,71,83,84,85,,,,,,,,,2.13,0.83,1.96*15
$GPGSV,5,1,17,08,04,320,,10,17,359,10,16,25,246,18,18,32,078,26*75
$GPGSV,5,2,17,23,03,036,,25,01,127,,26,29,215,19,27,39,314,27*70
$GPGSV,5,3,17,28,46,156,30,29,17,147,12,31,31,190,31,32,63,357,29*78
$GPGSV,5,4,17,36,52,277,,40,84,353,,41,58,082,,49,32,274,*7C
$GPGSV,5,5,17,50,10,089,*4A
$GLGSV,3,1,09,70,27,356,,71,50,300,21,72,27,236,,73,14,148,*64
$GLGSV,3,2,09,74,15,193,,75,00,238,,83,14,136,08,84,49,083,08*6A
$GLGSV,3,3,09,85,35,009,28*54
$GNGLL,0419.76027,S,05539.80208,E,114751.00,A,A*6D
$GNGRS,114751.00,1,-0.3,-3.6,3.2,-5.4,5.7,2.8,-7.2,-11.7,,,,*46
$GNGRS,114751.00,1,30.1,17.4,4.0,-3.8,,,,,,,,*75
$GNGST,114751.00,3434856,,,,3.7,5.1,13*59
$GNZDA,114751.00,27,05,2025,00,00*7A
$GNGBS,114751.00,3.7,5.1,12.6,,,,*6D
b0L@
ge N$':.+q ?e<{4Ta:R 
Yi'
FdG2,HIJKSFT1SU#}Fb~$GNRMC,114752.00,A,0419.76022,S,05539.80207,E,0.051,,270525,,,A*7E
$GNVTG,,T,,M,0.051,N,0.095,K,A*35
$GNGNS,114752.00,0419.76022,S,05539.80207,E,AA,13,0.72,13.9,-47.6,,*6F
$GNGGA,114752.00,0419.76022,S,05539.80207,E,1,12,0.72,13.9,M,-47.6,M,,*44
$GNGSA,A,3,32,28,18,26,29,27,16,10,31,,,,1.68,0.72,1.52*1C
$GNGSA,A,3,71,83,84,85,,,,,,,,,1.68,0.72,1.52*1C
$GPGSV,5,1,17,08,04,320,,10,17,359,12,16,25,246,18,18,32,078,27*76
$GPGSV,5,2,17,23,03,036,,25,01,127,,26,29,215,21,27,39,314,27*7B
$GPGSV,5,3,17,28,46,156,29,29,17,147,11,31,31,190,31,32,63,357,27*7D
$GPGSV,5,4,17,36,52,277,,40,84,353,,41,58,082,,49,32,274,*7C
$GPGSV,5,5,17,50,10,089,*4A
$GLGSV,3,1,09,70,27,356,,71,50,300,20,72,27,236,,73,14,148,*65
$GLGSV,3,2,09,74,15,193,,75,00,238,,83,14,136,08,84,49,083,08*6A
$GLGSV,3,3,09,85,35,009,28*54
$GNGLL,0419.76022,S,05539.80207,E,114752.00,A,A*64
$GNGRS,114752.00,1,5.7,0.4,2.9,-5.2,6.7,2.2,-6.7,-26.6,-14.2,,,*75
$GNGRS,114752.00,1,30.3,0.7,6.8,-4.8,,,,,,,,*4C
$GNGST,114752.00,65,,,,3.6,5.1,13*63
$GNZDA,114752.00,27,05,2025,00,00*79
$GNGBS,114752.00,3.6,5.1,12.6,,,,*6F
b0Lx@
g N$n':.6 ?e{4Ta:R 
Y
i2
FdG2,8HIJKST1SU#bxkVn$GNRMC,114753.00,A,0419.76023,S,05539.80210,E,0.066,,270525,,,A*7C
$GNVTG,,T,,M,0.066,N,0.122,K,A*3C
$GNGNS,114753.00,0419.76023,S,05539.80210,E,AA,13,0.72,14.5,-47.6,,*62
$GNGGA,114753.00,0419.76023,S,05539.80210,E,1,12,0.72,14.5,M,-47.6,M,,*49
$GNGSA,A,3,32,28,18,26,29,27,16,10,31,,,,1.68,0.72,1.52*1C
$GNGSA,A,3,71,83,84,85,,,,,,,,,1.68,0.72,1.52*1C
$GPGSV,5,1,17,08,04,320,,10,17,359,14,16,25,246,18,18,32,078,27*70
$GPGSV,5,2,17,23,03,036,,25,01,127,,26,29,215,21,27,39,314,28*74
$GPGSV,5,3,17,28,46,156,30,29,17,147,13,31,31,190,30,32,63,357,28*79
$GPGSV,5,4,17,36,52,277,,40,84,353,,41,58,082,,49,32,274,*7C
$GPGSV,5,5,17,50,10,089,*4A
$GLGSV,3,1,09,70,27,356,,71,50,300,19,72,27,236,,73,14,148,*6F
$GLGSV,3,2,09,74,15,193,,75,00,238,,83,14,136,17,84,49,083,08*64
$GLGSV,3,3,09,85,35,009,28*54
$GNGLL,0419.76023,S,05539.80210,E,114753.00,A,A*62
$GNGRS,114753.00,1,1.7,5.7,1.6,-6.6,9.1,1.9,-7.5,-23.5,-15.1,,,*7B
$GNGRS,114753.00,1,28.7,17.0,4.0,-3.7,,,,,,,,*73
$GNGST,114753.00,195748,,,,3.6,5.1,13*67
$GNZDA,114753.00,27,05,2025,00,00*78
$GNGBS,114753.00,3.6,5.1,12.6,,,,*6E
b0L`@
gm N%':.X ?e^{4Ta:R 
Yi
FdG2,
HIJKST1SU#b`S.$GNRMC,114754.00,A,0419.76020,S,05539.80218,E,0.008,,270525,,,A*78
$GNVTG,,T,,M,0.008,N,0.014,K,A*30
$GNGNS,114754.00,0419.76020,S,05539.80218,E,AA,13,0.81,14.5,-47.6,,*62
$GNGGA,114754.00,0419.76020,S,05539.80218,E,1,12,0.81,14.5,M,-47.6,M,,*49
$GNGSA,A,3,32,28,18,26,29,27,16,10,31,,,,1.93,0.81,1.75*11
$GNGSA,A,3,71,83,84,85,,,,,,,,,1.93,0.81,1.75*11
$GPGSV,5,1,17,08,04,320,,10,17,359,15,16,25,246,21,18,32,078,27*7B
$GPGSV,5,2,17,23,03,037,,25,01,127,,26,29,215,20,27,39,314,28*74
$GPGSV,5,3,17,28,46,156,30,29,17,147,16,31,31,190,24,32,63,357,28*79
$GPGSV,5,4,17,36,52,277,,40,84,353,,41,58,082,,49,32,274,*7C
$GPGSV,5,5,17,50,10,089,*4A
$GLGSV,3,1,09,70,27,356,,71,50,300,19,72,27,236,23,73,14,148,*6E
$GLGSV,3,2,09,74,15,193,,75,00,238,,83,14,136,13,84,49,083,08*60
$GLGSV,3,3,09,85,35,009,28*54
$GNGLL,0419.76020,S,05539.80218,E,114754.00,A,A*6E
$GNGRS,114754.00,1,0.9,3.4,-1.2,-8.0,7.3,4.1,-6.6,-24.1,-15.1,,,*57
$GNGRS,114754.00,1,25.7,16.8,3.8,-5.2,,,,,,,,*7C
$GNGST,114754.00,3434404,,,,3.6,5.0,13*57
$GNZDA,114754.00,27,05,2025,00,00*7F
$GNGBS,114754.00,3.6,5.0,12.6,,,,*68
b0LH@
gr N2%':.6 ?e{4Ta:R 
Yi5

FdG2,HIJKST1S/U#zSbH;>$GNRMC,114755.00,A,0419.76015,S,05539.80216,E,0.024,,270525,,,A*7F
$GNVTG,,T,,M,0.024,N,0.044,K,A*3B
$GNGNS,114755.00,0419.76015,S,05539.80216,E,AA,12,0.71,14.7,-47.6,,*67
$GNGGA,114755.00,0419.76015,S,05539.80216,E,1,12,0.71,14.7,M,-47.6,M,,*4D
$GNGSA,A,3,32,28,18,26,29,27,16,10,31,,,,1.63,0.71,1.47*10
$GNGSA,A,3,71,84,85,,,,,,,,,,1.63,0.71,1.47*1B
$GPGSV,5,1,17,08,04,320,,10,17,359,13,16,25,246,21,18,32,078,26*7C
$GPGSV,5,2,17,23,03,037,,25,01,127,,26,29,215,18,27,39,314,28*7F
$GPGSV,5,3,17,28,46,156,31,29,17,147,15,31,31,190,31,32,63,357,25*72
$GPGSV,5,4,17,36,52,277,,40,84,353,,41,58,082,,49,32,274,*7C
$GPGSV,5,5,17,50,10,089,*4A
$GLGSV,3,1,09,70,27,356,,71,50,300,21,72,27,236,23,73,14,148,*65
$GLGSV,3,2,09,74,15,193,,75,00,238,,83,14,136,08,84,49,083,09*6B
$GLGSV,3,3,09,85,35,009,28*54
$GNGLL,0419.76015,S,05539.80216,E,114755.00,A,A*67
$GNGRS,114755.00,1,5.0,-0.6,-2.1,-7.9,5.7,5.3,-6.5,-20.4,-16.3,,,*76
$GNGRS,114755.00,1,25.3,-143,-6.2,,,,,,,,,*55
$GNGST,114755.00,73,,,,3.6,5.0,13*62
$GNZDA,114755.00,27,05,2025,00,00*7E
$GNGBS,114755.00,3.6,5.0,12.6,,,,*69
b0L0 @
g NL%~':!.A ?e{4Ta:R 
Yiw
FdG2,HIJKST1SU#b0 #$GNRMC,114756.00,A,0419.76009,S,05539.80212,E,0.065,,270525,,,A*70
$GNVTG,,T,,M,0.065,N,0.120,K,A*3D
$GNGNS,114756.00,0419.76009,S,05539.80212,E,AA,12,0.75,15.2,-47.6,,*6D
$GNGGA,114756.00,0419.76009,S,05539.80212,E,1,12,0.75,15.2,M,-47.6,M,,*47
$GNGSA,A,3,32,28,18,26,29,27,16,10,31,,,,1.81,0.75,1.64*19
$GNGSA,A,3,71,84,85,,,,,,,,,,1.81,0.75,1.64*12
$GPGSV,5,1,17,08,04,320,,10,17,359,11,16,25,246,21,18,32,078,24*7C
$GPGSV,5,2,17,23,03,037,,25,01,126,,26,29,215,16,27,39,314,30*79
$GPGSV,5,3,17,28,46,156,33,29,17,147,13,31,31,190,30,32,63,357,22*70
$GPGSV,5,4,17,36,52,277,,40,84,353,,41,58,082,,49,32,274,*7C
$GPGSV,5,5,17,50,10,089,*4A
$GLGSV,3,1,09,70,27,356,,71,50,300,22,72,27,236,23,73,14,148,*66
$GLGSV,3,2,09,74,15,193,,75,00,238,,83,14,136,08,84,49,083,12*61
$GLGSV,3,3,09,85,35,009,28*54
$GNGLL,0419.76009,S,05539.80212,E,114756.00,A,A*6D
$GNGRS,114756.00,1,1.9,-5.6,-1.8,-7.7,5.8,0.1,-5.5,-21.0,-16.3,,,*77
$GNGRS,114756.00,1,23.3,4.0,-5.1,,,,,,,,,*61
$GNGST,114756.00,86612,,,,3.6,5.0,13*5E
$GNZDA,114756.00,27,05,2025,00,00*7D
$GNGBS,114756.00,3.6,5.0,12.7,,,,*6B
b0L$@
g N%~': .aJ ?e{4Ta:R 
YiK
FdG2,HIJKST1SU#Qb$$GNRMC,114757.00,A,0419.76011,S,05539.80215,E,0.086,,270525,,,A*72
$GNVTG,,T,,M,0.086,N,0.159,K,A*3E
$GNGNS,114757.00,0419.76011,S,05539.80215,E,AA,12,0.72,15.6,-47.6,,*61
$GNGGA,114757.00,0419.76011,S,05539.80215,E,1,12,0.72,15.6,M,-47.6,M,,*4B
$GNGSA,A,3,28,18,26,29,27,16,10,31,,,,,1.87,0.72,1.72*1E
$GNGSA,A,3,71,83,84,85,,,,,,,,,1.87,0.72,1.72*1F
$GPGSV,5,1,17,08,04,320,,10,17,359,12,16,25,246,20,18,32,078,22*78
$GPGSV,5,2,17,23,03,037,,25,01,126,,26,29,214,16,27,39,314,31*79
$GPGSV,5,3,17,28,46,156,32,29,17,147,18,31,31,190,29,32,63,357,21*71
$GPGSV,5,4,17,36,52,277,,40,84,353,,41,58,082,,49,32,274,*7C
$GPGSV,5,5,17,50,10,089,*4A
$GLGSV,3,1,09,70,27,356,,71,50,300,22,72,27,236,21,73,14,148,*64
$GLGSV,3,2,09,74,15,193,,75,00,238,,83,14,136,14,84,49,083,15*6B
$GLGSV,3,3,09,85,35,009,30*5D
$GNGLL,0419.76011,S,05539.80215,E,114757.00,A,A*62
$GNGRS,114757.00,1,1.0,-2.6,-8.2,5.9,2.2,-7.7,-21.3,-13.6,,,,*7B
$GNGRS,114757.00,1,23.0,20.3,3.9,-8.9,,,,,,,,*77
$GNGST,114757.00,86698,,,,3.6,5.0,13*5D
$GNZDA,114757.00,27,05,2025,00,00*7C
$GNGBS,114757.00,3.6,5.0,12.7,,,,*6A
b0L(@
g1 N%~ (9 ."H ?e{4Ta:R 
YiFdG2,HIJKS|T1S?U#2b(s$GNRMC,114758.00,A,0419.76013,S,05539.80214,E,0.042,,270525,,,A*76
$GNVTG,,T,,M,0.042,N,0.077,K,A*3B
$GNGNS,114758.00,0419.76013,S,05539.80214,E,AA,12,0.72,16.1,-47.6,,*69
$GNGGA,114758.00,0419.76013,S,05539.80214,E,1,12,0.72,16.1,M,-47.6,M,,*43
$GNGSA,A,3,28,18,26,29,27,16,10,31,,,,,1.87,0.72,1.72*1E
$GNGSA,A,3,71,83,84,85,,,,,,,,,1.87,0.72,1.72*1F
$GPGSV,5,1,17,08,04,320,,10,17,359,11,16,25,246,17,18,32,078,21*7C
$GPGSV,5,2,17,23,03,037,,25,01,126,,26,29,214,17,27,40,313,31*71
$GPGSV,5,3,17,28,46,156,32,29,17,147,16,31,31,190,28,32,63,357,26*79
$GPGSV,5,4,17,36,52,277,,40,84,353,,41,58,082,,49,32,274,*7C
$GPGSV,5,5,17,50,10,089,*4A
$GLGSV,3,1,09,70,27,356,,71,50,300,21,72,27,236,21,73,14,148,*67
$GLGSV,3,2,09,74,15,193,,75,00,238,,83,14,136,17,84,49,083,09*65
$GLGSV,3,3,09,85,35,009,30*5D
$GNGLL,0419.76013,S,05539.80214,E,114758.00,A,A*6E
$GNGRS,114758.00,1,0.3,-1.2,-9.9,5.8,4.4,-7.2,-26.8,-10.3,,,,*75
$GNGRS,114758.00,1,25.4,19.2,-4.5,-6.1,,,,,,,,*51
$GNGST,114758.00,63,,,,3.6,5.0,13*6E
$GNZDA,114758.00,27,05,2025,00,00*73
$GNGBS,114758.00,3.6,5.0,12.8,,,,*6A
b0L+@
g N%~(9p.Qm ?e6{4Ta:R 
Yi
FdG2,DHIJKST1SU#b+d$GNRMC,114759.00,A,0419.76016,S,05539.80213,E,0.020,,270525,,,A*71
$GNVTG,,T,,M,0.020,N,0.037,K,A*3B
$GNGNS,114759.00,0419.76016,S,05539.80213,E,AA,13,0.72,16.5,-47.6,,*6F
$GNGGA,114759.00,0419.76016,S,05539.80213,E,1,12,0.72,16.5,M,-47.6,M,,*44
$GNGSA,A,3,32,28,18,26,29,27,16,10,31,,,,1.68,0.72,1.52*1C
$GNGSA,A,3,71,83,84,85,,,,,,,,,1.68,0.72,1.52*1C
$GPGSV,5,1,17,08,04,320,,10,17,359,15,16,25,246,14,18,32,078,21*7B
$GPGSV,5,2,17,23,03,037,,25,01,126,,26,29,214,18,27,40,313,30*7F
$GPGSV,5,3,17,28,46,155,31,29,17,147,16,31,31,190,28,32,63,357,26*79
$GPGSV,5,4,17,36,52,277,,40,84,353,,41,58,082,,49,32,274,*7C
$GPGSV,5,5,17,50,10,089,*4A
$GLGSV,3,1,09,70,27,356,,71,50,300,22,72,27,236,22,73,14,148,*67
$GLGSV,3,2,09,74,15,193,,75,00,238,,83,14,136,18,84,49,083,08*6B
$GLGSV,3,3,09,85,35,009,30*5D
$GNGLL,0419.76016,S,05539.80213,E,114759.00,A,A*6D
$GNGRS,114759.00,1,0.5,3.4,-3.0,-10.7,4.1,8.8,-5.3,-26.7,-1.5,,,*5F
$GNGRS,114759.00,1,23.7,20.8,3.9,-2.6,,,,,,,,*70
$GNGST,114759.00,93125,,,,3.6,5.0,13*56
$GNZDA,114759.00,27,05,2025,00,00*72
$GNGBS,114759.00,3.6,5.0,12.8,,,,*6B
b0L/@
g
 N%~i(9.ks ?et{4Ta:R 
Yi
FdG2,HIJKST1SU#b/<4$GNRMC,114800.00,A,0419.76016,S,05539.80212,E,0.046,,270525,,,A*73
$GNVTG,,T,,M,0.046,N,0.086,K,A*31
$GNGNS,114800.00,0419.76016,S,05539.80212,E,AA,12,0.80,16.8,-47.6,,*6C
$GNGGA,114800.00,0419.76016,S,05539.80212,E,1,12,0.80,16.8,M,-47.6,M,,*46
$GNGSA,A,3,32,28,18,26,29,27,10,31,,,,,1.76,0.80,1.57*1C
$GNGSA,A,3,71,83,84,85,,,,,,,,,1.76,0.80,1.57*1B
$GPGSV,5,1,17,08,04,320,,10,17,359,17,16,25,246,10,18,32,078,20*7C
$GPGSV,5,2,17,23,03,037,,25,01,126,,26,29,214,20,27,40,313,29*7C
$GPGSV,5,3,17,28,46,155,30,29,17,147,14,31,31,190,29,32,63,357,25*78
$GPGSV,5,4,17,36,52,277,,40,84,353,,41,58,082,,49,32,274,*7C
$GPGSV,5,5,17,50,10,089,*4A
$GLGSV,3,1,09,70,27,356,,71,50,300,24,72,27,236,24,73,14,148,*67
$GLGSV,3,2,09,74,15,193,,75,00,238,,83,14,136,17,84,49,083,09*65
$GLGSV,3,3,09,85,35,009,31*5C
$GNGLL,0419.76016,S,05539.80212,E,114800.00,A,A*6F
$GNGRS,114800.00,1,-1.4,6.2,-5.0,-11.7,4.1,10.0,-23.2,-6.5,,,,*46
$GNGRS,114800.00,1,20.1,19.2,3.9,2.2,,,,,,,,*5F
$GNGST,114800.00,145392,,,,3.6,5.1,13*60
$GNZDA,114800.00,27,05,2025,00,00*71
$GNGBS,114800.00,3.6,5.1,12.8,,,,*69
b0L3@
gf N%~(9.] ?e{4Ta:R 
YiT
FdG2,HIJKST
1SoU#JRb3$GNRMC,114801.00,A,0419.76014,S,05539.80225,E,0.219,,270525,,,A*7C
$GNVTG,,T,,M,0.219,N,0.406,K,A*35
$GNGNS,114801.00,0419.76014,S,05539.80225,E,AA,13,0.72,17.1,-47.6,,*6F
$GNGGA,114801.00,0419.76014,S,05539.80225,E,1,12,0.72,17.1,M,-47.6,M,,*44
$GNGSA,A,3,32,28,18,26,29,27,16,10,31,,,,1.68,0.72,1.52*1C
$GNGSA,A,3,71,83,84,85,,,,,,,,,1.68,0.72,1.52*1C
$GPGSV,5,1,17,08,04,320,,10,17,359,17,16,25,246,13,18,32,078,18*74
$GPGSV,5,2,17,23,03,037,,25,01,126,,26,29,214,21,27,40,313,29*7D
$GPGSV,5,3,17,28,46,155,28,29,17,147,14,31,31,190,30,32,63,357,26*7A
$GPGSV,5,4,17,36,52,277,,40,84,353,,41,58,082,,49,32,274,*7C
$GPGSV,5,5,17,50,10,089,*4A
$GLGSV,3,1,09,70,27,356,,71,50,300,23,72,27,236,23,73,14,148,*67
$GLGSV,3,2,09,74,15,193,,75,00,238,,83,14,136,15,84,49,083,10*6F
$GLGSV,3,3,09,85,35,009,29*55
$GNGLL,0419.76014,S,05539.80225,E,114801.00,A,A*68
$GNGRS,114801.00,1,-8.1,10.5,-3.4,-13.1,2.3,7.2,-6.7,-21.0,-14.4,,,*7D
$GNGRS,114801.00,1,19.3,17.1,39.5,0.7,,,,,,,,*69
$GNGST,114801.00,59,,,,3.5,5.1,13*66
$GNZDA,114801.00,27,05,2025,00,00*70
$GNGBS,114801.00,3.5,5.1,12.8,,,,*6B
b0L7@
g{ N%~zG(9.S ?e{4Ta:R 
YiFdG2,HIJKST
1SU#Qb7$GNRMC,114802.00,A,0419.76008,S,05539.80236,E,0.188,,270525,,,A*7B
$GNVTG,,T,,M,0.188,N,0.348,K,A*33
$GNGNS,114802.00,0419.76008,S,05539.80236,E,AA,12,0.74,17.2,-47.6,,*67
$GNGGA,114802.00,0419.76008,S,05539.80236,E,1,12,0.74,17.2,M,-47.6,M,,*4D
$GNGSA,A,3,32,28,18,26,29,27,16,10,31,,,,1.74,0.74,1.58*1D
$GNGSA,A,3,83,84,85,,,,,,,,,,1.74,0.74,1.58*1B
$GPGSV,5,1,17,08,04,320,,10,17,359,16,16,25,246,13,18,32,078,15*78
$GPGSV,5,2,17,23,03,037,,25,01,126,16,26,29,214,22,27,40,313,31*70
$GPGSV,5,3,17,28,46,155,30,29,17,147,16,31,31,189,28,32,63,357,24*72
$GPGSV,5,4,17,36,52,277,,40,84,353,,41,58,082,,49,32,274,*7C
$GPGSV,5,5,17,50,10,089,*4A
$GLGSV,3,1,09,70,27,356,,71,50,300,,72,27,236,23,73,14,148,*66
$GLGSV,3,2,09,74,15,193,,75,00,238,,83,14,136,15,84,49,083,10*6F
$GLGSV,3,3,09,85,35,009,28*54
$GNGLL,0419.76008,S,05539.80236,E,114802.00,A,A*64
$GNGRS,114802.00,1,-15.9,3.9,-3.7,-13.5,0.8,4.6,-5.3,-19.2,-20.2,,,*72
$GNGRS,114802.00,1,17.1,3.9,7.6,,,,,,,,,*4C
$GNGST,114802.00,3434011,,,,3.5,5.1,13*59
$GNZDA,114802.00,27,05,2025,00,00*73
$GNGBS,114802.00,3.5,5.1,12.9,,,,*69
b0L;@
g] Nb%~I(9 . ?e_{4Ta:R 
Yik

FdG2,HIJKST1SU#Rb;{l$GNRMC,114803.00,A,0419.76005,S,05539.80240,E,0.073,,270525,,,A*73
$GNVTG,,T,,M,0.073,N,0.135,K,A*3E
$GNGNS,114803.00,0419.76005,S,05539.80240,E,AA,11,0.77,17.1,-47.6,,*69
$GNGGA,114803.00,0419.76005,S,05539.80240,E,1,11,0.77,17.1,M,-47.6,M,,*43
$GNGSA,A,3,32,28,18,26,29,27,16,10,31,,,,1.87,0.77,1.71*19
$GNGSA,A,3,83,85,,,,,,,,,,,1.87,0.77,1.71*13
$GPGSV,5,1,17,08,04,320,,10,17,359,14,16,25,246,17,18,32,078,16*7D
$GPGSV,5,2,17,23,03,037,,25,01,126,13,26,29,214,21,27,40,313,31*76
$GPGSV,5,3,17,28,46,155,32,29,17,147,15,31,31,189,25,32,63,357,22*78
$GPGSV,5,4,17,36,52,277,,40,84,353,,41,58,082,,49,32,274,*7C
$GPGSV,5,5,17,50,10,089,*4A
$GLGSV,3,1,09,70,27,356,,71,50,300,19,72,27,236,24,73,14,148,*69
$GLGSV,3,2,09,74,15,193,,75,00,238,,83,14,136,15,84,49,083,07*69
$GLGSV,3,3,09,85,35,009,29*55
$GNGLL,0419.76005,S,05539.80240,E,114803.00,A,A*69
$GNGRS,114803.00,1,-19.5,-0.1,-4.1,-12.8,-2.8,6.9,-4.9,-19.6,-13.7,,,*70
$GNGRS,114803.00,1,18.0,1.9,,,,,,,,,,*6E
$GNGST,114803.00,53,,,,3.6,5.2,13*6E
$GNZDA,114803.00,27,05,2025,00,00*72
$GNGBS,114803.00,3.6,5.2,12.9,,,,*68
b0Lp?@
gH N!%
~eI(9.l ?e{4Ta:R 
Yi
FdG2,HIJKST1SU#Ibp?c$GNRMC,114804.00,A,0419.76005,S,05539.80237,E,0.069,,270525,,,A*7F
$GNVTG,,T,,M,0.069,N,0.128,K,A*39
$GNGNS,114804.00,0419.76005,S,05539.80237,E,AA,11,0.77,17.2,-47.6,,*6D
$GNGGA,114804.00,0419.76005,S,05539.80237,E,1,11,0.77,17.2,M,-47.6,M,,*47
$GNGSA,A,3,32,28,18,26,29,27,16,10,31,,,,1.87,0.77,1.71*19
$GNGSA,A,3,83,85,,,,,,,,,,,1.87,0.77,1.71*13
$GPGSV,5,1,17,08,04,320,,10,17,359,14,16,25,246,20,18,32,078,16*79
$GPGSV,5,2,17,23,03,037,,25,01,126,10,26,29,214,20,27,40,313,31*74
$GPGSV,5,3,17,28,46,155,30,29,17,147,15,31,31,189,24,32,63,357,21*78
$GPGSV,5,4,17,36,52,277,,40,84,353,,41,58,082,,49,32,274,*7C
$GPGSV,5,5,17,50,10,089,*4A
$GLGSV,3,1,09,70,27,356,,71,50,300,17,72,27,236,24,73,14,148,*67
$GLGSV,3,2,09,74,15,193,,75,00,238,,83,14,136,16,84,49,083,07*6A
$GLGSV,3,3,09,85,35,009,28*54
$GNGLL,0419.76005,S,05539.80237,E,114804.00,A,A*6E
$GNGRS,114804.00,1,-26.8,-0.2,-4.8,-10.7,-6.1,9.3,-4.9,-19.8,-9.2,,,*49
$GNGRS,114804.00,1,20.1,0.7,,,,,,,,,,*6C
$GNGST,114804.00,53,,,,3.6,5.2,13*69
$GNZDA,114804.00,27,05,2025,00,00*75
$GNGBS,114804.00,3.6,5.2,13.0,,,,*67
b0LXC@
g4* N%~G(9.. ?e{4Ta:R 
Yi
FdG2,HIJKS,T1SwU#ybXCKt<$GNRMC,114805.00,A,0419.76008,S,05539.80245,E,0.151,,270525,,,A*7C
$GNVTG,,T,,M,0.151,N,0.280,K,A*32
$GNGNS,114805.00,0419.76008,S,05539.80245,E,AA,11,0.77,17.0,-47.6,,*66
$GNGGA,114805.00,0419.76008,S,05539.80245,E,1,11,0.77,17.0,M,-47.6,M,,*4C
$GNGSA,A,3,32,28,18,26,29,27,16,10,31,,,,1.87,0.77,1.71*19
$GNGSA,A,3,83,85,,,,,,,,,,,1.87,0.77,1.71*13
$GPGSV,5,1,17,08,04,320,,10,17,359,14,16,25,246,18,18,32,078,17*73
$GPGSV,5,2,17,23,03,037,,25,01,126,08,26,29,214,19,27,40,313,30*76
$GPGSV,5,3,17,28,46,155,29,29,17,147,14,31,31,189,26,32,63,357,21*73
$GPGSV,5,4,17,36,52,277,,40,84,353,,41,58,082,,49,32,274,*7C
$GPGSV,5,5,17,50,10,089,*4A
$GLGSV,3,1,09,70,27,356,,71,50,300,17,72,27,236,23,73,14,148,*60
$GLGSV,3,2,09,74,15,193,,75,00,238,,83,14,136,15,84,49,083,07*69
$GLGSV,3,3,09,85,35,009,27*5B
$GNGLL,0419.76008,S,05539.80245,E,114805.00,A,A*67
$GNGRS,114805.00,1,-29.3,2.8,-6.0,-14.0,-1.3,5.6,-4.7,-20.0,-8.5,,,*66
$GNGRS,114805.00,1,20.9,2.1,,,,,,,,,,*61
$GNGST,114805.00,54,,,,3.6,5.2,13*6F
$GNZDA,114805.00,27,05,2025,00,00*74
$GNGBS,114805.00,3.6,5.2,13.0,,,,*66
b0L@G@
gC_ N%%~C(9.  ?e{4Ta:R 
Yi
FdG2,%HIJKST1S]U#b@G3L$GNRMC,114806.00,A,0419.76007,S,05539.80249,E,0.090,,270525,,,A*70
$GNVTG,,T,,M,0.090,N,0.167,K,A*34
$GNGNS,114806.00,0419.76007,S,05539.80249,E,AA,12,0.76,16.8,-47.6,,*6D
$GNGGA,114806.00,0419.76007,S,05539.80249,E,1,12,0.76,16.8,M,-47.6,M,,*47
$GNGSA,A,3,32,28,18,26,29,27,16,10,31,,,,1.81,0.76,1.64*1A
$GNGSA,A,3,71,83,85,,,,,,,,,,1.81,0.76,1.64*16
$GPGSV,5,1,17,08,04,320,,10,17,359,13,16,25,246,18,18,32,078,16*75
$GPGSV,5,2,17,23,03,037,,25,01,126,08,26,29,214,17,27,40,313,31*79
$GPGSV,5,3,17,28,46,155,31,29,17,147,13,31,31,189,32,32,63,357,21*78
$GPGSV,5,4,17,36,52,277,,40,84,353,,41,58,082,,49,32,274,*7C
$GPGSV,5,5,17,50,10,089,*4A
$GLGSV,3,1,09,70,27,356,,71,50,300,21,72,27,236,24,73,14,148,*62
$GLGSV,3,2,09,74,15,193,,75,00,238,,83,14,136,15,84,49,083,07*69
$GLGSV,3,3,09,85,35,009,27*5B
$GNGLL,0419.76007,S,05539.80249,E,114806.00,A,A*67
$GNGRS,114806.00,1,-30.6,-0.4,-4.7,-16.1,5.0,2.4,-4.2,-22.4,-8.8,,,*6C
$GNGRS,114806.00,1,-7.3,15.4,4.6,,,,,,,,,*6F
$GNGST,114806.00,54,,,,3.6,5.2,13*6C
$GNZDA,114806.00,27,05,2025,00,00*77
$GNGBS,114806.00,3.6,5.2,13.0,,,,*65
b0L(K@
gf N%~>)(9 . ?e{4Ta:R 
Yi
FdG2,"HIJKS-T1Sn-U#xb(K$$GNRMC,114807.00,A,0419.76009,S,05539.80247,E,0.092,,270525,,,A*73
$GNVTG,,T,,M,0.092,N,0.170,K,A*30
$GNGNS,114807.00,0419.76009,S,05539.80247,E,AA,12,0.76,16.7,-47.6,,*63
$GNGGA,114807.00,0419.76009,S,05539.80247,E,1,12,0.76,16.7,M,-47.6,M,,*49
$GNGSA,A,3,32,28,18,26,29,27,16,10,31,,,,1.81,0.76,1.64*1A
$GNGSA,A,3,71,83,85,,,,,,,,,,1.81,0.76,1.64*16
$GPGSV,5,1,17,08,04,320,,10,17,359,13,16,25,246,17,18,32,078,16*7A
$GPGSV,5,2,17,23,03,037,,25,01,126,08,26,29,214,17,27,40,313,29*70
$GPGSV,5,3,17,28,46,155,32,29,17,147,13,31,31,189,26,32,63,357,19*75
$GPGSV,5,4,17,36,52,277,,40,84,353,,41,58,082,,49,32,274,*7C
$GPGSV,5,5,17,50,10,089,*4A
$GLGSV,3,1,09,70,27,356,,71,50,300,24,72,27,236,24,73,14,148,*67
$GLGSV,3,2,09,74,15,193,,75,00,238,,83,14,136,14,84,49,083,14*6A
$GLGSV,3,3,09,85,35,009,28*54
$GNGLL,0419.76009,S,05539.80247,E,114807.00,A,A*66
$GNGRS,114807.00,1,-31.8,-0.2,-8.2,-17.5,7.1,7.9,-4.1,-24.0,-0.9,,,*6B
$GNGRS,114807.00,1,0.3,15.8,2.3,,,,,,,,,*4B
$GNGST,114807.00,55,,,,3.6,5.3,13*6D
$GNZDA,114807.00,27,05,2025,00,00*76
$GNGBS,114807.00,3.6,5.3,13.1,,,,*64
b0LO@
g& N%~d;8(98.| ?e{4Ta:R 
Yi

FdG2,HIJKS6T1SU#BbOt$GNRMC,114808.00,A,0419.76007,S,05539.80247,E,0.088,,270525,,,A*79
$GNVTG,,T,,M,0.088,N,0.163,K,A*39
$GNGNS,114808.00,0419.76007,S,05539.80247,E,AA,12,0.76,16.7,-47.6,,*62
$GNGGA,114808.00,0419.76007,S,05539.80247,E,1,12,0.76,16.7,M,-47.6,M,,*48
$GNGSA,A,3,32,28,18,26,29,27,16,10,31,,,,1.81,0.76,1.64*1A
$GNGSA,A,3,71,83,85,,,,,,,,,,1.81,0.76,1.64*16
$GPGSV,5,1,17,08,04,320,,10,17,359,11,16,25,246,20,18,32,078,19*73
$GPGSV,5,2,17,23,03,037,,25,01,126,08,26,29,214,16,27,40,313,27*7F
$GPGSV,5,3,17,28,46,155,31,29,17,147,15,31,31,189,26,32,63,357,17*7E
$GPGSV,5,4,17,36,52,277,,40,84,353,,41,58,082,,49,32,274,*7C
$GPGSV,5,5,17,50,10,089,*4A
$GLGSV,3,1,09,70,27,356,,71,50,300,25,72,27,236,24,73,14,148,*66
$GLGSV,3,2,09,74,15,193,,75,00,238,,83,14,136,13,84,49,083,14*6D
$GLGSV,3,3,09,85,35,009,28*54
$GNGLL,0419.76007,S,05539.80247,E,114808.00,A,A*67
$GNGRS,114808.00,1,-33.2,-0.3,-8.4,-19.9,6.4,8.2,-5.5,-20.1,-6.1,,,*67
$GNGRS,114808.00,1,4.8,13.3,2.3,,,,,,,,,*46
$GNGST,114808.00,54,,,,3.6,5.3,13*63
$GNZDA,114808.00,27,05,2025,00,00*79
$GNGBS,114808.00,3.6,5.3,13.1,,,,*6B
b0LR@
g2 N%~9(9.,N ?e{4Ta:R 
Yi
FdG2,RHIJKS\T1SU#bR$GNRMC,114809.00,A,0419.76006,S,05539.80250,E,0.037,,270525,,,A*7B
$GNVTG,,T,,M,0.037,N,0.068,K,A*37
$GNGNS,114809.00,0419.76006,S,05539.80250,E,AA,12,0.73,16.8,-47.6,,*6E
$GNGGA,114809.00,0419.76006,S,05539.80250,E,1,12,0.73,16.8,M,-47.6,M,,*44
$GNGSA,A,3,32,28,18,26,29,27,16,10,31,,,,1.73,0.73,1.57*12
$GNGSA,A,3,71,83,85,,,,,,,,,,1.73,0.73,1.57*1E
$GPGSV,5,1,17,08,04,320,,10,17,359,11,16,25,246,17,18,32,078,21*7C
$GPGSV,5,2,17,23,03,037,,25,01,126,09,26,29,214,14,27,40,313,27*7C
$GPGSV,5,3,17,28,46,155,29,29,17,147,15,31,31,189,26,32,63,357,16*76
$GPGSV,5,4,17,36,52,277,,40,84,353,,41,58,082,,49,32,274,*7C
$GPGSV,5,5,17,50,10,089,*4A
$GLGSV,3,1,09,70,27,356,,71,50,300,25,72,27,236,24,73,14,148,*66
$GLGSV,3,2,09,74,15,193,,75,00,238,,83,14,136,11,84,49,083,07*6D
$GLGSV,3,3,09,85,35,009,27*5B
$GNGLL,0419.76006,S,05539.80250,E,114809.00,A,A*61
$GNGRS,114809.00,1,-34.4,3.0,-8.6,-20.4,5.3,10.5,-3.8,-20.0,-6.9,,,*77
$GNGRS,114809.00,1,8.5,11.2,4.7,,,,,,,,,*47
$GNGST,114809.00,60,,,,3.6,5.4,13*62
$GNZDA,114809.00,27,05,2025,00,00*78
$GNGBS,114809.00,3.6,5.4,13.2,,,,*6E
b0LV@
g, N%
~56*(9.
[r ?es{4Ta:R 
YiFdG2,wHIJKST1SU#bV2$GNRMC,114810.00,A,0419.76002,S,05539.80248,E,0.102,,270525,,,A*79
$GNVTG,,T,,M,0.102,N,0.188,K,A*3F
$GNGNS,114810.00,0419.76002,S,05539.80248,E,AA,12,0.80,16.8,-47.6,,*67
$GNGGA,114810.00,0419.76002,S,05539.80248,E,1,12,0.80,16.8,M,-47.6,M,,*4D
$GNGSA,A,3,32,28,18,26,29,27,16,31,,,,,1.91,0.80,1.74*12
$GNGSA,A,3,71,83,84,85,,,,,,,,,1.91,0.80,1.74*13
$GPGSV,5,1,17,08,04,320,,10,17,359,09,16,25,246,16,18,32,078,22*77
$GPGSV,5,2,17,23,03,037,,25,01,126,10,26,29,214,13,27,40,313,28*7C
$GPGSV,5,3,17,28,46,155,28,29,17,147,13,31,31,189,26,32,63,357,17*70
$GPGSV,5,4,17,36,52,277,,40,84,353,,41,58,082,,49,32,274,*7C
$GPGSV,5,5,17,50,10,089,*4A
$GLGSV,3,1,09,70,27,356,,71,50,300,26,72,27,236,23,73,14,148,*62
$GLGSV,3,2,09,74,15,193,,75,00,238,,83,14,136,09,84,49,083,07*64
$GLGSV,3,3,09,85,35,009,27*5B
$GNGLL,0419.76002,S,05539.80248,E,114810.00,A,A*64
$GNGRS,114810.00,1,-32.1,7.8,-8.9,-22.6,0.9,10.4,-2.8,-6.5,,,,*4D
$GNGRS,114810.00,1,8.9,9.0,-8.3,2.9,,,,,,,,*78
$GNGST,114810.00,64,,,,3.6,5.4,13*6E
$GNZDA,114810.00,27,05,2025,00,00*70
$GNGBS,114810.00,3.6,5.4,13.2,,,,*66
b0LZ@

g4 N%~m3"(9. ?e{4Ta:R 
Yi
FdG2,HIJKS
hT
1SU#Z5bZ$GNRMC,114811.00,A,0419.75998,S,05539.80247,E,0.059,,270525,,,A*71
$GNVTG,,T,,M,0.059,N,0.108,K,A*38
$GNGNS,114811.00,0419.75998,S,05539.80247,E,AA,12,0.84,16.7,-47.6,,*6B
$GNGGA,114811.00,0419.75998,S,05539.80247,E,1,12,0.84,16.7,M,-47.6,M,,*41
$GNGSA,A,3,32,28,18,26,29,27,16,31,,,,,2.13,0.84,1.96*13
$GNGSA,A,3,71,83,84,85,,,,,,,,,2.13,0.84,1.96*12
$GPGSV,5,1,17,08,04,320,,10,17,359,10,16,25,246,14,18,32,078,21*7E
$GPGSV,5,2,17,23,03,037,,25,01,126,08,26,29,214,16,27,40,313,28*70
$GPGSV,5,3,17,28,46,155,29,29,17,147,15,31,31,189,27,32,63,357,21*73
$GPGSV,5,4,17,36,52,277,,40,84,353,,41,58,082,,49,32,274,*7C
$GPGSV,5,5,17,50,10,089,*4A
$GLGSV,3,1,09,70,27,356,,71,50,300,25,72,27,236,20,73,14,148,*62
$GLGSV,3,2,09,74,15,193,,75,00,238,,83,14,136,10,84,49,083,10*6A
$GLGSV,3,3,09,85,35,009,28*54
$GNGLL,0419.75998,S,05539.80247,E,114811.00,A,A*63
$GNGRS,114811.00,1,-28.3,2.1,-8.4,-20.1,-0.8,12.5,-3.6,-8.8,,,,*62
$GNGRS,114811.00,1,2.6,8.7,4.0,1.8,,,,,,,,*5A
$GNGST,114811.00,190047,,,,3.6,5.4,13*66
$GNZDA,114811.00,27,05,2025,00,00*71
$GNGBS,114811.00,3.6,5.4,13.3,,,,*66
b0L^@
g N%~.0D(9(. ?e8{4Ta:R 
Yi
FdG2,HIJKSDT1SU#vb^Z$GNRMC,114812.00,A,0419.75999,S,05539.80246,E,0.073,,270525,,,A*7A
$GNVTG,,T,,M,0.073,N,0.135,K,A*3E
$GNGNS,114812.00,0419.75999,S,05539.80246,E,AA,13,0.72,16.5,-47.6,,*62
$GNGGA,114812.00,0419.75999,S,05539.80246,E,1,12,0.72,16.5,M,-47.6,M,,*49
$GNGSA,A,3,32,28,18,26,29,27,16,10,31,,,,1.68,0.72,1.52*1C
$GNGSA,A,3,71,83,84,85,,,,,,,,,1.68,0.72,1.52*1C
$GPGSV,5,1,17,08,04,320,,10,17,359,12,16,25,246,14,18,32,078,19*77
$GPGSV,5,2,17,23,03,037,,25,01,126,08,26,29,214,16,27,40,313,29*71
$GPGSV,5,3,17,28,46,155,28,29,17,147,16,31,31,189,26,32,63,357,21*70
$GPGSV,5,4,17,36,52,277,,40,84,353,,41,58,082,,49,32,274,*7C
$GPGSV,5,5,17,50,10,089,*4A
$GLGSV,3,1,09,70,27,356,,71,50,300,24,72,27,236,19,73,14,148,*69
$GLGSV,3,2,09,74,15,193,,75,00,238,,83,14,136,11,84,49,083,13*68
$GLGSV,3,3,09,85,35,009,29*55
$GNGLL,0419.75999,S,05539.80246,E,114812.00,A,A*60
$GNGRS,114812.00,1,-25.0,-1.0,-7.7,-19.8,-0.7,5.5,-3.8,-15.7,-6.3,,,*4D
$GNGRS,114812.00,1,1.7,8.4,4.0,1.6,,,,,,,,*56
$GNGST,114812.00,237377,,,,3.6,5.4,13*6B
$GNZDA,114812.00,27,05,2025,00,00*72
$GNGBS,114812.00,3.6,5.4,13.4,,,,*62
b0Lb@

g N%~?,(9[.x ?eQ{4Ta:R 
Yi
FdG2,HIJKST1S6U#Fbb2j$GNRMC,114813.00,A,0419.75998,S,05539.80244,E,0.095,,270525,,,A*70
$GNVTG,,T,,M,0.095,N,0.176,K,A*31
$GNGNS,114813.00,0419.75998,S,05539.80244,E,AA,13,0.72,16.8,-47.6,,*6D
$GNGGA,114813.00,0419.75998,S,05539.80244,E,1,12,0.72,16.8,M,-47.6,M,,*46
$GNGSA,A,3,32,28,18,26,29,27,16,10,31,,,,1.68,0.72,1.52*1C
$GNGSA,A,3,71,83,84,85,,,,,,,,,1.68,0.72,1.52*1C
$GPGSV,5,1,17,08,04,320,,10,17,359,10,16,25,246,17,18,32,078,18*77
$GPGSV,5,2,17,23,03,037,,25,01,126,08,26,29,214,18,27,40,313,29*7F
$GPGSV,5,3,17,28,46,155,31,29,17,147,15,31,31,189,27,32,63,357,23*78
$GPGSV,5,4,17,36,52,277,,40,84,353,,41,58,082,,49,32,274,*7C
$GPGSV,5,5,17,50,10,089,*4A
$GLGSV,3,1,09,70,27,356,,71,50,300,24,72,27,236,21,73,14,148,*62
$GLGSV,3,2,09,74,15,193,,75,00,238,,83,14,136,19,84,49,083,12*61
$GLGSV,3,3,09,85,35,009,28*54
$GNGLL,0419.75998,S,05539.80244,E,114813.00,A,A*62
$GNGRS,114813.00,1,-22.2,2.3,-8.7,-21.6,-0.5,6.0,-3.1,-13.3,-9.0,,,*6D
$GNGRS,114813.00,1,-0.4,-49.1,-2.0,0.7,,,,,,,,*4E
$GNGST,114813.00,61,,,,3.6,5.4,13*68
$GNZDA,114813.00,27,05,2025,00,00*73
$GNGBS,114813.00,3.6,5.4,13.4,,,,*63
b0Lf@
g N%~)1(92. ?e{4Ta:R 
Yi
FdG2,kHIJKST
1SU#Rbfs
$GNRMC,114814.00,A,0419.75995,S,05539.80253,E,0.163,,270525,,,A*74
$GNVTG,,T,,M,0.163,N,0.302,K,A*38
$GNGNS,114814.00,0419.75995,S,05539.80253,E,AA,13,0.72,16.7,-47.6,,*6E
$GNGGA,114814.00,0419.75995,S,05539.80253,E,1,12,0.72,16.7,M,-47.6,M,,*45
$GNGSA,A,3,32,28,18,26,29,27,16,10,31,,,,1.68,0.72,1.52*1C
$GNGSA,A,3,71,83,84,85,,,,,,,,,1.68,0.72,1.52*1C
$GPGSV,5,1,17,08,04,320,,10,17,359,12,16,25,246,16,18,32,078,18*74
$GPGSV,5,2,17,23,03,037,,25,01,126,08,26,29,214,19,27,40,313,27*70
$GPGSV,5,3,17,28,46,155,31,29,17,147,13,31,31,189,28,32,63,357,21*73
$GPGSV,5,4,17,36,52,277,,40,84,353,,41,58,082,,49,32,274,*7C
$GPGSV,5,5,17,50,10,089,*4A
$GLGSV,3,1,09,70,27,356,,71,50,300,23,72,27,236,21,73,14,148,*65
$GLGSV,3,2,09,74,15,193,,75,00,238,,83,14,136,12,84,49,083,10*68
$GLGSV,3,3,09,85,35,009,27*5B
$GNGLL,0419.75995,S,05539.80253,E,114814.00,A,A*6E
$GNGRS,114814.00,1,-20.8,5.1,-10.0,-22.6,4.8,10.7,-3.7,-12.9,-12.9,,,*70
$GNGRS,114814.00,1,1.1,17.5,3.9,4.0,,,,,,,,*64
$GNGST,114814.00,106481,,,,3.6,5.4,13*62
$GNZDA,114814.00,27,05,2025,00,00*74
$GNGBS,114814.00,3.6,5.4,13.5,,,,*65
b0Lhj@
g Nr%~&(9
. ?e{4Ta:R 
Yi
FdG2,HIJKST1SuU#Tbhj[:$GNRMC,114815.00,A,0419.75994,S,05539.80253,E,0.127,,270525,,,A*74
$GNVTG,,T,,M,0.127,N,0.235,K,A*3D
$GNGNS,114815.00,0419.75994,S,05539.80253,E,AA,13,0.72,16.6,-47.6,,*6F
$GNGGA,114815.00,0419.75994,S,05539.80253,E,1,12,0.72,16.6,M,-47.6,M,,*44
$GNGSA,A,3,32,28,18,26,29,27,16,10,31,,,,1.68,0.72,1.52*1C
$GNGSA,A,3,71,83,84,85,,,,,,,,,1.68,0.72,1.52*1C
$GPGSV,5,1,17,08,04,320,,10,17,359,14,16,25,246,15,18,32,078,21*7B
$GPGSV,5,2,17,23,03,037,,25,01,126,07,26,29,214,21,27,40,313,25*76
$GPGSV,5,3,17,28,46,155,30,29,17,147,11,31,31,189,29,32,63,357,22*72
$GPGSV,5,4,17,36,52,277,,40,84,353,,41,58,082,,49,32,274,*7C
$GPGSV,5,5,17,50,10,089,*4A
$GLGSV,3,1,09,70,27,356,,71,50,300,23,72,27,236,20,73,14,148,*64
$GLGSV,3,2,09,74,15,193,,75,00,238,,83,14,136,14,84,49,083,09*66
$GLGSV,3,3,09,85,35,009,27*5B
$GNGLL,0419.75994,S,05539.80253,E,114815.00,A,A*6E
$GNGRS,114815.00,1,-20.2,9.9,-11.7,-21.5,9.5,20.6,-3.0,-13.2,-13.3,,,*7D
$GNGRS,114815.00,1,-0.2,17.7,3.7,1.6,,,,,,,,*45
$GNGST,114815.00,129881,,,,3.6,5.5,14*64
$GNZDA,114815.00,27,05,2025,00,00*75
$GNGBS,114815.00,3.6,5.5,13.6,,,,*66
b0LPn@
g" N%~U(9!.p ?e{4Ta:R 
Yi
FdG2,HIJKST1SU#UbPnC$GNRMC,114816.00,A,0419.75996,S,05539.80238,E,0.372,,270525,,,A*7A
$GNVTG,,T,,M,0.372,N,0.688,K,A*3D
$GNGNS,114816.00,0419.75996,S,05539.80238,E,AA,13,0.72,17.2,-47.6,,*66
$GNGGA,114816.00,0419.75996,S,05539.80238,E,1,12,0.72,17.2,M,-47.6,M,,*4D
$GNGSA,A,3,32,28,18,26,29,27,16,10,31,,,,1.68,0.72,1.52*1C
$GNGSA,A,3,71,83,84,85,,,,,,,,,1.68,0.72,1.52*1C
$GPGSV,5,1,17,08,04,320,,10,17,359,15,16,25,246,15,18,32,078,21*7A
$GPGSV,5,2,17,23,03,037,,25,01,126,,26,29,214,23,27,40,313,22*74
$GPGSV,5,3,17,28,46,155,28,29,17,147,13,31,31,189,29,32,63,357,26*7D
$GPGSV,5,4,17,36,52,277,,40,84,353,,41,58,082,,49,32,274,*7C
$GPGSV,5,5,17,50,10,089,*4A
$GLGSV,3,1,09,70,27,356,,71,50,300,22,72,27,236,20,73,14,148,*65
$GLGSV,3,2,09,74,15,193,,75,00,238,,83,14,136,12,84,49,083,12*6A
$GLGSV,3,3,09,85,35,009,29*55
$GNGLL,0419.75996,S,05539.80238,E,114816.00,A,A*62
$GNGRS,114816.00,1,-15.1,13.9,-13.3,-17.1,6.5,28.5,-0.8,-40.6,-10.9,,,*43
$GNGRS,114816.00,1,-0.5,12.3,-2.4,0.1,,,,,,,,*69
$GNGST,114816.00,60,,,,3.6,5.5,14*6A
$GNZDA,114816.00,27,05,2025,00,00*76
$GNGBS,114816.00,3.6,5.5,13.6,,,,*65
b0L8r@
g. Nx%~(9Y.w* ?e
{4Ta:R 
Yi
FdG2,UHIJKS*T1SpU#b8r+$GNRMC,114817.00,A,0419.75996,S,05539.80257,E,0.361,,270525,,,A*70
$GNVTG,,T,,M,0.361,N,0.669,K,A*30
$GNGNS,114817.00,0419.75996,S,05539.80257,E,AA,13,0.72,17.5,-47.6,,*69
$GNGGA,114817.00,0419.75996,S,05539.80257,E,1,12,0.72,17.5,M,-47.6,M,,*42
$GNGSA,A,3,32,28,18,26,29,27,16,10,31,,,,1.68,0.72,1.52*1C
$GNGSA,A,3,71,83,84,85,,,,,,,,,1.68,0.72,1.52*1C
$GPGSV,5,1,17,08,04,320,,10,17,359,15,16,25,246,14,18,32,078,20*7A
$GPGSV,5,2,17,23,03,037,,25,01,126,,26,29,214,24,27,40,313,21*70
$GPGSV,5,3,17,28,46,155,26,29,17,147,14,31,31,189,29,32,63,357,26*74
$GPGSV,5,4,17,36,52,277,,40,84,353,,41,58,082,,49,32,274,*7C
$GPGSV,5,5,17,50,10,089,*4A
$GLGSV,3,1,09,70,27,356,,71,50,300,23,72,27,236,19,73,14,148,*6E
$GLGSV,3,2,09,74,15,193,,75,00,238,,83,14,136,12,84,49,083,12*6A
$GLGSV,3,3,09,85,35,009,30*5D
$GNGLL,0419.75996,S,05539.80257,E,114817.00,A,A*6A
$GNGRS,114817.00,1,-12.7,14.0,-11.6,-15.7,8.9,29.1,-2.1,22.3,-12.4,,,*61
$GNGRS,114817.00,1,0.8,10.7,3.7,-3.4,,,,,,,,*4A
$GNGST,114817.00,3300031,,,,3.6,5.7,14*5D
$GNZDA,114817.00,27,05,2025,00,00*77
$GNGBS,114817.00,3.6,5.7,13.6,,,,*66
b0L v@
g Ns%~(9
.k ?e{4Ta:R 
Yi
FdG2,1HIJKSzT1S\U#6b vkt$GNRMC,114818.00,A,0419.75997,S,05539.80259,E,0.212,,270525,,,A*75
$GNVTG,,T,,M,0.212,N,0.392,K,A*34
$GNGNS,114818.00,0419.75997,S,05539.80259,E,AA,13,0.72,17.7,-47.6,,*6B
$GNGGA,114818.00,0419.75997,S,05539.80259,E,1,12,0.72,17.7,M,-47.6,M,,*40
$GNGSA,A,3,32,28,18,26,29,27,16,10,31,,,,1.68,0.72,1.52*1C
$GNGSA,A,3,71,83,84,85,,,,,,,,,1.68,0.72,1.52*1C
$GPGSV,5,1,17,08,04,320,,10,17,359,15,16,25,246,18,18,32,078,19*7C
$GPGSV,5,2,17,23,03,037,,25,01,126,,26,29,214,24,27,40,313,22*73
$GPGSV,5,3,17,28,46,155,24,29,17,147,16,31,31,189,29,32,63,357,24*76
$GPGSV,5,4,17,36,52,277,,40,84,353,,41,58,082,,49,32,274,*7C
$GPGSV,5,5,17,50,10,089,*4A
$GLGSV,3,1,09,70,27,356,,71,50,300,26,72,27,236,22,73,14,148,*63
$GLGSV,3,2,09,74,15,193,,75,00,238,,83,14,136,16,84,49,083,12*6E
$GLGSV,3,3,09,85,35,009,31*5C
$GNGLL,0419.75997,S,05539.80259,E,114818.00,A,A*6A
$GNGRS,114818.00,1,-11.5,15.2,-11.7,-15.6,8.7,27.3,-3.4,22.5,-5.0,,,*5E
$GNGRS,114818.00,1,3.0,8.9,3.5,-3.6,,,,,,,,*79
$GNGST,114818.00,3300902,,,,3.6,5.8,14*54
$GNZDA,114818.00,27,05,2025,00,00*78
$GNGBS,114818.00,3.6,5.8,13.7,,,,*67
b0Lz@
g@ N%~(9%.D(A ?e{4Ta:R 
Yi
FdG 2,HIJKSWT1SU#QiibzB$GNRMC,114819.00,A,0419.75998,S,05539.80260,E,0.141,,270525,,,A*74
$GNVTG,,T,,M,0.141,N,0.262,K,A*3F
