b0L$@

e K#
&;-b Ad{4"Tb:R 
YhFcG3(;HIJKSAT0NU!RWb$$GNRMC,114335.00,A,0419.76266,S,05539.80466,E,0.373,,270525,,,A*7B
$GNVTG,,T,,M,0.373,N,0.690,K,A*35
$GNGNS,114335.00,0419.76266,S,05539.80466,E,AA,12,0.85,-8.6,-47.6,,*78
$GNGGA,114335.00,0419.76266,S,05539.80466,E,1,12,0.85,-8.6,M,-47.6,M,,*52
$GNGSA,A,3,32,28,18,26,29,27,16,10,31,,,,2.22,0.85,2.05*18
$GNGSA,A,3,71,83,85,,,,,,,,,,2.22,0.85,2.05*14
$GPGSV,5,1,17,08,03,320,,10,18,357,10,16,25,248,14,18,32,075,27*7D
$GPGSV,5,2,17,23,04,035,,25,02,128,,26,29,217,19,27,38,315,18*76
$GPGSV,5,3,17,28,45,158,29,29,19,147,12,31,30,191,17,32,65,356,31*79
$GPGSV,5,4,17,36,52,277,,40,84,354,34,41,58,082,,49,32,274,*7C
$GPGSV,5,5,17,50,10,089,*4A
$GLGSV,3,1,09,70,28,355,,71,51,296,15,72,27,234,,73,14,149,16*64
$GLGSV,3,2,09,74,15,195,,75,00,240,,83,16,133,16,84,48,078,07*61
$GLGSV,3,3,09,85,33,008,16*5E
$GNGLL,0419.76266,S,05539.80466,E,114335.00,A,A*62
$GNGRS,114335.00,1,2.4,1.0,-21.5,-2.8,17.4,-7.8,-3.6,20.5,7.2,,,*4E
$GNGRS,114335.00,1,-12.2,16.0,-6.9,,,,,,,,,*76
$GNGST,114335.00,189295,,,,5.1,7.9,17*64
$GNZDA,114335.00,27,05,2025,00,00*7C
$GNGBS,114335.00,5.1,7.9,16.6,,,,*65
b0L(@
e K@#
a&;!- Ad{4Tb:R 
YhFcG3(HIJKSKT0NU!@7Sb(v$GNRMC,114336.00,A,0419.76276,S,05539.80442,E,0.340,,270525,,,A*7F
$GNVTG,,T,,M,0.340,N,0.631,K,A*3E
$GNGNS,114336.00,0419.76276,S,05539.80442,E,AA,11,0.78,-8.7,-47.6,,*7C
$GNGGA,114336.00,0419.76276,S,05539.80442,E,1,11,0.78,-8.7,M,-47.6,M,,*56
$GNGSA,A,3,32,28,18,26,29,27,16,10,,,,,1.83,0.78,1.66*16
$GNGSA,A,3,71,83,85,,,,,,,,,,1.83,0.78,1.66*18
$GPGSV,5,1,17,08,03,320,,10,18,357,09,16,25,248,13,18,32,075,26*73
$GPGSV,5,2,17,23,04,035,,25,02,128,,26,29,217,16,27,38,315,18*79
$GPGSV,5,3,17,28,45,158,33,29,19,147,14,31,30,191,,32,65,356,31*72
$GPGSV,5,4,17,36,52,277,,40,84,354,30,41,58,082,,49,32,274,*78
$GPGSV,5,5,17,50,10,089,*4A
$GLGSV,3,1,09,70,28,355,,71,51,296,14,72,27,234,,73,14,149,13*60
$GLGSV,3,2,09,74,15,195,,75,00,240,,83,16,133,17,84,48,078,07*60
$GLGSV,3,3,09,85,33,008,14*5C
$GNGLL,0419.76276,S,05539.80442,E,114336.00,A,A*66
$GNGRS,114336.00,1,-3.1,2.8,-27.5,-1.6,14.2,-8.4,0.2,16.9,,,,*6A
$GNGRS,114336.00,1,-16.0,16.1,-7.0,,,,,,,,,*7A
$GNGST,114336.00,3587847,,,,5.1,7.9,17*5B
$GNZDA,114336.00,27,05,2025,00,00*7F
$GNGBS,114336.00,5.1,7.9,16.6,,,,*66
b0Lx,@
ei
 KB#
&;5$-S #Ad{4%Tb:R 
YhFcG3(HIJKST0N]U
!bx,k~$GNRMC,114337.00,A,0419.76294,S,05539.80435,E,0.047,,270525,,,A*76
$GNVTG,,T,,M,0.047,N,0.086,K,A*30
$GNGNS,114337.00,0419.76294,S,05539.80435,E,AA,10,0.90,-7.8,-47.6,,*76
$GNGGA,114337.00,0419.76294,S,05539.80435,E,1,10,0.90,-7.8,M,-47.6,M,,*5C
$GNGSA,A,3,32,28,18,26,29,27,10,,,,,,1.98,0.90,1.76*1C
$GNGSA,A,3,71,83,85,,,,,,,,,,1.98,0.90,1.76*15
$GPGSV,5,1,17,08,03,320,,10,18,357,08,16,25,248,10,18,32,075,27*70
$GPGSV,5,2,17,23,04,035,,25,02,128,,26,29,217,15,27,38,315,23*72
$GPGSV,5,3,17,28,45,158,36,29,19,147,15,31,30,191,18,32,65,356,35*7B
$GPGSV,5,4,17,36,52,277,,40,84,354,37,41,58,082,,49,32,274,*7F
$GPGSV,5,5,17,50,10,089,*4A
$GLGSV,3,1,09,70,28,355,,71,51,296,11,72,27,234,,73,14,149,09*6E
$GLGSV,3,2,09,74,15,195,,75,00,240,,83,16,133,07,84,48,078,06*60
$GLGSV,3,3,09,85,33,008,10*58
$GNGLL,0419.76294,S,05539.80435,E,114337.00,A,A*6B
$GNGRS,114337.00,1,1.8,3.4,-24.9,-2.3,10.3,-7.2,13.8,,,,,*6D
$GNGRS,114337.00,1,-17.8,11.6,-11.3,,,,,,,,,*46
$GNGST,114337.00,76,,,,5.0,7.8,16*68
$GNZDA,114337.00,27,05,2025,00,00*7E
$GNGBS,114337.00,5.0,7.8,16.5,,,,*64
b0L`0@

e$ KX#
V&;$-2L $Ad6{4(Tb:R 
YhFcG
3(HIJKSdT0NU
!Xb`0SVF$GNRMC,114338.00,A,0419.76306,S,05539.80413,E,0.116,,270525,,,A*72
$GNVTG,,T,,M,0.116,N,0.215,K,A*3D
$GNGNS,114338.00,0419.76306,S,05539.80413,E,AA,11,0.78,-7.2,-47.6,,*7A
$GNGGA,114338.00,0419.76306,S,05539.80413,E,1,11,0.78,-7.2,M,-47.6,M,,*50
$GNGSA,A,3,32,28,18,26,29,27,16,10,,,,,1.83,0.78,1.66*16
$GNGSA,A,3,71,83,85,,,,,,,,,,1.83,0.78,1.66*18
$GPGSV,5,1,17,08,03,320,,10,18,357,10,16,25,248,11,18,32,075,28*77
$GPGSV,5,2,17,23,04,035,,25,02,128,,26,29,217,13,27,38,315,23*74
$GPGSV,5,3,17,28,45,158,36,29,19,147,16,31,30,191,18,32,65,356,36*7B
$GPGSV,5,4,17,36,52,277,,40,84,354,40,41,58,082,,49,32,274,*7F
$GPGSV,5,5,17,50,10,089,*4A
$GLGSV,3,1,09,70,28,355,,71,51,296,10,72,27,234,,73,14,149,11*66
$GLGSV,3,2,09,74,15,195,,75,00,240,,83,16,133,07,84,48,078,06*60
$GLGSV,3,3,09,85,33,008,10*58
$GNGLL,0419.76306,S,05539.80413,E,114338.00,A,A*6A
$GNGRS,114338.00,1,3.1,0.5,-24.7,-1.7,11.0,-7.9,8.0,14.6,,,,*44
$GNGRS,114338.00,1,-18.8,16.4,9.4,,,,,,,,,*50
$GNGST,114338.00,174414,,,,5.0,7.8,16*65
$GNZDA,114338.00,27,05,2025,00,00*71
$GNGBS,114338.00,5.0,7.8,16.4,,,,*6A
b0LH4@
e K#
&;$-7 #AdK{4'Tb:R 
YhFcG3(tHIJKS
fT0NU!D5ObH4;.$GNRMC,114339.00,A,0419.76319,S,05539.80379,E,0.163,,270525,,,A*74
$GNVTG,,T,,M,0.163,N,0.301,K,A*3B
$GNGNS,114339.00,0419.76319,S,05539.80379,E,AA,12,0.75,-7.1,-47.6,,*73
$GNGGA,114339.00,0419.76319,S,05539.80379,E,1,12,0.75,-7.1,M,-47.6,M,,*59
$GNGSA,A,3,32,28,18,26,29,27,16,10,31,,,,1.82,0.75,1.66*18
$GNGSA,A,3,71,83,85,,,,,,,,,,1.82,0.75,1.66*14
$GPGSV,5,1,17,08,03,320,,10,18,357,12,16,25,248,12,18,32,075,28*76
$GPGSV,5,2,17,23,04,035,,25,02,128,,26,29,217,14,27,38,315,21*71
$GPGSV,5,3,17,28,45,158,36,29,19,147,19,31,30,191,21,32,65,356,35*7D
$GPGSV,5,4,17,36,52,277,,40,84,354,39,41,58,082,,49,32,274,*71
$GPGSV,5,5,17,50,10,089,*4A
$GLGSV,3,1,09,70,28,355,,71,51,296,18,72,27,234,,73,14,149,14*6B
$GLGSV,3,2,09,74,15,195,,75,00,240,,83,16,133,10,84,48,078,16*67
$GLGSV,3,3,09,85,33,008,18*50
$GNGLL,0419.76319,S,05539.80379,E,114339.00,A,A*6E
$GNGRS,114339.00,1,3.3,1.9,-25.6,1.7,10.2,-8.5,7.3,14.6,13.3,,,*74
$GNGRS,114339.00,1,-19.3,16.4,8.4,,,,,,,,,*5A
$GNGST,114339.00,171381,,,,5.0,7.7,16*65
$GNZDA,114339.00,27,05,2025,00,00*70
$GNGBS,114339.00,5.0,7.7,16.4,,,,*64
b0L08@
e K##
q&;"-# Ad{4%Tb:R 
YhFcG3(UHIJKS
T0NKU!pb08#$GNRMC,114340.00,A,0419.76342,S,05539.80356,E,0.201,,270525,,,A*7E
$GNVTG,,T,,M,0.201,N,0.373,K,A*39
$GNGNS,114340.00,0419.76342,S,05539.80356,E,AA,12,0.79,-6.6,-47.6,,*74
$GNGGA,114340.00,0419.76342,S,05539.80356,E,1,12,0.79,-6.6,M,-47.6,M,,*5E
$GNGSA,A,3,32,28,18,26,29,27,10,31,,,,,1.78,0.79,1.60*10
$GNGSA,A,3,71,83,84,85,,,,,,,,,1.78,0.79,1.60*17
$GPGSV,5,1,17,08,03,320,,10,18,357,13,16,25,248,13,18,32,075,28*76
$GPGSV,5,2,17,23,04,035,,25,02,128,,26,29,217,17,27,38,315,19*79
$GPGSV,5,3,17,28,45,158,34,29,19,147,19,31,30,191,21,32,65,356,31*7B
$GPGSV,5,4,17,36,52,277,,40,84,354,37,41,58,082,,49,32,274,*7F
$GPGSV,5,5,17,50,10,089,*4A
$GLGSV,3,1,09,70,28,355,,71,51,296,16,72,27,234,,73,14,149,14*65
$GLGSV,3,2,09,74,15,195,,75,00,240,,83,16,133,10,84,48,078,16*67
$GLGSV,3,3,09,85,33,008,21*5A
$GNGLL,0419.76342,S,05539.80356,E,114340.00,A,A*63
$GNGRS,114340.00,1,4.5,0.3,-25.2,1.1,7.3,-7.6,-28.9,17.6,,,,*4F
$GNGRS,114340.00,1,-19.6,15.1,5.9,6.4,,,,,,,,*7B
$GNGST,114340.00,67,,,,4.9,7.7,16*6F
$GNZDA,114340.00,27,05,2025,00,00*7E
$GNGBS,114340.00,4.9,7.7,16.3,16,,84.6,117.8*57
b0L<@
ex K]#
y&; -yl. !Ad{4%Tb:R 
YhFcG3(2HIJKSPT
0NU!b<~$GNRMC,114341.00,A,0419.76358,S,05539.80332,E,0.244,,270525,,,A*77
$GNVTG,,T,,M,0.244,N,0.452,K,A*3C
$GNGNS,114341.00,0419.76358,S,05539.80332,E,AA,13,0.71,-6.3,-47.6,,*70
$GNGGA,114341.00,0419.76358,S,05539.80332,E,1,12,0.71,-6.3,M,-47.6,M,,*5B
$GNGSA,A,3,32,28,18,26,29,27,16,10,31,,,,1.70,0.71,1.54*10
$GNGSA,A,3,71,83,84,85,,,,,,,,,1.70,0.71,1.54*10
$GPGSV,5,1,17,08,03,320,,10,18,357,14,16,25,248,13,18,32,075,27*7E
$GPGSV,5,2,17,23,04,035,,25,02,128,,26,29,217,18,27,38,315,24*78
$GPGSV,5,3,17,28,45,158,32,29,19,147,20,31,30,191,19,32,65,356,33*7E
$GPGSV,5,4,17,36,52,277,,40,84,354,37,41,58,082,,49,32,274,*7F
$GPGSV,5,5,17,50,10,089,*4A
$GLGSV,3,1,09,70,28,355,,71,51,296,18,72,27,234,,73,14,149,13*6C
$GLGSV,3,2,09,74,15,195,,75,00,240,,83,16,133,18,84,48,078,10*69
$GLGSV,3,3,09,85,33,008,23*58
$GNGLL,0419.76358,S,05539.80332,E,114341.00,A,A*6B
$GNGRS,114341.00,1,4.1,3.8,-22.1,1.2,3.6,-8.7,16.6,21.9,18.4,,,*7C
$GNGRS,114341.00,1,-14.9,16.2,4.3,2.9,,,,,,,,*7A
$GNGST,114341.00,4665933,,,,4.9,7.6,16*56
$GNZDA,114341.00,27,05,2025,00,00*7F
$GNGBS,114341.00,4.9,7.6,16.2,,,,*64
b0L@@
eV K#
&;-} "Ad'{4%Tb:R 
YhFcG3(HIJKS
YT0NU!/Xb@$GNRMC,114342.00,A,0419.76368,S,05539.80316,E,0.201,,270525,,,A*70
$GNVTG,,T,,M,0.201,N,0.373,K,A*39
$GNGNS,114342.00,0419.76368,S,05539.80316,E,AA,13,0.71,-6.3,-47.6,,*76
$GNGGA,114342.00,0419.76368,S,05539.80316,E,1,12,0.71,-6.3,M,-47.6,M,,*5D
$GNGSA,A,3,32,28,18,26,29,27,16,10,31,,,,1.70,0.71,1.54*10
$GNGSA,A,3,71,83,84,85,,,,,,,,,1.70,0.71,1.54*10
$GPGSV,5,1,17,08,03,320,,10,18,357,14,16,25,248,13,18,32,075,26*7F
$GPGSV,5,2,17,23,04,035,,25,02,128,,26,29,217,17,27,38,315,25*76
$GPGSV,5,3,17,28,45,158,27,29,19,147,18,31,30,191,19,32,65,356,34*76
$GPGSV,5,4,17,36,52,277,,40,84,354,37,41,58,082,,49,32,274,*7F
$GPGSV,5,5,17,50,10,089,*4A
$GLGSV,3,1,09,70,28,355,,71,51,296,17,72,27,234,,73,14,149,14*64
$GLGSV,3,2,09,74,15,195,,75,00,240,,83,15,134,10,84,48,078,11*64
$GLGSV,3,3,09,85,33,008,19*51
$GNGLL,0419.76368,S,05539.80316,E,114342.00,A,A*6D
$GNGRS,114342.00,1,0.4,5.3,-21.4,3.9,1.3,-5.4,16.2,22.0,12.6,,,*73
$GNGRS,114342.00,1,-15.5,16.2,4.3,4.6,,,,,,,,*7D
$GNGST,114342.00,4665969,,,,4.9,7.6,16*5A
$GNZDA,114342.00,27,05,2025,00,00*7C
$GNGBS,114342.00,4.9,7.6,16.2,,,,*67
b0LG@
e
} K#
&;-K AdS{4#Tb:R 
YhFcG3(+HIJKSET1OU!dbGd$GNRMC,114344.00,A,0419.76387,S,05539.80305,E,0.041,,270525,,,A*73
$GNVTG,,T,,M,0.041,N,0.076,K,A*39
$GNGNS,114344.00,0419.76387,S,05539.80305,E,AA,13,0.71,-5.6,-47.6,,*75
$GNGGA,114344.00,0419.76387,S,05539.80305,E,1,12,0.71,-5.6,M,-47.6,M,,*5E
$GNGSA,A,3,32,28,18,26,29,27,16,10,31,,,,1.70,0.71,1.54*10
$GNGSA,A,3,71,83,84,85,,,,,,,,,1.70,0.71,1.54*10
$GPGSV,5,1,17,08,03,320,,10,18,357,16,16,25,248,10,18,32,075,26*7E
$GPGSV,5,2,17,23,04,035,,25,02,128,,26,29,217,13,27,38,315,26*71
$GPGSV,5,3,17,28,45,158,26,29,19,147,13,31,30,191,18,32,65,356,31*78
$GPGSV,5,4,17,36,52,277,,40,84,354,35,41,58,082,,49,32,274,*7D
$GPGSV,5,5,17,50,10,089,*4A
$GLGSV,3,1,09,70,28,355,,71,51,296,19,72,27,234,,73,14,149,14*6A
$GLGSV,3,2,09,74,15,195,,75,00,240,,83,15,134,11,84,49,079,09*6C
$GLGSV,3,3,09,85,33,008,11*59
$GNGLL,0419.76387,S,05539.80305,E,114344.00,A,A*68
$GNGRS,114344.00,1,-1.7,5.9,-18.4,5.3,2.4,2.7,16.6,22.0,5.1,,,*4E
$GNGRS,114344.00,1,-14.9,16.0,4.3,6.1,,,,,,,,*71
$GNGST,114344.00,4669681,,,,5.0,7.7,16*50
$GNZDA,114344.00,27,05,2025,00,00*7A
$GNGBS,114344.00,5.0,7.7,16.1,,,,*6B
b0LK@
el K#E

&;-4
m Ad+{4#Tb:R 
YhFcG3(HIJKSDT1OU!|bK<$GNRMC,114345.00,A,0419.76399,S,05539.80302,E,0.202,,270525,,,A*7F
$GNVTG,,T,,M,0.202,N,0.374,K,A*3D
$GNGNS,114345.00,0419.76399,S,05539.80302,E,AA,13,0.71,-5.3,-47.6,,*79
$GNGGA,114345.00,0419.76399,S,05539.80302,E,1,12,0.71,-5.3,M,-47.6,M,,*52
$GNGSA,A,3,32,28,18,26,29,27,16,10,31,,,,1.70,0.71,1.54*10
$GNGSA,A,3,71,83,84,85,,,,,,,,,1.70,0.71,1.54*10
$GPGSV,5,1,17,08,03,320,,10,18,357,16,16,25,248,09,18,32,075,25*75
$GPGSV,5,2,17,23,04,035,,25,02,128,18,26,29,217,10,27,38,315,25*78
$GPGSV,5,3,17,28,45,158,24,29,19,147,10,31,30,191,16,32,65,356,30*76
$GPGSV,5,4,17,36,52,277,,40,84,354,35,41,58,082,,49,32,274,*7D
$GPGSV,5,5,17,50,10,089,*4A
$GLGSV,3,1,09,70,28,355,,71,51,296,18,72,27,234,,73,14,149,12*6D
$GLGSV,3,2,09,74,15,195,,75,00,240,,83,15,134,11,84,49,079,09*6C
$GLGSV,3,3,09,85,33,008,11*59
$GNGLL,0419.76399,S,05539.80302,E,114345.00,A,A*61
$GNGRS,114345.00,1,3.0,5.6,-18.2,1.4,1.1,2.4,16.4,22.3,4.1,,,*68
$GNGRS,114345.00,1,-13.4,16.0,4.3,6.4,,,,,,,,*7F
$GNGST,114345.00,5715285,,,,5.1,7.8,16*54
$GNZDA,114345.00,27,05,2025,00,00*7B
$GNGBS,114345.00,5.1,7.8,16.2,,,,*67
b0LX[@

eZ K%#
&;a-d Adn{4#Tb:R 
YhFcG3(HIJKS
}T1OV;U
!<bX[K$GNRMC,114349.00,A,0419.76420,S,05539.80266,E,0.190,,270525,,,A*7D
$GNVTG,,T,,M,0.190,N,0.352,K,A*31
$GNGNS,114349.00,0419.76420,S,05539.80266,E,AA,13,0.71,-3.9,-47.6,,*7F
$GNGGA,114349.00,0419.76420,S,05539.80266,E,1,12,0.71,-3.9,M,-47.6,M,,*54
$GNGSA,A,3,32,28,18,26,29,27,16,10,31,,,,1.70,0.71,1.54*10
$GNGSA,A,3,71,83,84,85,,,,,,,,,1.70,0.71,1.54*10
$GPGSV,5,1,17,08,03,320,,10,18,357,10,16,25,248,12,18,32,075,26*7A
$GPGSV,5,2,17,23,04,035,,25,02,128,,26,29,217,18,27,38,315,26*7A
$GPGSV,5,3,17,28,45,158,21,29,19,147,13,31,30,191,18,32,65,356,31*7F
$GPGSV,5,4,17,36,52,277,,40,84,354,35,41,58,082,,49,32,274,*7D
$GPGSV,5,5,17,50,10,089,*4A
$GLGSV,3,1,09,70,28,355,,71,51,296,13,72,27,234,,73,14,149,*65
$GLGSV,3,2,09,74,15,195,,75,00,240,,83,15,134,10,84,49,079,09*6D
$GLGSV,3,3,09,85,33,008,10*58
$GNGLL,0419.76420,S,05539.80266,E,114349.00,A,A*6B
$GNGRS,114349.00,1,3.7,7.4,-17.6,-4.9,-25.9,11.2,4.0,-9.3,1.0,,,*4D
$GNGRS,114349.00,1,-10.7,-9.0,152,156,,,,,,,,*61
$GNGST,114349.00,95,,,,5.8,7.9,16*65
$GNZDA,114349.00,27,05,2025,00,00*77
$GNGBS,114349.00,5.8,7.9,16.2,,,,*63
b0L@_@

e\ K#e&;M-t9 Ad{4#Tb:R 
YhFcG3(HIJKSQT1OU!eb@_3t$GNRMC,114350.00,A,0419.76415,S,05539.80256,E,0.173,,270525,,,A*7D
$GNVTG,,T,,M,0.173,N,0.320,K,A*39
$GNGNS,114350.00,0419.76415,S,05539.80256,E,AA,12,0.76,-3.8,-47.6,,*75
$GNGGA,114350.00,0419.76415,S,05539.80256,E,1,12,0.76,-3.8,M,-47.6,M,,*5F
$GNGSA,A,3,32,28,18,29,27,16,10,31,,,,,1.72,0.76,1.54*11
$GNGSA,A,3,71,83,84,85,,,,,,,,,1.72,0.76,1.54*15
$GPGSV,5,1,17,08,03,320,,10,18,357,10,16,25,248,12,18,32,075,25*79
$GPGSV,5,2,17,23,04,035,,25,02,128,17,26,29,217,,27,38,315,26*75
$GPGSV,5,3,17,28,45,158,21,29,19,147,09,31,30,191,17,32,65,356,30*7A
$GPGSV,5,4,17,36,52,277,,40,84,354,35,41,58,082,,49,32,274,*7D
$GPGSV,5,5,17,50,10,089,*4A
$GLGSV,3,1,09,70,28,355,,71,51,296,16,72,27,234,,73,14,149,*60
$GLGSV,3,2,09,74,15,195,,75,00,240,,83,15,134,11,84,49,079,09*6C
$GLGSV,3,3,09,85,33,008,11*59
$GNGLL,0419.76415,S,05539.80256,E,114350.00,A,A*66
$GNGRS,114350.00,1,4.5,7.7,-18.0,19.1,11.0,16.8,21.4,0.6,,,,*40
$GNGRS,114350.00,1,-10.8,16.2,4.1,8.7,,,,,,,,*79
$GNGST,114350.00,5949339,,,,6.1,7.8,16*52
$GNZDA,114350.00,27,05,2025,00,00*7F
$GNGBS,114350.00,6.1,7.8,16.3,,,,*61
b0L(c@
e;
 K#&;- Ad%{4"Tb:R 
Yh
FcG3(HIJKSsT1OU!Eb(cL|$GNRMC,114351.00,A,0419.76406,S,05539.80245,E,0.221,,270525,,,A*78
$GNVTG,,T,,M,0.221,N,0.410,K,A*39
$GNGNS,114351.00,0419.76406,S,05539.80245,E,AA,12,0.76,-3.7,-47.6,,*7B
$GNGGA,114351.00,0419.76406,S,05539.80245,E,1,12,0.76,-3.7,M,-47.6,M,,*51
$GNGSA,A,3,32,28,18,29,27,16,10,31,,,,,1.72,0.76,1.54*11
$GNGSA,A,3,71,83,84,85,,,,,,,,,1.72,0.76,1.54*15
$GPGSV,5,1,17,08,03,320,,10,18,357,14,16,25,248,10,18,32,075,24*7E
$GPGSV,5,2,17,23,04,035,,25,02,128,14,26,29,217,,27,38,315,25*75
$GPGSV,5,3,17,28,45,158,22,29,19,147,12,31,30,191,18,32,65,356,29*74
$GPGSV,5,4,17,36,52,277,,40,84,354,34,41,58,082,,49,32,274,*7C
$GPGSV,5,5,17,50,10,089,*4A
$GLGSV,3,1,09,70,28,355,,71,51,296,17,72,27,234,,73,14,149,*61
$GLGSV,3,2,09,74,15,195,,75,00,240,,83,15,134,09,84,49,079,13*6E
$GLGSV,3,3,09,85,33,008,12*5A
$GNGLL,0419.76406,S,05539.80245,E,114351.00,A,A*67
$GNGRS,114351.00,1,5.5,7.4,-16.2,19.4,10.4,16.8,21.1,-0.6,,,,*67
$GNGRS,114351.00,1,-11.5,16.5,3.9,8.4,,,,,,,,*7F
$GNGST,114351.00,5951045,,,,6.4,7.9,16*56
$GNZDA,114351.00,27,05,2025,00,00*7E
$GNGBS,114351.00,6.4,7.9,16.4,,,,*63
b0Lg@

e; K#&;.-P Ad6
{4&Tb:R 
YhFcG3(#HIJKS,T1O9U!]bg$$GNRMC,114352.00,A,0419.76406,S,05539.80229,E,0.059,,270525,,,A*7C
$GNVTG,,T,,M,0.059,N,0.110,K,A*31
$GNGNS,114352.00,0419.76406,S,05539.80229,E,AA,12,0.76,-3.9,-47.6,,*7C
$GNGGA,114352.00,0419.76406,S,05539.80229,E,1,12,0.76,-3.9,M,-47.6,M,,*56
$GNGSA,A,3,32,28,18,29,27,16,10,31,,,,,1.72,0.76,1.54*11
$GNGSA,A,3,71,83,84,85,,,,,,,,,1.72,0.76,1.54*15
$GPGSV,5,1,17,08,03,320,,10,18,357,10,16,25,248,11,18,32,075,25*7A
$GPGSV,5,2,17,23,04,035,,25,02,128,,26,29,217,,27,38,315,27*72
$GPGSV,5,3,17,28,45,158,22,29,19,147,11,31,30,191,18,32,65,356,31*7E
$GPGSV,5,4,17,36,52,277,,40,84,354,38,41,58,082,,49,32,274,*70
$GPGSV,5,5,17,50,10,089,*4A
$GLGSV,3,1,09,70,28,355,,71,51,296,19,72,27,234,,73,14,149,*6F
$GLGSV,3,2,09,74,15,195,,75,00,240,,83,15,134,08,84,49,079,09*64
$GLGSV,3,3,09,85,33,008,13*5B
$GNGLL,0419.76406,S,05539.80229,E,114352.00,A,A*6E
$GNGRS,114352.00,1,3.1,4.7,-18.2,-40.8,8.1,13.4,63.5,0.8,,,,*51
$GNGRS,114352.00,1,-9.9,-4.7,72.3,-2.9,,,,,,,,*43
$GNGST,114352.00,80,,,,6.6,7.8,16*67
$GNZDA,114352.00,27,05,2025,00,00*7D
$GNGBS,114352.00,6.6,7.8,16.3,,,,*64
b0Lj@

ek K#&;- C Ad
{4#Tb:R 
YhFcG3(YHIJKS1T
1OU!bj:$GNRMC,114353.00,A,0419.76433,S,05539.80206,E,0.285,,270525,,,A*75
$GNVTG,,T,,M,0.285,N,0.529,K,A*3C
$GNGNS,114353.00,0419.76433,S,05539.80206,E,AA,12,0.76,-3.7,-47.6,,*78
$GNGGA,114353.00,0419.76433,S,05539.80206,E,1,12,0.76,-3.7,M,-47.6,M,,*52
$GNGSA,A,3,32,28,18,29,27,16,10,31,,,,,1.72,0.76,1.54*11
$GNGSA,A,3,71,83,84,85,,,,,,,,,1.72,0.76,1.54*15
$GPGSV,5,1,17,08,03,320,,10,18,357,10,16,25,248,19,18,32,075,26*71
$GPGSV,5,2,17,23,04,035,,25,02,128,,26,29,217,,27,38,315,28*7D
$GPGSV,5,3,17,28,45,158,31,29,19,147,15,31,30,191,18,32,65,356,28*70
$GPGSV,5,4,17,36,52,277,,40,84,354,35,41,58,082,,49,32,274,*7D
$GPGSV,5,5,17,50,10,089,*4A
$GLGSV,3,1,09,70,28,355,,71,51,296,20,72,27,234,,73,14,149,*65
$GLGSV,3,2,09,74,15,195,,75,00,240,,83,15,134,11,84,49,079,10*64
b0Lv@
e K#&;V -<A@  Ad[
{4%Tb:R 
YhFcG3(HIJKSDT1OU!_bvt$GNRMC,114356.00,A,0419.76458,S,05539.80150,E,0.016,,270525,,,A*75
$GNVTG,,T,,M,0.016,N,0.029,K,A*31
$GNGNS,114356.00,0419.76458,S,05539.80150,E,AA,12,0.76,-2.9,-47.6,,*7F
$GNGGA,114356.00,0419.76458,S,05539.80150,E,1,12,0.76,-2.9,M,-47.6,M,,*55
$GNGSA,A,3,32,28,18,29,27,16,10,31,,,,,1.72,0.76,1.54*11
$GNGSA,A,3,71,83,84,85,,,,,,,,,1.72,0.76,1.54*15
$GPGSV,5,1,17,08,03,320,,10,18,357,12,16,25,248,16,18,32,075,27*7D
$GPGSV,5,2,17,23,04,035,,25,02,128,,26,29,217,12,27,38,315,28*7E
$GPGSV,5,3,17,28,45,158,32,29,19,147,15,31,30,191,17,32,65,356,32*77
$GPGSV,5,4,17,36,52,277,,40,84,354,37,41,58,082,,49,32,274,*7F
$GPGSV,5,5,17,50,10,089,*4A
$GLGSV,3,1,09,70,28,355,,71,51,296,18,72,27,234,,73,14,149,*6E
$GLGSV,3,2,09,74,15,195,,75,00,240,,83,15,134,11,84,49,079,08*6D
$GLGSV,3,3,09,85,33,008,12*5A
$GNGLL,0419.76458,S,05539.80150,E,114356.00,A,A*6C
$GNGRS,114356.00,1,8.6,5.7,-16.2,18.6,6.0,10.5,21.8,-1.9,,,,*53
$GNGRS,114356.00,1,-6.0,16.0,4.2,9.0,,,,,,,,*47
$GNGST,114356.00,3437227,,,,6.2,7.4,16*57
$GNZDA,114356.00,27,05,2025,00,00*79
$GNGBS,114356.00,6.2,7.4,16.2,,,,*69
b0Lz@
f6 KT#i&;0 -L #AdJ
{4'Tb:R 
YhFcG3(6HIJKS7T1OU!bz[$GNRMC,114357.00,A,0419.76470,S,05539.80140,E,0.047,,270525,,,A*7B
$GNVTG,,T,,M,0.047,N,0.087,K,A*31
$GNGNS,114357.00,0419.76470,S,05539.80140,E,AA,12,0.76,-2.8,-47.6,,*74
$GNGGA,114357.00,0419.76470,S,05539.80140,E,1,12,0.76,-2.8,M,-47.6,M,,*5E
$GNGSA,A,3,32,28,18,29,27,16,10,31,,,,,1.72,0.76,1.54*11
$GNGSA,A,3,71,83,84,85,,,,,,,,,1.72,0.76,1.54*15
$GPGSV,5,1,17,08,03,320,,10,18,358,13,16,25,248,15,18,32,075,27*70
$GPGSV,5,2,17,23,04,035,,25,02,128,,26,29,217,11,27,38,315,28*7D
$GPGSV,5,3,17,28,45,158,32,29,19,147,18,31,30,191,19,32,65,356,35*73
$GPGSV,5,4,17,36,52,277,,40,84,354,39,41,58,082,,49,32,274,*71
$GPGSV,5,5,17,50,10,089,*4A
$GLGSV,3,1,09,70,28,355,,71,51,296,19,72,27,234,,73,14,149,*6F
$GLGSV,3,2,09,74,15,195,,75,00,240,,83,15,134,11,84,49,079,15*61
$GLGSV,3,3,09,85,33,008,09*50
$GNGLL,0419.76470,S,05539.80140,E,114357.00,A,A*66
$GNGRS,114357.00,1,3.3,4.9,-12.0,16.1,0.5,10.8,21.9,-1.2,,,,*58
$GNGRS,114357.00,1,-7.1,15.9,4.3,9.0,,,,,,,,*4D
$GNGST,114357.00,3441130,,,,6.1,7.3,16*56
$GNZDA,114357.00,27,05,2025,00,00*78
$GNGBS,114357.00,6.1,7.3,16.1,,,,*6F
b0L~@
f~ KL#&;!--V #AdI
{4&Tb:R 
YhFcG3(HIJKSHT1O}U!b~s3D$GNRMC,114358.00,A,0419.76482,S,05539.80115,E,0.197,,270525,,,A*75
$GNVTG,,T,,M,0.197,N,0.365,K,A*32
$GNGNS,114358.00,0419.76482,S,05539.80115,E,AA,13,0.75,-3.1,-47.6,,*7C
$GNGGA,114358.00,0419.76482,S,05539.80115,E,1,12,0.75,-3.1,M,-47.6,M,,*57
$GNGSA,A,3,32,28,18,26,29,27,16,10,31,,,,1.82,0.75,1.66*18
$GNGSA,A,3,71,83,84,85,,,,,,,,,1.82,0.75,1.66*18
$GPGSV,5,1,17,08,03,320,,10,18,358,11,16,25,248,13,18,32,075,28*7B
$GPGSV,5,2,17,23,04,035,,25,02,128,,26,29,217,15,27,38,315,29*78
$GPGSV,5,3,17,28,45,158,33,29,19,147,17,31,30,191,21,32,65,356,35*76
$GPGSV,5,4,17,36,52,277,,40,84,354,38,41,58,082,,49,32,274,*70
$GPGSV,5,5,17,50,10,089,*4A
$GLGSV,3,1,09,70,28,355,,71,51,296,23,72,27,234,,73,14,149,*66
$GLGSV,3,2,09,74,15,195,,75,00,240,,83,15,134,09,84,49,079,09*65
$GLGSV,3,3,09,85,33,008,15*5D
$GNGLL,0419.76482,S,05539.80115,E,114358.00,A,A*64
$GNGRS,114358.00,1,5.9,-0.3,-12.0,30.3,13.3,2.3,12.6,-11.5,-4.3,,,*4F
$GNGRS,114358.00,1,-8.5,11.0,-109,17.8,,,,,,,,*4F
$GNGST,114358.00,70,,,,6.0,7.2,16*6E
$GNZDA,114358.00,27,05,2025,00,00*77
$GNGBS,114358.00,6.0,7.2,15.9,,,,*6B
b0Lh@
fT KJ#&;!-w "Adr
{4$Tb:R 
YhFcG3(HIJKS
6T1OU!q:bh[$GNRMC,114359.00,A,0419.76489,S,05539.80102,E,0.082,,270525,,,A*7C
$GNVTG,,T,,M,0.082,N,0.151,K,A*32
$GNGNS,114359.00,0419.76489,S,05539.80102,E,AA,12,0.89,-3.1,-47.6,,*72
$GNGGA,114359.00,0419.76489,S,05539.80102,E,1,12,0.89,-3.1,M,-47.6,M,,*58
$GNGSA,A,3,32,28,18,26,29,27,10,31,,,,,2.23,0.89,2.05*12
$GNGSA,A,3,71,83,84,85,,,,,,,,,2.23,0.89,2.05*15
$GPGSV,5,1,17,08,03,320,,10,18,358,09,16,25,248,09,18,32,075,27*76
$GPGSV,5,2,17,23,04,035,,25,02,128,,26,29,217,15,27,38,315,28*79
$GPGSV,5,3,17,28,45,158,33,29,19,147,16,31,30,191,18,32,65,356,34*7C
$GPGSV,5,4,17,36,52,277,,40,84,354,36,41,58,082,,49,32,274,*7E
$GPGSV,5,5,17,50,10,089,*4A
$GLGSV,3,1,09,70,28,355,,71,51,296,23,72,27,234,,73,14,149,*66
$GLGSV,3,2,09,74,15,195,,75,00,240,,83,15,134,10,84,49,079,09*6D
$GLGSV,3,3,09,85,33,008,12*5A
$GNGLL,0419.76489,S,05539.80102,E,114359.00,A,A*68
$GNGRS,114359.00,1,3.7,-1.4,-12.1,25.5,11.6,1.7,21.8,-6.3,,,,*79
$GNGRS,114359.00,1,-10.0,15.9,4.1,8.8,,,,,,,,*7F
$GNGST,114359.00,3588925,,,,5.9,7.1,16*59
$GNZDA,114359.00,27,05,2025,00,00*76
$GNGBS,114359.00,5.9,7.1,15.9,,,,*63
b0LP@
fq K#&;"- #AdA
{4%Tb:R 
YhFcG3(&HIJKS(T1O~U!UbPC$GNRMC,114400.00,A,0419.76496,S,05539.80084,E,0.065,,270525,,,A*7F
$GNVTG,,T,,M,0.065,N,0.121,K,A*3C
$GNGNS,114400.00,0419.76496,S,05539.80084,E,AA,13,0.81,-3.2,-47.6,,*72
$GNGGA,114400.00,0419.76496,S,05539.80084,E,1,12,0.81,-3.2,M,-47.6,M,,*59
$GNGSA,A,3,32,28,18,26,29,27,16,10,31,,,,2.09,0.81,1.93*19
$GNGSA,A,3,71,83,84,85,,,,,,,,,2.09,0.81,1.93*19
$GPGSV,5,1,17,08,03,320,,10,18,358,07,16,25,248,08,18,32,075,27*79
$GPGSV,5,2,17,23,04,035,,25,02,128,,26,29,217,14,27,38,315,28*78
$GPGSV,5,3,17,28,45,158,34,29,19,147,12,31,30,191,15,32,65,356,35*73
$GPGSV,5,4,17,36,52,277,,40,84,354,37,41,58,082,,49,32,274,*7F
$GPGSV,5,5,17,50,10,089,*4A
$GLGSV,3,1,09,70,28,355,,71,51,296,24,72,27,234,,73,14,149,*61
$GLGSV,3,2,09,74,15,195,,75,00,240,,83,15,134,09,84,49,079,09*65
$GLGSV,3,3,09,85,33,008,13*5B
$GNGLL,0419.76496,S,05539.80084,E,114400.00,A,A*62
$GNGRS,114400.00,1,3.2,-0.2,-13.1,22.6,10.2,4.1,14.4,21.6,-8.3,,,*6C
$GNGRS,114400.00,1,-9.9,15.8,3.8,8.5,,,,,,,,*47
$GNGST,114400.00,3438705,,,,5.9,7.1,16*54
$GNZDA,114400.00,27,05,2025,00,00*7D
$GNGBS,114400.00,5.9,7.1,15.8,,,,*69
b0L8@
f K*#&;!-6 "Ad
{4$Tb:R 
YhFcG3(HIJKSeT
1OU!;b8+|$GNRMC,114401.00,A,0419.76502,S,05539.80063,E,0.148,,270525,,,A*75
$GNVTG,,T,,M,0.148,N,0.274,K,A*31
$GNGNS,114401.00,0419.76502,S,05539.80063,E,AA,12,0.73,-3.2,-47.6,,*7A
$GNGGA,114401.00,0419.76502,S,05539.80063,E,1,12,0.73,-3.2,M,-47.6,M,,*50
$GNGSA,A,3,32,28,18,26,27,16,10,31,,,,,1.76,0.73,1.60*18
$GNGSA,A,3,71,83,84,85,,,,,,,,,1.76,0.73,1.60*13
$GPGSV,5,1,17,08,03,320,,10,18,358,11,16,25,248,09,18,32,075,27*7F
$GPGSV,5,2,17,23,04,035,,25,02,128,,26,29,217,12,27,38,315,28*7E
$GPGSV,5,3,17,28,45,158,33,29,19,147,09,31,30,191,12,32,65,356,34*78
$GPGSV,5,4,17,36,52,277,,40,84,354,36,41,58,082,,49,32,274,*7E
$GPGSV,5,5,17,50,10,089,*4A
$GLGSV,3,1,09,70,28,355,,71,51,296,25,72,27,234,,73,14,149,*60
$GLGSV,3,2,09,74,15,195,,75,00,240,,83,15,134,13,84,49,079,10*66
$GLGSV,3,3,09,85,33,008,16*5E
$GNGLL,0419.76502,S,05539.80063,E,114401.00,A,A*66
$GNGRS,114401.00,1,2.4,0.5,-12.4,22.2,0.1,14.3,17.0,-8.9,,,,*57
$GNGRS,114401.00,1,-8.9,-19.5,-39.3,-2.0,,,,,,,,*56
$GNGST,114401.00,79,,,,5.8,7.0,16*65
$GNZDA,114401.00,27,05,2025,00,00*7C
$GNGBS,114401.00,5.8,7.0,15.7,,,,*67
b0L @
f K#y&;8!-?o !Ad
{4%Tb:R 
YhFcG3(HIJKSBT
1OU!w(b  $GNRMC,114402.00,A,0419.76510,S,05539.80058,E,0.031,,270525,,,A*72
$GNVTG,,T,,M,0.031,N,0.057,K,A*3D
$GNGNS,114402.00,0419.76510,S,05539.80058,E,AA,13,0.81,-3.1,-47.6,,*7D
$GNGGA,114402.00,0419.76510,S,05539.80058,E,1,12,0.81,-3.1,M,-47.6,M,,*56
$GNGSA,A,3,32,28,18,26,29,27,16,10,31,,,,2.09,0.81,1.93*19
$GNGSA,A,3,71,83,84,85,,,,,,,,,2.09,0.81,1.93*19
$GPGSV,5,1,17,08,03,320,,10,18,358,11,16,25,248,14,18,32,075,26*72
$GPGSV,5,2,17,23,04,035,,25,02,128,,26,29,217,12,27,38,315,28*7E
$GPGSV,5,3,17,28,45,158,33,29,19,147,11,31,30,191,12,32,65,356,33*76
$GPGSV,5,4,17,36,52,277,,40,84,354,37,41,58,082,,49,32,274,*7F
$GPGSV,5,5,17,50,10,089,*4A
$GLGSV,3,1,09,70,28,355,,71,51,296,26,72,27,234,,73,14,149,*63
$GLGSV,3,2,09,74,15,195,,75,00,240,,83,15,134,13,84,49,079,10*66
$GLGSV,3,3,09,85,33,008,16*5E
$GNGLL,0419.76510,S,05539.80058,E,114402.00,A,A*6E
$GNGRS,114402.00,1,2.4,2.0,-11.0,19.1,10.9,0.6,14.4,21.8,-9.1,,,*4D
$GNGRS,114402.00,1,-10.9,16.0,4.3,9.0,,,,,,,,*7E
$GNGST,114402.00,4859393,,,,5.8,6.9,16*59
$GNZDA,114402.00,27,05,2025,00,00*7F
$GNGBS,114402.00,5.8,6.9,15.7,,,,*6C
b0L@
f K#i&;!-f

o  Ad
{4%Tb:R 
YhFcG3(HIJKSJT
1OU!b#jI$GNRMC,114403.00,A,0419.76520,S,05539.80053,E,0.071,,270525,,,A*7F
$GNVTG,,T,,M,0.071,N,0.132,K,A*3B
$GNGNS,114403.00,0419.76520,S,05539.80053,E,AA,13,0.81,-3.0,-47.6,,*75
$GNGGA,114403.00,0419.76520,S,05539.80053,E,1,12,0.81,-3.0,M,-47.6,M,,*5E
$GNGSA,A,3,32,28,18,26,29,27,16,10,31,,,,2.09,0.81,1.93*19
$GNGSA,A,3,71,83,84,85,,,,,,,,,2.09,0.81,1.93*19
$GPGSV,5,1,17,08,03,320,,10,18,358,16,16,25,248,17,18,32,075,26*76
$GPGSV,5,2,17,23,04,035,,25,02,128,,26,29,217,13,27,38,315,30*76
$GPGSV,5,3,17,28,45,158,33,29,19,147,10,31,30,191,10,32,65,356,32*74
$GPGSV,5,4,17,36,52,277,,40,84,354,37,41,58,082,,49,32,274,*7F
$GPGSV,5,5,17,50,10,089,*4A
$GLGSV,3,1,09,70,28,355,,71,51,296,26,72,27,234,,73,14,149,*63
$GLGSV,3,2,09,74,15,195,,75,00,240,,83,15,134,11,84,49,079,10*64
$GLGSV,3,3,09,85,33,008,13*5B
$GNGLL,0419.76520,S,05539.80053,E,114403.00,A,A*67
$GNGRS,114403.00,1,2.5,1.0,-11.2,21.5,9.7,-2.7,14.5,22.1,-9.1,,,*50
$GNGRS,114403.00,1,-10.4,16.1,4.4,9.1,,,,,,,,*75
$GNGST,114403.00,4861301,,,,5.7,6.9,16*57
$GNZDA,114403.00,27,05,2025,00,00*7E
$GNGBS,114403.00,5.7,6.9,15.7,,,,*62
b0L@
f9
 K#&;!-k Ad
{4%Tb:R 
YhFcG3(HIJKS0T
1OU!\\b'A$GNRMC,114404.00,A,0419.76535,S,05539.80045,E,0.135,,270525,,,A*7A
$GNVTG,,T,,M,0.135,N,0.250,K,A*3D
$GNGNS,114404.00,0419.76535,S,05539.80045,E,AA,13,0.82,-2.9,-47.6,,*7A
$GNGGA,114404.00,0419.76535,S,05539.80045,E,1,12,0.82,-2.9,M,-47.6,M,,*51
$GNGSA,A,3,32,28,18,26,29,27,16,10,31,,,,1.90,0.82,1.71*15
$GNGSA,A,3,71,83,84,85,,,,,,,,,1.90,0.82,1.71*15
$GPGSV,5,1,17,08,03,320,,10,18,358,14,16,25,248,10,18,32,075,26*73
$GPGSV,5,2,17,23,04,035,,25,02,128,,26,29,217,12,27,38,315,29*7F
$GPGSV,5,3,17,28,45,158,33,29,19,147,12,31,30,191,07,32,65,356,31*73
$GPGSV,5,4,17,36,52,277,,40,84,354,37,41,58,082,,49,32,274,*7F
$GPGSV,5,5,17,50,10,089,*4A
$GLGSV,3,1,09,70,28,355,,71,51,296,27,72,27,234,,73,14,149,*62
$GLGSV,3,2,09,74,15,195,,75,00,240,,83,15,134,11,84,49,079,10*64
$GLGSV,3,3,09,85,33,008,13*5B
$GNGLL,0419.76535,S,05539.80045,E,114404.00,A,A*63
$GNGRS,114404.00,1,2.9,-0.1,-12.6,22.6,9.9,-3.7,-21.7,-4.6,-1.5,,,*45
$GNGRS,114404.00,1,-11.2,-53.3,-0.4,-14.4,,,,,,,,*66
$GNGST,114404.00,74,,,,5.7,6.8,16*6B
$GNZDA,114404.00,27,05,2025,00,00*79
$GNGBS,114404.00,5.7,6.8,15.7,,,,*64
b0L`@
f Li#c&;a- Ad'
{4 Tb:R 
YhFcG3(LHIJKS/T1OBU
!oqb`S?Q$GNRMC,114410.00,A,0419.76594,S,05539.79984,E,0.455,,270525,,,A*75
$GNVTG,,T,,M,0.455,N,0.843,K,A*36
$GNGNS,114410.00,0419.76594,S,05539.79984,E,AA,13,0.71,-2.9,-47.6,,*7A
$GNGGA,114410.00,0419.76594,S,05539.79984,E,1,12,0.71,-2.9,M,-47.6,M,,*51
$GNGSA,A,3,32,28,18,26,29,27,16,10,31,,,,1.70,0.71,1.54*10
$GNGSA,A,3,71,83,84,85,,,,,,,,,1.70,0.71,1.54*10
$GPGSV,5,1,17,08,03,320,,10,18,358,09,16,25,248,09,18,32,076,16*77
$GPGSV,5,2,17,23,03,035,,25,02,128,,26,29,217,11,27,38,315,24*76
$GPGSV,5,3,17,28,45,158,25,29,19,147,12,31,30,191,09,32,65,356,27*7D
$GPGSV,5,4,17,36,52,277,,40,84,354,32,41,58,082,,49,32,274,*7A
$GPGSV,5,5,17,50,10,089,*4A
$GLGSV,3,1,09,70,28,355,,71,51,296,18,72,27,234,,73,14,149,*6E
$GLGSV,3,2,09,74,15,195,,75,00,240,,83,15,134,09,84,49,079,11*6C
$GLGSV,3,3,09,85,33,008,10*58
$GNGLL,0419.76594,S,05539.79984,E,114410.00,A,A*6F
$GNGRS,114410.00,1,5.5,1.7,-14.3,29.2,6.4,1.0,78.6,-83.2,-39.4,,,*66
$GNGRS,114410.00,1,-9.5,120,-35.2,6.2,,,,,,,,*70
$GNGST,114410.00,92,,,,5.8,6.9,16*68
$GNZDA,114410.00,27,05,2025,00,00*7C
$GNGBS,114410.00,5.8,6.9,15.8,,,,*60
b0LH@
f L#
&;H-{ Ad:
{4$Tb:R 
YhFcG3(HIJKS
aT1OU
!+5bH;C)z$GNRMC,114411.00,A,0419.76597,S,05539.79977,E,0.332,,270525,,,A*7D
$GNVTG,,T,,M,0.332,N,0.614,K,A*3C
$GNGNS,114411.00,0419.76597,S,05539.79977,E,AA,10,1.04,-2.7,-47.6,,*7A
$GNGGA,114411.00,0419.76597,S,05539.79977,E,1,10,1.04,-2.7,M,-47.6,M,,*50
$GNGSA,A,3,32,28,18,29,27,10,,,,,,,1.93,1.04,1.63*1B
$GNGSA,A,3,71,83,84,85,,,,,,,,,1.93,1.04,1.63*1A
$GPGSV,5,1,17,08,03,320,,10,18,358,13,16,25,248,07,18,32,076,15*71
$GPGSV,5,2,17,23,03,035,,25,02,128,,26,29,217,10,27,38,315,25*76
$GPGSV,5,3,17,28,45,158,26,29,19,147,17,31,30,191,05,32,65,356,27*77
$GPGSV,5,4,17,36,52,277,,40,84,354,36,41,58,082,,49,32,274,*7E
b0L0@
f L#&;-
~ !Ad-
{4&Tb:R 
YhFcG3(HIJKSvT1OaU!{?b0#G$GNRMC,114412.00,A,0419.76598,S,05539.79975,E,0.235,,270525,,,A*75
$GNVTG,,T,,M,0.235,N,0.435,K,A*3B
$GNGNS,114412.00,0419.76598,S,05539.79975,E,AA,13,0.76,-2.5,-47.6,,*71
$GNGGA,114412.00,0419.76598,S,05539.79975,E,1,12,0.76,-2.5,M,-47.6,M,,*5A
$GNGSA,A,3,32,28,18,26,29,27,16,10,31,,,,1.72,0.76,1.54*15
$GNGSA,A,3,71,83,84,85,,,,,,,,,1.72,0.76,1.54*15
$GPGSV,5,1,17,08,03,320,,10,18,358,09,16,25,248,09,18,32,076,17*76
$GPGSV,5,2,17,23,03,035,,25,02,128,,26,29,216,08,27,38,315,26*7D
$GPGSV,5,3,17,28,45,158,26,29,19,147,10,31,30,191,11,32,65,356,33*70
$GPGSV,5,4,17,36,52,277,,40,84,354,38,41,58,082,,49,32,274,*70
$GPGSV,5,5,17,50,10,089,*4A
$GLGSV,3,1,09,70,28,355,,71,51,296,20,72,27,234,,73,14,149,*65
$GLGSV,3,2,09,74,15,195,,75,00,240,,83,15,134,11,84,49,079,11*65
b0L@
f L#&;-Y Ad
{4$Tb:R 
YhFcG3(PHIJKST1O3U
!ZbKJ$GNRMC,114413.00,A,0419.76599,S,05539.79973,E,0.343,,270525,,,A*73
$GNVTG,,T,,M,0.343,N,0.634,K,A*38
$GNGNS,114413.00,0419.76599,S,05539.79973,E,AA,11,0.78,-2.0,-47.6,,*7E
$GNGGA,114413.00,0419.76599,S,05539.79973,E,1,11,0.78,-2.0,M,-47.6,M,,*54
$GNGSA,A,3,32,28,18,27,16,10,31,,,,,,1.78,0.78,1.61*18
$GNGSA,A,3,71,83,84,85,,,,,,,,,1.78,0.78,1.61*17
$GPGSV,5,1,17,08,03,320,,10,18,358,15,16,25,248,08,18,32,076,17*7A
$GPGSV,5,2,17,23,03,035,,25,02,128,,26,29,216,07,27,38,315,26*72
$GPGSV,5,3,17,28,45,158,23,29,19,147,06,31,30,191,08,32,65,356,30*79
$GPGSV,5,4,17,36,52,277,,40,84,354,36,41,58,082,,49,32,274,*7E
$GPGSV,5,5,17,50,10,089,*4A
$GLGSV,3,1,09,70,28,355,,71,51,296,19,72,27,234,,73,14,149,*6F
$GLGSV,3,2,09,74,15,195,,75,00,240,,83,15,134,11,84,49,079,11*65
$GLGSV,3,3,09,85,33,008,10*58
$GNGLL,0419.76599,S,05539.79973,E,114413.00,A,A*69
$GNGRS,114413.00,1,4.1,-0.8,-12.6,-2.4,-129,-8.7,-51.8,,,,,*65
$GNGRS,114413.00,1,-12.0,11.6,-27.7,28.4,,,,,,,,*5B
$GNGST,114413.00,95,,,,6.1,7.5,16*6B
$GNZDA,114413.00,27,05,2025,00,00*7F
$GNGBS,114413.00,6.1,7.5,16.0,,,,*6F
b0L@
f LY#6&;0-o
 Ad
{4$Tb:R 
YhFcG3(<HIJKS6T1OzU!ibN$GNRMC,114414.00,A,0419.76594,S,05539.79987,E,0.045,,270525,,,A*77
$GNVTG,,T,,M,0.045,N,0.083,K,A*37
$GNGNS,114414.00,0419.76594,S,05539.79987,E,AA,13,0.71,-1.8,-47.6,,*7F
$GNGGA,114414.00,0419.76594,S,05539.79987,E,1,12,0.71,-1.8,M,-47.6,M,,*54
$GNGSA,A,3,32,28,18,26,29,27,16,10,31,,,,1.70,0.71,1.54*10
b0L(@
fu Ln#
&;-7B @d{4'Ta:R 
Y
hFcG3(HIJKSmT1OU!db(rGH$GNRMC,114423.00,A,0419.76588,S,05539.79988,E,0.252,,270525,,,A*75
$GNVTG,,T,,M,0.252,N,0.467,K,A*3D
$GNGNS,114423.00,0419.76588,S,05539.79988,E,AA,13,0.71,0.8,-47.6,,*55
$GNGGA,114423.00,0419.76588,S,05539.79988,E,1,12,0.71,0.8,M,-47.6,M,,*7E
$GNGSA,A,3,32,28,18,26,29,27,16,10,31,,,,1.70,0.71,1.54*10
$GNGSA,A,3,71,83,84,85,,,,,,,,,1.70,0.71,1.54*10
$GPGSV,5,1,17,08,03,320,,10,18,358,18,16,25,248,12,18,32,076,17*7C
$GPGSV,5,2,17,23,03,035,,25,02,128,,26,29,216,10,27,38,315,26*74
$GPGSV,5,3,17,28,45,157,25,29,18,147,15,31,30,190,14,32,64,356,30*7E
$GPGSV,5,4,17,36,52,277,,40,84,353,39,41,58,082,,49,32,274,*76
$GPGSV,5,5,17,50,10,089,*4A
$GLGSV,3,1,09,70,28,355,,71,51,296,21,72,27,234,,73,14,149,*64
$GLGSV,3,2,09,74,15,195,,75,00,240,,83,15,134,14,84,49,079,11*60
$GLGSV,3,3,09,85,33,008,11*59
$GNGLL,0419.76588,S,05539.79988,E,114423.00,A,A*6E
$GNGRS,114423.00,1,2.5,3.1,-6.6,15.2,19.4,4.3,17.0,21.6,10.9,,,*61
$GNGRS,114423.00,1,-6.3,16.5,4.0,8.7,,,,,,,,*40
$GNGST,114423.00,7379635,,,,7.2,8.3,17*54
$GNZDA,114423.00,27,05,2025,00,00*7C
$GNGBS,114423.00,7.2,8.3,16.7,,,,*60
b0L@
fu Li#&;-E @d|{4$Ta:R 
Y
hFcG3(\HIJKST1OU!`bv$GNRMC,114424.00,A,0419.76591,S,05539.79990,E,0.257,,270525,,,A*76
$GNVTG,,T,,M,0.257,N,0.477,K,A*39
$GNGNS,114424.00,0419.76591,S,05539.79990,E,AA,13,0.71,0.8,-47.6,,*53
$GNGGA,114424.00,0419.76591,S,05539.79990,E,1,12,0.71,0.8,M,-47.6,M,,*78
$GNGSA,A,3,32,28,18,26,29,27,16,10,31,,,,1.70,0.71,1.54*10
$GNGSA,A,3,71,83,84,85,,,,,,,,,1.70,0.71,1.54*10
$GPGSV,5,1,17,08,03,320,,10,18,358,08,16,25,248,11,18,32,076,16*7F
$GPGSV,5,2,17,23,03,035,,25,02,128,,26,29,216,08,27,38,315,26*7D
$GPGSV,5,3,17,28,45,157,25,29,18,147,16,31,30,190,15,32,64,356,30*7C
$GPGSV,5,4,17,36,52,277,,40,84,353,36,41,58,082,,49,32,274,*79
$GPGSV,5,5,17,50,10,089,*4A
$GLGSV,3,1,09,70,28,355,,71,51,296,21,72,27,234,,73,14,149,*64
$GLGSV,3,2,09,74,15,195,,75,00,240,,83,15,134,12,84,49,079,08*6E
$GLGSV,3,3,09,85,33,008,11*59
$GNGLL,0419.76591,S,05539.79990,E,114424.00,A,A*68
$GNGRS,114424.00,1,3.8,3.2,-6.6,15.2,19.6,5.3,16.9,21.7,12.2,,,*6A
$GNGRS,114424.00,1,-6.8,16.7,3.9,8.6,,,,,,,,*41
$GNGST,114424.00,8082467,,,,7.3,8.5,17*59
$GNZDA,114424.00,27,05,2025,00,00*7B
$GNGBS,114424.00,7.3,8.5,16.8,,,,*6F
b0L@

fv~ L#
&;- . @d{4$Ta:R 
Y
hFcG3(mHIJKST1O:U!Tby$GNRMC,114425.00,A,0419.76627,S,05539.79951,E,0.086,,270525,,,A*7A
$GNVTG,,T,,M,0.086,N,0.159,K,A*3E
$GNGNS,114425.00,0419.76627,S,05539.79951,E,AA,13,0.71,0.6,-47.6,,*5F
$GNGGA,114425.00,0419.76627,S,05539.79951,E,1,12,0.71,0.6,M,-47.6,M,,*74
$GNGSA,A,3,32,28,18,26,29,27,16,10,31,,,,1.70,0.71,1.54*10
$GNGSA,A,3,71,83,84,85,,,,,,,,,1.70,0.71,1.54*10
$GPGSV,5,1,17,08,03,320,,10,18,358,10,16,25,248,12,18,32,076,17*74
$GPGSV,5,2,17,23,03,035,,25,02,128,,26,29,216,07,27,38,315,27*73
$GPGSV,5,3,17,28,45,157,26,29,18,147,14,31,30,190,16,32,64,356,29*76
b0L@
fY L#&;'- @d{4"Ta:R 
Y
hFcG3(HIJKS
HT1OU!E;*b}n$GNRMC,114426.00,A,0419.76603,S,05539.79968,E,0.530,,270525,,,A*7D
$GNVTG,,T,,M,0.530,N,0.982,K,A*38
$GNGNS,114426.00,0419.76603,S,05539.79968,E,AA,13,0.71,0.4,-47.6,,*52
$GNGGA,114426.00,0419.76603,S,05539.79968,E,1,12,0.71,0.4,M,-47.6,M,,*79
$GNGSA,A,3,32,28,18,26,29,27,16,10,31,,,,1.70,0.71,1.54*10
$GNGSA,A,3,71,83,84,85,,,,,,,,,1.70,0.71,1.54*10
$GPGSV,5,1,17,08,03,320,,10,18,358,12,16,25,248,12,18,32,076,18*79
$GPGSV,5,2,17,23,03,035,,25,02,128,,26,29,216,16,27,38,315,26*72
$GPGSV,5,3,17,28,45,157,25,29,18,147,16,31,30,190,17,32,64,356,28*77
$GPGSV,5,4,17,36,52,277,,40,84,353,34,41,58,082,,49,32,274,*7B
$GPGSV,5,5,17,50,10,089,*4A
$GLGSV,3,1,09,70,28,355,,71,51,296,17,72,27,234,,73,14,149,*61
$GLGSV,3,2,09,74,15,195,,75,00,240,,83,15,134,10,84,49,079,08*6C
$GLGSV,3,3,09,85,33,008,07*5E
$GNGLL,0419.76603,S,05539.79968,E,114426.00,A,A*65
$GNGRS,114426.00,1,7.7,0.3,-6.1,15.4,17.7,5.5,17.3,21.4,7.2,,,*55
$GNGRS,114426.00,1,-2.4,16.1,3.9,8.4,,,,,,,,*4F
$GNGST,114426.00,6600515,,,,7.4,8.6,17*59
$GNZDA,114426.00,27,05,2025,00,00*79
$GNGBS,114426.00,7.4,8.6,16.9,,,,*68
b0L@

fjl Lo#&;- @df{4&Ta:R 
Y
hFcG3(HIJKS)T
1OU!x^bU$GNRMC,114429.00,A,0419.76643,S,05539.79935,E,0.110,,270525,,,A*78
$GNVTG,,T,,M,0.110,N,0.203,K,A*3C
$GNGNS,114429.00,0419.76643,S,05539.79935,E,AA,13,0.71,0.4,-47.6,,*51
$GNGGA,114429.00,0419.76643,S,05539.79935,E,1,12,0.71,0.4,M,-47.6,M,,*7A
$GNGSA,A,3,32,28,18,26,29,27,16,10,31,,,,1.70,0.71,1.54*10
$GNGSA,A,3,71,83,84,85,,,,,,,,,1.70,0.71,1.54*10
$GPGSV,5,1,17,08,03,320,,10,18,358,10,16,25,248,07,18,32,076,23*77
$GPGSV,5,2,17,23,03,035,,25,02,128,,26,29,216,14,27,38,315,27*71
$GPGSV,5,3,17,28,45,157,26,29,18,147,13,31,30,190,17,32,64,356,28*71
$GPGSV,5,4,17,36,52,277,,40,84,353,38,41,58,082,,49,32,274,*77
$GPGSV,5,5,17,50,10,089,*4A
$GLGSV,3,1,09,70,28,355,,71,51,296,18,72,27,234,,73,14,149,*6E
$GLGSV,3,2,09,74,15,195,,75,00,240,,83,15,134,16,84,49,079,10*63
$GLGSV,3,3,09,85,33,008,19*51
$GNGLL,0419.76643,S,05539.79935,E,114429.00,A,A*66
$GNGRS,114429.00,1,8.7,2.1,-9.1,10.1,15.3,4.8,16.4,21.5,-0.2,,,*7D
$GNGRS,114429.00,1,-1.0,15.8,4.1,4.9,,,,,,,,*43
$GNGST,114429.00,4668808,,,,7.3,8.6,17*5C
$GNZDA,114429.00,27,05,2025,00,00*76
$GNGBS,114429.00,7.3,8.6,16.9,,,,*60
$GLGSV,3,2,09,74,15,195,,75,00,240,,83,15,134,11,84,49,079,09*6C
$GLGSV,3,3,09,85,33,008,18*50
$GNGLL,0419.76613,S,05539.79956,E,114430.00,A,A*6E
$GNGRS,114430.00,1,8.3,2.8,-8.2,6.6,5.6,16.6,20.6,-1.5,,,,*5A
$GNGRS,114430.00,1,3.4,15.6,3.6,6.2,,,,,,,,*67
$GNGST,114430.00,4863355,,,,7.3,8.5,17*51
$GNZDA,114430.00,27,05,2025,00,00*7E
$GNGBS,114430.00,7.3,8.5,16.9,,,,*6B
b0L8@

f+ L#&;- @d{4"Ta:R 
Y
hFcG3(HIJKST1OU!8cb8+T$GNRMC,114433.00,A,0419.76619,S,05539.79915,E,0.122,,270525,,,A*7F
$GNVTG,,T,,M,0.122,N,0.225,K,A*39
$GNGNS,114433.00,0419.76619,S,05539.79915,E,AA,11,0.78,0.5,-47.6,,*5D
$GNGGA,114433.00,0419.76619,S,05539.79915,E,1,11,0.78,0.5,M,-47.6,M,,*77
$GNGSA,A,3,32,28,18,27,16,10,31,,,,,,1.78,0.78,1.60*19
$GNGSA,A,3,71,83,84,85,,,,,,,,,1.78,0.78,1.60*16
$GPGSV,5,1,17,08,03,320,,10,18,358,10,16,25,248,08,18,32,076,22*79
$GPGSV,5,2,17,23,03,035,,25,02,128,,26,29,216,,27,38,315,23*70
$GPGSV,5,3,17,28,45,157,28,29,18,147,17,31,30,190,12,32,64,356,25*73
$GPGSV,5,4,17,36,52,277,,40,84,353,34,41,58,082,,49,32,274,*7B
$GPGSV,5,5,17,50,10,089,*4A
$GLGSV,3,1,09,70,28,355,,71,51,296,17,72,27,234,,73,14,149,*61
$GLGSV,3,2,09,74,15,195,,75,00,240,,83,15,134,15,84,49,079,11*61
$GLGSV,3,3,09,85,33,008,12*5A
$GNGLL,0419.76619,S,05539.79915,E,114433.00,A,A*60
$GNGRS,114433.00,1,12.2,-2.4,-11.3,2.0,15.8,22.6,-5.3,,,,,*59
$GNGRS,114433.00,1,2.1,16.9,5.0,-2.0,,,,,,,,*47
$GNGST,114433.00,3621343,,,,7.3,8.7,17*58
$GNZDA,114433.00,27,05,2025,00,00*7D
$GNGBS,114433.00,7.3,8.7,17.1,,,,*63
b0L@
f?
 L#&;o- @du{4%Ta:R 
YhFcG3(HIJKSwT1OkU!aJb<z$GNRMC,114436.00,A,0419.76620,S,05539.79892,E,0.152,,270525,,,A*79
$GNVTG,,T,,M,0.152,N,0.281,K,A*30
$GNGNS,114436.00,0419.76620,S,05539.79892,E,AA,11,0.80,1.5,-47.6,,*5A
$GNGGA,114436.00,0419.76620,S,05539.79892,E,1,11,0.80,1.5,M,-47.6,M,,*70
$GNGSA,A,3,32,28,18,29,27,16,10,31,,,,,1.84,0.80,1.66*10
$GNGSA,A,3,71,83,85,,,,,,,,,,1.84,0.80,1.66*18
$GPGSV,5,1,17,08,03,320,,10,18,358,16,16,25,248,10,18,32,076,19*7E
$GPGSV,5,2,17,23,03,035,,25,02,128,,26,29,216,12,27,38,315,28*78
$GPGSV,5,3,17,28,45,157,25,29,18,147,15,31,30,190,18,32,64,356,26*75
$GPGSV,5,4,17,36,52,277,,40,84,353,37,41,58,082,,49,32,274,*78
$GPGSV,5,5,17,50,10,089,*4A
$GLGSV,3,1,09,70,28,355,,71,51,296,20,72,27,234,,73,14,149,*65
$GLGSV,3,2,09,74,15,195,,75,00,240,,83,15,134,15,84,49,079,11*61
$GLGSV,3,3,09,85,33,008,11*59
$GNGLL,0419.76620,S,05539.79892,E,114436.00,A,A*61
$GNGRS,114436.00,1,14.0,-3.2,-9.9,-3.0,1.1,16.9,18.5,-3.4,,,,*67
$GNGRS,114436.00,1,0.1,16.5,-4.1,,,,,,,,,*60
$GNGST,114436.00,135586,,,,7.2,8.7,17*62
$GNZDA,114436.00,27,05,2025,00,00*78
$GNGBS,114436.00,7.2,8.7,17.1,,,,*67
b0L@
f L#h&;|-$ @d?{4$Ta:R 
Y
hFcG3(HIJKST1OU!.b$GNRMC,114437.00,A,0419.76589,S,05539.79936,E,0.654,,270525,,,A*76
$GNVTG,,T,,M,0.654,N,1.211,K,A*39
$GNGNS,114437.00,0419.76589,S,05539.79936,E,AA,12,0.76,1.1,-47.6,,*5A
$GNGGA,114437.00,0419.76589,S,05539.79936,E,1,12,0.76,1.1,M,-47.6,M,,*70
$GNGSA,A,3,32,28,18,29,27,16,10,31,,,,,1.72,0.76,1.54*11
$GNGSA,A,3,71,83,84,85,,,,,,,,,1.72,0.76,1.54*15
$GPGSV,5,1,17,08,03,320,,10,18,358,14,16,25,248,08,18,32,076,17*7B
$GPGSV,5,2,17,23,03,035,,25,02,128,,26,29,216,15,27,38,315,28*7F
$GPGSV,5,3,17,28,45,157,27,29,18,147,16,31,30,190,19,32,64,356,26*75
$GPGSV,5,4,17,36,52,277,,40,84,353,36,41,58,082,,49,32,274,*79
$GPGSV,5,5,17,50,10,089,*4A
$GLGSV,3,1,09,70,28,355,,71,51,296,22,72,27,234,20,73,14,149,*65
$GLGSV,3,2,09,74,15,195,,75,00,240,,83,15,134,17,84,49,079,11*63
$GLGSV,3,3,09,85,33,008,11*59
$GNGLL,0419.76589,S,05539.79936,E,114437.00,A,A*6F
$GNGRS,114437.00,1,16.0,0.4,-8.7,-0.7,1.2,-3.0,17.3,-3.4,,,,*5D
$GNGRS,114437.00,1,-2.9,0.2,-3.2,-1.0,,,,,,,,*70
$GNGST,114437.00,72,,,,7.2,8.8,17*65
$GNZDA,114437.00,27,05,2025,00,00*79
$GNGBS,114437.00,7.2,8.8,17.0,,,,*68
b0L@
f Ly#7 &;-d @d{4&Ta:R 
Y
hFcG3(HIJKST1OU
!kb$GNRMC,114439.00,A,0419.76565,S,05539.79952,E,0.185,,270525,,,A*73
$GNVTG,,T,,M,0.185,N,0.343,K,A*35
$GNGNS,114439.00,0419.76565,S,05539.79952,E,AA,12,0.82,1.8,-47.6,,*56
$GNGGA,114439.00,0419.76565,S,05539.79952,E,1,12,0.82,1.8,M,-47.6,M,,*7C
$GNGSA,A,3,32,28,18,26,29,27,16,31,,,,,2.10,0.82,1.93*13
$GNGSA,A,3,71,83,84,85,,,,,,,,,2.10,0.82,1.93*12
$GPGSV,5,1,17,08,03,320,,10,18,358,09,16,25,248,14,18,32,076,18*75
$GPGSV,5,2,17,23,03,035,,25,02,128,,26,29,216,15,27,38,315,32*74
$GPGSV,5,3,17,28,45,157,28,29,18,147,16,31,30,190,20,32,64,356,28*7E
$GPGSV,5,4,17,36,52,277,,40,84,353,38,41,58,082,,49,32,274,*77
$GPGSV,5,5,17,50,10,089,*4A
$GLGSV,3,1,09,70,28,355,,71,51,296,22,72,27,234,17,73,14,149,*61
$GLGSV,3,2,09,74,15,195,,75,00,240,,83,15,134,12,84,49,079,15*62
$GLGSV,3,3,09,85,33,008,10*58
b0L"@

f
r L#&;- @d%{4(Ta:R 
Y
h+FcG3(HIJKS=T1OU!Qb"$GNRMC,114440.00,A,0419.76584,S,05539.79928,E,0.431,,270525,,,A*75
$GNVTG,,T,,M,0.431,N,0.798,K,A*3D
$GNGNS,114440.00,0419.76584,S,05539.79928,E,AA,13,0.82,2.9,-47.6,,*59
b0Lx&@
f LI#&;-ls @du{4%Ta:R 
Y
hFcG3(HIJKS9T
1OU!xbx&kt$GNRMC,114441.00,A,0419.76582,S,05539.79920,E,0.400,,270525,,,A*78
$GNVTG,,T,,M,0.400,N,0.740,K,A*3A
$GNGNS,114441.00,0419.76582,S,05539.79920,E,AA,13,0.71,2.5,-47.6,,*56
$GNGGA,114441.00,0419.76582,S,05539.79920,E,1,12,0.71,2.5,M,-47.6,M,,*7D
$GNGSA,A,3,32,28,18,26,29,27,16,10,31,,,,1.70,0.71,1.54*10
$GNGSA,A,3,71,83,84,85,,,,,,,,,1.70,0.71,1.54*10
$GPGSV,5,1,17,08,03,320,,10,18,358,11,16,25,248,08,18,32,076,20*7A
$GPGSV,5,2,17,23,03,035,,25,02,128,,26,29,216,13,27,38,315,28*79
$GPGSV,5,3,17,28,45,157,27,29,18,147,14,31,30,190,20,32,64,356,21*7A
$GPGSV,5,4,17,36,52,277,,40,84,353,37,41,58,082,,49,32,274,*78
$GPGSV,5,5,17,50,10,089,*4A
$GLGSV,3,1,09,70,28,355,,71,51,296,18,72,27,234,15,73,14,149,*6A
$GLGSV,3,2,09,74,15,195,,75,00,240,,83,15,134,08,84,49,079,10*6C
$GLGSV,3,3,09,85,33,008,14*5C
$GNGLL,0419.76582,S,05539.79920,E,114441.00,A,A*62
$GNGRS,114441.00,1,8.8,3.6,-12.1,-14.1,-0.2,-0.7,17.0,29.9,1.1,,,*79
$GNGRS,114441.00,1,-1.1,15.9,4.0,-6.5,,,,,,,,*6F
$GNGST,114441.00,4668633,,,,7.0,8.7,17*56
$GNZDA,114441.00,27,05,2025,00,00*78
$GNGBS,114441.00,7.0,8.7,16.9,,,,*6C
b0L`*@
fg
 L#&;-, @d{4"Ta:R 
Y
hFcG3(HIJKS0T1OvU! b`*SL$GNRMC,114442.00,A,0419.76590,S,05539.79913,E,0.249,,270525,,,A*73
$GNVTG,,T,,M,0.249,N,0.461,K,A*31
$GNGNS,114442.00,0419.76590,S,05539.79913,E,AA,12,0.82,3.0,-47.6,,*5F
$GNGGA,114442.00,0419.76590,S,05539.79913,E,1,12,0.82,3.0,M,-47.6,M,,*75
$GNGSA,A,3,32,28,18,26,29,27,16,31,,,,,2.10,0.82,1.93*13
$GNGSA,A,3,71,83,84,85,,,,,,,,,2.10,0.82,1.93*12
$GPGSV,5,1,17,08,03,320,,10,18,358,08,16,25,248,10,18,32,076,21*7A
$GPGSV,5,2,17,23,03,035,,25,02,128,,26,29,216,15,27,38,315,28*7F
$GPGSV,5,3,17,28,45,157,26,29,18,147,15,31,30,190,20,32,64,356,20*7B
$GPGSV,5,4,17,36,52,277,,40,84,353,34,41,58,082,,49,32,274,*7B
$GPGSV,5,5,17,50,10,089,*4A
$GLGSV,3,1,09,70,28,355,,71,51,296,16,72,27,234,14,73,14,149,*65
$GLGSV,3,2,09,74,15,195,,75,00,240,,83,15,134,14,84,49,079,12*63
$GLGSV,3,3,09,85,33,008,17*5F
$GNGLL,0419.76590,S,05539.79913,E,114442.00,A,A*62
$GNGRS,114442.00,1,9.6,4.7,-14.0,-14.0,0.4,1.8,17.4,-0.3,,,,*4B
$GNGRS,114442.00,1,-1.1,15.8,3.7,-8.2,,,,,,,,*64
$GNGST,114442.00,5947882,,,,7.0,8.7,17*52
$GNZDA,114442.00,27,05,2025,00,00*7B
$GNGBS,114442.00,7.0,8.7,17.0,,,,*67
b0LH.@
f5 L#+&;-S @dG{4!Ta:R 
Y
hFcG3(HIJKST1OU!9IbH.;$R$GNRMC,114443.00,A,0419.76604,S,05539.79894,E,0.328,,270525,,,A*74
$GNVTG,,T,,M,0.328,N,0.608,K,A*3A
$GNGNS,114443.00,0419.76604,S,05539.79894,E,AA,12,0.82,3.7,-47.6,,*59
$GNGGA,114443.00,0419.76604,S,05539.79894,E,1,12,0.82,3.7,M,-47.6,M,,*73
$GNGSA,A,3,32,28,18,26,29,27,16,31,,,,,2.10,0.82,1.93*13
$GNGSA,A,3,71,83,84,85,,,,,,,,,2.10,0.82,1.93*12
$GPGSV,5,1,17,08,03,320,,10,18,358,08,16,25,248,09,18,32,076,22*71
$GPGSV,5,2,17,23,03,035,,25,02,128,,26,29,216,16,27,38,315,27*73
$GPGSV,5,3,17,28,45,157,26,29,18,147,16,31,30,190,18,32,64,356,20*73
$GPGSV,5,4,17,36,52,277,,40,84,353,33,41,58,082,,49,32,274,*7C
$GPGSV,5,5,17,50,10,089,*4A
$GLGSV,3,1,09,70,28,355,,71,51,296,16,72,27,234,13,73,14,149,*62
$GLGSV,3,2,09,74,15,195,,75,00,240,,83,15,134,14,84,49,079,13*62
$GLGSV,3,3,09,85,33,008,18*50
$GNGLL,0419.76604,S,05539.79894,E,114443.00,A,A*63
$GNGRS,114443.00,1,10.9,3.4,-13.6,-14.9,1.6,-5.2,23.6,-0.5,,,,*52
$GNGRS,114443.00,1,-0.5,-7.8,7.0,-7.1,,,,,,,,*71
$GNGST,114443.00,69,,,,6.9,8.7,17*69
$GNZDA,114443.00,27,05,2025,00,00*7A
$GNGBS,114443.00,6.9,8.7,17.0,,,,*6E
b0L02@
f L#"&;-t @d{4#Ta:R 
Y
hFcG3(7HIJKSaT1OU!vZb02#$GNRMC,114444.00,A,0419.76617,S,05539.79888,E,0.373,,270525,,,A*72
$GNVTG,,T,,M,0.373,N,0.691,K,A*34
$GNGNS,114444.00,0419.76617,S,05539.79888,E,AA,12,0.82,3.9,-47.6,,*5F
$GNGGA,114444.00,0419.76617,S,05539.79888,E,1,12,0.82,3.9,M,-47.6,M,,*75
$GNGSA,A,3,32,28,18,26,29,27,16,31,,,,,2.10,0.82,1.93*13
$GNGSA,A,3,71,83,84,85,,,,,,,,,2.10,0.82,1.93*12
$GPGSV,5,1,17,08,03,320,,10,18,358,08,16,25,248,11,18,32,076,21*7B
$GPGSV,5,2,17,23,03,035,,25,02,128,,26,29,216,14,27,38,315,28*7E
$GPGSV,5,3,17,28,45,157,27,29,18,147,15,31,30,190,14,32,64,356,30*7C
$GPGSV,5,4,17,36,52,277,,40,84,353,35,41,58,082,,49,32,274,*7A
$GPGSV,5,5,17,50,10,089,*4A
$GLGSV,3,1,09,70,28,355,,71,51,296,16,72,27,234,12,73,14,149,*63
$GLGSV,3,2,09,74,15,195,,75,00,240,,83,15,134,17,84,49,079,11*63
$GLGSV,3,3,09,85,33,008,17*5F
$GNGLL,0419.76617,S,05539.79888,E,114444.00,A,A*6B
$GNGRS,114444.00,1,3.9,3.7,-10.7,-17.6,4.7,-0.9,16.9,0.1,,,,*40
$GNGRS,114444.00,1,0.6,16.3,4.2,-9.9,,,,,,,,*49
$GNGST,114444.00,3434852,,,,6.9,8.7,17*5E
$GNZDA,114444.00,27,05,2025,00,00*7D
$GNGBS,114444.00,6.9,8.7,17.0,,,,*69
b0L6@
f Lv#&;- @d{4#Ta:R 
Y
h#FcG3*HIJKS@T1OU!b6"$GNRMC,114445.00,A,0419.76617,S,05539.79887,E,0.298,,270525,,,A*78
$GNVTG,,T,,M,0.298,N,0.552,K,A*3C
$GNGNS,114445.00,0419.76617,S,05539.79887,E,AA,13,0.71,3.8,-47.6,,*5D
$GNGGA,114445.00,0419.76617,S,05539.79887,E,1,12,0.71,3.8,M,-47.6,M,,*76
$GNGSA,A,3,32,28,18,26,29,27,16,10,31,,,,1.70,0.71,1.54*10
$GNGSA,A,3,71,83,84,85,,,,,,,,,1.70,0.71,1.54*10
$GPGSV,5,1,17,08,03,320,,10,18,358,07,16,25,248,07,18,32,076,21*73
$GPGSV,5,2,17,23,03,035,,25,02,128,,26,29,216,13,27,38,315,29*78
$GPGSV,5,3,17,28,45,157,27,29,18,147,14,31,30,190,14,32,64,356,30*7D
$GPGSV,5,4,17,36,52,277,,40,84,353,35,41,58,082,,49,32,274,*7A
$GPGSV,5,5,17,50,10,089,*4A
$GLGSV,3,1,09,70,28,355,,71,51,298,16,72,27,234,14,73,14,149,*6B
$GLGSV,3,2,09,74,15,195,,75,00,240,,83,15,134,12,84,49,079,16*61
$GLGSV,3,3,09,85,33,008,15*5D
$GNGLL,0419.76617,S,05539.79887,E,114445.00,A,A*65
$GNGRS,114445.00,1,2.3,2.6,-11.6,-17.7,4.4,-3.8,16.9,46.1,-1.0,,,*7A
$GNGRS,114445.00,1,0.1,16.0,4.1,-13.0,,,,,,,,*7D
$GNGST,114445.00,107257,,,,6.8,8.6,17*66
$GNZDA,114445.00,27,05,2025,00,00*7C
$GNGBS,114445.00,6.8,8.6,16.9,,,,*60
b0L:@
f
+ LC#
&;-.S @d{4%Ta:R 
Y
hFcG3*HIJKST1OU!b:$GNRMC,114446.00,A,0419.76624,S,05539.79883,E,0.223,,270525,,,A*7F
$GNVTG,,T,,M,0.223,N,0.413,K,A*38
$GNGNS,114446.00,0419.76624,S,05539.79883,E,AA,12,0.82,4.4,-47.6,,*5C
$GNGGA,114446.00,0419.76624,S,05539.79883,E,1,12,0.82,4.4,M,-47.6,M,,*76
$GNGSA,A,3,32,28,18,26,29,27,16,31,,,,,2.10,0.82,1.93*13
$GNGSA,A,3,71,83,84,85,,,,,,,,,2.10,0.82,1.93*12
$GPGSV,5,1,17,08,03,320,,10,18,358,07,16,25,248,10,18,32,076,22*76
$GPGSV,5,2,17,23,03,035,,25,02,128,,26,29,216,10,27,38,315,28*7A
$GPGSV,5,3,17,28,45,157,25,29,18,147,13,31,30,190,18,32,64,356,29*7C
$GPGSV,5,4,17,36,52,277,,40,84,353,37,41,58,082,,49,32,274,*78
$GPGSV,5,5,17,50,10,089,*4A
$GLGSV,3,1,09,70,28,355,,71,51,298,17,72,27,235,15,73,14,149,*6A
$GLGSV,3,2,09,74,15,195,,75,00,240,,83,15,134,16,84,49,079,09*6B
$GLGSV,3,3,09,85,33,008,12*5A
$GNGLL,0419.76624,S,05539.79883,E,114446.00,A,A*62
$GNGRS,114446.00,1,-0.3,3.0,-12.1,-16.6,2.8,-3.0,-20.0,-1.7,,,,*6C
$GNGRS,114446.00,1,1.5,14.5,12.4,-11.2,,,,,,,,*4E
$GNGST,114446.00,72,,,,6.8,8.5,17*65
$GNZDA,114446.00,27,05,2025,00,00*7F
$GNGBS,114446.00,6.8,8.5,16.9,,,,*60
b0L=@
f L#|&;- @d{4'Ta:R 
Y
hFcG3*1HIJKS-T
1OzU!b=$GNRMC,114447.00,A,0419.76633,S,05539.79888,E,0.089,,270525,,,A*71
$GNVTG,,T,,M,0.089,N,0.165,K,A*3E
$GNGNS,114447.00,0419.76633,S,05539.79888,E,AA,12,0.82,4.4,-47.6,,*50
$GNGGA,114447.00,0419.76633,S,05539.79888,E,1,12,0.82,4.4,M,-47.6,M,,*7A
$GNGSA,A,3,32,28,18,26,29,27,16,31,,,,,2.10,0.82,1.93*13
$GNGSA,A,3,71,83,84,85,,,,,,,,,2.10,0.82,1.93*12
$GPGSV,5,1,17,08,03,320,,10,18,358,06,16,25,248,17,18,32,076,25*77
$GPGSV,5,2,17,23,03,035,,25,02,128,,26,29,216,14,27,38,315,29*7F
$GPGSV,5,3,17,28,45,157,25,29,18,147,14,31,30,190,22,32,64,356,27*7C
$GPGSV,5,4,17,36,52,277,,40,84,353,39,41,58,082,,49,32,274,*76
$GPGSV,5,5,17,50,10,089,*4A
$GLGSV,3,1,09,70,28,355,,71,51,298,18,72,27,235,16,73,14,149,*66
$GLGSV,3,2,09,74,15,195,,75,00,240,,83,15,134,16,84,49,079,10*63
$GLGSV,3,3,09,85,33,008,13*5B
$GNGLL,0419.76633,S,05539.79888,E,114447.00,A,A*6E
$GNGRS,114447.00,1,4.8,5.2,-9.9,-16.7,4.1,-8.3,17.1,-3.2,,,,*50
$GNGRS,114447.00,1,0.5,15.8,3.8,-10.1,,,,,,,,*7C
$GNGST,114447.00,3436568,,,,6.8,8.5,17*58
$GNZDA,114447.00,27,05,2025,00,00*7E
$GNGBS,114447.00,6.8,8.5,16.9,,,,*61
b0LA@
f L#|&;K-&_ @d({4&Ta:R 
Y

hAFcG3*HIJKST1O$U!6)vbAZH$GNRMC,114448.00,A,0419.76631,S,05539.79914,E,0.454,,270525,,,A*7C
$GNVTG,,T,,M,0.454,N,0.841,K,A*35
$GNGNS,114448.00,0419.76631,S,05539.79914,E,AA,12,0.82,4.1,-47.6,,*5C
$GNGGA,114448.00,0419.76631,S,05539.79914,E,1,12,0.82,4.1,M,-47.6,M,,*76
$GNGSA,A,3,32,28,18,26,29,27,16,31,,,,,2.10,0.82,1.93*13
$GNGSA,A,3,71,83,84,85,,,,,,,,,2.10,0.82,1.93*12
$GPGSV,5,1,17,08,03,320,,10,18,358,05,16,25,248,12,18,32,076,23*77
$GPGSV,5,2,17,23,03,035,,25,02,128,,26,29,216,11,27,38,315,29*7A
$GPGSV,5,3,17,28,45,157,26,29,18,147,16,31,30,190,23,32,64,356,27*7C
$GPGSV,5,4,17,36,52,277,,40,84,353,38,41,58,082,,49,32,274,*77
$GPGSV,5,5,17,50,10,089,*4A
$GLGSV,3,1,09,70,28,355,,71,51,298,17,72,27,235,15,73,14,149,*6A
$GLGSV,3,2,09,74,15,194,,75,00,240,,83,15,134,17,84,49,079,16*65
$GLGSV,3,3,09,85,33,008,14*5C
$GNGLL,0419.76631,S,05539.79914,E,114448.00,A,A*67
$GNGRS,114448.00,1,5.5,7.3,-11.4,-16.7,2.9,-1.8,17.4,-6.7,,,,*6D
$GNGRS,114448.00,1,-1.3,15.1,2.9,-9.7,,,,,,,,*6E
$GNGST,114448.00,3438177,,,,6.7,8.5,17*5C
$GNZDA,114448.00,27,05,2025,00,00*71
$GNGBS,114448.00,6.7,8.5,16.9,,,,*61
b0LE@
f? L#&;-?8 @d{4&Ta:R 
Y
hFcG3*HIJKST1OmU!(bE2$GNRMC,114449.00,A,0419.76630,S,05539.79901,E,0.360,,270525,,,A*78
$GNVTG,,T,,M,0.360,N,0.667,K,A*3F
$GNGNS,114449.00,0419.76630,S,05539.79901,E,AA,13,0.69,4.1,-47.6,,*5C
$GNGGA,114449.00,0419.76630,S,05539.79901,E,1,12,0.69,4.1,M,-47.6,M,,*77
$GNGSA,A,3,32,28,18,26,29,27,16,10,31,,,,1.59,0.69,1.44*13
$GNGSA,A,3,71,83,84,85,,,,,,,,,1.59,0.69,1.44*13
$GPGSV,5,1,17,08,03,320,,10,18,358,09,16,25,248,08,18,32,076,25*76
$GPGSV,5,2,17,23,03,035,,25,02,128,,26,29,216,17,27,38,315,28*7D
$GPGSV,5,3,17,28,45,157,27,29,18,147,16,31,30,190,22,32,64,356,24*7F
$GPGSV,5,4,17,36,52,277,,40,84,353,38,41,58,082,,49,32,274,*77
$GPGSV,5,5,17,50,10,089,*4A
$GLGSV,3,1,09,70,28,355,,71,51,298,13,72,27,235,14,73,14,149,*6F
$GLGSV,3,2,09,74,15,194,,75,00,239,,83,15,134,18,84,49,079,13*61
$GLGSV,3,3,09,85,33,008,16*5E
$GNGLL,0419.76630,S,05539.79901,E,114449.00,A,A*63
$GNGRS,114449.00,1,-2.5,8.3,-10.0,6.4,4.4,-8.4,1.7,163,-7.1,,,*5A
$GNGRS,114449.00,1,-5.9,14.8,-9.1,-8.9,,,,,,,,*48
$GNGST,114449.00,75,,,,6.7,8.4,17*63
$GNZDA,114449.00,27,05,2025,00,00*70
$GNGBS,114449.00,6.7,8.4,16.7,,,,*6F
b0LI@
fs L#&;-+w# @dm{4'Ta:R 
Y
hHFcG3*`HIJKSKT1OU!NbI
$GNRMC,114450.00,A,0419.76655,S,05539.79885,E,0.169,,270525,,,A*75
$GNVTG,,T,,M,0.169,N,0.312,K,A*33
$GNGNS,114450.00,0419.76655,S,05539.79885,E,AA,13,0.69,5.2,-47.6,,*58
$GNGGA,114450.00,0419.76655,S,05539.79885,E,1,12,0.69,5.2,M,-47.6,M,,*73
$GNGSA,A,3,32,28,18,26,29,27,16,10,31,,,,1.59,0.69,1.44*13
$GNGSA,A,3,71,83,84,85,,,,,,,,,1.59,0.69,1.44*13
$GPGSV,5,1,17,08,03,320,,10,18,358,12,16,25,248,13,18,32,076,25*76
$GPGSV,5,2,17,23,03,035,,25,02,128,,26,29,216,23,27,38,315,29*7B
$GPGSV,5,3,17,28,45,157,29,29,18,147,17,31,30,190,21,32,64,356,21*76
$GPGSV,5,4,17,36,52,277,,40,84,353,39,41,58,082,,49,32,274,*76
$GPGSV,5,5,17,50,10,089,*4A
$GLGSV,3,1,09,70,28,355,,71,51,298,15,72,27,235,11,73,14,149,*6C
$GLGSV,3,2,09,74,15,194,,75,00,239,,83,15,134,20,84,49,079,11*68
$GLGSV,3,3,09,85,33,008,18*50
$GNGLL,0419.76655,S,05539.79885,E,114450.00,A,A*65
$GNGRS,114450.00,1,1.1,10.7,-10.3,14.4,3.7,-7.7,16.5,22.7,-9.9,,,*62
$GNGRS,114450.00,1,-9.3,13.6,4.2,-9.5,,,,,,,,*61
$GNGST,114450.00,4921751,,,,6.7,8.3,17*53
$GNZDA,114450.00,27,05,2025,00,00*78
$GNGBS,114450.00,6.7,8.3,16.7,,,,*60
b0LM@
f7 L#&;- @d{4%Ta:R 
Y
hFcG3*BHIJKST1OU!1?bM{$GNRMC,114451.00,A,0419.76669,S,05539.79883,E,0.211,,270525,,,A*71
$GNVTG,,T,,M,0.211,N,0.390,K,A*35
$GNGNS,114451.00,0419.76669,S,05539.79883,E,AA,13,0.71,5.3,-47.6,,*58
$GNGGA,114451.00,0419.76669,S,05539.79883,E,1,12,0.71,5.3,M,-47.6,M,,*73
$GNGSA,A,3,32,28,18,26,29,27,16,10,31,,,,1.70,0.71,1.54*10
$GNGSA,A,3,71,83,84,85,,,,,,,,,1.70,0.71,1.54*10
$GPGSV,5,1,17,08,03,320,,10,18,358,08,16,25,248,13,18,32,076,21*79
$GPGSV,5,2,17,23,03,035,,25,02,128,,26,29,216,20,27,38,315,30*70
$GPGSV,5,3,17,28,45,157,29,29,18,147,17,31,30,190,21,32,64,356,21*76
$GPGSV,5,4,17,36,52,277,,40,84,353,37,41,58,082,,49,32,274,*78
$GPGSV,5,5,17,50,10,089,*4A
$GLGSV,3,1,09,70,28,355,,71,51,298,13,72,27,235,12,73,14,149,*69
$GLGSV,3,2,09,74,15,194,,75,00,239,,83,15,134,21,84,49,079,08*61
$GLGSV,3,3,09,85,33,008,17*5F
$GNGLL,0419.76669,S,05539.79883,E,114451.00,A,A*6D
$GNGRS,114451.00,1,2.7,9.2,-11.4,12.7,-1.0,-3.2,15.9,23.0,-10.5,,,*4C
$GNGRS,114451.00,1,-9.6,13.1,4.2,-9.7,,,,,,,,*60
$GNGST,114451.00,4670908,,,,6.6,8.3,17*5A
$GNZDA,114451.00,27,05,2025,00,00*79
$GNGBS,114451.00,6.6,8.3,16.7,,,,*60
b0LpQ@
fZ L;#v&;x-q @d8{4Ta:R 
Y
hFcG3*VHIJKST1OU!.ibpQc$GNRMC,114452.00,A,0419.76706,S,05539.79893,E,0.824,,270525,,,A*77
$GNVTG,,T,,M,0.824,N,1.526,K,A*33
$GNGNS,114452.00,0419.76706,S,05539.79893,E,AA,12,0.79,5.8,-47.6,,*50
$GNGGA,114452.00,0419.76706,S,05539.79893,E,1,12,0.79,5.8,M,-47.6,M,,*7A
$GNGSA,A,3,32,28,18,26,29,27,10,31,,,,,1.78,0.79,1.59*1A
$GNGSA,A,3,71,83,84,85,,,,,,,,,1.78,0.79,1.59*1D
$GPGSV,5,1,17,08,03,320,,10,18,358,13,16,25,248,07,18,32,076,18*7C
$GPGSV,5,2,17,23,03,035,,25,02,128,,26,29,216,18,27,38,315,24*7E
$GPGSV,5,3,17,28,45,157,26,29,18,147,17,31,30,190,22,32,64,356,20*7B
$GPGSV,5,4,17,36,52,277,,40,84,353,30,41,58,082,,49,32,274,*7F
$GPGSV,5,5,17,50,10,089,*4A
$GLGSV,3,1,09,70,28,355,,71,51,298,09,72,27,235,13,73,14,149,*63
$GLGSV,3,2,09,74,15,194,,75,00,239,,83,15,134,20,84,49,079,09*61
$GLGSV,3,3,09,85,33,008,16*5E
$GNGLL,0419.76706,S,05539.79893,E,114452.00,A,A*67
$GNGRS,114452.00,1,0.6,11.4,-9.6,14.0,-3.5,-1.4,-60.5,-12.9,,,,*78
$GNGRS,114452.00,1,-19.6,15.3,13.1,-7.2,,,,,,,,*68
$GNGST,114452.00,68,,,,6.6,8.3,17*63
$GNZDA,114452.00,27,05,2025,00,00*7A
$GNGBS,114452.00,6.6,8.3,16.6,,,,*62
b0LXU@
fn L#&;-wc @d{4%Ta:R 
YhFcG3*HIJKSMT1OU!QrbXUKP$GNRMC,114453.00,A,0419.76717,S,05539.79893,E,0.370,,270525,,,A*7C
$GNVTG,,T,,M,0.370,N,0.685,K,A*32
$GNGNS,114453.00,0419.76717,S,05539.79893,E,AA,11,0.89,5.8,-47.6,,*5D
$GNGGA,114453.00,0419.76717,S,05539.79893,E,1,11,0.89,5.8,M,-47.6,M,,*77
$GNGSA,A,3,32,28,18,26,29,27,31,,,,,,2.24,0.89,2.05*14
$GNGSA,A,3,71,83,84,85,,,,,,,,,2.24,0.89,2.05*12
$GPGSV,5,1,17,08,03,320,,10,18,358,06,16,25,248,08,18,32,076,20*7C
$GPGSV,5,2,17,23,03,035,,25,02,128,,26,29,216,15,27,38,315,27*70
$GPGSV,5,3,17,28,45,157,23,29,18,147,17,31,30,190,20,32,64,356,23*7F
$GPGSV,5,4,17,36,52,277,,40,84,353,37,41,58,082,,49,32,274,*78
$GPGSV,5,5,17,50,10,089,*4A
$GLGSV,3,1,09,70,28,355,,71,51,298,14,72,27,235,11,73,14,149,*6D
$GLGSV,3,2,09,74,15,194,,75,00,239,,83,15,134,18,84,49,079,08*6B
$GLGSV,3,3,09,85,33,008,13*5B
$GNGLL,0419.76717,S,05539.79893,E,114453.00,A,A*66
$GNGRS,114453.00,1,1.9,14.0,-8.9,15.0,-3.1,1.8,-14.4,,,,,*67
$GNGRS,114453.00,1,4.6,16.1,4.2,-8.4,,,,,,,,*45
$GNGST,114453.00,166358,,,,6.6,8.3,17*63
$GNZDA,114453.00,27,05,2025,00,00*7B
$GNGBS,114453.00,6.6,8.3,16.7,,,,*62
b0L@Y@

fi L#A&;-Mw @dW{4"Ta:R 
YhFcG3*HI
JKSAT
1OU
!b@Y3j$GNRMC,114454.00,A,0419.76750,S,05539.79888,E,0.602,,270525,,,A*72
$GNVTG,,T,,M,0.602,N,1.115,K,A*3D
$GNGNS,114454.00,0419.76750,S,05539.79888,E,AA,13,0.71,5.9,-47.6,,*57
$GNGGA,114454.00,0419.76750,S,05539.79888,E,1,12,0.71,5.9,M,-47.6,M,,*7C
$GNGSA,A,3,32,28,18,26,29,27,16,10,31,,,,1.70,0.71,1.54*10
$GNGSA,A,3,71,83,84,85,,,,,,,,,1.70,0.71,1.54*10
$GPGSV,5,1,17,08,03,320,,10,18,358,10,16,25,248,13,18,32,076,21*70
$GPGSV,5,2,17,23,03,035,,25,02,128,,26,29,216,11,27,38,315,27*74
$GPGSV,5,3,17,28,45,157,23,29,18,147,18,31,30,190,17,32,64,356,25*72
$GPGSV,5,4,17,36,52,277,,40,84,353,34,41,58,082,,49,32,274,*7B
$GPGSV,5,5,17,50,10,089,*4A
$GLGSV,3,1,09,70,28,355,,71,51,298,18,72,27,235,13,73,14,149,*63
$GLGSV,3,2,09,74,15,194,,75,00,239,,83,15,134,17,84,49,079,10*6D
$GLGSV,3,3,09,85,33,008,10*58
$GNGLL,0419.76750,S,05539.79888,E,114454.00,A,A*68
$GNGRS,114454.00,1,6.0,16.1,-9.9,13.5,-3.9,-2.4,9.8,21.5,-12.9,,,*79
$GNGRS,114454.00,1,4.1,16.0,4.2,-6.4,,,,,,,,*4A
$GNGST,114454.00,297105,,,,6.7,8.4,17*65
$GNZDA,114454.00,27,05,2025,00,00*7C
$GNGBS,114454.00,6.7,8.4,16.7,,,,*63
b0L(]@
f% L4#
&;-' @d{4"Ta:R 
YhFcG3*HI
JKS.T1OU!f)b(]B $GNRMC,114455.00,A,0419.76741,S,05539.79882,E,0.160,,270525,,,A*7A
$GNVTG,,T,,M,0.160,N,0.296,K,A*37
$GNGNS,114455.00,0419.76741,S,05539.79882,E,AA,12,0.75,5.3,-47.6,,*53
$GNGGA,114455.00,0419.76741,S,05539.79882,E,1,12,0.75,5.3,M,-47.6,M,,*79
$GNGSA,A,3,32,28,18,26,29,27,16,10,31,,,,1.72,0.75,1.55*17
$GNGSA,A,3,71,83,84,,,,,,,,,,1.72,0.75,1.55*1A
$GPGSV,5,1,17,08,03,320,,10,18,358,11,16,25,248,14,18,32,076,21*76
$GPGSV,5,2,17,23,03,035,,25,02,128,,26,29,216,10,27,38,315,27*75
$GPGSV,5,3,17,28,45,157,23,29,18,147,18,31,30,190,13,32,64,356,25*76
$GPGSV,5,4,17,36,52,277,,40,84,353,34,41,58,082,,49,32,274,*7B
$GPGSV,5,5,17,50,10,089,*4A
$GLGSV,3,1,09,70,28,355,,71,51,298,17,72,27,235,14,73,14,149,*6B
$GLGSV,3,2,09,74,15,194,,75,00,239,,83,15,134,14,84,49,079,12*6C
$GLGSV,3,3,09,85,33,008,09*50
$GNGLL,0419.76741,S,05539.79882,E,114455.00,A,A*63
$GNGRS,114455.00,1,6.9,15.6,-12.3,13.1,-4.7,5.0,9.6,96.8,-13.1,,,*60
$GNGRS,114455.00,1,1.5,15.8,63.3,,,,,,,,,*70
$GNGST,114455.00,70,,,,6.8,8.3,17*63
$GNZDA,114455.00,27,05,2025,00,00*7D
$GNGBS,114455.00,6.8,8.3,16.7,,,,*6A
b0La@
f L#X&;-NO@ @d{4'Ta:R 
