$GNRMC,030127.00,A,0419.72602,S,05539.92790,E,0.014,,030625,,,D*74
$GNVTG,,T,,M,0.014,N,0.027,K,D*38
$GNGGA,030127.00,0419.72602,S,05539.92790,E,2,12,0.64,8.9,M,-47.6,M,,0000*71
$GNGSA,A,3,11,24,20,05,13,15,06,14,12,40,,,1.22,0.64,1.04*19
$GNGSA,A,3,81,77,88,82,78,76,66,,,,,,1.22,0.64,1.04*17
$GPGSV,5,1,18,05,39,170,39,06,18,028,41,11,53,022,41,12,11,341,41*74
$GPGSV,5,2,18,13,32,183,37,14,13,103,38,15,27,221,34,18,00,216,*7F
$GPGSV,5,3,18,20,50,120,34,22,21,083,30,24,53,307,38,29,12,270,21*7F
$GPGSV,5,4,18,30,04,144,30,36,52,277,,40,86,350,35,41,58,082,*7C
$GPGSV,5,5,18,49,32,274,,50,10,089,*78
$GLGSV,2,1,08,66,12,158,36,67,13,211,15,76,23,126,30,77,49,075,29*63
$GLGSV,2,2,08,78,26,001,35,81,55,283,33,82,26,228,29,88,31,359,34*66
$GNGLL,0419.72602,S,05539.92790,E,030127.00,A,D*6A
$GNTXT,01,01,01,More than 100 frame errors, UART RX was disabled*70
$GNRMC,030128.00,A,0419.72605,S,05539.92786,E,0.218,,030625,,,D*75
$GNVTG,,T,,M,0.218,N,0.403,K,D*34
$GNGGA,030128.00,0419.72605,S,05539.92786,E,2,12,0.64,8.7,M,-47.6,M,,0000*70
$GNGSA,A,3,11,24,20,05,13,15,06,14,12,,,,1.35,0.64,1.18*16
$GNGSA,A,3,81,77,88,82,78,76,66,,,,,,1.35,0.64,1.18*1C
$GPGSV,5,1,18,05,39,170,36,06,18,028,36,11,53,022,38,12,12,341,37*77
$GPGSV,5,2,18,13,32,183,33,14,13,103,33,15,27,221,25,18,00,216,*70
$GPGSV,5,3,18,20,50,120,25,22,21,083,22,24,53,307,33,29,12,270,19*7C
$GPGSV,5,4,18,30,04,144,22,36,52,277,,40,86,350,31,41,58,082,*7B
$GPGSV,5,5,18,49,32,274,,50,10,089,*78
$GLGSV,2,1,08,66,12,158,36,67,13,211,15,76,23,126,29,77,49,075,29*6B
$GLGSV,2,2,08,78,26,001,32,81,55,283,32,82,26,228,21,88,31,359,30*6C
$GNGLL,0419.72605,S,05539.92786,E,030128.00,A,D*65
$GNTXT,01,01,01,More than 100 frame errors, UART RX was disabled*70
$GNRMC,030129.00,A,0419.72604,S,05539.92783,E,0.053,,030625,,,D*7D
$GNVTG,,T,,M,0.053,N,0.098,K,D*3F
$GNGGA,030129.00,0419.72604,S,05539.92783,E,2,12,0.64,8.7,M,-47.6,M,,0000*75
$GNGSA,A,3,11,24,20,05,13,15,06,14,12,40,,,1.22,0.64,1.04*19
$GNGSA,A,3,81,77,88,82,78,76,66,,,,,,1.22,0.64,1.04*17
$GPGSV,5,1,18,05,39,170,38,06,18,028,39,11,53,022,41,12,12,341,39*76
$GPGSV,5,2,18,13,32,183,36,14,13,103,38,15,27,221,32,18,00,216,*78
$GPGSV,5,3,18,20,50,120,33,22,21,083,29,24,53,307,38,29,12,270,*73
$GPGSV,5,4,18,30,04,144,25,36,52,277,,40,86,350,37,41,58,082,*7A
$GPGSV,5,5,18,49,32,274,,50,10,089,*78
$GLGSV,2,1,08,66,12,158,37,67,13,211,19,76,23,126,30,77,49,075,29*6E
$GLGSV,2,2,08,78,26,001,35,81,55,283,32,82,26,228,24,88,31,359,34*6A
$GNGLL,0419.72604,S,05539.92783,E,030129.00,A,D*60
$GNTXT,01,01,01,More than 100 frame errors, UART RX was disabled*70
$GNRMC,030130.00,A,0419.72604,S,05539.92782,E,0.058,,030625,,,D*7F
$GNVTG,,T,,M,0.058,N,0.108,K,D*3C
$GNGGA,030130.00,0419.72604,S,05539.92782,E,2,12,0.64,8.8,M,-47.6,M,,0000*73
$GNGSA,A,3,11,24,20,05,13,15,06,14,12,40,,,1.22,0.64,1.04*19
$GNGSA,A,3,81,77,88,82,78,76,66,,,,,,1.22,0.64,1.04*17
$GPGSV,5,1,18,05,39,170,36,06,18,028,39,11,53,022,40,12,12,341,40*77
$GPGSV,5,2,18,13,32,183,36,14,13,103,36,15,27,221,33,18,00,216,*77
$GPGSV,5,3,18,20,50,120,33,22,21,083,27,24,53,307,36,29,12,270,*73
$GPGSV,5,4,18,30,04,144,27,36,52,277,,40,86,350,33,41,58,082,*7C
$GPGSV,5,5,18,49,32,274,,50,10,089,*78
$GLGSV,2,1,08,66,12,158,37,67,13,211,21,76,23,126,32,77,49,075,28*66
$GLGSV,2,2,08,78,26,001,35,81,55,283,33,82,26,228,26,88,31,359,34*69
$GNGLL,0419.72604,S,05539.92782,E,030130.00,A,D*69
$GNTXT,01,01,01,More than 100 frame errors, UART RX was disabled*70
$GNRMC,030131.00,A,0419.72604,S,05539.92783,E,0.013,,030625,,,D*70
$GNVTG,,T,,M,0.013,N,0.025,K,D*3D
$GNGGA,030131.00,0419.72604,S,05539.92783,E,2,12,0.64,8.7,M,-47.6,M,,0000*7C
$GNGSA,A,3,11,24,20,05,13,15,06,14,12,40,,,1.22,0.64,1.04*19
$GNGSA,A,3,81,77,88,82,78,76,66,,,,,,1.22,0.64,1.04*17
$GPGSV,5,1,18,05,39,170,36,06,18,028,39,11,53,022,41,12,12,341,40*76
$GPGSV,5,2,18,13,32,183,37,14,13,103,37,15,27,220,34,18,00,216,*71
$GPGSV,5,3,18,20,50,120,34,22,21,083,27,24,53,307,37,29,12,270,21*76
$GPGSV,5,4,18,30,04,144,28,36,52,277,,40,86,350,34,41,58,082,*74
$GPGSV,5,5,18,49,32,274,,50,10,089,*78
$GLGSV,2,1,08,66,12,158,38,67,13,211,22,76,23,126,33,77,49,075,28*6B
$GLGSV,2,2,08,78,26,001,35,81,55,283,33,82,26,228,27,88,31,359,34*68
$GNGLL,0419.72604,S,05539.92783,E,030131.00,A,D*69
$GNTXT,01,01,01,More than 100 frame errors, UART RX was disabled*70
$GNRMC,030132.00,A,0419.72605,S,05539.92784,E,0.009,,030625,,,D*7E
$GNVTG,,T,,M,0.009,N,0.017,K,D*37
$GNGGA,030132.00,0419.72605,S,05539.92784,E,2,12,0.64,8.7,M,-47.6,M,,0000*79
$GNGSA,A,3,11,24,20,05,13,15,06,14,12,40,,,1.22,0.64,1.04*19
$GNGSA,A,3,81,77,88,82,78,76,66,,,,,,1.22,0.64,1.04*17
$GPGSV,5,1,18,05,39,170,37,06,18,028,40,11,53,022,41,12,12,341,41*78
$GPGSV,5,2,18,13,32,183,37,14,13,103,37,15,27,220,35,18,00,216,*70
$GPGSV,5,3,18,20,50,120,35,22,21,083,27,24,53,307,36,29,12,270,19*7D
$GPGSV,5,4,18,30,04,144,28,36,52,277,,40,86,350,35,41,58,082,*75
$GPGSV,5,5,18,49,32,274,,50,10,089,*78
$GLGSV,2,1,08,66,12,158,38,67,13,211,23,76,23,126,33,77,49,075,28*6A
$GLGSV,2,2,08,78,26,001,35,81,55,283,33,82,26,228,27,88,31,359,34*68
$GNGLL,0419.72605,S,05539.92784,E,030132.00,A,D*6C
$GNTXT,01,01,01,More than 100 frame errors, UART RX was disabled*70
$GNRMC,030133.00,A,0419.72606,S,05539.92784,E,0.009,,030625,,,D*7C
$GNVTG,,T,,M,0.009,N,0.016,K,D*36
$GNGGA,030133.00,0419.72606,S,05539.92784,E,2,12,0.64,8.7,M,-47.6,M,,0000*7B
$GNGSA,A,3,11,24,20,05,13,15,06,14,12,40,,,1.22,0.64,1.04*19
$GNGSA,A,3,81,77,88,82,78,76,66,,,,,,1.22,0.64,1.04*17
$GPGSV,5,1,18,05,39,170,37,06,18,028,40,11,53,022,41,12,12,341,41*78
$GPGSV,5,2,18,13,32,183,37,14,13,103,37,15,27,220,35,18,00,216,*70
$GPGSV,5,3,18,20,50,120,35,22,21,083,26,24,53,307,36,29,12,270,*74
$GPGSV,5,4,18,30,04,144,28,36,52,277,,40,86,350,35,41,58,082,*75
$GPGSV,5,5,18,49,32,274,,50,10,089,*78
$GLGSV,2,1,08,66,12,158,38,67,13,211,25,76,23,126,33,77,49,075,27*63
$GLGSV,2,2,08,78,26,001,35,81,55,283,34,82,26,228,27,88,31,359,33*68
$GNGLL,0419.72606,S,05539.92784,E,030133.00,A,D*6E
$GNTXT,01,01,01,More than 100 frame errors, UART RX was disabled*70
$GNRMC,030134.00,A,0419.72607,S,05539.92783,E,0.023,,030625,,,D*75
$GNVTG,,T,,M,0.023,N,0.043,K,D*3E
$GNGGA,030134.00,0419.72607,S,05539.92783,E,2,12,0.64,8.6,M,-47.6,M,,0000*7B
$GNGSA,A,3,11,24,20,05,13,15,06,14,12,40,,,1.22,0.64,1.04*19
$GNGSA,A,3,81,77,88,82,78,76,66,,,,,,1.22,0.64,1.04*17
$GPGSV,5,1,18,05,39,170,39,06,18,028,41,11,53,022,42,12,12,341,42*77
$GPGSV,5,2,18,13,32,183,39,14,13,103,37,15,27,220,35,18,01,216,*7F
$GPGSV,5,3,18,20,50,120,34,22,21,083,27,24,53,307,36,29,12,270,*74
$GPGSV,5,4,18,30,04,144,28,36,52,277,,40,86,350,36,41,58,082,*76
$GPGSV,5,5,18,49,32,274,,50,10,089,*78
$GLGSV,2,1,08,66,12,158,38,67,13,211,25,76,23,126,33,77,49,075,27*63
$GLGSV,2,2,08,78,26,001,35,81,55,283,34,82,26,228,27,88,31,359,34*6F
$GNGLL,0419.72607,S,05539.92783,E,030134.00,A,D*6F
$GNTXT,01,01,01,More than 100 frame errors, UART RX was disabled*70
$GNRMC,030135.00,A,0419.72608,S,05539.92784,E,0.004,,030625,,,D*79
$GNVTG,,T,,M,0.004,N,0.008,K,D*34
$GNGGA,030135.00,0419.72608,S,05539.92784,E,2,12,0.64,8.6,M,-47.6,M,,0000*72
$GNGSA,A,3,11,24,20,05,13,15,06,14,12,40,,,1.22,0.64,1.04*19
$GNGSA,A,3,81,77,88,82,78,76,66,,,,,,1.22,0.64,1.04*17
$GPGSV,5,1,18,05,39,170,35,06,18,028,38,11,53,022,39,12,12,341,39*75
$GPGSV,5,2,18,13,32,183,35,14,13,103,35,15,27,220,34,18,01,216,*70
$GPGSV,5,3,18,20,50,120,34,22,21,083,26,24,53,307,34,29,12,270,*77
$GPGSV,5,4,18,30,04,144,28,36,52,277,,40,86,350,33,41,58,082,*73
$GPGSV,5,5,18,49,32,274,,50,10,089,*78
$GLGSV,2,1,08,66,12,158,37,67,13,211,25,76,23,126,33,77,49,075,28*63
$GLGSV,2,2,08,78,26,001,35,81,55,283,34,82,26,228,27,88,31,359,34*6F
$GNGLL,0419.72608,S,05539.92784,E,030135.00,A,D*66
$GNTXT,01,01,01,More than 100 frame errors, UART RX was disabled*70
$GNRMC,030136.00,A,0419.72609,S,05539.92785,E,0.016,,030625,,,D*79
$GNVTG,,T,,M,0.016,N,0.029,K,D*34
$GNGGA,030136.00,0419.72609,S,05539.92785,E,2,12,0.62,8.6,M,-47.6,M,,0000*77
$GNGSA,A,3,11,24,20,05,13,15,06,14,12,40,,,1.16,0.62,0.99*1D
$GNGSA,A,3,81,77,88,82,78,76,66,,,,,,1.16,0.62,0.99*13
$GPGSV,5,1,18,05,39,170,35,06,18,028,38,11,53,022,39,12,12,341,39*75
$GPGSV,5,2,18,13,32,183,35,14,13,103,35,15,27,220,34,18,01,216,*70
$GPGSV,5,3,18,20,50,120,33,22,21,083,26,24,53,307,35,29,12,270,*71
$GPGSV,5,4,18,30,04,144,27,36,52,277,,40,86,350,34,41,58,082,*7B
$GPGSV,5,5,18,49,32,274,,50,10,089,*78
$GLGSV,2,1,08,66,12,158,38,67,13,211,24,76,23,126,34,77,49,075,27*65
$GLGSV,2,2,08,78,26,001,36,81,55,283,34,82,26,228,27,88,31,359,35*6D
$GNGLL,0419.72609,S,05539.92785,E,030136.00,A,D*65
$GNTXT,01,01,01,More than 100 frame errors, UART RX was disabled*70
$GNRMC,030137.00,A,0419.72609,S,05539.92785,E,0.016,,030625,,,D*78
$GNVTG,,T,,M,0.016,N,0.030,K,D*3C
$GNGGA,030137.00,0419.72609,S,05539.92785,E,2,12,0.62,8.5,M,-47.6,M,,0000*75
$GNGSA,A,3,11,24,20,05,13,15,06,14,12,40,,,1.16,0.62,0.99*1D
$GNGSA,A,3,81,77,88,82,78,76,66,,,,,,1.16,0.62,0.99*13
$GPGSV,5,1,18,05,39,170,36,06,18,028,40,11,53,022,41,12,12,341,41*79
$GPGSV,5,2,18,13,32,183,36,14,13,103,38,15,27,220,36,18,01,216,*7C
$GPGSV,5,3,18,20,50,120,34,22,21,084,26,24,53,307,37,29,12,270,*73
$GPGSV,5,4,18,30,04,144,27,36,52,277,,40,86,350,36,41,58,082,*79
$GPGSV,5,5,18,49,32,274,,50,10,089,*78
$GLGSV,2,1,08,66,12,158,38,67,13,211,24,76,23,126,34,77,49,075,27*65
$GLGSV,2,2,08,78,26,001,36,81,55,283,33,82,26,228,28,88,31,359,35*65
$GNGLL,0419.72609,S,05539.92785,E,030137.00,A,D*64
$GNTXT,01,01,01,More than 100 frame errors, UART RX was disabled*70
$GNRMC,030138.00,A,0419.72610,S,05539.92785,E,0.027,,030625,,,D*7D
$GNVTG,,T,,M,0.027,N,0.050,K,D*38
$GNGGA,030138.00,0419.72610,S,05539.92785,E,2,12,0.62,8.5,M,-47.6,M,,0000*72
$GNGSA,A,3,11,24,20,05,13,15,06,14,12,40,,,1.16,0.62,0.99*1D
$GNGSA,A,3,81,77,88,82,78,76,66,,,,,,1.16,0.62,0.99*13
$GPGSV,5,1,18,05,39,170,36,06,18,028,40,11,53,022,41,12,12,341,40*78
$GPGSV,5,2,18,13,32,183,36,14,13,103,37,15,27,220,36,18,01,216,*73
$GPGSV,5,3,18,20,50,120,34,22,21,084,27,24,53,307,37,29,12,270,*72
$GPGSV,5,4,18,30,04,144,27,36,52,277,,40,86,350,35,41,58,082,*7A
$GPGSV,5,5,18,49,32,274,,50,10,089,*78
$GLGSV,2,1,08,66,12,158,38,67,13,211,23,76,23,126,34,77,49,075,27*62
$GLGSV,2,2,08,78,26,001,36,81,55,283,34,82,26,228,28,88,31,359,35*62
$GNGLL,0419.72610,S,05539.92785,E,030138.00,A,D*63
$GNTXT,01,01,01,More than 100 frame errors, UART RX was disabled*70
$GNRMC,030139.00,A,0419.72610,S,05539.92786,E,0.037,,030625,,,D*7E
$GNVTG,,T,,M,0.037,N,0.069,K,D*33
$GNGGA,030139.00,0419.72610,S,05539.92786,E,2,12,0.62,8.5,M,-47.6,M,,0000*70
$GNGSA,A,3,11,24,20,05,13,15,06,14,12,40,,,1.16,0.62,0.99*1D
$GNGSA,A,3,81,77,88,82,78,76,66,,,,,,1.16,0.62,0.99*13
$GPGSV,5,1,18,05,39,170,37,06,18,028,40,11,53,022,41,12,12,341,41*78
$GPGSV,5,2,18,13,32,183,36,14,13,103,37,15,27,220,36,18,01,216,*73
$GPGSV,5,3,18,20,50,120,34,22,21,084,27,24,54,306,36,29,12,270,*75
$GPGSV,5,4,18,30,04,144,27,36,52,277,,40,86,350,35,41,58,082,*7A
$GPGSV,5,5,18,49,32,274,,50,10,089,*78
$GLGSV,2,1,08,66,12,158,38,67,13,211,23,76,23,126,34,77,49,075,27*62
$GLGSV,2,2,08,78,26,001,36,81,55,283,34,82,26,228,27,88,31,359,35*6D
$GNGLL,0419.72610,S,05539.92786,E,030139.00,A,D*61
$GNTXT,01,01,01,More than 100 frame errors, UART RX was disabled*70
$GNRMC,030140.00,A,0419.72610,S,05539.92788,E,0.021,,030625,,,D*79
$GNVTG,,T,,M,0.021,N,0.040,K,D*3F
$GNGGA,030140.00,0419.72610,S,05539.92788,E,2,12,0.62,8.6,M,-47.6,M,,0000*73
$GNGSA,A,3,11,24,20,05,13,15,06,14,12,40,,,1.16,0.62,0.99*1D
$GNGSA,A,3,81,77,88,82,78,76,66,,,,,,1.16,0.62,0.99*13
$GPGSV,5,1,18,05,39,170,37,06,18,028,40,11,53,022,41,12,12,341,41*78
$GPGSV,5,2,18,13,32,183,36,14,13,103,37,15,27,220,36,18,01,216,*73
$GPGSV,5,3,18,20,50,120,34,22,21,084,27,24,54,306,36,29,12,270,21*76
$GPGSV,5,4,18,30,04,144,27,36,52,277,,40,86,350,35,41,58,082,*7A
$GPGSV,5,5,18,49,32,274,,50,10,089,*78
$GLGSV,2,1,08,66,12,158,38,67,13,211,23,76,23,126,34,77,49,075,27*62
$GLGSV,2,2,08,78,26,001,36,81,55,283,33,82,26,228,27,88,31,359,35*6A
$GNGLL,0419.72610,S,05539.92788,E,030140.00,A,D*61
$GNTXT,01,01,01,More than 100 frame errors, UART RX was disabled*70
$GNRMC,030141.00,A,0419.72610,S,05539.92790,E,0.017,,030625,,,D*74
$GNVTG,,T,,M,0.017,N,0.031,K,D*3C
$GNGGA,030141.00,0419.72610,S,05539.92790,E,2,12,0.62,8.6,M,-47.6,M,,0000*7B
$GNGSA,A,3,11,24,20,05,13,15,06,14,12,40,,,1.16,0.62,0.99*1D
$GNGSA,A,3,81,77,88,82,78,76,66,,,,,,1.16,0.62,0.99*13
$GPGSV,5,1,18,05,39,170,37,06,18,028,40,11,53,022,43,12,12,341,41*7A
$GPGSV,5,2,18,13,32,183,37,14,13,103,37,15,27,220,36,18,01,216,*72
$GPGSV,5,3,18,20,50,120,34,22,21,084,27,24,54,306,36,29,12,270,20*77
$GPGSV,5,4,18,30,04,144,26,36,52,277,,40,86,350,37,41,58,082,*79
$GPGSV,5,5,18,49,32,274,,50,10,089,*78
$GLGSV,2,1,08,66,12,158,38,67,13,211,23,76,23,126,35,77,49,075,27*63
$GLGSV,2,2,08,78,26,001,36,81,55,283,34,82,26,228,28,88,31,359,36*61
$GNGLL,0419.72610,S,05539.92790,E,030141.00,A,D*69
$GNTXT,01,01,01,More than 100 frame errors, UART RX was disabled*70
$GNRMC,030142.00,A,0419.72610,S,05539.92791,E,0.009,,030625,,,D*79
$GNVTG,,T,,M,0.009,N,0.017,K,D*37
$GNGGA,030142.00,0419.72610,S,05539.92791,E,2,12,0.62,8.6,M,-47.6,M,,0000*79
$GNGSA,A,3,11,24,20,05,13,15,06,14,12,40,,,1.16,0.62,0.99*1D
$GNGSA,A,3,81,77,88,82,78,76,66,,,,,,1.16,0.62,0.99*13
$GPGSV,5,1,18,05,39,170,39,06,18,028,41,11,53,022,41,12,12,341,43*75
$GPGSV,5,2,18,13,32,183,36,14,13,103,36,15,27,220,34,18,01,216,*70
$GPGSV,5,3,18,20,50,120,34,22,21,084,25,24,54,306,33,29,12,270,19*7A
$GPGSV,5,4,18,30,04,144,27,36,52,277,,40,86,350,37,41,58,082,*78
$GPGSV,5,5,18,49,32,274,,50,10,089,*78
$GLGSV,2,1,08,66,12,158,37,67,13,211,22,76,23,126,34,77,49,075,29*62
$GLGSV,2,2,08,78,26,001,35,81,55,283,29,82,26,228,28,88,31,359,35*6D
$GNGLL,0419.72610,S,05539.92791,E,030142.00,A,D*6B
$GNTXT,01,01,01,More than 100 frame errors, UART RX was disabled*70
$GNRMC,030143.00,A,0419.72611,S,05539.92792,E,0.020,,030625,,,D*71
$GNVTG,,T,,M,0.020,N,0.036,K,D*3F
$GNGGA,030143.00,0419.72611,S,05539.92792,E,2,12,0.62,8.6,M,-47.6,M,,0000*7A
$GNGSA,A,3,11,24,20,05,13,15,06,14,12,40,,,1.16,0.62,0.99*1D
$GNGSA,A,3,81,77,88,82,78,76,66,,,,,,1.16,0.62,0.99*13
$GPGSV,5,1,18,05,39,170,36,06,18,028,39,11,53,022,39,12,12,341,41*78
$GPGSV,5,2,18,13,32,183,33,14,13,103,34,15,27,220,33,18,01,216,*70
$GPGSV,5,3,18,20,50,120,33,22,21,084,24,24,54,306,31,29,12,270,19*7E
$GPGSV,5,4,18,30,04,144,25,36,52,277,,40,86,350,35,41,58,082,*78
$GPGSV,5,5,18,49,32,274,,50,10,089,*78
$GLGSV,2,1,08,66,12,158,37,67,13,211,19,76,23,126,33,77,49,075,29*6D
$GLGSV,2,2,08,78,26,001,35,81,55,283,27,82,26,228,29,88,31,359,36*61
$GNGLL,0419.72611,S,05539.92792,E,030143.00,A,D*68
$GNTXT,01,01,01,More than 100 frame errors, UART RX was disabled*70
$GNRMC,030144.00,A,0419.72611,S,05539.92791,E,0.045,,030625,,,D*76
$GNVTG,,T,,M,0.045,N,0.083,K,D*32
$GNGGA,030144.00,0419.72611,S,05539.92791,E,2,12,0.62,8.6,M,-47.6,M,,0000*7E
$GNGSA,A,3,11,24,20,05,13,15,06,14,12,40,,,1.16,0.62,0.99*1D
$GNGSA,A,3,81,77,88,82,78,76,66,,,,,,1.16,0.62,0.99*13
$GPGSV,5,1,18,05,39,170,37,06,18,028,40,11,53,022,41,12,12,341,43*7A
$GPGSV,5,2,18,13,32,183,36,14,13,103,34,15,27,220,33,18,01,216,*75
$GPGSV,5,3,18,20,50,120,36,22,21,084,24,24,54,306,31,29,12,270,20*71
$GPGSV,5,4,18,30,04,144,25,36,52,277,,40,86,350,37,41,58,082,*7A
$GPGSV,5,5,18,49,32,274,,50,10,089,*78
$GLGSV,2,1,08,66,12,158,34,67,13,211,14,76,23,126,32,77,49,075,29*62
$GLGSV,2,2,08,78,26,001,33,81,55,283,26,82,26,228,29,88,31,359,34*64
$GNGLL,0419.72611,S,05539.92791,E,030144.00,A,D*6C
$GNTXT,01,01,01,More than 100 frame errors, UART RX was disabled*70
$GNRMC,030145.00,A,0419.72610,S,05539.92791,E,0.006,,030625,,,D*71
$GNVTG,,T,,M,0.006,N,0.012,K,D*3D
$GNGGA,030145.00,0419.72610,S,05539.92791,E,2,12,0.62,8.6,M,-47.6,M,,0000*7E
$GNGSA,A,3,11,24,20,05,13,15,06,14,12,40,,,1.16,0.62,0.99*1D
$GNGSA,A,3,81,77,88,82,78,76,66,,,,,,1.16,0.62,0.99*13
$GPGSV,5,1,18,05,39,170,37,06,18,028,41,11,53,022,41,12,12,341,42*7A
$GPGSV,5,2,18,13,32,183,36,14,13,103,35,15,27,220,34,18,01,216,*73
$GPGSV,5,3,18,20,50,120,37,22,21,084,25,24,54,306,33,29,12,270,22*71
$GPGSV,5,4,18,30,04,144,25,36,52,277,,40,86,350,37,41,58,082,*7A
$GPGSV,5,5,18,49,32,274,,50,10,089,*78
$GLGSV,2,1,08,66,12,158,35,67,13,211,,76,23,126,32,77,49,075,29*66
$GLGSV,2,2,08,78,26,001,32,81,55,283,25,82,26,228,29,88,31,359,33*61
$GNGLL,0419.72610,S,05539.92791,E,030145.00,A,D*6C
$GNTXT,01,01,01,More than 100 frame errors, UART RX was disabled*70
$GNRMC,030146.00,A,0419.72610,S,05539.92790,E,0.003,,030625,,,D*76
$GNVTG,,T,,M,0.003,N,0.005,K,D*3E
$GNGGA,030146.00,0419.72610,S,05539.92790,E,2,12,0.62,8.7,M,-47.6,M,,0000*7D
$GNGSA,A,3,11,24,20,05,13,15,06,14,12,40,,,1.17,0.62,0.99*1C
$GNGSA,A,3,81,77,88,82,78,76,66,,,,,,1.17,0.62,0.99*12
$GPGSV,5,1,18,05,39,170,37,06,18,028,41,11,53,022,41,12,12,341,41*79
$GPGSV,5,2,18,13,32,183,37,14,13,103,35,15,27,220,35,18,01,216,*73
$GPGSV,5,3,18,20,50,120,37,22,21,084,26,24,54,306,33,29,12,270,23*73
$GPGSV,5,4,18,30,04,144,25,36,52,277,,40,86,350,37,41,58,082,*7A
$GPGSV,5,5,18,49,32,274,,50,10,089,*78
$GLGSV,2,1,08,66,12,158,35,67,13,211,,76,23,126,32,77,49,075,29*66
$GLGSV,2,2,08,78,26,001,33,81,55,283,25,82,26,228,29,88,31,359,32*61
$GNGLL,0419.72610,S,05539.92790,E,030146.00,A,D*6E
$GNTXT,01,01,01,More than 100 frame errors, UART RX was disabled*70
$GNRMC,030147.00,A,0419.72610,S,05539.92790,E,0.019,,030625,,,D*7C
$GNVTG,,T,,M,0.019,N,0.035,K,D*36
$GNGGA,030147.00,0419.72610,S,05539.92790,E,2,12,0.62,8.7,M,-47.6,M,,0000*7C
$GNGSA,A,3,11,24,20,05,13,15,06,14,12,40,,,1.17,0.62,0.99*1C
$GNGSA,A,3,81,77,88,82,78,76,66,,,,,,1.17,0.62,0.99*12
$GPGSV,5,1,18,05,39,170,38,06,18,028,41,11,53,022,41,12,12,341,41*76
$GPGSV,5,2,18,13,32,183,37,14,13,103,35,15,27,220,34,18,01,216,*72
$GPGSV,5,3,18,20,50,120,37,22,21,084,26,24,54,306,34,29,12,270,23*74
$GPGSV,5,4,18,30,04,144,25,36,52,277,,40,86,350,37,41,58,082,*7A
$GPGSV,5,5,18,49,32,274,,50,10,089,*78
$GLGSV,2,1,08,66,12,158,36,67,13,211,,76,23,126,32,77,49,075,29*65
$GLGSV,2,2,08,78,26,001,33,81,55,283,25,82,26,228,29,88,31,359,32*61
$GNGLL,0419.72610,S,05539.92790,E,030147.00,A,D*6F
$GNTXT,01,01,01,More than 100 frame errors, UART RX was disabled*70
$GNRMC,030148.00,A,0419.72610,S,05539.92790,E,0.023,,030625,,,D*7A
$GNVTG,,T,,M,0.023,N,0.043,K,D*3E
$GNGGA,030148.00,0419.72610,S,05539.92790,E,2,12,0.62,8.7,M,-47.6,M,,0000*73
$GNGSA,A,3,11,24,20,05,13,15,06,14,12,40,,,1.17,0.62,0.99*1C
$GNGSA,A,3,81,77,88,82,78,76,66,,,,,,1.17,0.62,0.99*12
$GPGSV,5,1,18,05,39,170,38,06,18,028,39,11,53,022,42,12,12,341,42*79
$GPGSV,5,2,18,13,32,183,37,14,13,103,36,15,27,220,35,18,01,216,*70
$GPGSV,5,3,18,20,50,120,35,22,21,084,25,24,54,306,33,29,12,270,21*70
$GPGSV,5,4,18,30,04,144,26,36,52,277,,40,86,350,35,41,58,082,*7B
$GPGSV,5,5,18,49,32,274,,50,10,089,*78
$GLGSV,2,1,08,66,12,158,36,67,13,211,,76,23,126,33,77,49,075,28*65
$GLGSV,2,2,08,78,26,001,33,81,55,283,27,82,26,228,28,88,31,359,31*61
$GNGLL,0419.72610,S,05539.92790,E,030148.00,A,D*60
$GNTXT,01,01,01,More than 100 frame errors, UART RX was disabled*70
$GNRMC,030149.00,A,0419.72610,S,05539.92790,E,0.014,,030625,,,D*7F
$GNVTG,,T,,M,0.014,N,0.027,K,D*38
$GNGGA,030149.00,0419.72610,S,05539.92790,E,2,12,0.62,8.7,M,-47.6,M,,0000*72
$GNGSA,A,3,11,24,20,05,13,15,06,14,12,40,,,1.17,0.62,0.99*1C
$GNGSA,A,3,81,77,88,82,78,76,66,,,,,,1.17,0.62,0.99*12
$GPGSV,5,1,18,05,39,170,37,06,18,028,39,11,53,022,42,12,12,341,42*76
$GPGSV,5,2,18,13,32,183,36,14,13,103,36,15,27,220,35,18,01,216,*71
$GPGSV,5,3,18,20,50,120,34,22,21,084,26,24,54,306,34,29,12,270,20*74
$GPGSV,5,4,18,30,04,144,26,36,52,277,,40,86,350,36,41,58,082,*78
$GPGSV,5,5,18,49,32,274,,50,10,089,*78
$GLGSV,2,1,08,66,12,158,36,67,13,211,,76,23,126,33,77,49,075,27*6A
$GLGSV,2,2,08,78,26,001,33,81,55,283,30,82,26,228,28,88,31,359,30*66
$GNGLL,0419.72610,S,05539.92790,E,030149.00,A,D*61
$GNTXT,01,01,01,More than 100 frame errors, UART RX was disabled*70
$GNRMC,030150.00,A,0419.72610,S,05539.92790,E,0.030,,030625,,,D*71
$GNVTG,,T,,M,0.030,N,0.055,K,D*3B
$GNGGA,030150.00,0419.72610,S,05539.92790,E,2,12,0.62,8.7,M,-47.6,M,,0000*7A
$GNGSA,A,3,11,24,20,05,13,15,06,14,12,40,,,1.17,0.62,0.99*1C
$GNGSA,A,3,81,77,88,82,78,76,66,,,,,,1.17,0.62,0.99*12
$GPGSV,5,1,18,05,39,170,36,06,18,028,39,11,53,022,41,12,12,341,40*76
$GPGSV,5,2,18,13,32,183,35,14,13,103,36,15,27,220,35,18,01,216,*72
$GPGSV,5,3,18,20,50,120,34,22,21,084,26,24,54,306,34,29,12,270,19*7E
$GPGSV,5,4,18,30,04,144,26,36,52,277,,40,86,350,35,41,58,082,*7B
$GPGSV,5,5,18,49,32,274,,50,10,089,*78
$GLGSV,2,1,08,66,12,158,36,67,13,211,,76,23,126,33,77,49,075,27*6A
$GLGSV,2,2,08,78,26,001,32,81,55,283,30,82,26,228,28,88,31,359,30*67
$GNGLL,0419.72610,S,05539.92790,E,030150.00,A,D*69
$GNTXT,01,01,01,More than 100 frame errors, UART RX was disabled*70
$GNRMC,030151.00,A,0419.72610,S,05539.92790,E,0.026,,030625,,,D*77
$GNVTG,,T,,M,0.026,N,0.048,K,D*30
$GNGGA,030151.00,0419.72610,S,05539.92790,E,2,12,0.62,8.7,M,-47.6,M,,0000*7B
$GNGSA,A,3,11,24,20,05,13,15,06,14,12,40,,,1.17,0.62,0.99*1C
$GNGSA,A,3,81,77,88,82,78,76,66,,,,,,1.17,0.62,0.99*12
$GPGSV,5,1,18,05,39,170,36,06,18,028,39,11,53,022,42,12,12,341,42*77
$GPGSV,5,2,18,13,32,183,36,14,13,103,36,15,27,220,35,18,01,216,*71
$GPGSV,5,3,18,20,50,120,34,22,21,084,26,24,54,306,34,29,12,270,18*7F
$GPGSV,5,4,18,30,04,144,27,36,52,277,,40,86,350,36,41,58,082,*79
$GPGSV,5,5,18,49,32,274,,50,10,089,*78
$GLGSV,2,1,08,66,12,158,36,67,13,211,19,76,23,126,33,77,49,075,28*6D
$GLGSV,2,2,08,78,26,001,33,81,55,283,30,82,26,228,28,88,31,359,31*67
$GNGLL,0419.72610,S,05539.92790,E,030151.00,A,D*68
$GNTXT,01,01,01,More than 100 frame errors, UART RX was disabled*70
$GNRMC,030152.00,A,0419.72610,S,05539.92789,E,0.029,,030625,,,D*73
$GNVTG,,T,,M,0.029,N,0.053,K,D*35
$GNGGA,030152.00,0419.72610,S,05539.92789,E,2,12,0.62,8.7,M,-47.6,M,,0000*70
$GNGSA,A,3,11,24,20,05,13,15,06,14,12,40,,,1.17,0.62,0.99*1C
$GNGSA,A,3,81,77,88,82,78,76,66,,,,,,1.17,0.62,0.99*12
$GPGSV,5,1,18,05,39,170,36,06,18,028,37,11,53,022,39,12,12,341,39*79
$GPGSV,5,2,18,13,32,183,35,14,13,103,36,15,27,220,34,18,01,216,*73
$GPGSV,5,3,18,20,50,120,33,22,21,084,26,24,54,306,34,29,12,270,18*78
$GPGSV,5,4,18,30,04,144,27,36,52,277,,40,86,350,34,41,58,082,*7B
$GPGSV,5,5,18,49,32,274,,50,10,089,*78
$GLGSV,2,1,08,66,12,158,36,67,13,211,19,76,23,126,33,77,49,075,28*6D
$GLGSV,2,2,08,78,26,001,33,81,55,283,31,82,26,228,28,88,31,359,31*66
$GNGLL,0419.72610,S,05539.92789,E,030152.00,A,D*63
$GNTXT,01,01,01,More than 100 frame errors, UART RX was disabled*70
$GNRMC,030153.00,A,0419.72610,S,05539.92789,E,0.026,,030625,,,D*7D
$GNVTG,,T,,M,0.026,N,0.048,K,D*30
$GNGGA,030153.00,0419.72610,S,05539.92789,E,2,12,0.62,8.7,M,-47.6,M,,0000*71
$GNGSA,A,3,11,24,20,05,13,15,06,14,12,40,,,1.17,0.62,0.99*1C
$GNGSA,A,3,81,77,88,82,78,76,66,,,,,,1.17,0.62,0.99*12
$GPGSV,5,1,18,05,39,170,37,06,18,028,39,11,53,022,42,12,12,341,42*76
$GPGSV,5,2,18,13,32,183,35,14,13,103,38,15,27,220,35,18,01,216,*7C
$GPGSV,5,3,18,20,50,120,34,22,21,084,26,24,54,306,34,29,12,270,18*7F
$GPGSV,5,4,18,30,04,144,28,36,52,277,,40,86,350,36,41,58,082,*76
$GPGSV,5,5,18,49,32,274,,50,10,089,*78
$GLGSV,2,1,08,66,12,158,36,67,13,211,20,76,23,126,33,77,49,075,28*67
$GLGSV,2,2,08,78,26,001,33,81,55,283,31,82,26,228,28,88,31,359,32*65
$GNGLL,0419.72610,S,05539.92789,E,030153.00,A,D*62
$GNTXT,01,01,01,More than 100 frame errors, UART RX was disabled*70
$GNRMC,030154.00,A,0419.72610,S,05539.92790,E,0.004,,030625,,,D*72
$GNVTG,,T,,M,0.004,N,0.008,K,D*34
$GNGGA,030154.00,0419.72610,S,05539.92790,E,2,12,0.62,8.7,M,-47.6,M,,0000*7E
$GNGSA,A,3,11,24,20,05,13,15,06,14,12,40,,,1.17,0.62,0.99*1C
$GNGSA,A,3,81,77,88,82,78,76,66,,,,,,1.17,0.62,0.99*12
$GPGSV,5,1,18,05,39,170,37,06,18,028,39,11,53,022,41,12,12,341,41*76
$GPGSV,5,2,18,13,32,183,36,14,13,103,36,15,27,220,36,18,01,216,*72
$GPGSV,5,3,18,20,50,120,34,22,21,084,26,24,54,306,34,29,12,270,19*7E
$GPGSV,5,4,18,30,04,144,28,36,52,277,,40,86,350,36,41,58,082,*76
$GPGSV,5,5,18,49,32,274,,50,10,089,*78
$GLGSV,2,1,08,66,12,158,37,67,13,211,20,76,23,126,34,77,49,075,28*61
$GLGSV,2,2,08,78,26,001,33,81,55,283,30,82,26,228,29,88,31,359,32*65
$GNGLL,0419.72610,S,05539.92790,E,030154.00,A,D*6D
$GNTXT,01,01,01,More than 100 frame errors, UART RX was disabled*70
$GNRMC,030155.00,A,0419.72609,S,05539.92790,E,0.026,,030625,,,D*7B
$GNVTG,,T,,M,0.026,N,0.048,K,D*30
$GNGGA,030155.00,0419.72609,S,05539.92790,E,2,12,0.62,8.7,M,-47.6,M,,0000*77
$GNGSA,A,3,11,24,20,05,13,15,06,14,12,40,,,1.17,0.62,0.99*1C
$GNGSA,A,3,81,77,88,82,78,76,66,,,,,,1.17,0.62,0.99*12
$GPGSV,5,1,18,05,39,170,37,06,18,028,39,11,53,022,42,12,12,341,42*76
$GPGSV,5,2,18,13,32,183,36,14,13,103,36,15,27,220,36,18,01,216,*72
$GPGSV,5,3,18,20,50,120,34,22,21,084,24,24,54,306,35,29,12,270,19*7D
$GPGSV,5,4,18,30,04,144,28,36,52,277,,40,86,350,36,41,58,082,*76
$GPGSV,5,5,18,49,32,274,,50,10,089,*78
$GLGSV,2,1,08,66,12,158,37,67,13,211,21,76,23,126,34,77,49,075,28*60
$GLGSV,2,2,08,78,26,001,33,81,55,283,30,82,26,228,29,88,31,359,32*65
$GNGLL,0419.72609,S,05539.92790,E,030155.00,A,D*64
$GNTXT,01,01,01,More than 100 frame errors, UART RX was disabled*70
$GNRMC,030156.00,A,0419.72609,S,05539.92791,E,0.019,,030625,,,D*75
$GNVTG,,T,,M,0.019,N,0.035,K,D*36
$GNGGA,030156.00,0419.72609,S,05539.92791,E,2,12,0.62,8.6,M,-47.6,M,,0000*74
$GNGSA,A,3,11,24,20,05,13,15,06,14,12,40,,,1.17,0.62,0.99*1C
$GNGSA,A,3,81,77,88,82,78,76,66,,,,,,1.17,0.62,0.99*12
$GPGSV,5,1,18,05,39,170,35,06,18,028,38,11,53,022,40,12,12,341,39*7B
$GPGSV,5,2,18,13,32,183,33,14,13,103,35,15,27,220,33,18,01,216,*71
$GPGSV,5,3,18,20,50,120,31,22,21,084,24,24,54,306,34,29,12,270,19*79
$GPGSV,5,4,18,30,04,144,28,36,52,277,,40,86,350,34,41,58,082,*74
$GPGSV,5,5,18,49,32,274,,50,10,089,*78
$GLGSV,2,1,08,66,12,158,37,67,13,211,21,76,23,126,34,77,49,075,28*60
$GLGSV,2,2,08,78,26,001,32,81,55,283,30,82,26,228,29,88,31,359,32*64
$GNGLL,0419.72609,S,05539.92791,E,030156.00,A,D*66
$GNTXT,01,01,01,More than 100 frame errors, UART RX was disabled*70
$GNRMC,030157.00,A,0419.72608,S,05539.92792,E,0.014,,030625,,,D*7B
$GNVTG,,T,,M,0.014,N,0.026,K,D*39
$GNGGA,030157.00,0419.72608,S,05539.92792,E,2,12,0.62,8.6,M,-47.6,M,,0000*77
$GNGSA,A,3,11,24,20,05,13,15,06,14,12,40,,,1.17,0.62,0.99*1C
$GNGSA,A,3,81,77,88,82,78,76,66,,,,,,1.17,0.62,0.99*12
$GPGSV,5,1,18,05,39,170,39,06,18,028,40,11,53,022,41,12,12,341,41*76
$GPGSV,5,2,18,13,32,183,36,14,13,103,37,15,27,220,36,18,01,216,*73
$GPGSV,5,3,18,20,50,120,35,22,21,084,25,24,54,306,38,29,12,270,19*70
$GPGSV,5,4,18,30,04,144,28,36,52,277,,40,86,350,37,41,58,082,*77
$GPGSV,5,5,18,49,32,274,,50,10,089,*78
$GLGSV,2,1,08,66,12,158,37,67,13,211,21,76,23,126,33,77,49,075,28*67
$GLGSV,2,2,08,78,26,001,36,81,55,283,34,82,26,228,29,88,31,359,36*60
$GNGLL,0419.72608,S,05539.92792,E,030157.00,A,D*65
$GNTXT,01,01,01,More than 100 frame errors, UART RX was disabled*70
$GNRMC,030158.00,A,0419.72608,S,05539.92790,E,0.030,,030625,,,D*70
$GNVTG,,T,,M,0.030,N,0.056,K,D*38
$GNGGA,030158.00,0419.72608,S,05539.92790,E,2,12,0.62,8.5,M,-47.6,M,,0000*79
$GNGSA,A,3,11,24,20,05,13,15,06,14,12,40,,,1.17,0.62,0.99*1C
$GNGSA,A,3,81,77,88,82,78,76,66,,,,,,1.17,0.62,0.99*12
$GPGSV,5,1,18,05,39,170,38,06,18,028,40,11,53,022,41,12,12,341,40*76
$GPGSV,5,2,18,13,32,183,36,14,13,103,36,15,27,220,35,18,01,216,*71
$GPGSV,5,3,18,20,50,120,35,22,21,084,25,24,54,306,38,29,12,270,20*7A
$GPGSV,5,4,18,30,04,144,28,36,52,277,,40,86,350,36,41,58,082,*76
$GPGSV,5,5,18,49,32,274,,50,10,089,*78
$GLGSV,2,1,08,66,12,158,37,67,13,211,22,76,23,126,33,77,49,075,27*6B
$GLGSV,2,2,08,78,26,001,35,81,55,283,33,82,26,228,27,88,31,359,35*69
$GNGLL,0419.72608,S,05539.92790,E,030158.00,A,D*68
$GNTXT,01,01,01,More than 100 frame errors, UART RX was disabled*70
$GNRMC,030159.00,A,0419.72607,S,05539.92789,E,0.038,,030625,,,D*7E
$GNVTG,,T,,M,0.038,N,0.071,K,D*35
$GNGGA,030159.00,0419.72607,S,05539.92789,E,2,12,0.62,8.5,M,-47.6,M,,0000*7F
$GNGSA,A,3,11,24,20,05,13,15,06,14,12,40,,,1.17,0.62,0.99*1C
$GNGSA,A,3,81,77,88,82,78,76,66,,,,,,1.17,0.62,0.99*12
$GPGSV,5,1,18,05,39,170,40,06,18,028,42,11,53,022,43,12,12,341,42*7B
$GPGSV,5,2,18,13,32,183,38,14,13,103,37,15,27,220,33,18,01,216,*78
$GPGSV,5,3,18,20,50,120,37,22,21,084,32,24,54,306,34,29,12,270,19*78
$GPGSV,5,4,18,30,04,144,30,36,52,277,,40,86,350,37,41,58,082,*7E
$GPGSV,5,5,18,49,32,274,,50,10,089,*78
$GLGSV,2,1,08,66,12,158,37,67,13,211,23,76,23,126,33,77,49,075,28*65
$GLGSV,2,2,08,78,26,001,32,81,55,283,29,82,26,228,27,88,31,359,31*61
$GNGLL,0419.72607,S,05539.92789,E,030159.00,A,D*6E
$GNTXT,01,01,01,More than 100 frame errors, UART RX was disabled*70
$GNRMC,030200.00,A,0419.72607,S,05539.92789,E,0.023,,030625,,,D*7B
$GNVTG,,T,,M,0.023,N,0.042,K,D*3F
$GNGGA,030200.00,0419.72607,S,05539.92789,E,2,12,0.62,8.5,M,-47.6,M,,0000*70
$GNGSA,A,3,11,24,20,05,13,15,06,14,12,40,,,1.17,0.62,0.99*1C
$GNGSA,A,3,81,77,88,82,78,76,66,,,,,,1.17,0.62,0.99*12
$GPGSV,5,1,18,05,39,170,38,06,18,028,41,11,53,022,42,12,12,341,42*76
$GPGSV,5,2,18,13,32,183,37,14,13,103,37,15,27,220,36,18,01,216,*72
$GPGSV,5,3,18,20,50,120,37,22,21,084,33,24,54,306,35,29,12,270,18*79
$GPGSV,5,4,18,30,04,144,31,36,52,277,,40,86,350,37,41,58,082,*7F
$GPGSV,5,5,18,49,32,274,,50,10,089,*78
$GLGSV,2,1,08,66,12,158,37,67,13,211,22,76,23,126,32,77,49,075,28*65
$GLGSV,2,2,08,78,26,001,35,81,55,283,29,82,26,228,28,88,31,359,34*6C
$GNGLL,0419.72607,S,05539.92789,E,030200.00,A,D*61
$GNTXT,01,01,01,More than 100 frame errors, UART RX was disabled*70
$GNRMC,030201.00,A,0419.72607,S,05539.92789,E,0.030,,030625,,,D*78
$GNVTG,,T,,M,0.030,N,0.055,K,D*3B
$GNGGA,030201.00,0419.72607,S,05539.92789,E,2,12,0.62,8.5,M,-47.6,M,,0000*71
$GNGSA,A,3,11,24,20,05,13,15,06,14,12,40,,,1.17,0.62,0.99*1C
$GNGSA,A,3,81,77,88,82,78,76,66,,,,,,1.17,0.62,0.99*12
$GPGSV,5,1,18,05,39,170,36,06,18,028,39,11,53,022,40,12,12,341,39*79
$GPGSV,5,2,18,13,32,183,35,14,13,103,33,15,27,220,36,18,01,216,*74
$GPGSV,5,3,18,20,50,120,35,22,21,084,32,24,54,306,35,29,12,270,15*77
$GPGSV,5,4,18,30,04,144,30,36,52,277,,40,86,350,35,41,58,082,*7C
$GPGSV,5,5,18,49,32,274,,50,10,089,*78
$GLGSV,2,1,08,66,12,158,36,67,13,211,21,76,23,126,32,77,49,075,28*67
$GLGSV,2,2,08,78,26,001,34,81,55,283,30,82,26,228,29,88,31,359,34*64
$GNGLL,0419.72607,S,05539.92789,E,030201.00,A,D*60
$GNTXT,01,01,01,More than 100 frame errors, UART RX was disabled*70
$GNRMC,030202.00,A,0419.72606,S,05539.92786,E,0.034,,030625,,,D*71
$GNVTG,,T,,M,0.034,N,0.064,K,D*3D
$GNGGA,030202.00,0419.72606,S,05539.92786,E,2,12,0.62,8.5,M,-47.6,M,,0000*7C
$GNGSA,A,3,11,24,20,05,13,15,06,14,12,40,,,1.17,0.62,0.99*1C
$GNGSA,A,3,81,77,88,82,78,76,66,,,,,,1.17,0.62,0.99*12
$GPGSV,5,1,18,05,39,170,38,06,18,028,42,11,53,022,42,12,12,341,43*74
$GPGSV,5,2,18,13,32,183,37,14,13,103,39,15,27,220,36,18,01,216,*7C
$GPGSV,5,3,18,20,50,120,37,22,21,084,32,24,54,306,36,29,12,270,15*76
$GPGSV,5,4,18,30,04,144,31,36,52,277,,40,86,350,38,41,58,082,*70
$GPGSV,5,5,18,49,32,274,,50,10,089,*78
$GLGSV,2,1,08,66,12,158,38,67,13,211,22,76,23,126,32,77,49,075,29*6B
$GLGSV,2,2,08,78,26,001,34,81,55,283,30,82,26,228,29,88,31,359,34*64
$GNGLL,0419.72606,S,05539.92786,E,030202.00,A,D*6D
$GNTXT,01,01,01,More than 100 frame errors, UART RX was disabled*70
$GNRMC,030203.00,A,0419.72606,S,05539.92787,E,0.022,,030625,,,D*76
$GNVTG,,T,,M,0.022,N,0.042,K,D*3E
$GNGGA,030203.00,0419.72606,S,05539.92787,E,2,12,0.62,8.5,M,-47.6,M,,0000*7C
$GNGSA,A,3,11,24,20,05,13,15,06,14,12,40,,,1.17,0.62,0.99*1C
$GNGSA,A,3,81,77,88,82,78,76,66,,,,,,1.17,0.62,0.99*12
$GPGSV,5,1,18,05,39,170,38,06,18,028,41,11,53,022,40,12,12,341,43*75
$GPGSV,5,2,18,13,32,183,37,14,13,103,36,15,27,220,36,18,01,216,*73
$GPGSV,5,3,18,20,50,120,35,22,21,084,29,24,54,306,36,29,12,270,15*7E
$GPGSV,5,4,18,30,04,144,31,36,52,277,,40,86,350,37,41,58,082,*7F
$GPGSV,5,5,18,49,32,274,,50,10,089,*78
$GLGSV,2,1,08,66,12,158,36,67,13,211,25,76,23,126,33,77,49,075,30*6B
$GLGSV,2,2,08,78,26,001,35,81,55,283,35,82,26,228,29,88,31,359,35*61
$GNGLL,0419.72606,S,05539.92787,E,030203.00,A,D*6D
$GNTXT,01,01,01,More than 100 frame errors, UART RX was disabled*70
$GNRMC,030204.00,A,0419.72603,S,05539.92786,E,0.075,,030625,,,D*77
$GNVTG,,T,,M,0.075,N,0.139,K,D*31
$GNGGA,030204.00,0419.72603,S,05539.92786,E,2,12,0.62,8.4,M,-47.6,M,,0000*7E
$GNGSA,A,3,11,24,20,05,13,15,06,14,12,40,,,1.17,0.62,0.99*1C
$GNGSA,A,3,81,77,88,82,78,76,66,,,,,,1.17,0.62,0.99*12
$GPGSV,5,1,18,05,39,170,38,06,18,028,39,11,53,022,41,12,12,341,40*78
$GPGSV,5,2,18,13,32,183,35,14,13,103,36,15,27,220,35,18,01,216,*72
$GPGSV,5,3,18,20,50,120,32,22,21,084,27,24,54,306,36,29,12,270,18*7A
$GPGSV,5,4,18,30,04,144,29,36,52,277,,40,86,350,34,41,58,082,*75
$GPGSV,5,5,18,49,32,274,,50,10,089,*78
$GLGSV,2,1,08,66,12,158,37,67,13,211,23,76,23,126,34,77,49,075,29*63
$GLGSV,2,2,08,78,26,001,36,81,55,283,34,82,26,228,28,88,31,359,36*61
$GNGLL,0419.72603,S,05539.92786,E,030204.00,A,D*6E
$GNTXT,01,01,01,More than 100 frame errors, UART RX was disabled*70
$GNRMC,030205.00,A,0419.72601,S,05539.92785,E,0.008,,030625,,,D*7D
$GNVTG,,T,,M,0.008,N,0.014,K,D*35
$GNGGA,030205.00,0419.72601,S,05539.92785,E,2,12,0.62,8.4,M,-47.6,M,,0000*7E
$GNGSA,A,3,11,24,20,05,13,15,06,14,12,40,,,1.17,0.62,0.99*1C
$GNGSA,A,3,81,77,88,82,78,76,66,,,,,,1.17,0.62,0.99*12
$GPGSV,5,1,18,05,39,170,37,06,18,028,41,11,53,022,41,12,12,341,40*78
$GPGSV,5,2,18,13,32,183,36,14,13,103,37,15,27,220,35,18,01,216,*70
$GPGSV,5,3,18,20,50,120,33,22,21,084,26,24,54,306,36,29,12,270,20*71
$GPGSV,5,4,18,30,04,144,29,36,52,277,,40,86,350,34,41,58,082,*75
$GPGSV,5,5,18,49,32,274,,50,10,089,*78
$GLGSV,2,1,08,66,12,158,37,67,13,211,23,76,23,126,35,77,49,075,28*63
$GLGSV,2,2,08,78,26,001,36,81,55,283,33,82,26,228,27,88,31,359,35*6A
$GNGLL,0419.72601,S,05539.92785,E,030205.00,A,D*6E
$GNTXT,01,01,01,More than 100 frame errors, UART RX was disabled*70
$GNRMC,030206.00,A,0419.72601,S,05539.92783,E,0.042,,030625,,,D*76
$GNVTG,,T,,M,0.042,N,0.078,K,D*31
$GNGGA,030206.00,0419.72601,S,05539.92783,E,2,12,0.62,8.3,M,-47.6,M,,0000*7C
$GNGSA,A,3,11,24,20,05,13,15,06,14,12,40,,,1.17,0.62,0.99*1C
$GNGSA,A,3,81,77,88,82,78,76,66,,,,,,1.17,0.62,0.99*12
$GPGSV,5,1,18,05,39,170,38,06,18,028,40,11,53,022,41,12,12,341,40*76
$GPGSV,5,2,18,13,32,183,38,14,13,103,34,15,27,220,33,18,01,216,*7B
$GPGSV,5,3,18,20,50,120,33,22,21,084,24,24,54,306,33,29,12,270,19*7C
$GPGSV,5,4,18,30,04,144,29,36,52,277,,40,86,350,35,41,58,082,*74
$GPGSV,5,5,18,49,32,274,,50,10,089,*78
$GLGSV,2,1,08,66,12,158,37,67,13,211,23,76,23,126,35,77,49,075,28*63
$GLGSV,2,2,08,78,26,001,32,81,55,283,32,82,26,228,27,88,31,359,32*68
$GNGLL,0419.72601,S,05539.92783,E,030206.00,A,D*6B
$GNTXT,01,01,01,More than 100 frame errors, UART RX was disabled*70
$GNRMC,030207.00,A,0419.72600,S,05539.92782,E,0.046,,030625,,,D*73
$GNVTG,,T,,M,0.046,N,0.085,K,D*37
$GNGGA,030207.00,0419.72600,S,05539.92782,E,2,12,0.62,8.3,M,-47.6,M,,0000*7D
$GNGSA,A,3,11,24,20,05,13,15,06,14,12,40,,,1.17,0.62,0.99*1C
$GNGSA,A,3,81,77,88,82,78,76,66,,,,,,1.17,0.62,0.99*12
$GPGSV,5,1,18,05,39,170,38,06,18,028,41,11,53,022,40,12,12,341,40*76
$GPGSV,5,2,18,13,32,183,35,14,13,103,36,15,27,220,34,18,01,216,*73
$GPGSV,5,3,18,20,50,120,34,22,21,084,24,24,54,306,33,29,12,270,16*74
$GPGSV,5,4,18,30,04,144,30,36,52,277,,40,86,350,35,41,58,082,*7C
$GPGSV,5,5,18,49,32,274,,50,10,089,*78
$GLGSV,2,1,08,66,12,158,38,67,13,211,21,76,23,126,34,77,49,075,29*6E
$GLGSV,2,2,08,78,26,001,33,81,55,283,26,82,26,228,27,88,31,359,31*6F
$GNGLL,0419.72600,S,05539.92782,E,030207.00,A,D*6A
$GNTXT,01,01,01,More than 100 frame errors, UART RX was disabled*70
$GNRMC,030208.00,A,0419.72599,S,05539.92781,E,0.024,,030625,,,D*78
$GNVTG,,T,,M,0.024,N,0.044,K,D*3E
$GNGGA,030208.00,0419.72599,S,05539.92781,E,2,12,0.62,8.3,M,-47.6,M,,0000*72
$GNGSA,A,3,11,24,20,05,13,15,06,14,12,40,,,1.17,0.62,0.99*1C
$GNGSA,A,3,81,77,88,82,78,76,66,,,,,,1.17,0.62,0.99*12
$GPGSV,5,1,18,05,39,170,36,06,18,028,41,11,53,022,41,12,12,341,41*78
$GPGSV,5,2,18,13,32,183,33,14,13,103,36,15,27,220,33,18,01,216,*72
$GPGSV,5,3,18,20,50,120,33,22,21,084,23,24,54,306,32,29,12,270,*72
$GPGSV,5,4,18,30,04,144,29,36,52,277,,40,86,350,35,41,58,082,*74
$GPGSV,5,5,18,49,32,274,,50,10,089,*78
$GLGSV,2,1,08,66,12,158,37,67,13,211,21,76,23,126,34,77,49,075,29*61
$GLGSV,2,2,08,78,26,001,34,81,55,283,26,82,26,228,28,88,31,359,32*64
$GNGLL,0419.72599,S,05539.92781,E,030208.00,A,D*65
$GNTXT,01,01,01,More than 100 frame errors, UART RX was disabled*70
$GNRMC,030209.00,A,0419.72597,S,05539.92780,E,0.021,,030625,,,D*73
$GNVTG,,T,,M,0.021,N,0.039,K,D*31
$GNGGA,030209.00,0419.72597,S,05539.92780,E,2,12,0.62,8.3,M,-47.6,M,,0000*7C
$GNGSA,A,3,11,24,20,05,13,15,06,14,12,40,,,1.17,0.62,0.99*1C
$GNGSA,A,3,81,77,88,82,78,76,66,,,,,,1.17,0.62,0.99*12
$GPGSV,5,1,18,05,39,170,36,06,18,028,42,11,53,022,42,12,12,341,43*7A
$GPGSV,5,2,18,13,32,183,33,14,13,103,36,15,27,220,36,18,01,216,*77
$GPGSV,5,3,18,20,50,120,34,22,21,084,23,24,54,306,32,29,12,270,*75
$GPGSV,5,4,18,30,04,144,29,36,52,277,,40,86,350,37,41,58,082,*76
$GPGSV,5,5,18,49,32,274,,50,10,089,*78
$GLGSV,2,1,08,66,12,157,36,67,13,211,20,76,23,126,33,77,49,075,29*69
$GLGSV,2,2,08,78,26,001,34,81,55,283,25,82,26,228,29,88,31,359,34*60
$GNGLL,0419.72597,S,05539.92780,E,030209.00,A,D*6B
$GNTXT,01,01,01,More than 100 frame errors, UART RX was disabled*70
$GNRMC,030210.00,A,0419.72597,S,05539.92778,E,0.027,,030625,,,D*7A
$GNVTG,,T,,M,0.027,N,0.049,K,D*30
$GNGGA,030210.00,0419.72597,S,05539.92778,E,2,12,0.62,8.3,M,-47.6,M,,0000*73
$GNGSA,A,3,11,24,20,05,13,15,06,14,12,40,,,1.17,0.62,0.99*1C
$GNGSA,A,3,81,77,88,82,78,76,66,,,,,,1.17,0.62,0.99*12
$GPGSV,5,1,18,05,39,170,35,06,18,028,41,11,53,022,41,12,12,341,43*79
$GPGSV,5,2,18,13,32,183,34,14,13,103,36,15,27,220,35,18,01,216,*73
$GPGSV,5,3,18,20,50,120,34,22,21,084,24,24,54,306,31,29,12,270,18*78
$GPGSV,5,4,18,30,04,144,28,36,52,277,,40,86,350,36,41,58,082,*76
$GPGSV,5,5,18,49,32,274,,50,10,089,*78
$GLGSV,2,1,08,66,12,157,36,67,13,210,18,76,23,126,33,77,49,075,29*63
$GLGSV,2,2,08,78,26,001,35,81,55,283,24,82,26,228,30,88,31,359,35*69
$GNGLL,0419.72597,S,05539.92778,E,030210.00,A,D*64
$GNTXT,01,01,01,More than 100 frame errors, UART RX was disabled*70
$GNRMC,030211.00,A,0419.72597,S,05539.92777,E,0.016,,030625,,,D*76
$GNVTG,,T,,M,0.016,N,0.030,K,D*3C
$GNGGA,030211.00,0419.72597,S,05539.92777,E,2,12,0.62,8.3,M,-47.6,M,,0000*7D
$GNGSA,A,3,11,24,20,05,13,15,06,14,12,40,,,1.17,0.62,0.99*1C
$GNGSA,A,3,81,77,88,82,78,76,66,,,,,,1.17,0.62,0.99*12
$GPGSV,5,1,18,05,39,170,35,06,18,028,41,11,53,022,43,12,12,341,43*7B
$GPGSV,5,2,18,13,32,183,36,14,13,103,35,15,27,220,37,18,01,216,*70
$GPGSV,5,3,18,20,50,120,36,22,21,084,24,24,54,306,31,29,12,270,19*7B
$GPGSV,5,4,18,30,04,144,27,36,52,277,,40,86,350,38,41,58,082,*77
$GPGSV,5,5,18,49,32,274,,50,10,089,*78
$GLGSV,2,1,08,66,12,157,35,67,13,210,16,76,23,126,33,77,49,075,28*6F
$GLGSV,2,2,08,78,26,001,35,81,55,283,22,82,26,228,30,88,31,359,35*6F
$GNGLL,0419.72597,S,05539.92777,E,030211.00,A,D*6A
$GNTXT,01,01,01,More than 100 frame errors, UART RX was disabled*70
$GNRMC,030212.00,A,0419.72596,S,05539.92776,E,0.012,,030625,,,D*71
$GNVTG,,T,,M,0.012,N,0.022,K,D*3B
$GNGGA,030212.00,0419.72596,S,05539.92776,E,2,12,0.62,8.3,M,-47.6,M,,0000*7E
$GNGSA,A,3,11,24,20,05,13,15,06,14,12,40,,,1.17,0.62,0.99*1C
$GNGSA,A,3,81,77,88,82,78,76,66,,,,,,1.17,0.62,0.99*12
$GPGSV,5,1,18,05,39,170,36,06,18,028,40,11,53,022,40,12,12,341,41*78
$GPGSV,5,2,18,13,32,183,36,14,13,103,34,15,27,220,34,18,01,216,*72
$GPGSV,5,3,18,20,50,120,35,22,21,084,24,24,54,306,32,29,12,270,20*71
$GPGSV,5,4,18,30,04,144,26,36,52,277,,40,86,350,38,41,58,082,*76
$GPGSV,5,5,18,49,32,274,,50,10,089,*78
$GLGSV,2,1,08,66,12,157,36,67,13,210,,76,23,126,33,77,49,075,28*6B
$GLGSV,2,2,08,78,26,001,34,81,55,283,22,82,26,228,30,88,31,359,34*6F
$GNGLL,0419.72596,S,05539.92776,E,030212.00,A,D*69
$GNTXT,01,01,01,More than 100 frame errors, UART RX was disabled*70
$GNRMC,030213.00,A,0419.72596,S,05539.92774,E,0.018,,030625,,,D*78
$GNVTG,,T,,M,0.018,N,0.033,K,D*31
$GNGGA,030213.00,0419.72596,S,05539.92774,E,2,12,0.62,8.3,M,-47.6,M,,0000*7D
$GNGSA,A,3,11,24,20,05,13,15,06,14,12,40,,,1.17,0.62,0.99*1C
$GNGSA,A,3,81,77,88,82,78,76,66,,,,,,1.17,0.62,0.99*12
$GPGSV,5,1,18,05,39,170,34,06,18,028,38,11,53,022,38,12,12,341,39*75
$GPGSV,5,2,18,13,32,183,35,14,13,103,33,15,27,220,33,18,01,216,*71
$GPGSV,5,3,18,20,50,120,34,22,21,084,24,24,54,306,32,29,12,270,21*71
$GPGSV,5,4,18,30,04,144,25,36,52,277,,40,86,350,36,41,58,082,*7B
$GPGSV,5,5,18,49,32,274,,50,10,089,*78
$GLGSV,2,1,08,66,12,157,36,67,13,210,,76,23,126,34,77,49,075,30*65
$GLGSV,2,2,08,78,26,001,34,81,55,283,23,82,26,228,30,88,31,359,34*6E
$GNGLL,0419.72596,S,05539.92774,E,030213.00,A,D*6A
$GNTXT,01,01,01,More than 100 frame errors, UART RX was disabled*70
$GNRMC,030214.00,A,0419.72597,S,05539.92773,E,0.025,,030625,,,D*77
$GNVTG,,T,,M,0.025,N,0.046,K,D*3D
$GNGGA,030214.00,0419.72597,S,05539.92773,E,2,12,0.62,8.2,M,-47.6,M,,0000*7D
$GNGSA,A,3,11,24,20,05,13,15,06,14,12,40,,,1.17,0.62,0.99*1C
$GNGSA,A,3,81,77,88,82,78,76,66,,,,,,1.17,0.62,0.99*12
$GPGSV,5,1,18,05,39,170,37,06,18,028,41,11,53,022,41,12,12,341,42*7A
$GPGSV,5,2,18,13,32,183,36,14,13,103,37,15,27,220,35,18,01,216,*70
$GPGSV,5,3,18,20,50,120,34,22,21,084,25,24,54,306,34,29,12,270,22*75
$GPGSV,5,4,18,30,04,144,27,36,52,277,,40,86,350,38,41,58,082,*77
$GPGSV,5,5,18,49,32,274,,50,10,089,*78
$GLGSV,2,1,08,66,12,157,37,67,13,210,,76,23,126,34,77,49,075,30*64
$GLGSV,2,2,08,78,26,001,33,81,55,283,23,82,26,228,30,88,31,359,34*69
$GNGLL,0419.72597,S,05539.92773,E,030214.00,A,D*6B
$GNTXT,01,01,01,More than 100 frame errors, UART RX was disabled*70
$GNRMC,030215.00,A,0419.72598,S,05539.92772,E,0.052,,030625,,,D*78
$GNVTG,,T,,M,0.052,N,0.095,K,D*33
$GNGGA,030215.00,0419.72598,S,05539.92772,E,2,12,0.62,8.2,M,-47.6,M,,0000*72
$GNGSA,A,3,11,24,20,05,13,15,06,14,12,40,,,1.17,0.62,0.99*1C
$GNGSA,A,3,81,77,88,82,78,76,66,,,,,,1.17,0.62,0.99*12
$GPGSV,5,1,18,05,39,170,39,06,18,028,42,11,53,022,43,12,12,341,43*74
$GPGSV,5,2,18,13,32,183,38,14,13,103,38,15,27,220,37,18,01,216,*73
$GPGSV,5,3,18,20,50,120,36,22,21,084,25,24,54,306,38,29,12,270,23*7A
$GPGSV,5,4,18,30,04,144,31,36,52,277,,40,86,350,36,41,58,082,*7E
$GPGSV,5,5,18,49,32,274,,50,10,089,*78
$GLGSV,2,1,08,66,12,157,37,67,13,210,24,76,23,126,34,77,49,075,29*6A
$GLGSV,2,2,08,78,26,001,35,81,55,283,34,82,26,228,29,88,31,359,36*63
$GNGLL,0419.72598,S,05539.92772,E,030215.00,A,D*64
$GNTXT,01,01,01,More than 100 frame errors, UART RX was disabled*70
$GNRMC,030216.00,A,0419.72598,S,05539.92772,E,0.018,,030625,,,D*75
$GNVTG,,T,,M,0.018,N,0.034,K,D*36
$GNGGA,030216.00,0419.72598,S,05539.92772,E,2,12,0.62,8.1,M,-47.6,M,,0000*72
$GNGSA,A,3,11,24,20,05,13,15,06,14,12,40,,,1.17,0.62,0.99*1C
$GNGSA,A,3,81,77,88,82,78,76,66,,,,,,1.17,0.62,0.99*12
$GPGSV,5,1,18,05,39,170,37,06,18,028,40,11,53,022,41,12,12,341,42*7B
$GPGSV,5,2,18,13,32,183,36,14,13,103,37,15,27,220,36,18,01,216,*73
$GPGSV,5,3,18,20,50,120,35,22,21,084,24,24,54,306,36,29,12,270,22*77
$GPGSV,5,4,18,30,04,144,30,36,52,277,,40,86,350,35,41,58,082,*7C
$GPGSV,5,5,18,49,32,274,,50,10,089,*78
$GLGSV,2,1,08,66,12,157,37,67,13,210,22,76,23,126,34,77,49,075,28*6D
$GLGSV,2,2,08,78,26,001,35,81,55,283,33,82,26,228,28,88,31,359,35*66
$GNGLL,0419.72598,S,05539.92772,E,030216.00,A,D*67
$GNTXT,01,01,01,More than 100 frame errors, UART RX was disabled*70
$GNRMC,030217.00,A,0419.72598,S,05539.92770,E,0.071,,030625,,,D*79
$GNVTG,,T,,M,0.071,N,0.132,K,D*3E
$GNGGA,030217.00,0419.72598,S,05539.92770,E,2,12,0.62,8.1,M,-47.6,M,,0000*71
$GNGSA,A,3,11,24,20,05,13,15,06,14,12,40,,,1.27,0.62,1.11*1E
$GNGSA,A,3,81,77,88,82,78,76,66,,,,,,1.27,0.62,1.11*10
$GPGSV,5,1,18,05,39,170,39,06,18,028,41,11,53,022,42,12,12,341,42*77
$GPGSV,5,2,18,13,32,183,38,14,13,103,37,15,27,220,36,18,01,216,*7D
$GPGSV,5,3,18,20,50,120,35,22,21,084,22,24,54,306,37,29,12,270,22*70
$GPGSV,5,4,18,30,04,144,30,36,52,277,,40,86,350,36,41,58,082,*7F
$GPGSV,5,5,18,49,32,274,,50,10,089,*78
$GLGSV,2,1,08,66,12,157,39,67,13,210,20,76,23,126,35,77,49,075,27*6F
$GLGSV,2,2,08,78,26,001,37,81,55,283,32,82,26,228,27,88,31,359,36*69
$GNGLL,0419.72598,S,05539.92770,E,030217.00,A,D*64
$GNTXT,01,01,01,More than 100 frame errors, UART RX was disabled*70
$GNRMC,030218.00,A,0419.72599,S,05539.92768,E,0.044,,030625,,,D*78
$GNVTG,,T,,M,0.044,N,0.081,K,D*31
$GNGGA,030218.00,0419.72599,S,05539.92768,E,2,12,0.62,8.0,M,-47.6,M,,0000*77
$GNGSA,A,3,11,24,20,05,13,15,06,14,12,40,,,1.17,0.62,0.99*1C
$GNGSA,A,3,81,77,88,82,78,76,66,,,,,,1.17,0.62,0.99*12
$GPGSV,5,1,18,05,39,170,35,06,18,028,38,11,53,022,39,12,12,341,39*75
$GPGSV,5,2,18,13,32,183,35,14,13,103,35,15,27,220,33,18,01,216,*77
$GPGSV,5,3,18,20,50,120,32,22,21,084,21,24,54,306,33,29,12,270,22*70
$GPGSV,5,4,18,30,04,144,28,36,52,277,,40,86,350,34,41,58,082,*74
$GPGSV,5,5,18,49,32,274,,50,10,089,*78
$GLGSV,2,1,08,66,12,157,37,67,13,210,20,76,23,126,34,77,49,075,27*60
$GLGSV,2,2,08,78,26,001,34,81,55,283,32,82,26,228,27,88,31,359,34*68
$GNGLL,0419.72599,S,05539.92768,E,030218.00,A,D*63
$GNTXT,01,01,01,More than 100 frame errors, UART RX was disabled*70
$GNRMC,030219.00,A,0419.72599,S,05539.92771,E,0.025,,030625,,,D*76
$GNVTG,,T,,M,0.025,N,0.047,K,D*3C
$GNGGA,030219.00,0419.72599,S,05539.92771,E,2,12,0.62,8.0,M,-47.6,M,,0000*7E
$GNGSA,A,3,11,24,20,05,13,15,06,14,12,40,,,1.17,0.62,0.99*1C
$GNGSA,A,3,81,77,88,82,78,76,66,,,,,,1.17,0.62,0.99*12
$GPGSV,5,1,18,05,39,170,38,06,18,028,40,11,53,022,42,12,12,341,41*74
$GPGSV,5,2,18,13,32,183,37,14,13,103,38,15,27,220,36,18,01,216,*7D
$GPGSV,5,3,18,20,50,120,33,22,21,084,22,24,54,306,37,29,12,270,21*75
$GPGSV,5,4,18,30,04,144,28,36,52,277,,40,86,350,36,41,58,082,*76
$GPGSV,5,5,18,49,32,274,,50,10,089,*78
$GLGSV,2,1,08,66,12,157,37,67,13,210,21,76,22,127,33,77,49,075,27*66
$GLGSV,2,2,08,78,26,001,35,81,55,283,31,82,26,228,27,88,31,359,35*6B
$GNGLL,0419.72599,S,05539.92771,E,030219.00,A,D*6A
$GNTXT,01,01,01,More than 100 frame errors, UART RX was disabled*70
$GNRMC,030220.00,A,0419.72598,S,05539.92766,E,0.012,,030625,,,D*7F
$GNVTG,,T,,M,0.012,N,0.022,K,D*3B
$GNGGA,030220.00,0419.72598,S,05539.92766,E,2,12,0.62,8.0,M,-47.6,M,,0000*73
$GNGSA,A,3,11,24,20,05,13,15,06,14,12,40,,,1.17,0.62,0.99*1C
$GNGSA,A,3,81,77,88,82,78,76,66,,,,,,1.17,0.62,0.99*12
$GPGSV,5,1,18,05,39,170,38,06,18,028,42,11,53,022,43,12,12,341,42*74
$GPGSV,5,2,18,13,32,183,37,14,13,103,38,15,27,220,36,18,01,216,*7D
$GPGSV,5,3,18,20,50,120,36,22,21,084,23,24,54,306,37,29,12,270,22*72
$GPGSV,5,4,18,30,04,144,29,36,52,277,,40,86,350,37,41,58,082,*76
$GPGSV,5,5,18,49,32,274,,50,10,089,*78
$GLGSV,2,1,08,66,12,157,37,67,13,210,21,76,22,127,33,77,50,076,27*6D
$GLGSV,2,2,08,78,26,001,35,81,55,283,31,82,26,228,27,88,31,359,35*6B
$GNGLL,0419.72598,S,05539.92766,E,030220.00,A,D*67
$GNTXT,01,01,01,More than 100 frame errors, UART RX was disabled*70
$GNRMC,030221.00,A,0419.72598,S,05539.92766,E,0.009,,030625,,,D*74
$GNVTG,,T,,M,0.009,N,0.016,K,D*36
$GNGGA,030221.00,0419.72598,S,05539.92766,E,2,12,0.62,7.9,M,-47.6,M,,0000*74
$GNGSA,A,3,11,24,20,05,13,15,06,14,12,40,,,1.17,0.62,0.99*1C
$GNGSA,A,3,81,77,88,82,78,76,66,,,,,,1.17,0.62,0.99*12
$GPGSV,5,1,18,05,39,170,37,06,18,028,41,11,53,022,41,12,12,341,41*79
$GPGSV,5,2,18,13,32,183,37,14,13,103,37,15,27,220,35,18,01,216,*71
$GPGSV,5,3,18,20,50,120,34,22,21,084,24,24,54,306,37,29,12,270,23*76
$GPGSV,5,4,18,30,04,144,30,36,52,277,,40,86,350,36,41,58,082,*7F
$GPGSV,5,5,18,49,32,274,,50,10,089,*78
$GLGSV,2,1,08,66,12,157,37,67,13,210,20,76,22,127,33,77,50,076,27*6C
$GLGSV,2,2,08,78,26,001,35,81,55,283,32,82,26,228,27,88,31,359,35*68
$GNGLL,0419.72598,S,05539.92766,E,030221.00,A,D*66
$GNTXT,01,01,01,More than 100 frame errors, UART RX was disabled*70
$GNRMC,030222.00,A,0419.72597,S,05539.92768,E,0.014,,030625,,,D*7A
$GNVTG,,T,,M,0.014,N,0.026,K,D*39
$GNGGA,030222.00,0419.72597,S,05539.92768,E,2,12,0.62,7.9,M,-47.6,M,,0000*76
$GNGSA,A,3,11,24,20,05,13,15,06,14,12,40,,,1.27,0.62,1.11*1E
$GNGSA,A,3,81,77,88,82,78,76,66,,,,,,1.27,0.62,1.11*10
$GPGSV,5,1,18,05,39,170,37,06,18,028,40,11,53,022,42,12,12,341,41*7B
$GPGSV,5,2,18,13,32,183,37,14,13,103,37,15,27,220,35,18,01,216,*71
$GPGSV,5,3,18,20,50,120,34,22,21,084,23,24,54,306,37,29,12,270,22*70
$GPGSV,5,4,18,30,04,144,25,36,52,277,,40,86,350,36,41,58,082,*7B
$GPGSV,5,5,18,49,32,274,,50,10,089,*78
$GLGSV,2,1,08,66,12,157,35,67,13,210,19,76,22,127,31,77,50,076,26*67
$GLGSV,2,2,08,78,26,001,35,81,55,283,30,82,26,228,26,88,31,359,33*6D
$GNGLL,0419.72597,S,05539.92768,E,030222.00,A,D*64
$GNTXT,01,01,01,More than 100 frame errors, UART RX was disabled*70
$GNRMC,030223.00,A,0419.72597,S,05539.92768,E,0.004,,030625,,,D*7A
$GNVTG,,T,,M,0.004,N,0.007,K,D*3B
$GNGGA,030223.00,0419.72597,S,05539.92768,E,2,12,0.62,7.9,M,-47.6,M,,0000*77
$GNGSA,A,3,11,24,20,05,13,15,06,14,12,40,,,1.27,0.62,1.11*1E
$GNGSA,A,3,81,77,88,82,78,76,66,,,,,,1.27,0.62,1.11*10
$GPGSV,5,1,18,05,39,170,33,06,18,028,35,11,53,022,39,12,12,341,37*70
$GPGSV,5,2,18,13,32,183,31,14,13,103,34,15,27,220,29,18,01,216,*79
$GPGSV,5,3,18,20,50,120,27,22,21,084,23,24,54,306,31,29,12,270,21*77
$GPGSV,5,4,18,30,04,144,25,36,52,277,,40,86,350,30,41,58,082,*7D
$GPGSV,5,5,18,49,32,274,,50,10,089,*78
$GLGSV,2,1,08,66,12,157,35,67,13,210,18,76,22,127,31,77,50,076,26*66
$GLGSV,2,2,08,78,26,001,35,81,55,283,29,82,26,228,26,88,31,359,33*65
$GNGLL,0419.72597,S,05539.92768,E,030223.00,A,D*65
$GNTXT,01,01,01,More than 100 frame errors, UART RX was disabled*70
$GNRMC,030224.00,A,0419.72598,S,05539.92767,E,0.023,,030625,,,D*78
$GNVTG,,T,,M,0.023,N,0.043,K,D*3E
$GNGGA,030224.00,0419.72598,S,05539.92767,E,2,12,0.62,7.9,M,-47.6,M,,0000*70
$GNGSA,A,3,11,24,20,05,13,15,06,14,12,40,,,1.17,0.62,0.99*1C
$GNGSA,A,3,81,77,88,82,78,76,66,,,,,,1.17,0.62,0.99*12
$GPGSV,5,1,18,05,39,170,36,06,18,028,39,11,53,022,41,12,12,341,41*77
$GPGSV,5,2,18,13,32,183,36,14,13,103,37,15,27,220,34,18,01,216,*71
$GPGSV,5,3,18,20,50,120,34,22,21,084,23,24,54,306,36,29,12,270,22*71
$GPGSV,5,4,18,30,04,144,27,36,52,277,,40,86,350,35,41,58,082,*7A
$GPGSV,5,5,18,49,32,274,,50,10,089,*78
$GLGSV,2,1,08,66,12,157,36,67,13,210,19,76,22,127,32,77,50,076,26*67
$GLGSV,2,2,08,78,26,001,35,81,55,285,31,82,26,228,26,88,31,359,36*6F
$GNGLL,0419.72598,S,05539.92767,E,030224.00,A,D*62
$GNTXT,01,01,01,More than 100 frame errors, UART RX was disabled*70
$GNRMC,030225.00,A,0419.72598,S,05539.92767,E,0.014,,030625,,,D*7D
$GNVTG,,T,,M,0.014,N,0.026,K,D*39
$GNGGA,030225.00,0419.72598,S,05539.92767,E,2,12,0.62,7.9,M,-47.6,M,,0000*71
$GNGSA,A,3,11,24,20,05,13,15,06,14,12,40,,,1.17,0.62,0.99*1C
$GNGSA,A,3,81,77,88,82,78,76,66,,,,,,1.17,0.62,0.99*12
$GPGSV,5,1,18,05,39,170,34,06,18,028,38,11,53,022,39,12,12,341,37*7A
$GPGSV,5,2,18,13,32,183,33,14,13,103,34,15,27,220,31,18,01,216,*72
$GPGSV,5,3,18,20,50,120,30,22,21,084,23,24,54,306,33,29,12,270,22*70
$GPGSV,5,4,18,30,04,144,26,36,52,277,,40,86,350,32,41,58,082,*7C
$GPGSV,5,5,18,49,32,274,,50,10,089,*78
$GLGSV,2,1,08,66,12,157,35,67,13,210,19,76,22,127,32,77,50,076,26*64
$GLGSV,2,2,08,78,26,001,34,81,55,285,30,82,26,228,26,88,31,359,33*6A
$GNGLL,0419.72598,S,05539.92767,E,030225.00,A,D*63
$GNTXT,01,01,01,More than 100 frame errors, UART RX was disabled*70
$GNRMC,030226.00,A,0419.72599,S,05539.92770,E,0.037,,030625,,,D*78
$GNVTG,,T,,M,0.037,N,0.068,K,D*32
$GNGGA,030226.00,0419.72599,S,05539.92770,E,2,12,0.62,7.9,M,-47.6,M,,0000*75
$GNGSA,A,3,11,24,20,05,13,15,06,14,12,40,,,1.17,0.62,0.99*1C
$GNGSA,A,3,81,77,88,82,78,76,66,,,,,,1.17,0.62,0.99*12
$GPGSV,5,1,18,05,39,170,34,06,18,028,36,11,53,022,38,12,12,341,37*75
$GPGSV,5,2,18,13,32,183,33,14,13,103,33,15,27,220,29,18,01,216,*7C
$GPGSV,5,3,18,20,50,120,30,22,21,084,24,24,54,306,33,29,12,270,22*77
$GPGSV,5,4,18,30,04,144,26,36,52,277,,40,86,350,32,41,58,082,*7C
$GPGSV,5,5,18,49,32,274,,50,10,089,*78
$GLGSV,2,1,08,66,12,157,35,67,13,210,19,76,22,127,28,77,50,076,25*6C
$GLGSV,2,2,08,78,26,001,34,81,55,285,30,82,26,228,26,88,31,359,33*6A
$GNGLL,0419.72599,S,05539.92770,E,030226.00,A,D*67
$GNTXT,01,01,01,More than 100 frame errors, UART RX was disabled*70
$GNRMC,030227.00,A,0419.72599,S,05539.92766,E,0.049,,030625,,,D*77
$GNVTG,,T,,M,0.049,N,0.090,K,D*3C
$GNGGA,030227.00,0419.72599,S,05539.92766,E,2,12,0.62,7.9,M,-47.6,M,,0000*73
$GNGSA,A,3,11,24,20,05,13,15,06,14,12,40,,,1.27,0.62,1.11*1E
$GNGSA,A,3,81,77,88,82,78,76,66,,,,,,1.27,0.62,1.11*10
$GPGSV,5,1,18,05,39,170,38,06,18,028,39,11,53,022,41,12,12,341,40*78
$GPGSV,5,2,18,13,32,183,37,14,13,103,37,15,27,220,36,18,01,216,*72
$GPGSV,5,3,18,20,50,120,34,22,21,084,25,24,54,306,37,29,12,270,21*75
$GPGSV,5,4,18,30,04,144,27,36,52,277,,40,86,350,35,41,58,082,*7A
$GPGSV,5,5,18,49,32,274,,50,10,089,*78
$GLGSV,2,1,08,66,12,157,33,67,13,210,20,76,22,127,29,77,50,076,26*62
$GLGSV,2,2,08,78,26,001,32,81,55,285,31,82,26,228,26,88,31,359,30*6E
$GNGLL,0419.72599,S,05539.92766,E,030227.00,A,D*61
$GNTXT,01,01,01,More than 100 frame errors, UART RX was disabled*70
$GNRMC,030228.00,A,0419.72598,S,05539.92766,E,0.059,,030625,,,D*78
$GNVTG,,T,,M,0.059,N,0.109,K,D*3C
$GNGGA,030228.00,0419.72598,S,05539.92766,E,2,12,0.62,7.8,M,-47.6,M,,0000*7C
$GNGSA,A,3,11,24,20,05,13,15,06,14,12,40,,,1.27,0.62,1.11*1E
$GNGSA,A,3,81,77,88,82,78,76,66,,,,,,1.27,0.62,1.11*10
$GPGSV,5,1,18,05,39,170,29,06,18,028,31,11,53,022,33,12,12,341,32*70
$GPGSV,5,2,18,13,32,183,30,14,13,103,27,15,27,220,29,18,01,216,*7A
$GPGSV,5,3,18,20,50,120,30,22,21,084,23,24,54,306,29,29,12,270,20*79
$GPGSV,5,4,18,30,04,144,28,36,52,277,,40,86,350,30,41,58,082,*70
$GPGSV,5,5,18,49,32,274,,50,10,089,*78
$GLGSV,2,1,08,66,12,157,33,67,13,210,20,76,22,127,30,77,50,076,26*6A
$GLGSV,2,2,08,78,26,001,31,81,55,285,31,82,26,228,25,88,31,359,31*6F
$GNGLL,0419.72598,S,05539.92766,E,030228.00,A,D*6F
$GNTXT,01,01,01,More than 100 frame errors, UART RX was disabled*70
$GNRMC,030229.00,A,0419.72598,S,05539.92765,E,0.033,,030625,,,D*76
$GNVTG,,T,,M,0.033,N,0.061,K,D*3F
$GNGGA,030229.00,0419.72598,S,05539.92765,E,2,12,0.62,7.8,M,-47.6,M,,0000*7E
$GNGSA,A,3,11,24,20,05,13,15,06,14,12,40,,,1.27,0.62,1.11*1E
$GNGSA,A,3,81,77,88,82,78,76,66,,,,,,1.27,0.62,1.11*10
$GPGSV,5,1,18,05,39,170,34,06,18,028,35,11,53,022,38,12,12,341,36*77
$GPGSV,5,2,18,13,32,183,32,14,13,103,32,15,27,220,31,18,01,216,*75
$GPGSV,5,3,18,20,50,120,32,22,21,084,19,24,54,306,34,29,12,270,18*75
$GPGSV,5,4,18,30,04,144,26,36,52,277,,40,86,350,30,41,58,082,*7E
$GPGSV,5,5,18,49,32,274,,50,10,089,*78
$GLGSV,2,1,08,66,12,157,35,67,13,210,20,76,22,127,31,77,50,076,27*6C
$GLGSV,2,2,08,78,26,001,31,81,55,285,31,82,26,228,24,88,31,359,31*6E
$GNGLL,0419.72598,S,05539.92765,E,030229.00,A,D*6D
$GNTXT,01,01,01,More than 100 frame errors, UART RX was disabled*70
$GNRMC,030230.00,A,0419.72597,S,05539.92767,E,0.024,,030625,,,D*75
$GNVTG,,T,,M,0.024,N,0.044,K,D*3E
$GNGGA,030230.00,0419.72597,S,05539.92767,E,2,12,0.62,7.8,M,-47.6,M,,0000*7B
$GNGSA,A,3,11,24,20,05,13,15,06,14,12,40,,,1.17,0.62,0.99*1C
$GNGSA,A,3,81,77,88,82,78,76,66,,,,,,1.17,0.62,0.99*12
$GPGSV,5,1,18,05,39,170,38,06,18,028,39,11,53,022,40,12,12,341,40*79
$GPGSV,5,2,18,13,32,183,36,14,13,103,35,15,27,220,35,18,01,216,*72
$GPGSV,5,3,18,20,50,120,35,22,21,084,17,24,54,306,37,29,12,270,18*7F
$GPGSV,5,4,18,30,04,144,27,36,52,277,,40,86,350,36,41,58,082,*79
$GPGSV,5,5,18,49,32,274,,50,10,089,*78
$GLGSV,2,1,08,66,12,157,36,67,13,210,21,76,22,127,32,77,50,076,28*62
$GLGSV,2,2,08,78,26,001,32,81,55,285,35,82,26,228,25,88,31,359,34*6D
$GNGLL,0419.72597,S,05539.92767,E,030230.00,A,D*68
$GNTXT,01,01,01,More than 100 frame errors, UART RX was disabled*70
