$GNTXT,01,01,01,More than 100 frame errors, UART RX was disabled*70
b0p[;
 Y
/CRs>L
O
,{4+V^$:R 
YdCFUG~~HIbJ+K#ALWV"MW$X=b[rc7$GNRMC,045408.00,A,0419.99813,S,05539.83755,E,0.179,,230525,,,D*77
$GNVTG,,T,,M,0.179,N,0.332,K,D*35
$GNGNS,045408.00,0419.99813,S,05539.83755,E,DA,12,0.85,18.2,-47.6,,0000*60
$GNGGA,045408.00,0419.99813,S,05539.83755,E,2,12,0.85,18.2,M,-47.6,M,,0000*4C
$GNGSA,A,3,24,20,05,13,15,22,12,,,,,,1.67,0.85,1.44*14
$GNGSA,A,3,86,74,75,87,71,,,,,,,,1.67,0.85,1.44*16
$GPGSV,5,1,18,05,59,130,30,11,23,020,20,12,32,001,10,13,20,156,30*7E
$GPGSV,5,2,18,14,02,129,27,15,27,191,12,18,22,231,09,20,47,067,31*76
$GPGSV,5,3,18,22,17,115,25,23,01,213,,24,62,242,24,25,10,335,*71
$GPGSV,5,4,18,29,10,300,,36,52,277,,40,86,350,43,41,58,082,36*74
$GPGSV,5,5,18,49,32,274,,50,10,089,*78
$GLGSV,3,1,11,70,00,085,,71,15,126,28,72,17,176,11,73,02,150,11*61
$GLGSV,3,2,11,74,43,133,22,75,65,030,35,76,14,343,,86,34,333,21*6C
$GLGSV,3,3,11,87,36,275,11,88,02,225,,,,,14*6D
$GNGLL,0419.99813,S,05539.83755,E,045408.00,A,D*62
$GNGRS,045408.00,1,-1.8,-1.7,-3.4,4.2,9.2,2.4,8.6,,,,,*53
$GNGRS,045408.00,1,-3.6,11.6,-0.1,2.4,1.3,,,,,,,*45
$GNGST,045408.00,3435020,,,,3.3,4.4,6.8*79
$GNZDA,045408.00,23,05,2025,00,00*74
$GNGBS,045408.00,3.3,4.4,6.8,,,,*5C
$GNTXT,01,01,01,More than 100 frame errors, UART RX was disabled*70
b0p_;: F'
<!/C
s>
O
,{4+V^%:R 
Yd
FUG~H
I+J+EK$ALWV"MW
$XYb_rK7$GNRMC,045409.00,A,0419.99814,S,05539.83754,E,0.049,,230525,,,D*72
$GNVTG,,T,,M,0.049,N,0.091,K,D*3D
$GNGNS,045409.00,0419.99814,S,05539.83754,E,DA,13,0.82,18.2,-47.6,,0000*61
$GNGGA,045409.00,0419.99814,S,05539.83754,E,2,12,0.82,18.2,M,-47.6,M,,0000*4C
$GNGSA,A,3,24,20,05,13,15,22,12,,,,,,1.62,0.82,1.40*12
$GNGSA,A,3,86,74,75,87,71,72,,,,,,,1.62,0.82,1.40*15
$GPGSV,5,1,18,05,59,130,31,11,22,020,21,12,32,001,09,13,20,156,30*77
$GPGSV,5,2,18,14,02,129,28,15,27,191,16,18,22,231,,20,47,067,33*76
$GPGSV,5,3,18,22,17,115,27,23,01,213,,24,62,242,25,25,10,335,*72
$GPGSV,5,4,18,29,10,300,,36,52,277,,40,86,350,43,41,58,082,37*75
$GPGSV,5,5,18,49,32,274,,50,10,089,*78
$GLGSV,3,1,11,70,00,085,,71,15,126,30,72,17,176,10,73,02,150,12*6A
$GLGSV,3,2,11,74,43,133,21,75,65,030,36,76,14,343,,86,34,333,21*6C
$GLGSV,3,3,11,87,36,275,10,88,02,225,,,,,15*6D
$GNGLL,0419.99814,S,05539.83754,E,045409.00,A,D*65
$GNGRS,045409.00,1,-3.1,0.1,-2.0,2.9,8.3,1.6,-1.9,,,,,*51
$GNGRS,045409.00,1,-2.9,10.9,0.0,-106,-2.6,64.1,,,,,,*6C
$GNGST,045409.00,69,,,,3.3,4.5,7.0*4C
$GNZDA,045409.00,23,05,2025,00,00*75
$GNGBS,045409.00,3.3,4.5,7.0,,,,*55
$GNTXT,01,01,01,More than 100 frame errors, UART RX was disabled*70
b0pc ;!f
"/Cs>
O
,{4,V^&:R 
YdFUG"~HIVJ+K%ALWV"MW
$:Xbcr37Xe$GNRMC,045410.00,A,0419.99811,S,05539.83756,E,0.184,,230525,,,D*7D
$GNVTG,,T,,M,0.184,N,0.341,K,D*33
$GNGNS,045410.00,0419.99811,S,05539.83756,E,DA,13,0.82,18.1,-47.6,,0000*6D
$GNGGA,045410.00,0419.99811,S,05539.83756,E,2,12,0.82,18.1,M,-47.6,M,,0000*40
$GNGSA,A,3,24,20,05,13,15,22,12,,,,,,1.62,0.82,1.40*12
$GNGSA,A,3,86,74,75,87,71,72,,,,,,,1.62,0.82,1.40*15
$GPGSV,5,1,18,05,59,130,32,11,22,020,22,12,33,001,11,13,20,156,31*7E
$GPGSV,5,2,18,14,02,129,28,15,27,191,13,18,22,231,,20,47,067,34*74
$GPGSV,5,3,18,22,17,115,30,23,01,213,,24,62,242,25,25,10,335,*74
$GPGSV,5,4,18,29,10,300,,36,52,277,,40,86,350,44,41,58,082,38*7D
$GPGSV,5,5,18,49,32,274,,50,10,089,*78
$GLGSV,3,1,11,70,00,085,,71,15,126,34,72,17,176,09,73,02,150,13*67
$GLGSV,3,2,11,74,43,133,21,75,65,030,37,76,14,343,,86,34,333,23*6F
$GLGSV,3,3,11,87,36,275,10,88,02,225,,,,,17*6F
$GNGLL,0419.99811,S,05539.83756,E,045410.00,A,D*6A
$GNGRS,045410.00,1,-3.5,-1.2,-5.6,3.6,9.7,2.3,9.3,,,,,*51
$GNGRS,045410.00,1,-2.9,12.0,0.1,3.1,-3.6,6.6,,,,,,*6A
$GNGST,045410.00,4667443,,,,3.4,4.6,7.0*7F
$GNZDA,045410.00,23,05,2025,00,00*7D
$GNGBS,045410.00,3.4,4.6,7.0,,,,*59
$GNTXT,01,01,01,More than 100 frame errors, UART RX was disabled*70
b0pg!;,!#K
%/C" sC>
O
,{4.V^*:R 
YdFUG#~H
IaJ+K'A&LWV"MW$_Xbgr70$GNRMC,045411.00,A,0419.99815,S,05539.83764,E,0.186,,230525,,,D*7B
$GNVTG,,T,,M,0.186,N,0.344,K,D*34
$GNGNS,045411.00,0419.99815,S,05539.83764,E,DA,13,0.82,18.3,-47.6,,0000*6B
$GNGGA,045411.00,0419.99815,S,05539.83764,E,2,12,0.82,18.3,M,-47.6,M,,0000*46
$GNGSA,A,3,24,20,05,13,15,22,12,,,,,,1.62,0.82,1.40*12
$GNGSA,A,3,86,74,75,87,71,72,,,,,,,1.62,0.82,1.40*15
$GPGSV,5,1,18,05,59,130,33,11,22,020,23,12,33,001,12,13,20,156,35*79
$GPGSV,5,2,18,14,02,129,29,15,27,191,17,18,22,231,,20,47,067,37*72
$GPGSV,5,3,18,22,17,115,32,23,01,213,,24,62,242,26,25,10,335,*75
$GPGSV,5,4,18,29,10,300,,36,52,277,,40,86,350,46,41,58,082,42*72
$GPGSV,5,5,18,49,32,274,,50,10,089,*78
$GLGSV,3,1,11,70,00,085,,71,15,126,35,72,17,176,10,73,02,150,16*6B
$GLGSV,3,2,11,74,43,133,22,75,65,030,39,76,14,343,,86,34,333,23*62
$GLGSV,3,3,11,87,36,275,09,88,02,225,,,,,19*69
$GNGLL,0419.99815,S,05539.83764,E,045411.00,A,D*6E
$GNGRS,045411.00,1,-3.2,0.3,-4.7,3.3,9.6,-1.9,9.5,,,,,*5C
$GNGRS,045411.00,1,-3.4,11.8,0.4,3.5,-3.4,6.5,,,,,,*6C
$GNGST,045411.00,4669369,,,,3.4,4.7,7.1*7F
$GNZDA,045411.00,23,05,2025,00,00*7C
$GNGBS,045411.00,3.4,4.7,7.1,,,,*58
$GNTXT,01,01,01,More than 100 frame errors, UART RX was disabled*70
b0ppk!;!"
%/Cxs>
O
,{4.V^):R 
YdFUG#~HIRJ+K'ALWV"MW$:Xbpkr75$GNRMC,045412.00,A,0419.99815,S,05539.83766,E,0.185,,230525,,,D*79
$GNVTG,,T,,M,0.185,N,0.342,K,D*31
$GNGNS,045412.00,0419.99815,S,05539.83766,E,DA,12,1.16,18.3,-47.6,,0000*67
$GNGGA,045412.00,0419.99815,S,05539.83766,E,2,12,1.16,18.3,M,-47.6,M,,0000*4B
$GNGSA,A,3,24,20,05,13,22,12,,,,,,,1.91,1.16,1.52*15
$GNGSA,A,3,86,74,75,87,71,72,,,,,,,1.91,1.16,1.52*16
$GPGSV,5,1,18,05,59,130,33,11,22,020,23,12,33,001,18,13,20,156,34*72
$GPGSV,5,2,18,14,02,130,31,15,27,191,09,18,22,231,,20,47,067,37*7C
$GPGSV,5,3,18,22,17,115,30,23,01,213,,24,62,242,28,25,10,335,*79
$GPGSV,5,4,18,29,10,300,,36,52,277,,40,86,350,46,41,58,082,41*71
$GPGSV,5,5,18,49,32,274,,50,10,089,*78
$GLGSV,3,1,11,70,00,085,,71,15,126,35,72,17,176,11,73,02,150,20*6F
$GLGSV,3,2,11,74,43,133,23,75,65,030,39,76,14,343,,86,34,333,23*63
$GLGSV,3,3,11,87,36,275,09,88,02,225,,,,,20*63
$GNGLL,0419.99815,S,05539.83766,E,045412.00,A,D*6F
$GNGRS,045412.00,1,-2.6,1.2,-3.4,3.9,0.2,11.5,,,,,,*6B
$GNGRS,045412.00,1,-2.7,11.6,0.3,150,-3.0,73.3,,,,,,*48
$GNGST,045412.00,31,,,,3.4,4.6,7.1*4E
$GNZDA,045412.00,23,05,2025,00,00*7F
$GNGBS,045412.00,3.4,4.6,7.1,,,,*5A
$GNTXT,01,01,01,More than 100 frame errors, UART RX was disabled*70
b0pXo!;!$
Oq%/C s>A
O
,{4,V^*:R 
YdFUG%~HIQJ+K'ALWV"M0W$Xo/bXor7$GNRMC,045413.00,A,0419.99817,S,05539.83766,E,0.133,,230525,,,D*77
$GNVTG,,T,,M,0.133,N,0.246,K,D*39
$GNGNS,045413.00,0419.99817,S,05539.83766,E,DA,13,0.82,18.3,-47.6,,0000*69
$GNGGA,045413.00,0419.99817,S,05539.83766,E,2,12,0.82,18.3,M,-47.6,M,,0000*44
$GNGSA,A,3,24,20,05,13,15,22,12,,,,,,1.62,0.82,1.40*12
$GNGSA,A,3,86,74,75,87,71,72,,,,,,,1.62,0.82,1.40*15
$GPGSV,5,1,18,05,59,130,33,11,22,020,23,12,33,001,17,13,20,156,36*7F
$GPGSV,5,2,18,14,02,130,30,15,28,191,12,18,22,231,15,20,47,067,37*7C
$GPGSV,5,3,18,22,17,115,32,23,01,213,,24,62,242,28,25,10,335,*7B
$GPGSV,5,4,18,29,10,300,,36,52,277,,40,86,350,44,41,58,082,42*70
$GPGSV,5,5,18,49,32,274,,50,10,089,*78
$GLGSV,3,1,11,70,00,085,,71,15,126,37,72,17,176,12,73,02,150,21*6F
$GLGSV,3,2,11,74,43,133,25,75,65,030,39,76,14,343,,86,34,333,23*65
$GLGSV,3,3,11,87,36,275,08,88,02,225,,,,,21*63
$GNGLL,0419.99817,S,05539.83766,E,045413.00,A,D*6C
$GNGRS,045413.00,1,-4.5,1.5,-5.1,5.3,8.5,1.4,9.3,,,,,*7C
$GNGRS,045413.00,1,-2.1,12.4,0.2,2.8,-3.7,6.6,,,,,,*6F
$GNGST,045413.00,3299354,,,,3.4,4.6,7.2*7D
$GNZDA,045413.00,23,05,2025,00,00*7E
$GNGBS,045413.00,3.4,4.6,7.2,,,,*58
$GNTXT,01,01,01,More than 100 frame errors, UART RX was disabled*70
b0p@s;a!#
nt%/C* s>
O
,{4,V^):R 
YdFUG$~HI-J+K'ALWV"MW
$
X^b@sr7$GNRMC,045414.00,A,0419.99825,S,05539.83772,E,0.159,,230525,,,D*78
$GNVTG,,T,,M,0.159,N,0.295,K,D*3B
$GNGNS,045414.00,0419.99825,S,05539.83772,E,DA,13,0.82,18.6,-47.6,,0000*6F
$GNGGA,045414.00,0419.99825,S,05539.83772,E,2,12,0.82,18.6,M,-47.6,M,,0000*42
$GNGSA,A,3,24,20,05,13,15,22,12,,,,,,1.62,0.82,1.40*12
$GNGSA,A,3,86,74,75,87,71,72,,,,,,,1.62,0.82,1.40*15
$GPGSV,5,1,18,05,59,130,31,11,22,020,23,12,33,001,17,13,20,156,35*7E
$GPGSV,5,2,18,14,02,130,29,15,28,191,16,18,22,231,15,20,47,067,37*70
$GPGSV,5,3,18,22,17,115,32,23,01,213,,24,62,242,29,25,10,335,*7A
$GPGSV,5,4,18,29,10,300,,36,52,277,,40,86,350,44,41,58,082,41*73
$GPGSV,5,5,18,49,32,274,,50,10,089,*78
$GLGSV,3,1,11,70,00,085,,71,15,126,36,72,17,176,12,73,02,150,24*6B
$GLGSV,3,2,11,74,43,133,26,75,65,030,39,76,14,343,,86,34,333,23*66
$GLGSV,3,3,11,87,36,275,10,88,02,225,,,,,20*6B
$GNGLL,0419.99825,S,05539.83772,E,045414.00,A,D*6F
$GNGRS,045414.00,1,-3.1,0.4,-4.1,4.6,7.0,-0.1,9.2,,,,,*5F
$GNGRS,045414.00,1,-3.3,12.7,0.3,2.7,-3.5,6.4,,,,,,*66
$GNGST,045414.00,3299431,,,,3.4,4.6,7.3*7F
$GNZDA,045414.00,23,05,2025,00,00*79
$GNGBS,045414.00,3.4,4.6,7.3,,,,*5E
$GNTXT,01,01,01,More than 100 frame errors, UART RX was disabled*70
b0p(w;!H `
%/Cn sX>
O
,{4,V^):R 
YdFUG#~HIJ+'K'A(LWV"MiW$X-b(wr7j$GNRMC,045415.00,A,0419.99824,S,05539.83770,E,0.120,,230525,,,D*74
$GNVTG,,T,,M,0.120,N,0.223,K,D*38
$GNGNS,045415.00,0419.99824,S,05539.83770,E,DA,12,1.06,18.7,-47.6,,0000*60
$GNGGA,045415.00,0419.99824,S,05539.83770,E,2,12,1.06,18.7,M,-47.6,M,,0000*4C
$GNGSA,A,3,24,20,05,13,15,22,,,,,,,1.90,1.06,1.58*18
$GNGSA,A,3,86,74,75,87,71,72,,,,,,,1.90,1.06,1.58*1C
$GPGSV,5,1,18,05,59,130,30,11,22,020,22,12,33,001,07,13,20,156,32*78
$GPGSV,5,2,18,14,02,130,28,15,28,191,16,18,22,231,12,20,47,067,37*76
$GPGSV,5,3,18,22,17,115,32,23,01,213,,24,62,242,29,25,10,335,*7A
$GPGSV,5,4,18,29,10,300,,36,52,277,,40,86,350,44,41,58,082,41*73
$GPGSV,5,5,18,49,32,274,,50,10,089,*78
$GLGSV,3,1,11,70,00,085,,71,15,126,35,72,17,176,12,73,02,150,25*69
$GLGSV,3,2,11,74,43,133,26,75,65,030,39,76,14,343,,86,34,333,24*61
$GLGSV,3,3,11,87,36,275,08,88,02,225,,,,,19*68
$GNGLL,0419.99824,S,05539.83770,E,045415.00,A,D*6D
$GNGRS,045415.00,1,-1.0,1.1,-2.8,3.5,9.6,-1.7,,,,,,*78
$GNGRS,045415.00,1,-1.5,13.2,0.4,38.1,-5.8,79.5,,,,,,*6D
$GNGST,045415.00,34,,,,3.5,4.6,7.4*48
$GNZDA,045415.00,23,05,2025,00,00*78
$GNGBS,045415.00,3.5,4.6,7.4,,,,*59
$GNTXT,01,01,01,More than 100 frame errors, UART RX was disabled*70
b0p{$;/! G
t! $/CvsH>
O
,{4,V^):R 
YdFUG#~H
IJ+K&A:LWV"M\W$)Xb{r7g$GNRMC,045416.00,A,0419.99819,S,05539.83768,E,0.155,,230525,,,D*72
$GNVTG,,T,,M,0.155,N,0.286,K,D*35
$GNGNS,045416.00,0419.99819,S,05539.83768,E,DA,12,0.91,18.6,-47.6,,0000*6A
$GNGGA,045416.00,0419.99819,S,05539.83768,E,2,12,0.91,18.6,M,-47.6,M,,0000*46
$GNGSA,A,3,24,20,05,13,15,22,,,,,,,1.74,0.91,1.48*1C
$GNGSA,A,3,86,74,75,87,71,72,,,,,,,1.74,0.91,1.48*18
$GPGSV,5,1,18,05,59,130,36,11,22,020,22,12,33,001,08,13,20,156,32*71
$GPGSV,5,2,18,14,02,130,30,15,28,191,16,18,23,232,12,20,47,067,36*7C
$GPGSV,5,3,18,22,17,115,31,23,01,213,,24,62,242,28,25,10,335,*78
$GPGSV,5,4,18,29,10,300,,36,52,277,,40,86,350,44,41,58,082,41*73
$GPGSV,5,5,18,49,32,274,,50,10,089,*78
$GLGSV,3,1,11,70,00,085,,71,15,126,35,72,17,176,10,73,02,150,25*6B
$GLGSV,3,2,11,74,43,133,25,75,65,030,38,76,14,343,,86,34,333,24*63
$GLGSV,3,3,11,87,36,275,12,88,02,225,,,,,20*69
$GNGLL,0419.99819,S,05539.83768,E,045416.00,A,D*69
$GNGRS,045416.00,1,-3.2,1.2,-2.1,3.3,9.6,-1.8,,,,,,*78
$GNGRS,045416.00,1,-1.6,12.8,0.6,3.0,-5.7,6.7,,,,,,*68
$GNGST,045416.00,3441151,,,,3.4,4.6,7.3*7D
$GNZDA,045416.00,23,05,2025,00,00*7B
$GNGBS,045416.00,3.4,4.6,7.3,,,,*5C
$GNTXT,01,01,01,More than 100 frame errors, UART RX was disabled*70
b0p~";<
!j 3
3$/C( s{>S
O
,{4-V^(:R 
YdFUG"~HI"J+5K(AILWV"MOW$(Xb~r7>+$GNRMC,045417.00,A,0419.99821,S,05539.83770,E,0.216,,230525,,,D*75
$GNVTG,,T,,M,0.216,N,0.399,K,D*3E
$GNGNS,045417.00,0419.99821,S,05539.83770,E,DA,12,0.91,18.7,-47.6,,0000*68
$GNGGA,045417.00,0419.99821,S,05539.83770,E,2,12,0.91,18.7,M,-47.6,M,,0000*44
$GNGSA,A,3,24,20,05,13,15,22,,,,,,,1.74,0.91,1.48*1C
$GNGSA,A,3,86,74,75,87,71,72,,,,,,,1.74,0.91,1.48*18
$GPGSV,5,1,18,05,59,130,34,11,22,020,22,12,33,001,10,13,20,156,32*7A
$GPGSV,5,2,18,14,02,130,29,15,28,191,16,18,23,232,11,20,47,067,36*77
$GPGSV,5,3,18,22,17,115,32,23,01,213,,24,62,242,28,25,10,335,*7B
$GPGSV,5,4,18,29,10,300,,36,52,277,,40,86,350,45,41,58,082,40*73
$GPGSV,5,5,18,49,32,274,,50,10,089,*78
$GLGSV,3,1,11,70,00,085,,71,15,126,34,72,17,176,09,73,02,150,24*63
$GLGSV,3,2,11,74,43,133,24,75,65,030,40,76,14,343,,86,34,333,24*6D
$GLGSV,3,3,11,87,36,275,12,88,02,225,,,,,21*68
$GNGLL,0419.99821,S,05539.83770,E,045417.00,A,D*6A
$GNGRS,045417.00,1,-6.8,0.4,-2.0,3.1,7.7,-1.3,,,,,,*76
$GNGRS,045417.00,1,-1.8,13.3,0.7,3.0,-6.1,6.5,,,,,,*6B
$GNGST,045417.00,3441151,,,,3.4,4.6,7.3*7C
$GNZDA,045417.00,23,05,2025,00,00*7A
$GNGBS,045417.00,3.4,4.6,7.3,,,,*5D
$GNTXT,01,01,01,More than 100 frame errors, UART RX was disabled*70
b0p!;V!"$
aj
#.B(s>>K
O
,{4,V^(:R 
YdFUG!~HI$
J+K'A1LWV"MW$)Xkbrs7$GNRMC,045418.00,A,0419.99827,S,05539.83776,E,0.281,,230525,,,D*74
$GNVTG,,T,,M,0.281,N,0.521,K,D*35
$GNGNS,045418.00,0419.99827,S,05539.83776,E,DA,14,0.82,19.0,-47.6,,0000*65
$GNGGA,045418.00,0419.99827,S,05539.83776,E,2,12,0.82,19.0,M,-47.6,M,,0000*4F
$GNGSA,A,3,24,20,05,13,15,22,12,18,,,,,1.62,0.82,1.40*1B
$GNGSA,A,3,86,74,75,87,71,72,,,,,,,1.62,0.82,1.40*15
$GPGSV,5,1,18,05,59,130,33,11,22,020,21,12,33,001,13,13,20,156,34*7B
$GPGSV,5,2,18,14,02,130,29,15,28,191,18,18,23,232,10,20,46,066,35*7B
$GPGSV,5,3,18,22,17,115,31,23,01,213,,24,62,242,27,25,10,335,*77
$GPGSV,5,4,18,29,10,300,,36,52,277,,40,86,350,44,41,58,082,40*72
$GPGSV,5,5,18,49,32,274,,50,10,089,*78
$GLGSV,3,1,11,70,00,085,,71,15,126,33,72,17,176,13,73,02,150,26*6D
$GLGSV,3,2,11,74,43,133,24,75,65,030,39,76,14,343,,86,34,333,22*65
$GLGSV,3,3,11,87,36,275,14,88,02,225,,,,,20*6F
$GNGLL,0419.99827,S,05539.83776,E,045418.00,A,D*65
$GNGRS,045418.00,1,-6.9,0.4,-4.3,2.9,3.6,-1.9,5.4,71.6,,,,*4A
$GNGRS,045418.00,1,-2.7,14.3,0.5,5.5,-6.0,4.0,,,,,,*68
$GNGST,045418.00,58,,,,3.5,4.6,7.3*48
$GNZDA,045418.00,23,05,2025,00,00*75
$GNGBS,045418.00,3.5,4.6,7.3,,,,*53
$GNTXT,01,01,01,More than 100 frame errors, UART RX was disabled*70
b0p ;+!#
op#.B= t>]
O
,{4-V^(:R 
YdFUG"~HIJ+oK&A@LWV"MW$-X)sbr[8$GNRMC,045419.00,A,0419.99831,S,05539.83781,E,0.233,,230525,,,D*73
$GNVTG,,T,,M,0.233,N,0.432,K,D*3F
$GNGNS,045419.00,0419.99831,S,05539.83781,E,DA,14,0.82,19.1,-47.6,,0000*6A
$GNGGA,045419.00,0419.99831,S,05539.83781,E,2,12,0.82,19.1,M,-47.6,M,,0000*40
$GNGSA,A,3,24,20,05,13,15,22,12,18,,,,,1.62,0.82,1.40*1B
$GNGSA,A,3,86,74,75,87,71,72,,,,,,,1.62,0.82,1.40*15
$GPGSV,5,1,18,05,59,130,32,11,22,020,22,12,33,001,13,13,20,156,35*78
$GPGSV,5,2,18,14,02,130,29,15,28,191,19,18,23,232,12,20,46,066,35*78
$GPGSV,5,3,18,22,17,116,32,23,01,213,,24,62,242,28,25,10,335,*78
$GPGSV,5,4,18,29,10,300,,36,52,277,,40,86,350,45,41,58,082,40*73
$GPGSV,5,5,18,49,32,274,,50,10,089,*78
$GLGSV,3,1,11,70,00,085,,71,15,126,34,72,17,176,08,73,02,150,27*61
$GLGSV,3,2,11,74,43,133,24,75,65,030,38,76,14,343,,86,34,333,22*64
$GLGSV,3,3,11,87,36,275,11,88,02,225,,,,,20*6A
$GNGLL,0419.99831,S,05539.83781,E,045419.00,A,D*6B
$GNGRS,045419.00,1,-4.2,0.6,-4.7,2.7,3.7,1.6,5.1,67.7,,,,*6A
$GNGRS,045419.00,1,-3.6,13.9,0.6,3.0,-6.1,6.8,,,,,,*6F
$GNGST,045419.00,35355,,,,3.5,4.6,7.4*76
$GNZDA,045419.00,23,05,2025,00,00*74
$GNGBS,045419.00,3.5,4.6,7.4,,,,*55
$GNTXT,01,01,01,More than 100 frame errors, UART RX was disabled*70
b0p;!
`0#.B9!t>
O
,{4-V^':R 
YdFUG#~H
IJ+5K'A4LWV"MW$ XbrC8e$GNRMC,045420.00,A,0419.99838,S,05539.83784,E,0.168,,230525,,,D*78
$GNVTG,,T,,M,0.168,N,0.311,K,D*34
$GNGNS,045420.00,0419.99838,S,05539.83784,E,DA,14,0.82,19.4,-47.6,,0000*69
$GNGGA,045420.00,0419.99838,S,05539.83784,E,2,12,0.82,19.4,M,-47.6,M,,0000*43
$GNGSA,A,3,24,20,05,13,15,22,12,18,,,,,1.62,0.82,1.40*1B
$GNGSA,A,3,86,74,75,87,71,72,,,,,,,1.62,0.82,1.40*15
$GPGSV,5,1,18,05,59,130,31,11,22,020,22,12,33,001,14,13,20,156,31*78
$GPGSV,5,2,18,14,02,130,28,15,28,191,19,18,23,232,13,20,46,066,35*78
$GPGSV,5,3,18,22,17,116,33,23,01,213,,24,62,242,29,25,10,335,*78
$GPGSV,5,4,18,29,10,300,,36,52,277,,40,86,350,45,41,58,082,39*7D
$GPGSV,5,5,18,49,32,274,,50,10,089,*78
$GLGSV,3,1,11,70,00,085,,71,15,126,35,72,17,176,10,73,02,150,28*66
$GLGSV,3,2,11,74,43,133,25,75,65,030,39,76,14,343,,86,34,333,23*65
$GLGSV,3,3,11,87,36,275,11,88,02,225,,,,,18*61
$GNGLL,0419.99838,S,05539.83784,E,045420.00,A,D*6D
$GNGRS,045420.00,1,-0.8,0.6,-0.5,5.3,3.0,2.5,5.0,65.6,,,,*6E
$GNGRS,045420.00,1,-3.2,13.3,0.5,2.9,-6.2,6.8,,,,,,*63
$GNGST,045420.00,53032,,,,3.5,4.6,7.5*7F
$GNZDA,045420.00,23,05,2025,00,00*7E
$GNGBS,045420.00,3.5,4.6,7.5,,,,*5E
$GNTXT,01,01,01,More than 100 frame errors, UART RX was disabled*70
b0p%;Z!$
x#.B;#t>a
O
,{4.V^':R 
YdFUG$~HIgJ+YK$ALWV"MW$iXubr+8$GNRMC,045421.00,A,0419.99830,S,05539.83772,E,0.117,,230525,,,D*70
$GNVTG,,T,,M,0.117,N,0.217,K,D*3B
$GNGNS,045421.00,0419.99830,S,05539.83772,E,DA,14,0.85,19.1,-47.6,,0000*6B
$GNGGA,045421.00,0419.99830,S,05539.83772,E,2,12,0.85,19.1,M,-47.6,M,,0000*41
$GNGSA,A,3,24,20,05,13,15,22,12,18,,,,,1.67,0.85,1.44*1D
$GNGSA,A,3,86,74,75,87,71,72,,,,,,,1.67,0.85,1.44*13
$GPGSV,5,1,18,05,59,130,37,11,22,020,22,12,33,001,12,13,20,156,36*7F
$GPGSV,5,2,18,14,02,130,28,15,28,191,19,18,23,232,13,20,46,066,35*78
$GPGSV,5,3,18,22,17,116,35,23,01,213,,24,62,241,28,25,10,335,*7C
$GPGSV,5,4,18,29,10,300,,36,52,277,,40,86,350,46,41,58,082,39*7E
$GPGSV,5,5,18,49,32,274,,50,10,089,*78
$GLGSV,3,1,11,70,00,085,,71,15,126,36,72,17,176,08,73,02,150,29*6D
$GLGSV,3,2,11,74,43,133,27,75,65,030,36,76,14,343,,86,34,333,22*69
$GLGSV,3,3,11,87,36,275,14,88,02,225,,,,,17*6B
$GNGLL,0419.99830,S,05539.83772,E,045421.00,A,D*6D
$GNGRS,045421.00,1,-1.6,0.6,-1.7,2.3,3.8,-0.2,5.0,66.0,,,,*41
$GNGRS,045421.00,1,-2.8,13.7,0.2,13.8,-5.9,80.6,,,,,,*63
$GNGST,045421.00,49,,,,3.5,4.5,7.3*41
$GNZDA,045421.00,23,05,2025,00,00*7F
$GNGBS,045421.00,3.5,4.5,7.3,,,,*5A
$GNTXT,01,01,01,More than 100 frame errors, UART RX was disabled*70
b0p!;!"
?#.B4#t%>
P
,{4-V^':R 
YdFUG$~HI>J+K&A.LWV"MpW
$+X+~br8w5$GNRMC,045422.00,A,0419.99829,S,05539.83770,E,0.091,,230525,,,D*76
$GNVTG,,T,,M,0.091,N,0.168,K,D*3F
$GNGNS,045422.00,0419.99829,S,05539.83770,E,DA,14,0.82,19.1,-47.6,,0000*65
$GNGGA,045422.00,0419.99829,S,05539.83770,E,2,12,0.82,19.1,M,-47.6,M,,0000*4F
$GNGSA,A,3,24,20,05,13,15,22,12,18,,,,,1.62,0.82,1.39*15
$GNGSA,A,3,86,74,75,87,71,72,,,,,,,1.62,0.82,1.39*1B
$GPGSV,5,1,18,05,59,130,33,11,22,020,22,12,33,001,12,13,20,156,34*79
$GPGSV,5,2,18,14,02,130,29,15,28,191,18,18,23,232,12,20,46,066,35*79
$GPGSV,5,3,18,22,17,116,35,23,01,213,,24,62,241,29,25,10,336,*7E
$GPGSV,5,4,18,29,10,300,,36,52,277,,40,86,350,45,41,58,082,39*7D
$GPGSV,5,5,18,49,32,274,,50,10,089,*78
$GLGSV,3,1,11,70,00,085,,71,15,126,36,72,17,176,11,73,02,150,29*65
$GLGSV,3,2,11,74,43,133,26,75,65,030,38,76,14,343,,86,34,333,22*66
$GLGSV,3,3,11,87,36,275,10,88,02,225,,,,,16*6E
$GNGLL,0419.99829,S,05539.83770,E,045422.00,A,D*64
$GNGRS,045422.00,1,-6.1,0.5,-3.2,1.8,5.8,0.4,7.4,65.7,,,,*61
$GNGRS,045422.00,1,-4.0,14.4,0.5,3.0,-5.9,6.6,,,,,,*6A
$GNGST,045422.00,133202,,,,3.5,4.5,7.3*4E
$GNZDA,045422.00,23,05,2025,00,00*7C
$GNGBS,045422.00,3.5,4.5,7.3,,,,*59
$GNTXT,01,01,01,More than 100 frame errors, UART RX was disabled*70
b0ph;r!k$l
M5$.B@!t>9
P
,{4-V^':R 
Y
dFUG"~HhIJ+K'A'LWV"MW$Xvbhr8N$GNRMC,045423.00,A,0419.99830,S,05539.83763,E,0.048,,230525,,,D*79
$GNVTG,,T,,M,0.048,N,0.089,K,D*35
$GNGNS,045423.00,0419.99830,S,05539.83763,E,DA,14,0.82,19.1,-47.6,,0000*6E
$GNGGA,045423.00,0419.99830,S,05539.83763,E,2,12,0.82,19.1,M,-47.6,M,,0000*44
$GNGSA,A,3,24,20,05,13,15,22,12,18,,,,,1.62,0.82,1.39*15
$GNGSA,A,3,86,74,75,87,71,72,,,,,,,1.62,0.82,1.39*1B
$GPGSV,5,1,18,05,59,130,29,11,22,020,22,12,33,001,14,13,20,156,36*76
$GPGSV,5,2,18,14,02,130,30,15,28,191,19,18,23,232,12,20,46,066,36*73
$GPGSV,5,3,18,22,17,116,33,23,01,213,,24,62,241,28,25,10,336,*79
$GPGSV,5,4,18,29,10,300,,36,52,277,,40,86,350,45,41,58,082,39*7D
$GPGSV,5,5,18,49,32,274,,50,10,089,*78
$GLGSV,3,1,11,70,00,085,,71,15,126,34,72,17,176,11,73,02,150,29*67
$GLGSV,3,2,11,74,43,133,26,75,65,030,39,76,14,343,,86,34,333,23*66
$GLGSV,3,3,11,87,36,275,15,88,02,225,,,,,16*6B
$GNGLL,0419.99830,S,05539.83763,E,045423.00,A,D*6F
$GNGRS,045423.00,1,-4.6,0.6,-1.4,3.6,5.7,-1.1,6.2,66.1,,,,*4A
$GNGRS,045423.00,1,-3.9,14.8,0.4,2.7,-5.8,6.2,,,,,,*6B
$GNGST,045423.00,199803,,,,3.5,4.5,7.3*44
$GNZDA,045423.00,23,05,2025,00,00*7D
$GNGBS,045423.00,3.5,4.5,7.3,,,,*58
$GNTXT,01,01,01,More than 100 frame errors, UART RX was disabled*70
b0pP!;!$

$.BE t>
P
,{4-V^(:R 
YdFUG"~HIJ+K&A,LWV"MW$.XbPr8&$GNRMC,045424.00,A,0419.99833,S,05539.83759,E,0.020,,230525,,,D*7A
$GNVTG,,T,,M,0.020,N,0.036,K,D*3F
$GNGNS,045424.00,0419.99833,S,05539.83759,E,DA,13,0.82,19.1,-47.6,,0000*64
$GNGGA,045424.00,0419.99833,S,05539.83759,E,2,12,0.82,19.1,M,-47.6,M,,0000*49
$GNGSA,A,3,24,20,05,13,15,22,12,,,,,,1.62,0.82,1.39*1C
$GNGSA,A,3,86,74,75,87,71,72,,,,,,,1.62,0.82,1.39*1B
$GPGSV,5,1,18,05,59,130,33,11,22,020,22,12,33,001,14,13,20,156,36*7D
$GPGSV,5,2,18,14,02,130,31,15,28,191,19,18,23,232,10,20,46,066,36*70
$GPGSV,5,3,18,22,17,116,32,23,01,213,,24,62,241,27,25,10,336,*77
$GPGSV,5,4,18,29,10,300,,36,52,277,,40,86,350,45,41,58,082,40*73
$GPGSV,5,5,18,49,32,274,,50,10,089,*78
$GLGSV,3,1,11,70,00,085,,71,15,126,34,72,17,176,12,73,02,150,29*64
$GLGSV,3,2,11,74,43,133,26,75,65,030,38,76,14,343,,86,34,333,24*60
$GLGSV,3,3,11,87,36,275,13,88,02,225,,,,,15*6E
$GNGLL,0419.99833,S,05539.83759,E,045424.00,A,D*62
$GNGRS,045424.00,1,-3.6,0.7,-2.8,4.3,5.2,-0.8,4.7,,,,,*53
$GNGRS,045424.00,1,-5.8,14.5,0.4,3.0,-5.9,-11.1,,,,,,*79
$GNGST,045424.00,56,,,,3.5,4.5,7.3*4A
$GNZDA,045424.00,23,05,2025,00,00*7A
$GNGBS,045424.00,3.5,4.5,7.3,,,,*5F
$GNTXT,01,01,01,More than 100 frame errors, UART RX was disabled*70
b0p8";;!"
 b#.BG t>
P
,{4-V^(:R 
YdFUG"~HIMJ+nK$ALWV"M$W$"Xb8r8j$GNRMC,045425.00,A,0419.99833,S,05539.83751,E,0.095,,230525,,,D*7D
$GNVTG,,T,,M,0.095,N,0.176,K,D*34
$GNGNS,045425.00,0419.99833,S,05539.83751,E,DA,13,0.82,19.0,-47.6,,0000*6C
$GNGGA,045425.00,0419.99833,S,05539.83751,E,2,12,0.82,19.0,M,-47.6,M,,0000*41
$GNGSA,A,3,24,20,05,13,15,22,12,,,,,,1.62,0.82,1.39*1C
$GNGSA,A,3,86,74,75,87,71,72,,,,,,,1.62,0.82,1.39*1B
$GPGSV,5,1,18,05,59,130,34,11,22,020,22,12,33,001,16,13,20,156,34*7A
$GPGSV,5,2,18,14,02,130,32,15,28,191,18,18,23,232,,20,46,066,35*70
$GPGSV,5,3,18,22,17,116,32,23,01,213,,24,62,241,26,25,10,336,*76
$GPGSV,5,4,18,29,10,300,,36,52,277,,40,86,350,45,41,58,082,40*73
$GPGSV,5,5,18,49,32,274,,50,10,089,*78
$GLGSV,3,1,11,70,00,085,,71,15,126,34,72,17,176,11,73,02,150,29*67
$GLGSV,3,2,11,74,43,133,25,75,65,030,36,76,14,343,,86,34,333,24*6D
$GLGSV,3,3,11,87,36,275,15,88,02,225,,,,,16*6B
$GNGLL,0419.99833,S,05539.83751,E,045425.00,A,D*6B
$GNGRS,045425.00,1,-3.5,0.7,-2.0,4.3,3.5,-1.0,2.1,,,,,*51
$GNGRS,045425.00,1,-4.8,13.9,0.2,2.9,-5.9,6.5,,,,,,*63
$GNGST,045425.00,192931,,,,3.5,4.5,7.3*49
$GNZDA,045425.00,23,05,2025,00,00*7B
$GNGBS,045425.00,3.5,4.5,7.3,,,,*5E
$GNTXT,01,01,01,More than 100 frame errors, UART RX was disabled*70
b0p ";!#
 +#.B( t>
P
-{4,V^):R 
YdFUG"~H
kIJ+K%ALWV"MW$"XSb r8$GNRMC,045426.00,A,0419.99833,S,05539.83747,E,0.054,,230525,,,D*74
$GNVTG,,T,,M,0.054,N,0.100,K,D*38
$GNGNS,045426.00,0419.99833,S,05539.83747,E,DA,13,0.82,18.9,-47.6,,0000*60
$GNGGA,045426.00,0419.99833,S,05539.83747,E,2,12,0.82,18.9,M,-47.6,M,,0000*4D
$GNGSA,A,3,24,20,05,13,15,22,12,,,,,,1.62,0.82,1.39*1C
$GNGSA,A,3,86,74,75,87,71,72,,,,,,,1.62,0.82,1.39*1B
$GPGSV,5,1,18,05,59,130,34,11,22,020,22,12,33,001,16,13,20,156,35*7B
$GPGSV,5,2,18,14,02,130,32,15,28,191,19,18,23,232,,20,46,066,35*71
$GPGSV,5,3,18,22,17,116,32,23,01,213,,24,62,241,25,25,10,336,*75
$GPGSV,5,4,18,29,10,301,,36,52,277,,40,86,350,44,41,58,082,41*72
$GPGSV,5,5,18,49,32,274,,50,10,089,*78
$GLGSV,3,1,11,70,00,085,,71,15,126,34,72,17,176,10,73,02,150,30*6E
$GLGSV,3,2,11,74,43,133,25,75,65,030,37,76,14,343,,86,34,333,25*6D
$GLGSV,3,3,11,87,36,275,07,88,02,225,,,,,16*68
$GNGLL,0419.99833,S,05539.83747,E,045426.00,A,D*6F
$GNGRS,045426.00,1,-4.8,0.4,-5.0,2.1,3.0,-1.1,1.5,,,,,*5B
$GNGRS,045426.00,1,-2.5,14.7,-0.2,2.9,-5.8,6.2,,,,,,*49
$GNGST,045426.00,3299295,,,,3.5,4.5,7.3*74
$GNZDA,045426.00,23,05,2025,00,00*78
$GNGBS,045426.00,3.5,4.5,7.3,,,,*5D
$GNTXT,01,01,01,More than 100 frame errors, UART RX was disabled*70
b0p";!s$
1#.B4 t>
P
-{4,V^(:R 
Yd9FUG!~HIJ+K%ALWV"MBW$XLbr 8:$GNRMC,045427.00,A,0419.99833,S,05539.83743,E,0.019,,230525,,,D*78
$GNVTG,,T,,M,0.019,N,0.036,K,D*35
$GNGNS,045427.00,0419.99833,S,05539.83743,E,DA,13,0.97,18.8,-47.6,,0000*60
$GNGGA,045427.00,0419.99833,S,05539.83743,E,2,12,0.97,18.8,M,-47.6,M,,0000*4D
$GNGSA,A,3,24,20,05,13,15,22,12,,,,,,1.77,0.97,1.48*1A
$GNGSA,A,3,86,74,75,87,71,72,,,,,,,1.77,0.97,1.48*1D
$GPGSV,5,1,18,05,59,130,34,11,22,020,22,12,33,001,17,13,20,156,36*79
$GPGSV,5,2,18,14,02,130,31,15,28,191,19,18,23,232,14,20,46,066,35*77
$GPGSV,5,3,18,22,17,116,32,23,01,213,,24,62,241,25,25,10,336,*75
$GPGSV,5,4,18,29,10,301,,36,52,277,,40,86,350,44,41,58,082,40*73
$GPGSV,5,5,18,49,32,274,,50,10,089,*78
$GLGSV,3,1,11,70,00,085,,71,15,126,33,72,17,176,09,73,02,150,30*61
$GLGSV,3,2,11,74,43,133,25,75,65,030,37,76,14,343,,86,34,333,24*6C
$GLGSV,3,3,11,87,36,275,11,88,02,225,,,,,17*6E
$GNGLL,0419.99833,S,05539.83743,E,045427.00,A,D*6A
$GNGRS,045427.00,1,-6.2,0.5,-2.7,2.0,0.5,-1.3,3.7,,,,,*56
$GNGRS,045427.00,1,-4.5,14.3,0.0,-144,-5.4,-46.2,,,,,,*49
$GNGST,045427.00,33,,,,3.4,4.6,7.3*48
$GNZDA,045427.00,23,05,2025,00,00*79
$GNGBS,045427.00,3.4,4.6,7.3,,,,*5E
$GNTXT,01,01,01,More than 100 frame errors, UART RX was disabled*70
b0p;x!#
H;#.B8t]>
P
-{4+V^#:R 
YdHFUG ~H
IJ+K(ALWV"MW$9Xbr$8$GNRMC,045428.00,A,0419.99836,S,05539.83748,E,0.184,,230525,,,D*7C
$GNVTG,,T,,M,0.184,N,0.340,K,D*32
$GNGNS,045428.00,0419.99836,S,05539.83748,E,DA,13,0.82,19.1,-47.6,,0000*6D
$GNGGA,045428.00,0419.99836,S,05539.83748,E,2,12,0.82,19.1,M,-47.6,M,,0000*40
$GNGSA,A,3,24,20,05,13,15,22,12,,,,,,1.62,0.82,1.39*1C
$GNGSA,A,3,86,74,75,87,71,72,,,,,,,1.62,0.82,1.39*1B
$GPGSV,5,1,18,05,59,130,26,11,22,020,22,12,33,001,17,13,20,156,35*79
$GPGSV,5,2,18,14,02,130,30,15,28,191,19,18,23,232,20,20,46,066,35*71
$GPGSV,5,3,18,22,17,116,29,23,01,213,,24,62,241,28,25,10,336,*72
$GPGSV,5,4,18,29,10,301,,36,52,277,,40,86,350,43,41,58,082,35*76
$GPGSV,5,5,18,49,32,274,,50,10,089,*78
$GLGSV,3,1,11,70,00,085,,71,15,126,32,72,17,176,10,73,02,150,29*60
$GLGSV,3,2,11,74,43,133,25,75,65,030,40,76,14,343,,86,34,333,24*6C
$GLGSV,3,3,11,87,36,275,12,88,02,225,,,,,17*6D
$GNGLL,0419.99836,S,05539.83748,E,045428.00,A,D*6B
$GNGRS,045428.00,1,-2.9,0.6,-1.4,1.6,-0.3,-1.6,1.9,,,,,*72
$GNGRS,045428.00,1,-5.1,14.2,0.2,3.1,-5.3,6.9,,,,,,*65
$GNGST,045428.00,3299293,,,,3.5,4.6,7.3*7F
$GNZDA,045428.00,23,05,2025,00,00*76
$GNGBS,045428.00,3.5,4.6,7.3,,,,*50
$GNTXT,01,01,01,More than 100 frame errors, UART RX was disabled*70
b0p$;!"
G9#.Btp>
P
-{4,V^':R 
YdmFUG ~HI3J+uK'ALWV"MW$;Xbrk(8]$GNRMC,045429.00,A,0419.99835,S,05539.83752,E,0.065,,230525,,,D*7B
$GNVTG,,T,,M,0.065,N,0.121,K,D*39
$GNGNS,045429.00,0419.99835,S,05539.83752,E,DA,13,0.82,19.1,-47.6,,0000*64
$GNGGA,045429.00,0419.99835,S,05539.83752,E,2,12,0.82,19.1,M,-47.6,M,,0000*49
$GNGSA,A,3,24,20,05,13,15,22,12,,,,,,1.62,0.82,1.39*1C
$GNGSA,A,3,86,74,75,87,71,72,,,,,,,1.62,0.82,1.39*1B
$GPGSV,5,1,18,05,59,130,36,11,22,020,22,12,33,001,16,13,20,156,34*78
$GPGSV,5,2,18,14,02,130,28,15,28,191,20,18,23,232,17,20,46,066,35*76
$GPGSV,5,3,18,22,17,116,31,23,01,213,,24,62,241,30,25,10,336,*72
$GPGSV,5,4,18,29,10,301,,36,52,277,,40,86,350,44,41,58,082,39*7D
$GPGSV,5,5,18,49,32,274,,50,10,089,*78
$GLGSV,3,1,11,70,00,085,,71,15,126,32,72,17,176,13,73,02,150,21*6B
$GLGSV,3,2,11,74,43,133,25,75,65,030,39,76,14,343,,86,34,333,23*65
$GLGSV,3,3,11,87,36,275,08,88,02,225,,,,,16*67
$GNGLL,0419.99835,S,05539.83752,E,045429.00,A,D*62
$GNGRS,045429.00,1,-3.4,0.2,-2.4,-0.2,-0.8,-1.4,1.6,,,,,*56
$GNGRS,045429.00,1,-6.1,14.0,-0.1,3.2,-0.3,6.9,,,,,,*4D
$GNGST,045429.00,3299295,,,,3.4,4.5,7.3*7A
$GNZDA,045429.00,23,05,2025,00,00*77
$GNGBS,045429.00,3.4,4.5,7.3,,,,*53
$GNTXT,01,01,01,More than 100 frame errors, UART RX was disabled*70
b0p$;!Y#K
X6#.B t>
P
-{4-V^':R 
YddFUG"~H+IJ+vK)ALWV"MW$FXbrS,85c$GNRMC,045430.00,A,0419.99839,S,05539.83756,E,0.034,,230525,,,D*7F
$GNVTG,,T,,M,0.034,N,0.063,K,D*3A
$GNGNS,045430.00,0419.99839,S,05539.83756,E,DA,13,0.97,19.3,-47.6,,0000*62
$GNGGA,045430.00,0419.99839,S,05539.83756,E,2,12,0.97,19.3,M,-47.6,M,,0000*4F
$GNGSA,A,3,24,20,05,13,15,22,12,,,,,,1.77,0.97,1.48*1A
$GNGSA,A,3,86,74,75,87,71,72,,,,,,,1.77,0.97,1.48*1D
$GPGSV,5,1,18,05,59,130,36,11,22,020,22,12,33,001,15,13,20,156,35*7A
$GPGSV,5,2,18,14,02,130,28,15,28,191,19,18,23,232,15,20,46,066,35*7E
$GPGSV,5,3,18,22,17,116,32,23,01,213,,24,62,241,31,25,10,336,*70
$GPGSV,5,4,18,29,10,301,,36,52,277,,40,86,350,45,41,58,082,39*7C
$GPGSV,5,5,18,49,32,274,,50,10,089,*78
$GLGSV,3,1,11,70,00,085,,71,15,126,34,72,17,176,08,73,02,150,19*6C
$GLGSV,3,2,11,74,43,133,26,75,65,030,41,76,14,343,,86,34,333,22*68
$GLGSV,3,3,11,87,36,275,08,88,02,225,,,,,15*64
$GNGLL,0419.99839,S,05539.83756,E,045430.00,A,D*62
$GNGRS,045430.00,1,-3.4,0.3,-1.3,3.3,-1.7,-2.7,0.9,,,,,*74
$GNGRS,045430.00,1,-7.6,14.0,0.2,-55.6,-5.4,-66.1,,,,,,*66
$GNGST,045430.00,38,,,,3.4,4.5,7.2*47
$GNZDA,045430.00,23,05,2025,00,00*7F
$GNGBS,045430.00,3.4,4.5,7.2,,,,*5A
$GNTXT,01,01,01,More than 100 frame errors, UART RX was disabled*70
b0p";!2%
i:$.Bt>
P
-{4-V^':R 
YdFUG$~)HIiJ+fK'A0LWV"MUW$>Xbr;08$GNRMC,045431.00,A,0419.99839,S,05539.83757,E,0.032,,230525,,,D*79
$GNVTG,,T,,M,0.032,N,0.059,K,D*35
$GNGNS,045431.00,0419.99839,S,05539.83757,E,DA,13,0.82,19.3,-47.6,,0000*66
$GNGGA,045431.00,0419.99839,S,05539.83757,E,2,12,0.82,19.3,M,-47.6,M,,0000*4B
$GNGSA,A,3,24,20,05,13,15,22,12,,,,,,1.62,0.82,1.39*1C
$GNGSA,A,3,86,74,75,87,71,72,,,,,,,1.62,0.82,1.39*1B
$GPGSV,5,1,18,05,59,130,34,11,22,020,21,12,33,001,16,13,20,156,37*7A
$GPGSV,5,2,18,14,02,130,29,15,28,191,20,18,23,232,,20,46,066,36*72
$GPGSV,5,3,18,22,17,116,31,23,01,213,,24,62,241,31,25,10,336,*73
$GPGSV,5,4,18,29,10,301,,36,52,277,,40,86,350,45,41,58,082,39*7C
$GPGSV,5,5,18,49,32,274,,50,10,089,*78
$GLGSV,3,1,11,70,00,085,,71,15,126,36,72,17,176,09,73,02,150,22*67
$GLGSV,3,2,11,74,43,133,26,75,65,030,39,76,14,343,,86,34,333,23*66
$GLGSV,3,3,11,87,36,275,11,88,02,225,,,,,19*60
$GNGLL,0419.99839,S,05539.83757,E,045431.00,A,D*62
$GNGRS,045431.00,1,-3.8,0.2,-2.9,1.3,-2.0,0.1,0.5,,,,,*52
$GNGRS,045431.00,1,-6.8,13.8,0.5,3.2,-2.1,6.5,,,,,,*67
$GNGST,045431.00,4665903,,,,3.4,4.5,7.2*76
$GNZDA,045431.00,23,05,2025,00,00*7E
$GNGBS,045431.00,3.4,4.5,7.2,,,,*5B
$GNTXT,01,01,01,More than 100 frame errors, UART RX was disabled*70
b0p;`!U$
%.B- t1>
P
-{4,V^):R 
YdFUG$~sHcIoJ+9K(ALWV"MW$YXkbr#483$GNRMC,045432.00,A,0419.99848,S,05539.83765,E,0.123,,230525,,,D*7C
$GNVTG,,T,,M,0.123,N,0.228,K,D*30
$GNGNS,045432.00,0419.99848,S,05539.83765,E,DA,13,0.82,19.5,-47.6,,0000*64
$GNGGA,045432.00,0419.99848,S,05539.83765,E,2,12,0.82,19.5,M,-47.6,M,,0000*49
$GNGSA,A,3,24,20,05,13,15,22,12,,,,,,1.62,0.82,1.39*1C
$GNGSA,A,3,86,74,75,87,71,72,,,,,,,1.62,0.82,1.39*1B
$GPGSV,5,1,18,05,59,130,30,11,22,020,22,12,33,001,16,13,20,156,36*7C
$GPGSV,5,2,18,14,02,130,30,15,28,191,20,18,23,232,,20,46,066,37*7B
$GPGSV,5,3,18,22,17,116,32,23,01,213,,24,62,241,31,25,10,336,*70
$GPGSV,5,4,18,29,10,301,,36,52,277,,40,86,350,44,41,58,082,41*72
$GPGSV,5,5,18,49,32,274,,50,10,089,*78
$GLGSV,3,1,11,70,00,085,,71,15,126,36,72,17,176,13,73,02,150,24*6A
$GLGSV,3,2,11,74,43,133,24,75,65,030,40,76,14,343,,86,34,333,24*6D
$GLGSV,3,3,11,87,36,275,09,88,02,225,,,,,21*62
$GNGLL,0419.99848,S,05539.83765,E,045432.00,A,D*66
$GNGRS,045432.00,1,-3.4,0.5,-1.6,4.9,-3.8,0.5,0.9,,,,,*58
$GNGRS,045432.00,1,-6.2,13.4,0.2,3.4,-1.4,6.1,,,,,,*61
$GNGST,045432.00,4665903,,,,3.4,4.4,7.2*74
$GNZDA,045432.00,23,05,2025,00,00*7D
$GNGBS,045432.00,3.4,4.4,7.2,,,,*59
$GNTXT,01,01,01,More than 100 frame errors, UART RX was disabled*70
b0px;!R"j
 %.B$td>
P
-{4,V^):R 
YdFUG%~H)I]J+K(A-LWV"M_W$fXTbxr88$GNRMC,045433.00,A,0419.99849,S,05539.83772,E,0.094,,230525,,,D*77
$GNVTG,,T,,M,0.094,N,0.175,K,D*36
$GNGNS,045433.00,0419.99849,S,05539.83772,E,DA,13,0.85,19.6,-47.6,,0000*66
$GNGGA,045433.00,0419.99849,S,05539.83772,E,2,12,0.85,19.6,M,-47.6,M,,0000*4B
$GNGSA,A,3,24,20,05,13,15,22,12,,,,,,1.67,0.85,1.44*14
$GNGSA,A,3,86,74,75,87,71,72,,,,,,,1.67,0.85,1.44*13
$GPGSV,5,1,18,05,59,130,31,11,22,020,22,12,33,001,18,13,20,156,34*71
$GPGSV,5,2,18,14,02,130,32,15,28,191,19,18,23,232,,20,46,066,37*73
$GPGSV,5,3,18,22,17,116,31,23,01,213,,24,62,241,31,25,10,336,*73
$GPGSV,5,4,18,29,10,301,,36,52,277,,40,86,350,44,41,58,082,41*72
$GPGSV,5,5,18,49,32,274,,50,10,089,*78
$GLGSV,3,1,11,70,00,085,,71,15,126,37,72,17,176,13,73,02,150,25*6A
$GLGSV,3,2,11,74,43,133,24,75,65,030,40,76,14,343,,86,34,333,23*6A
$GLGSV,3,3,11,87,36,275,11,88,02,225,,,,,21*6B
$GNGLL,0419.99849,S,05539.83772,E,045433.00,A,D*60
$GNGRS,045433.00,1,-5.0,0.4,-2.7,1.1,-2.9,3.6,0.8,,,,,*54
$GNGRS,045433.00,1,-4.2,13.0,0.5,3.6,-0.2,-20.1,,,,,,*7D
$GNGST,045433.00,47,,,,3.4,4.4,7.3*4C
$GNZDA,045433.00,23,05,2025,00,00*7C
$GNGBS,045433.00,3.4,4.4,7.3,,,,*59
$GNTXT,01,01,01,More than 100 frame errors, UART RX was disabled*70
b0p`;!#
 7v%.B"t>
P
-{4-V^(:R 
YdoFUG%~H
IJ+%K)A)LWV"MW$KXb`r;8$GNRMC,045434.00,A,0419.99855,S,05539.83779,E,0.114,,230525,,,D*7F
$GNVTG,,T,,M,0.114,N,0.211,K,D*3E
$GNGNS,045434.00,0419.99855,S,05539.83779,E,DA,13,0.82,19.9,-47.6,,0000*6F
$GNGGA,045434.00,0419.99855,S,05539.83779,E,2,12,0.82,19.9,M,-47.6,M,,0000*42
$GNGSA,A,3,24,20,05,13,15,22,12,,,,,,1.62,0.82,1.39*1C
$GNGSA,A,3,86,74,75,87,71,72,,,,,,,1.62,0.82,1.39*1B
$GPGSV,5,1,18,05,59,130,30,11,22,020,23,12,33,001,17,13,20,156,35*7F
$GPGSV,5,2,18,14,02,130,32,15,28,191,17,18,23,232,,20,46,066,37*7D
$GPGSV,5,3,18,22,17,116,31,23,01,213,,24,62,241,31,25,10,336,*73
$GPGSV,5,4,18,29,10,301,,36,52,277,,40,86,350,45,41,58,082,40*72
$GPGSV,5,5,18,49,32,274,,50,10,089,*78
$GLGSV,3,1,11,70,00,085,,71,15,126,37,72,17,176,10,73,02,150,26*6A
$GLGSV,3,2,11,74,43,133,25,75,65,030,41,76,14,343,,86,34,333,23*6A
$GLGSV,3,3,11,87,36,275,09,88,02,225,,,,,21*62
$GNGLL,0419.99855,S,05539.83779,E,045434.00,A,D*61
$GNGRS,045434.00,1,-2.9,0.3,-0.6,1.8,-3.9,2.4,0.2,,,,,*58
$GNGRS,045434.00,1,-3.1,13.2,0.4,3.3,-3.0,6.7,,,,,,*66
$GNGST,045434.00,3299292,,,,3.4,4.4,7.3*70
$GNZDA,045434.00,23,05,2025,00,00*7B
$GNGBS,045434.00,3.4,4.4,7.3,,,,*5E
$GNTXT,01,01,01,More than 100 frame errors, UART RX was disabled*70
b0pH;!'#
 /8%.B"t>
P
-{4-V^(:R 
YdFUG&~HIJ+K)A=LWV"MW$CXwbHr?8lh$GNRMC,045435.00,A,0419.99856,S,05539.83777,E,0.036,,230525,,,D*72
$GNVTG,,T,,M,0.036,N,0.067,K,D*3C
$GNGNS,045435.00,0419.99856,S,05539.83777,E,DA,13,0.82,19.9,-47.6,,0000*63
$GNGGA,045435.00,0419.99856,S,05539.83777,E,2,12,0.82,19.9,M,-47.6,M,,0000*4E
$GNGSA,A,3,24,20,05,13,15,22,12,,,,,,1.62,0.82,1.39*1C
$GNGSA,A,3,86,74,75,87,71,72,,,,,,,1.62,0.82,1.39*1B
$GPGSV,5,1,18,05,59,130,29,11,22,020,22,12,33,001,17,13,20,156,35*76
$GPGSV,5,2,18,14,02,130,32,15,28,191,17,18,23,232,15,20,46,066,37*79
$GPGSV,5,3,18,22,17,116,31,23,01,213,,24,62,241,31,25,10,336,*73
$GPGSV,5,4,18,29,10,301,,36,52,277,,40,86,350,45,41,58,082,40*72
$GPGSV,5,5,18,49,32,274,,50,10,089,*78
$GLGSV,3,1,11,70,00,085,,71,15,126,38,72,17,176,09,73,02,150,28*63
$GLGSV,3,2,11,74,43,133,25,75,65,030,41,76,14,343,,86,34,333,22*6B
$GLGSV,3,3,11,87,36,275,15,88,02,225,,,,,20*6E
$GNGLL,0419.99856,S,05539.83777,E,045435.00,A,D*6D
$GNGRS,045435.00,1,-2.3,0.3,2.2,2.6,-4.6,4.0,0.4,,,,,*79
$GNGRS,045435.00,1,-3.3,12.4,0.6,3.2,-3.8,6.4,,,,,,*6A
$GNGST,045435.00,3299292,,,,3.5,4.4,7.4*77
$GNZDA,045435.00,23,05,2025,00,00*7A
$GNGBS,045435.00,3.5,4.4,7.4,,,,*59
$GNTXT,01,01,01,More than 100 frame errors, UART RX was disabled*70
b0p0;!Z#
%.B tm>m
P
-{4-V^(:R 
Yd:FUG%~HIJ+K)A:LWV"MbW$Xb0rC8D$GNRMC,045436.00,A,0419.99853,S,05539.83779,E,0.050,,230525,,,D*7A
$GNVTG,,T,,M,0.050,N,0.093,K,D*37
$GNGNS,045436.00,0419.99853,S,05539.83779,E,DA,13,0.85,19.9,-47.6,,0000*6C
$GNGGA,045436.00,0419.99853,S,05539.83779,E,2,12,0.85,19.9,M,-47.6,M,,0000*41
$GNGSA,A,3,24,20,05,13,15,22,12,,,,,,1.67,0.85,1.44*14
$GNGSA,A,3,86,74,75,87,71,72,,,,,,,1.67,0.85,1.44*13
$GPGSV,5,1,18,05,59,130,28,11,22,020,22,12,33,001,16,13,20,156,35*76
$GPGSV,5,2,18,14,02,130,31,15,28,191,17,18,23,232,13,20,46,066,37*7C
$GPGSV,5,3,18,22,17,116,32,23,01,213,,24,62,241,31,25,10,336,*70
$GPGSV,5,4,18,29,10,301,,36,52,277,,40,86,350,45,41,58,082,40*72
$GPGSV,5,5,18,49,32,274,,50,10,089,*78
$GLGSV,3,1,11,70,00,085,,71,15,126,37,72,17,176,11,73,02,150,31*6D
$GLGSV,3,2,11,74,43,133,26,75,65,030,41,76,14,343,,86,34,333,23*69
$GLGSV,3,3,11,87,36,275,09,88,02,225,,,,,20*63
$GNGLL,0419.99853,S,05539.83779,E,045436.00,A,D*65
$GNGRS,045436.00,1,-6.6,0.0,-0.4,1.3,-3.3,3.6,3.5,,,,,*56
$GNGRS,045436.00,1,-4.1,12.1,0.6,12.5,-2.3,-97.0,,,,,,*45
$GNGST,045436.00,53,,,,3.5,4.4,7.4*4A
$GNZDA,045436.00,23,05,2025,00,00*79
$GNGBS,045436.00,3.5,4.4,7.4,,,,*5A
$GNTXT,01,01,01,More than 100 frame errors, UART RX was disabled*70
b0p;l!#
 L%.B t>
P
-{4-V^(:R 
YdFUG%~HI!SJ+iK)A:LWV"MW$4XbrG88$GNRMC,045437.00,A,0419.99855,S,05539.83784,E,0.077,,230525,,,D*7A
$GNVTG,,T,,M,0.077,N,0.142,K,D*3F
$GNGNS,045437.00,0419.99855,S,05539.83784,E,DA,13,0.82,20.0,-47.6,,0000*6D
$GNGGA,045437.00,0419.99855,S,05539.83784,E,2,12,0.82,20.0,M,-47.6,M,,0000*40
$GNGSA,A,3,24,20,05,13,15,22,12,,,,,,1.62,0.82,1.39*1C
$GNGSA,A,3,86,74,75,87,71,72,,,,,,,1.62,0.82,1.39*1B
$GPGSV,5,1,18,05,59,130,27,11,22,020,22,12,33,001,17,13,20,156,35*78
$GPGSV,5,2,18,14,02,130,32,15,28,191,18,18,23,232,11,20,46,066,37*72
$GPGSV,5,3,18,22,17,116,32,23,01,213,,24,62,241,31,25,10,336,*70
$GPGSV,5,4,18,29,10,301,,36,52,277,,40,86,350,45,41,58,082,40*72
$GPGSV,5,5,18,49,32,274,,50,10,089,*78
$GLGSV,3,1,11,70,00,085,,71,15,126,37,72,17,176,11,73,02,150,33*6F
$GLGSV,3,2,11,74,43,133,26,75,65,030,41,76,14,343,,86,34,333,22*68
$GLGSV,3,3,11,87,36,275,13,88,02,225,,,,,19*62
$GNGLL,0419.99855,S,05539.83784,E,045437.00,A,D*60
$GNGRS,045437.00,1,-5.8,0.1,-1.5,1.7,-2.7,2.3,5.1,,,,,*5C
$GNGRS,045437.00,1,-3.4,11.3,0.6,3.1,-2.3,6.6,,,,,,*60
$GNGST,045437.00,3301008,,,,3.5,4.4,7.5*75
$GNZDA,045437.00,23,05,2025,00,00*78
$GNGBS,045437.00,3.5,4.4,7.5,,,,*5A
$GNTXT,01,01,01,More than 100 frame errors, UART RX was disabled*70
b0p;!#
!
%.B ty>
P
-{4,V^(:R 
YdFUG%~
HvI J+HK)A)LWV"M5W$'X`brK8$GNRMC,045438.00,A,0419.99855,S,05539.83786,E,0.069,,230525,,,D*78
$GNVTG,,T,,M,0.069,N,0.128,K,D*3C
$GNGNS,045438.00,0419.99855,S,05539.83786,E,DA,14,0.75,20.1,-47.6,,0000*6E
$GNGGA,045438.00,0419.99855,S,05539.83786,E,2,12,0.75,20.1,M,-47.6,M,,0000*44
$GNGSA,A,3,24,20,05,13,15,22,12,18,,,,,1.56,0.75,1.36*15
$GNGSA,A,3,86,74,75,87,71,72,,,,,,,1.56,0.75,1.36*1B
$GPGSV,5,1,18,05,59,130,27,11,22,020,21,12,33,001,18,13,20,156,35*74
$GPGSV,5,2,18,14,02,130,33,15,28,191,19,18,23,232,10,20,46,066,37*73
$GPGSV,5,3,18,22,17,116,32,23,01,213,,24,62,241,31,25,10,336,*70
$GPGSV,5,4,18,29,10,301,,36,52,277,,40,86,350,44,41,58,082,40*73
$GPGSV,5,5,18,49,32,274,,50,10,089,*78
$GLGSV,3,1,11,70,00,085,,71,15,126,37,72,17,176,12,73,02,150,32*6D
$GLGSV,3,2,11,74,43,133,26,75,65,030,41,76,14,343,,86,34,333,22*68
$GLGSV,3,3,11,87,36,275,13,88,02,225,,,,,20*68
$GNGLL,0419.99855,S,05539.83786,E,045438.00,A,D*6D
$GNGRS,045438.00,1,-1.3,-0.1,-0.1,1.8,-3.7,1.2,4.4,-18.9,,,,*4F
$GNGRS,045438.00,1,-4.6,11.0,0.4,3.0,-2.5,6.3,,,,,,*69
$GNGST,045438.00,3182997,,,,3.5,4.4,7.6*7F
$GNZDA,045438.00,23,05,2025,00,00*77
$GNGBS,045438.00,3.5,4.4,7.6,,,,*56
$GNTXT,01,01,01,More than 100 frame errors, UART RX was disabled*70
b0p;!#
 O%.Bt>
P
-{4-V^):R 
YdFUG%~HI J+$K)A0LWV"MSW$)
Xbr{O8$GNRMC,045439.00,A,0419.99863,S,05539.83792,E,0.134,,230525,,,D*70
$GNVTG,,T,,M,0.134,N,0.247,K,D*3F
$GNGNS,045439.00,0419.99863,S,05539.83792,E,DA,13,0.98,20.5,-47.6,,0000*6F
$GNGGA,045439.00,0419.99863,S,05539.83792,E,2,12,0.98,20.5,M,-47.6,M,,0000*42
$GNGSA,A,3,24,20,05,13,15,22,12,,,,,,1.77,0.98,1.48*15
$GNGSA,A,3,86,74,75,87,71,72,,,,,,,1.77,0.98,1.48*12
$GPGSV,5,1,18,05,59,130,27,11,22,020,21,12,33,001,16,13,20,156,35*7A
$GPGSV,5,2,18,14,02,130,32,15,28,191,19,18,23,232,08,20,46,066,37*7B
$GPGSV,5,3,18,22,17,116,31,23,01,213,,24,62,241,31,25,10,336,*73
$GPGSV,5,4,18,29,10,301,,36,52,277,,40,86,350,45,41,58,082,41*73
$GPGSV,5,5,18,49,32,274,,50,10,089,*78
$GLGSV,3,1,11,70,00,085,,71,15,126,37,72,17,176,09,73,02,150,32*67
$GLGSV,3,2,11,74,43,133,26,75,65,030,41,76,14,343,,86,34,333,22*68
$GLGSV,3,3,11,87,36,275,14,88,02,225,,,,,19*65
$GNGLL,0419.99863,S,05539.83792,E,045439.00,A,D*6C
$GNGRS,045439.00,1,-2.4,-0.1,-0.2,1.7,-1.8,-0.1,4.0,,,,,*53
$GNGRS,045439.00,1,-4.3,10.6,0.5,26.0,-2.6,-44.0,,,,,,*47
$GNGST,045439.00,38,,,,3.6,4.4,7.7*48
$GNZDA,045439.00,23,05,2025,00,00*76
$GNGBS,045439.00,3.6,4.4,7.7,,,,*55
$GNTXT,01,01,01,More than 100 frame errors, UART RX was disabled*70
b0p;!+#
 i%.Bt>b
P
-{4,V^(:R 
Yd6FUG%~HI xJ+@K)ALWV"MW
$1XbrcS8a$GNRMC,045440.00,A,0419.99870,S,05539.83799,E,0.145,,230525,,,D*71
$GNVTG,,T,,M,0.145,N,0.268,K,D*34
$GNGNS,045440.00,0419.99870,S,05539.83799,E,DA,13,0.82,20.8,-47.6,,0000*6E
$GNGGA,045440.00,0419.99870,S,05539.83799,E,2,12,0.82,20.8,M,-47.6,M,,0000*43
$GNGSA,A,3,24,20,05,13,15,22,12,,,,,,1.62,0.82,1.39*1C
$GNGSA,A,3,86,74,75,87,71,72,,,,,,,1.62,0.82,1.39*1B
$GPGSV,5,1,18,05,59,130,27,11,22,020,21,12,33,001,16,13,20,156,35*7A
$GPGSV,5,2,18,14,02,130,32,15,28,191,17,18,23,232,,20,46,066,37*7D
$GPGSV,5,3,18,22,17,116,31,23,01,213,,24,62,241,31,25,10,336,*73
$GPGSV,5,4,18,29,10,301,,36,52,277,,40,86,350,44,41,58,082,40*73
$GPGSV,5,5,18,49,32,274,,50,10,089,*78
$GLGSV,3,1,11,70,00,085,,71,15,126,37,72,17,176,09,73,02,150,32*67
$GLGSV,3,2,11,74,43,133,26,75,65,030,41,76,14,343,,86,34,333,23*69
$GLGSV,3,3,11,87,36,275,10,88,02,225,,,,,19*61
$GNGLL,0419.99870,S,05539.83799,E,045440.00,A,D*6B
$GNGRS,045440.00,1,-1.6,-0.1,2.2,1.6,-2.4,0.2,5.5,,,,,*57
$GNGRS,045440.00,1,-3.6,10.9,0.3,3.0,-2.4,6.8,,,,,,*64
$GNGST,045440.00,4665903,,,,3.6,4.4,7.7*76
$GNZDA,045440.00,23,05,2025,00,00*78
$GNGBS,045440.00,3.6,4.4,7.7,,,,*5B
$GNTXT,01,01,01,More than 100 frame errors, UART RX was disabled*70
b0p;!d#
 J&.B t >
P
-{4-V^):R 
YdpFUG%~H
I!J+K)ALWV"MOW$XbrKW8{$GNRMC,045441.00,A,0419.99873,S,05539.83800,E,0.207,,230525,,,D*79
$GNVTG,,T,,M,0.207,N,0.383,K,D*35
$GNGNS,045441.00,0419.99873,S,05539.83800,E,DA,13,0.82,21.0,-47.6,,0000*6A
$GNGGA,045441.00,0419.99873,S,05539.83800,E,2,12,0.82,21.0,M,-47.6,M,,0000*47
$GNGSA,A,3,24,20,05,13,15,22,12,,,,,,1.62,0.82,1.39*1C
$GNGSA,A,3,86,74,75,87,71,72,,,,,,,1.62,0.82,1.39*1B
$GPGSV,5,1,18,05,59,130,27,11,22,020,21,12,33,001,15,13,20,156,35*79
$GPGSV,5,2,18,14,02,130,32,15,28,191,17,18,23,232,,20,46,066,38*72
$GPGSV,5,3,18,22,17,116,32,23,01,213,,24,62,241,32,25,10,336,*73
$GPGSV,5,4,18,29,10,301,,36,52,277,,40,86,350,45,41,58,082,41*73
$GPGSV,5,5,18,49,32,274,,50,10,089,*78
$GLGSV,3,1,11,70,00,085,,71,15,126,37,72,17,176,10,73,02,150,33*6E
$GLGSV,3,2,11,74,43,133,25,75,65,030,41,76,14,343,,86,34,333,23*6A
$GLGSV,3,3,11,87,36,275,12,88,02,225,,,,,19*63
$GNGLL,0419.99873,S,05539.83800,E,045441.00,A,D*66
$GNGRS,045441.00,1,-1.1,-0.1,2.1,1.5,-1.8,1.9,3.6,,,,,*51
$GNGRS,045441.00,1,-4.3,9.9,0.3,2.8,-2.3,6.6,,,,,,*5F
$GNGST,045441.00,4665903,,,,3.6,4.3,7.8*7F
$GNZDA,045441.00,23,05,2025,00,00*79
$GNGBS,045441.00,3.6,4.3,7.8,,,,*52
$GNTXT,01,01,01,More than 100 frame errors, UART RX was disabled*70
b0p;2!1#}
5&.B t>
P
-{4-V^):R 
YdFUG%~HI!HJ+(K)ALWV"MtW$DXbr3[8S1$GNRMC,045442.00,A,0419.99872,S,05539.83797,E,0.049,,230525,,,D*72
$GNVTG,,T,,M,0.049,N,0.090,K,D*3C
$GNGNS,045442.00,0419.99872,S,05539.83797,E,DA,13,0.98,20.9,-47.6,,0000*6A
$GNGGA,045442.00,0419.99872,S,05539.83797,E,2,12,0.98,20.9,M,-47.6,M,,0000*47
$GNGSA,A,3,24,20,05,13,15,22,12,,,,,,1.77,0.98,1.48*15
$GNGSA,A,3,86,74,75,87,71,72,,,,,,,1.77,0.98,1.48*12
$GPGSV,5,1,18,05,59,130,26,11,22,020,21,12,33,001,13,13,20,156,35*7E
$GPGSV,5,2,18,14,02,130,31,15,28,191,17,18,23,232,,20,46,066,38*71
$GPGSV,5,3,18,22,17,116,32,23,01,213,,24,62,241,31,25,10,336,*70
$GPGSV,5,4,18,29,10,301,,36,52,277,,40,86,350,45,41,58,082,41*73
$GPGSV,5,5,18,49,32,274,,50,10,089,*78
$GLGSV,3,1,11,70,00,085,,71,15,126,37,72,17,176,11,73,02,150,33*6F
$GLGSV,3,2,11,74,43,133,25,75,65,030,41,76,14,343,,86,34,333,23*6A
$GLGSV,3,3,11,87,36,275,12,88,02,225,,,,,17*6D
$GNGLL,0419.99872,S,05539.83797,E,045442.00,A,D*65
$GNGRS,045442.00,1,-2.2,-0.2,3.1,1.2,-2.0,1.5,3.1,,,,,*57
$GNGRS,045442.00,1,-4.0,10.6,0.1,-55.6,-2.5,38.1,,,,,,*47
$GNGST,045442.00,42,,,,3.7,4.3,7.9*41
$GNZDA,045442.00,23,05,2025,00,00*7A
$GNGBS,045442.00,3.7,4.3,7.9,,,,*51
$GNTXT,01,01,01,More than 100 frame errors, UART RX was disabled*70
b0p;!#c
^&.B t>
P
-{4-V^):R 
YdFUG%~HI"MJ+K)ALWV"MW$LXObr_8+$GNRMC,045443.00,A,0419.99875,S,05539.83799,E,0.075,,230525,,,D*75
$GNVTG,,T,,M,0.075,N,0.139,K,D*31
$GNGNS,045443.00,0419.99875,S,05539.83799,E,DA,13,0.82,21.0,-47.6,,0000*61
$GNGGA,045443.00,0419.99875,S,05539.83799,E,2,12,0.82,21.0,M,-47.6,M,,0000*4C
$GNGSA,A,3,24,20,05,13,15,22,12,,,,,,1.61,0.82,1.39*1F
$GNGSA,A,3,86,74,75,87,71,72,,,,,,,1.61,0.82,1.39*18
$GPGSV,5,1,18,05,59,130,27,11,22,020,20,12,33,001,13,13,20,156,35*7E
$GPGSV,5,2,18,14,02,130,31,15,28,191,18,18,23,232,,20,46,066,38*7E
$GPGSV,5,3,18,22,17,116,32,23,01,213,,24,62,241,31,25,10,336,*70
$GPGSV,5,4,18,29,10,301,,36,52,277,,40,86,350,45,41,58,082,41*73
$GPGSV,5,5,18,49,32,274,,50,10,089,*78
$GLGSV,3,1,11,70,00,085,,71,15,126,37,72,17,176,09,73,02,150,34*61
$GLGSV,3,2,11,74,43,133,26,75,65,030,41,76,14,343,,86,34,333,24*6E
$GLGSV,3,3,11,87,36,275,11,88,02,225,,,,,17*6E
$GNGLL,0419.99875,S,05539.83799,E,045443.00,A,D*6D
$GNGRS,045443.00,1,-2.8,-0.2,1.4,1.0,-1.6,1.6,-0.1,,,,,*71
$GNGRS,045443.00,1,-2.4,9.5,-0.2,3.3,-2.4,6.7,,,,,,*70
$GNGST,045443.00,4665903,,,,3.7,4.3,7.9*7D
$GNZDA,045443.00,23,05,2025,00,00*7B
$GNGBS,045443.00,3.7,4.3,7.9,,,,*50
$GNTXT,01,01,01,More than 100 frame errors, UART RX was disabled*70
b0pp;G!#Y
 K&.B t>
P
-{4-V^):R 
YdVFUG%~H
I",J+K)ALWV"MW$\X4Lbprc8$GNRMC,045444.00,A,0419.99876,S,05539.83796,E,0.105,,230525,,,D*78
$GNVTG,,T,,M,0.105,N,0.194,K,D*30
$GNGNS,045444.00,0419.99876,S,05539.83796,E,DA,13,0.82,21.0,-47.6,,0000*6A
$GNGGA,045444.00,0419.99876,S,05539.83796,E,2,12,0.82,21.0,M,-47.6,M,,0000*47
$GNGSA,A,3,24,20,05,13,15,22,12,,,,,,1.61,0.82,1.39*1F
$GNGSA,A,3,86,74,75,87,71,72,,,,,,,1.61,0.82,1.39*18
$GPGSV,5,1,18,05,59,130,27,11,22,020,21,12,33,001,15,13,20,156,35*79
$GPGSV,5,2,18,14,02,130,32,15,28,191,18,18,23,232,,20,46,066,38*7D
$GPGSV,5,3,18,22,17,116,32,23,01,213,,24,62,241,31,25,10,336,*70
$GPGSV,5,4,18,29,10,301,,36,52,277,,40,86,350,45,41,58,082,41*73
$GPGSV,5,5,18,49,32,274,,50,10,089,*78
$GLGSV,3,1,11,70,00,085,,71,15,126,37,72,17,176,10,73,02,150,34*69
$GLGSV,3,2,11,74,43,133,26,75,65,030,41,76,14,343,,86,34,333,24*6E
$GLGSV,3,3,11,87,36,275,11,88,02,225,,,,,17*6E
$GNGLL,0419.99876,S,05539.83796,E,045444.00,A,D*66
$GNGRS,045444.00,1,-2.4,-0.3,0.7,0.9,-2.6,1.3,2.8,,,,,*51
$GNGRS,045444.00,1,-3.3,7.7,-0.1,3.5,-2.4,6.6,,,,,,*79
$GNGST,045444.00,4665903,,,,3.7,4.3,8.0*7C
$GNZDA,045444.00,23,05,2025,00,00*7C
$GNGBS,045444.00,3.7,4.3,8.0,,,,*51
$GNTXT,01,01,01,More than 100 frame errors, UART RX was disabled*70
b0pX;!f#r
$&.B t>k
P
-{4-V^(:R 
YdFUG%~&HI"J+K)ALWV"MW
$XbXrf8f$GNRMC,045445.00,A,0419.99877,S,05539.83793,E,0.124,,230525,,,D*7E
$GNVTG,,T,,M,0.124,N,0.230,K,D*3E
$GNGNS,045445.00,0419.99877,S,05539.83793,E,DA,13,0.98,21.0,-47.6,,0000*64
$GNGGA,045445.00,0419.99877,S,05539.83793,E,2,12,0.98,21.0,M,-47.6,M,,0000*49
$GNGSA,A,3,24,20,05,13,15,22,12,,,,,,1.77,0.98,1.48*15
$GNGSA,A,3,86,74,75,87,71,72,,,,,,,1.77,0.98,1.48*12
$GPGSV,5,1,18,05,59,130,27,11,22,020,21,12,33,001,14,13,20,156,35*78
$GPGSV,5,2,18,14,02,130,31,15,28,191,19,18,23,232,,20,46,066,38*7F
$GPGSV,5,3,18,22,17,116,32,23,01,213,,24,62,241,31,25,10,336,*70
$GPGSV,5,4,18,29,10,301,,36,52,277,,40,86,350,45,41,58,082,40*72
$GPGSV,5,5,18,49,32,274,,50,10,089,*78
$GLGSV,3,1,11,70,00,085,,71,15,126,37,72,17,176,08,73,02,150,34*60
$GLGSV,3,2,11,74,43,133,26,75,65,030,41,76,14,343,,86,34,333,24*6E
$GLGSV,3,3,11,87,36,275,10,88,02,225,,,,,18*60
$GNGLL,0419.99877,S,05539.83793,E,045445.00,A,D*63
$GNGRS,045445.00,1,-1.5,-0.5,0.1,1.1,-2.2,1.3,3.6,,,,,*50
$GNGRS,045445.00,1,-3.7,7.2,0.0,-21.6,-2.2,-21.0,,,,,,*53
$GNGST,045445.00,38,,,,3.7,4.3,8.0*4D
$GNZDA,045445.00,23,05,2025,00,00*7D
$GNGBS,045445.00,3.7,4.3,8.0,,,,*50
$GNTXT,01,01,01,More than 100 frame errors, UART RX was disabled*70
b0p@;!"#z
 #aS%.B to>
P
-{4-V^(:R 
YdFUG%~HI"$J+4K)A%LWV"MW$DXfJb@rj8$GNRMC,045446.00,A,0419.99880,S,05539.83795,E,0.109,,230525,,,D*7C
$GNVTG,,T,,M,0.109,N,0.203,K,D*31
$GNGNS,045446.00,0419.99880,S,05539.83795,E,DA,13,0.82,21.2,-47.6,,0000*60
$GNGGA,045446.00,0419.99880,S,05539.83795,E,2,12,0.82,21.2,M,-47.6,M,,0000*4D
$GNGSA,A,3,24,20,05,13,15,22,12,,,,,,1.61,0.82,1.39*1F
$GNGSA,A,3,86,74,75,87,71,72,,,,,,,1.61,0.82,1.39*18
$GPGSV,5,1,18,05,59,130,27,11,22,020,20,12,33,001,16,13,20,156,35*7B
$GPGSV,5,2,18,14,02,130,32,15,28,191,19,18,23,232,20,20,46,066,37*71
$GPGSV,5,3,18,22,17,116,32,23,01,213,,24,62,241,31,25,10,336,*70
$GPGSV,5,4,18,29,10,301,,36,52,277,,40,86,350,45,41,58,082,40*72
$GPGSV,5,5,18,49,32,274,,50,10,089,*78
$GLGSV,3,1,11,70,00,085,,71,15,126,37,72,17,176,09,73,02,150,34*61
$GLGSV,3,2,11,74,43,133,26,75,65,030,41,76,14,343,,86,34,333,24*6E
$GLGSV,3,3,11,87,36,275,08,88,02,225,,,,,18*69
$GNGLL,0419.99880,S,05539.83795,E,045446.00,A,D*6E
$GNGRS,045446.00,1,-3.5,-0.6,1.9,1.2,-4.1,1.1,2.9,,,,,*51
$GNGRS,045446.00,1,-3.6,8.2,0.4,3.2,-2.3,6.6,,,,,,*5C
$GNGST,045446.00,4665903,,,,3.7,4.3,8.0*7E
$GNZDA,045446.00,23,05,2025,00,00*7E
$GNGBS,045446.00,3.7,4.3,8.0,,,,*53
$GNTXT,01,01,01,More than 100 frame errors, UART RX was disabled*70
b0p(;!#
 %.B t`>
P
-{4-V^):R 
YePFUG%~"H
~I!J+/K)AQLWV"MW$ZXb(rn86$GNRMC,045447.00,A,0419.99886,S,05539.83801,E,0.045,,230525,,,D*70
$GNVTG,,T,,M,0.045,N,0.083,K,D*32
$GNGNS,045447.00,0419.99886,S,05539.83801,E,DA,13,0.82,21.5,-47.6,,0000*62
$GNGGA,045447.00,0419.99886,S,05539.83801,E,2,12,0.82,21.5,M,-47.6,M,,0000*4F
$GNGSA,A,3,24,20,05,13,15,22,12,,,,,,1.61,0.82,1.39*1F
$GNGSA,A,3,86,74,75,87,71,72,,,,,,,1.61,0.82,1.39*18
$GPGSV,5,1,18,05,59,130,27,11,22,020,20,12,33,001,17,13,20,156,35*7A
$GPGSV,5,2,18,14,02,130,32,15,28,191,19,18,23,232,18,20,46,066,37*7A
$GPGSV,5,3,18,22,17,116,32,23,01,213,,24,62,241,31,25,10,336,*70
$GPGSV,5,4,18,29,10,301,,36,52,277,,40,86,350,45,41,58,082,41*73
$GPGSV,5,5,18,49,32,274,,50,10,089,*78
$GLGSV,3,1,11,70,00,085,,71,15,126,37,72,17,176,10,73,02,150,33*6E
$GLGSV,3,2,11,74,43,133,25,75,65,030,41,76,14,343,,86,34,333,23*6A
$GLGSV,3,3,11,87,36,275,13,88,02,225,,,,,20*68
$GNGLL,0419.99886,S,05539.83801,E,045447.00,A,D*6B
$GNGRS,045447.00,1,-3.1,-0.5,2.4,1.3,-2.4,1.0,1.5,,,,,*55
$GNGRS,045447.00,1,-3.1,8.1,0.8,3.5,-2.2,6.4,,,,,,*51
$GNGST,045447.00,4665903,,,,3.7,4.3,8.1*7E
$GNZDA,045447.00,23,05,2025,00,00*7F
$GNGBS,045447.00,3.7,4.3,8.1,,,,*53
$GNTXT,01,01,01,More than 100 frame errors, UART RX was disabled*70
b0p;!#
 )&.B tN>
P
-{4-V^):R 
YeFUG%~/H2I J+eK)AlLWV"M<W$XAbrr8b$GNRMC,045448.00,A,0419.99886,S,05539.83799,E,0.028,,230525,,,D*7A
$GNVTG,,T,,M,0.028,N,0.051,K,D*36
$GNGNS,045448.00,0419.99886,S,05539.83799,E,DA,13,0.98,21.5,-47.6,,0000*68
$GNGGA,045448.00,0419.99886,S,05539.83799,E,2,12,0.98,21.5,M,-47.6,M,,0000*45
$GNGSA,A,3,24,20,05,13,15,22,12,,,,,,1.77,0.98,1.48*15
$GNGSA,A,3,86,74,75,87,71,72,,,,,,,1.77,0.98,1.48*12
$GPGSV,5,1,18,05,59,130,27,11,22,020,20,12,33,001,17,13,20,156,35*7A
$GPGSV,5,2,18,14,02,130,32,15,28,191,20,18,23,232,15,20,46,066,38*72
$GPGSV,5,3,18,22,17,116,32,23,01,213,,24,62,241,31,25,10,336,*70
$GPGSV,5,4,18,29,10,301,,36,52,277,,40,86,350,45,41,58,082,41*73
$GPGSV,5,5,18,49,32,274,,50,10,089,*78
$GLGSV,3,1,11,70,00,085,,71,15,126,37,72,17,176,08,73,02,150,32*66
$GLGSV,3,2,11,74,43,133,25,75,65,030,41,76,14,343,,86,34,333,23*6A
$GLGSV,3,3,11,87,36,275,07,88,02,225,,,,,20*6D
$GNGLL,0419.99886,S,05539.83799,E,045448.00,A,D*6A
$GNGRS,045448.00,1,-3.0,-0.4,2.4,1.3,-2.4,0.8,0.0,,,,,*57
$GNGRS,045448.00,1,-2.0,8.7,1.1,-143,-2.1,130,,,,,,*7E
$GNGST,045448.00,37,,,,3.8,4.3,8.1*41
$GNZDA,045448.00,23,05,2025,00,00*70
$GNGBS,045448.00,3.8,4.3,8.1,,,,*53
$GNTXT,01,01,01,More than 100 frame errors, UART RX was disabled*70
b0p;!U$
  &.B t9>
P
-{4-V^):R 
YeFUG%~ H
I J+gK)AnLWV"MW$?Xbrv89$GNRMC,045449.00,A,0419.99894,S,05539.83802,E,0.082,,230525,,,D*75
$GNVTG,,T,,M,0.082,N,0.152,K,D*34
$GNGNS,045449.00,0419.99894,S,05539.83802,E,DA,13,0.82,21.7,-47.6,,0000*6E
$GNGGA,045449.00,0419.99894,S,05539.83802,E,2,12,0.82,21.7,M,-47.6,M,,0000*43
$GNGSA,A,3,24,20,05,13,15,22,12,,,,,,1.61,0.82,1.39*1F
$GNGSA,A,3,86,74,75,87,71,72,,,,,,,1.61,0.82,1.39*18
$GPGSV,5,1,18,05,59,130,26,11,22,020,19,12,33,001,15,13,20,156,36*70
$GPGSV,5,2,18,14,02,130,32,15,28,191,19,18,23,232,14,20,46,066,38*79
$GPGSV,5,3,18,22,17,116,32,23,01,213,,24,62,241,30,25,10,336,*71
$GPGSV,5,4,18,29,10,301,,36,52,277,,40,86,350,45,41,58,082,41*73
$GPGSV,5,5,18,49,32,274,,50,10,089,*78
$GLGSV,3,1,11,70,00,085,,71,15,126,37,72,17,176,10,73,02,150,32*6F
$GLGSV,3,2,11,74,43,133,25,75,65,030,41,76,14,343,,86,34,333,23*6A
$GLGSV,3,3,11,87,36,275,11,88,02,225,,,,,20*6A
$GNGLL,0419.99894,S,05539.83802,E,045449.00,A,D*65
$GNGRS,045449.00,1,-3.1,-0.4,1.9,1.6,-2.2,0.6,0.8,,,,,*5C
$GNGRS,045449.00,1,-2.3,8.7,1.1,3.2,-2.2,6.7,,,,,,*56
$GNGST,045449.00,3299293,,,,3.8,4.3,8.2*7E
$GNZDA,045449.00,23,05,2025,00,00*71
$GNGBS,045449.00,3.8,4.3,8.2,,,,*51
$GNTXT,01,01,01,More than 100 frame errors, UART RX was disabled*70
b0p;!O$
^%.B!t*>
P
-{4-V^):R 
YeFUG%~HI J+wK)AJLWV"MW$*Xjbrsz8_$GNRMC,045450.00,A,0419.99893,S,05539.83797,E,0.064,,230525,,,D*71
$GNVTG,,T,,M,0.064,N,0.118,K,D*32
$GNGNS,045450.00,0419.99893,S,05539.83797,E,DA,13,0.82,21.7,-47.6,,0000*62
$GNGGA,045450.00,0419.99893,S,05539.83797,E,2,12,0.82,21.7,M,-47.6,M,,0000*4F
$GNGSA,A,3,24,20,05,13,15,22,12,,,,,,1.61,0.82,1.39*1F
$GNGSA,A,3,86,74,75,87,71,72,,,,,,,1.61,0.82,1.39*18
$GPGSV,5,1,18,05,59,130,26,11,22,020,19,12,33,001,14,13,20,156,36*71
$GPGSV,5,2,18,14,02,130,31,15,28,191,18,18,23,232,12,20,46,066,37*72
$GPGSV,5,3,18,22,17,116,33,23,01,213,,24,62,241,31,25,10,336,*71
$GPGSV,5,4,18,29,10,301,,36,52,277,,40,86,350,45,41,58,082,41*73
$GPGSV,5,5,18,49,32,274,,50,10,089,*78
$GLGSV,3,1,11,70,00,085,,71,15,126,37,72,17,176,08,73,02,150,32*66
$GLGSV,3,2,11,74,43,133,25,75,65,030,41,76,14,343,,86,34,333,23*6A
$GLGSV,3,3,11,87,36,275,07,88,02,225,,,,,20*6D
$GNGLL,0419.99893,S,05539.83797,E,045450.00,A,D*69
$GNGRS,045450.00,1,-2.5,-0.2,2.1,1.8,-2.3,0.4,3.3,,,,,*59
$GNGRS,045450.00,1,-3.4,8.9,0.7,3.0,-2.3,6.6,,,,,,*53
$GNGST,045450.00,3299295,,,,3.8,4.3,8.3*71
$GNZDA,045450.00,23,05,2025,00,00*79
$GNGBS,045450.00,3.8,4.3,8.3,,,,*58
$GNTXT,01,01,01,More than 100 frame errors, UART RX was disabled*70
b0p;6!R$
%.B!t>>
P
-{4-V^):R 
YejFUG%~"H
I!J+K)APLWV"MW$4Xbr[~8$GNRMC,045451.00,A,0419.99907,S,05539.83807,E,0.178,,230525,,,D*76
$GNVTG,,T,,M,0.178,N,0.330,K,D*36
$GNGNS,045451.00,0419.99907,S,05539.83807,E,DA,14,0.82,22.3,-47.6,,0000*69
$GNGGA,045451.00,0419.99907,S,05539.83807,E,2,12,0.82,22.3,M,-47.6,M,,0000*43
$GNGSA,A,3,24,20,05,13,15,22,12,18,,,,,1.62,0.82,1.40*1B
$GNGSA,A,3,86,74,75,87,71,72,,,,,,,1.62,0.82,1.40*15
$GPGSV,5,1,18,05,59,130,25,11,22,020,19,12,33,001,13,13,20,156,36*75
$GPGSV,5,2,18,14,02,130,30,15,28,191,17,18,23,232,14,20,46,066,37*7A
$GPGSV,5,3,18,22,17,116,33,23,01,213,,24,62,241,31,25,10,336,*71
$GPGSV,5,4,18,29,10,301,,36,52,277,,40,86,350,45,41,58,082,41*73
$GPGSV,5,5,18,49,32,274,,50,10,089,*78
$GLGSV,3,1,11,70,00,085,,71,15,126,37,72,17,176,10,73,02,150,33*6E
$GLGSV,3,2,11,74,43,133,25,75,65,030,41,76,14,343,,86,34,333,23*6A
$GLGSV,3,3,11,87,36,275,11,88,02,225,,,,,20*6A
$GNGLL,0419.99907,S,05539.83807,E,045451.00,A,D*62
$GNGRS,045451.00,1,0.6,-0.4,3.1,1.3,0.2,0.1,3.4,-12.8,,,,*6C
$GNGRS,045451.00,1,-3.4,7.0,0.8,-25.1,-2.2,57.7,,,,,,*77
$GNGST,045451.00,48,,,,3.9,4.3,8.4*45
$GNZDA,045451.00,23,05,2025,00,00*78
$GNGBS,045451.00,3.9,4.3,8.4,,,,*5F
$GNTXT,01,01,01,More than 100 frame errors, UART RX was disabled*70
b0p;.!*$w
%.B!t>
P
-{4-V^):R 
Ye/FUG%~HI!J+K)AELWV"MW$YXbrC8=$GNRMC,045452.00,A,0419.99923,S,05539.83825,E,0.156,,230525,,,D*7F
$GNVTG,,T,,M,0.156,N,0.288,K,D*38
$GNGNS,045452.00,0419.99923,S,05539.83825,E,DA,14,0.75,23.1,-47.6,,0000*67
$GNGGA,045452.00,0419.99923,S,05539.83825,E,2,12,0.75,23.1,M,-47.6,M,,0000*4D
$GNGSA,A,3,24,20,05,13,15,22,12,18,,,,,1.56,0.75,1.36*15
$GNGSA,A,3,86,74,75,87,71,72,,,,,,,1.56,0.75,1.36*1B
$GPGSV,5,1,18,05,59,130,24,11,22,020,20,12,33,001,12,13,20,156,36*7F
$GPGSV,5,2,18,14,02,130,30,15,28,191,16,18,23,232,13,20,46,066,37*7C
$GPGSV,5,3,18,22,17,116,33,23,01,213,,24,62,241,31,25,10,336,*71
$GPGSV,5,4,18,29,10,301,,36,52,277,,40,86,350,45,41,58,082,41*73
$GPGSV,5,5,18,49,32,274,,50,10,089,*78
$GLGSV,3,1,11,70,00,085,,71,15,126,37,72,17,176,12,73,02,150,33*6C
$GLGSV,3,2,11,74,43,133,25,75,65,030,41,76,14,343,,86,34,333,23*6A
$GLGSV,3,3,11,87,36,275,09,88,02,225,,,,,19*69
$GNGLL,0419.99923,S,05539.83825,E,045452.00,A,D*67
$GNGRS,045452.00,1,-3.2,-0.3,3.0,1.2,-0.7,0.0,0.4,-18.0,,,,*6A
$GNGRS,045452.00,1,-3.7,5.0,0.7,3.5,-2.4,6.8,,,,,,*5A
$GNGST,045452.00,4496177,,,,3.9,4.4,8.5*72
$GNZDA,045452.00,23,05,2025,00,00*7B
$GNGBS,045452.00,3.9,4.4,8.5,,,,*5A
$GNTXT,01,01,01,More than 100 frame errors, UART RX was disabled*70
b0p;A!$o
x%.B!t
>
P
-{4-V^):R 
YeFUG%~H
I PJ+)K)ABLWV"MPW$iXbr+8$GNRMC,045453.00,A,0419.99934,S,05539.83832,E,0.141,,230525,,,D*78
$GNVTG,,T,,M,0.141,N,0.261,K,D*39
$GNGNS,045453.00,0419.99934,S,05539.83832,E,DA,14,0.82,23.5,-47.6,,0000*6A
$GNGGA,045453.00,0419.99934,S,05539.83832,E,2,12,0.82,23.5,M,-47.6,M,,0000*40
$GNGSA,A,3,24,20,05,13,15,22,12,18,,,,,1.61,0.82,1.39*16
$GNGSA,A,3,86,74,75,87,71,72,,,,,,,1.61,0.82,1.39*18
$GPGSV,5,1,18,05,59,130,25,11,22,020,20,12,33,001,09,13,20,156,36*74
$GPGSV,5,2,18,14,02,130,29,15,28,191,17,18,23,232,12,20,46,066,37*74
$GPGSV,5,3,18,22,17,116,33,23,01,213,,24,62,241,30,25,10,336,*70
$GPGSV,5,4,18,29,10,301,,36,52,277,,40,86,350,45,41,58,082,41*73
$GPGSV,5,5,18,49,32,274,,50,10,089,*78
$GLGSV,3,1,11,70,00,085,,71,15,126,37,72,17,176,10,73,02,150,32*6F
$GLGSV,3,2,11,74,43,133,25,75,65,030,41,76,14,343,,86,34,333,23*6A
$GLGSV,3,3,11,87,36,275,12,88,02,225,,,,,20*69
$GNGLL,0419.99934,S,05539.83832,E,045453.00,A,D*66
$GNGRS,045453.00,1,-4.8,-0.7,3.2,1.1,1.2,0.1,-0.1,-23.9,,,,*62
$GNGRS,045453.00,1,-4.3,5.5,0.7,3.6,-2.5,6.8,,,,,,*5F
$GNGST,045453.00,4665903,,,,4.0,4.4,8.6*7B
$GNZDA,045453.00,23,05,2025,00,00*7A
$GNGBS,045453.00,4.0,4.4,8.6,,,,*56
$GNTXT,01,01,01,More than 100 frame errors, UART RX was disabled*70
b0p;K!$Y
R%.B t>e
P
-{4-V^):R 
YeHFUG%~H
I pJ+JK)ALWV"M+W$Xbr8r$GNRMC,045454.00,A,0419.99939,S,05539.83832,E,0.136,,230525,,,D*72
$GNVTG,,T,,M,0.136,N,0.252,K,D*39
$GNGNS,045454.00,0419.99939,S,05539.83832,E,DA,13,0.94,23.7,-47.6,,0000*62
$GNGGA,045454.00,0419.99939,S,05539.83832,E,2,12,0.94,23.7,M,-47.6,M,,0000*4F
$GNGSA,A,3,24,20,05,13,15,22,12,,,,,,1.66,0.94,1.37*11
$GNGSA,A,3,86,74,75,87,71,72,,,,,,,1.66,0.94,1.37*16
$GPGSV,5,1,18,05,59,130,26,11,22,020,20,12,33,001,08,13,20,156,36*76
