$GNRMC,045009.00,A,0420.00509,S,05539.84164,E,0.093,,230525,,,A*7D
$GNVTG,,T,,M,0.093,N,0.173,K,A*32
$GNGNS,045009.00,0420.00509,S,05539.84164,E,AA,14,0.71,16.5,-47.6,,*6B
$GNGGA,045009.00,0420.00509,S,05539.84164,E,1,12,0.71,16.5,M,-47.6,M,,*47
$GNGSA,A,3,24,20,05,13,15,22,12,18,,,,,1.43,0.71,1.24*16
$GNGSA,A,3,86,74,75,87,71,72,,,,,,,1.43,0.71,1.24*18
$GPGSV,5,1,18,05,58,134,36,11,24,020,24,12,31,360,33,13,20,158,31*77
$GPGSV,5,2,18,14,03,128,34,15,27,193,22,18,21,230,14,20,47,070,30*7C
$GPGSV,5,3,18,22,17,114,38,23,00,214,,24,62,246,35,25,08,335,*77
$GPGSV,5,4,18,29,10,298,,36,52,277,,40,86,350,,41,58,082,*76
$GPGSV,5,5,18,49,32,274,,50,10,089,36*7D
$GLGSV,3,1,12,70,00,087,,71,14,128,43,72,16,178,17,73,03,149,18*6B
$GLGSV,3,2,12,74,44,130,29,75,63,028,36,76,13,343,,85,01,015,*6A
$GLGSV,3,3,12,86,36,331,24,87,36,272,17,88,01,223,,,,,30*50
$GNGLL,0420.00509,S,05539.84164,E,045009.00,A,A*6D
$GNGRS,045009.00,1,0.7,-0.7,1.4,3.0,-2.7,-1.1,-0.7,-5.9,,,,*7D
$GNGRS,045009.00,1,4.1,11.4,-1.1,-0.2,-1.9,3.0,,,,,,*4D
$GNGST,045009.00,44,,,,1.9,2.7,4.3*4B
$GNZDA,045009.00,23,05,2025,00,00*71
$GNGBS,045009.00,1.9,2.7,4.3,,,,*5D
$GNTXT,01,01,01,More than 100 frame errors, UART RX was disabled*70
b0| #:hu
v/F!&r>O
*{4V^:R "
Y(dFWG'HHlIJ,5K?LWUV$KW$Xb r440$GNRMC,045010.00,A,0420.00508,S,05539.84166,E,0.143,,230525,,,A*7A
$GNVTG,,T,,M,0.143,N,0.265,K,A*3A
$GNGNS,045010.00,0420.00508,S,05539.84166,E,AA,14,0.71,16.6,-47.6,,*63
$GNGGA,045010.00,0420.00508,S,05539.84166,E,1,12,0.71,16.6,M,-47.6,M,,*4F
$GNGSA,A,3,24,20,05,13,15,22,12,18,,,,,1.43,0.71,1.24*16
$GNGSA,A,3,86,74,75,87,71,72,,,,,,,1.43,0.71,1.24*18
$GPGSV,5,1,18,05,58,134,35,11,24,020,24,12,31,360,27,13,20,158,31*71
$GPGSV,5,2,18,14,03,128,31,15,27,193,23,18,21,230,11,20,47,070,24*78
$GPGSV,5,3,18,22,17,114,38,23,00,214,,24,62,246,26,25,08,335,*75
$GPGSV,5,4,18,29,10,298,,36,52,277,,40,86,350,,41,58,082,*76
$GPGSV,5,5,18,49,32,274,,50,10,089,34*7F
$GLGSV,3,1,12,70,00,087,,71,14,128,39,72,16,178,16,73,03,149,19*66
$GLGSV,3,2,12,74,44,130,24,75,63,028,29,76,13,343,,85,01,016,*6A
$GLGSV,3,3,12,86,36,331,22,87,36,272,16,88,01,223,,,,,25*53
$GNGLL,0420.00508,S,05539.84166,E,045010.00,A,A*66
$GNGRS,045010.00,1,1.5,-2.2,1.8,4.8,-3.9,-0.9,-1.4,-7.6,,,,*7B
$GNGRS,045010.00,1,7.0,13.3,-0.6,-0.2,-1.8,1.1,,,,,,*46
$GNGST,045010.00,47,,,,1.9,2.8,4.3*4F
$GNZDA,045010.00,23,05,2025,00,00*79
$GNGBS,045010.00,1.9,2.8,4.3,,,,*5A
$GNTXT,01,01,01,More than 100 frame errors, UART RX was disabled*70
b0|!:!h
 Or/F~#r>O
*{4V^:R %
Y(dFWG*?HIJ,,K$?LWUV#KW$Xbr84$GNRMC,045011.00,A,0420.00509,S,05539.84167,E,0.048,,230525,,,A*71
$GNVTG,,T,,M,0.048,N,0.089,K,A*30
$GNGNS,045011.00,0420.00509,S,05539.84167,E,AA,13,0.77,16.7,-47.6,,*62
$GNGGA,045011.00,0420.00509,S,05539.84167,E,1,12,0.77,16.7,M,-47.6,M,,*49
$GNGSA,A,3,24,20,05,13,15,22,12,,,,,,1.50,0.77,1.29*16
$GNGSA,A,3,86,74,75,87,71,72,,,,,,,1.50,0.77,1.29*11
$GPGSV,5,1,18,05,58,134,33,11,24,020,25,12,31,360,33,13,20,158,31*73
$GPGSV,5,2,18,14,03,128,32,15,27,193,24,18,21,230,09,20,47,070,22*73
$GPGSV,5,3,18,22,17,114,35,23,00,214,,24,62,246,30,25,08,335,*7F
$GPGSV,5,4,18,29,10,298,,36,52,277,,40,86,350,,41,58,082,*76
$GPGSV,5,5,18,49,32,274,,50,10,089,37*7C
$GLGSV,3,1,12,70,00,087,,71,14,128,42,72,16,178,17,73,03,149,20*61
$GLGSV,3,2,12,74,44,130,31,75,63,028,36,76,13,343,,85,01,016,*60
$GLGSV,3,3,12,86,35,331,28,87,36,272,12,88,01,223,,,,,31*5B
$GNGLL,0420.00509,S,05539.84167,E,045011.00,A,A*67
$GNGRS,045011.00,1,-0.5,1.3,1.6,3.9,-5.3,-0.9,0.1,,,,,*56
$GNGRS,045011.00,1,5.2,13.2,-2.6,2.4,-1.9,-0.4,,,,,,*45
$GNGST,045011.00,80123,,,,2.0,2.8,4.4*78
$GNZDA,045011.00,23,05,2025,00,00*78
$GNGBS,045011.00,2.0,2.8,4.4,,,,*56
$GNTXT,01,01,01,More than 100 frame errors, UART RX was disabled*70
b0|#:$h@ u
 F/F"%r>/O
*{4V^:R )
Y(dFWG+IHIJ ,1K%?LWUV#K%W$Xbbr<4$GNRMC,045012.00,A,0420.00509,S,05539.84166,E,0.055,,230525,,,A*7F
$GNVTG,,T,,M,0.055,N,0.101,K,A*3D
$GNGNS,045012.00,0420.00509,S,05539.84166,E,AA,14,0.71,16.7,-47.6,,*61
$GNGGA,045012.00,0420.00509,S,05539.84166,E,1,12,0.71,16.7,M,-47.6,M,,*4D
$GNGSA,A,3,24,20,05,13,15,22,12,18,,,,,1.43,0.71,1.24*16
$GNGSA,A,3,86,74,75,87,71,72,,,,,,,1.43,0.71,1.24*18
$GPGSV,5,1,18,05,58,134,35,11,24,020,25,12,31,360,36,13,20,158,32*73
$GPGSV,5,2,18,14,03,128,32,15,27,193,24,18,21,230,13,20,47,070,30*7B
$GPGSV,5,3,18,22,17,114,37,23,00,214,,24,62,246,30,25,08,335,*7D
$GPGSV,5,4,18,29,10,298,,36,52,277,,40,86,350,,41,58,082,*76
$GPGSV,5,5,18,49,32,274,,50,10,089,41*7D
$GLGSV,3,1,12,70,00,087,,71,14,128,43,72,16,178,19,73,03,149,22*6C
$GLGSV,3,2,12,74,44,130,32,75,63,028,37,76,13,343,,85,01,016,*62
$GLGSV,3,3,12,86,35,331,27,87,36,272,15,88,01,223,,,,,31*53
$GNGLL,0420.00509,S,05539.84166,E,045012.00,A,A*65
$GNGRS,045012.00,1,-2.1,-2.2,1.4,3.7,-6.2,-0.9,0.6,-9.5,,,,*7A
$GNGRS,045012.00,1,5.5,13.3,0.2,2.5,-1.8,-0.3,,,,,,*6C
$GNGST,045012.00,109469,,,,1.9,2.8,4.3*4D
$GNZDA,045012.00,23,05,2025,00,00*7B
$GNGBS,045012.00,1.9,2.8,4.3,,,,*58
$GNTXT,01,01,01,More than 100 frame errors, UART RX was disabled*70
b0|%:&h!
":'/Fn$r!>O
*{4'V^:R )
Y)d>FWG+OHqIJ,OK%?ILWUV#KW$=X gbrl@4Y$GNRMC,045013.00,A,0420.00515,S,05539.84154,E,0.145,,230525,,,A*72
$GNVTG,,T,,M,0.145,N,0.268,K,A*31
$GNGNS,045013.00,0420.00515,S,05539.84154,E,AA,14,0.77,16.5,-47.6,,*68
$GNGGA,045013.00,0420.00515,S,05539.84154,E,1,12,0.77,16.5,M,-47.6,M,,*44
$GNGSA,A,3,24,20,05,13,15,22,12,18,,,,,1.50,0.77,1.29*1F
$GNGSA,A,3,86,74,75,87,71,72,,,,,,,1.50,0.77,1.29*11
$GPGSV,5,1,18,05,58,134,37,11,24,020,31,12,31,360,38,13,20,158,33*7B
$GPGSV,5,2,18,14,03,128,34,15,27,193,24,18,21,230,16,20,47,070,39*71
$GPGSV,5,3,18,22,17,114,36,23,00,214,,24,62,246,33,25,08,335,*7F
$GPGSV,5,4,18,29,10,298,,36,52,277,,40,86,350,39,41,58,082,*7C
$GPGSV,5,5,18,49,32,274,,50,10,089,41*7D
$GLGSV,3,1,12,70,00,087,,71,14,128,43,72,16,178,20,73,03,149,23*67
$GLGSV,3,2,12,74,44,130,31,75,63,028,37,76,13,343,,85,01,016,*61
$GLGSV,3,3,12,86,35,331,26,87,36,272,18,88,01,224,,,,,32*5B
$GNGLL,0420.00515,S,05539.84154,E,045013.00,A,A*68
$GNGRS,045013.00,1,1.9,-1.5,1.3,1.8,-4.5,-1.0,0.2,22.0,,,,*4B
$GNGRS,045013.00,1,2.1,8.5,-1.8,3.2,-1.8,1.1,,,,,,*5C
$GNGST,045013.00,34,,,,1.9,2.8,4.2*49
$GNZDA,045013.00,23,05,2025,00,00*7A
$GNGBS,045013.00,1.9,2.8,4.2,,,,*58
$GNTXT,01,01,01,More than 100 frame errors, UART RX was disabled*70
b0|":r&h!L
 '/F&r$>O
*{4'V^:R (
Y*d:FWG*5HeIbJ,K%?LWUV#K-W$XzbrTD4\$GNRMC,045014.00,A,0420.00523,S,05539.84145,E,0.058,,230525,,,A*7D
$GNVTG,,T,,M,0.058,N,0.108,K,A*39
$GNGNS,045014.00,0420.00523,S,05539.84145,E,AA,14,0.71,16.3,-47.6,,*6A
$GNGGA,045014.00,0420.00523,S,05539.84145,E,1,12,0.71,16.3,M,-47.6,M,,*46
$GNGSA,A,3,24,20,05,13,15,22,12,18,,,,,1.43,0.71,1.24*16
$GNGSA,A,3,86,74,75,87,71,72,,,,,,,1.43,0.71,1.24*18
$GPGSV,5,1,18,05,58,134,34,11,24,020,29,12,31,360,38,13,20,158,33*71
$GPGSV,5,2,18,14,03,128,32,15,27,193,23,18,21,230,19,20,47,070,39*7F
$GPGSV,5,3,18,22,17,114,38,23,00,214,,24,62,246,36,25,08,335,*74
$GPGSV,5,4,18,29,10,298,,36,52,277,,40,86,350,39,41,58,082,*7C
$GPGSV,5,5,18,49,32,274,,50,10,089,40*7C
$GLGSV,3,1,12,70,00,087,,71,14,128,42,72,16,178,21,73,03,149,25*61
$GLGSV,3,2,12,74,44,130,31,75,63,028,37,76,13,343,,85,01,016,*61
$GLGSV,3,3,12,86,35,331,29,87,36,272,16,88,01,224,,,,,31*59
$GNGLL,0420.00523,S,05539.84145,E,045014.00,A,A*6A
$GNGRS,045014.00,1,-0.5,-0.7,1.1,5.9,-5.1,-0.9,-0.7,11.5,,,,*48
$GNGRS,045014.00,1,0.5,8.0,-6.1,2.8,-2.0,1.0,,,,,,*57
$GNGST,045014.00,3071479,,,,1.8,2.7,4.1*7B
$GNZDA,045014.00,23,05,2025,00,00*7D
$GNGBS,045014.00,1.8,2.7,4.1,,,,*52
$GNTXT,01,01,01,More than 100 frame errors, UART RX was disabled*70
b0|%:a&h\!
7{'/Fe%r#>O
*{4(V^:R (
Y*dDFWG(KH3IJ,K&?LWUV#KW$Xbr<H44)$GNRMC,045015.00,A,0420.00529,S,05539.84142,E,0.020,,230525,,,A*7E
$GNVTG,,T,,M,0.020,N,0.037,K,A*3B
$GNGNS,045015.00,0420.00529,S,05539.84142,E,AA,14,0.71,16.3,-47.6,,*66
$GNGGA,045015.00,0420.00529,S,05539.84142,E,1,12,0.71,16.3,M,-47.6,M,,*4A
$GNGSA,A,3,24,20,05,13,15,22,12,18,,,,,1.43,0.71,1.24*16
$GNGSA,A,3,86,74,75,87,71,72,,,,,,,1.43,0.71,1.24*18
$GPGSV,5,1,18,05,58,134,37,11,24,020,29,12,31,360,38,13,20,158,33*72
$GPGSV,5,2,18,14,03,128,31,15,27,193,22,18,21,230,16,20,47,070,39*72
$GPGSV,5,3,18,22,17,114,37,23,00,214,,24,62,246,35,25,08,335,*78
$GPGSV,5,4,18,29,10,298,,36,52,277,,40,86,350,40,41,58,082,*72
$GPGSV,5,5,18,49,32,274,,50,10,089,40*7C
$GLGSV,3,1,12,70,00,087,,71,14,128,40,72,16,178,21,73,03,149,26*60
$GLGSV,3,2,12,74,44,130,30,75,63,028,38,76,13,343,,85,01,016,*6F
$GLGSV,3,3,12,86,35,331,28,87,36,272,17,88,01,224,,,,,31*59
$GNGLL,0420.00529,S,05539.84142,E,045015.00,A,A*66
$GNGRS,045015.00,1,-0.1,-1.6,1.0,1.5,-5.9,-1.0,-1.6,11.5,,,,*44
$GNGRS,045015.00,1,2.4,4.8,1.4,2.1,-1.8,0.5,,,,,,*78
$GNGST,045015.00,3071473,,,,1.8,2.6,3.9*7E
$GNZDA,045015.00,23,05,2025,00,00*7C
$GNGBS,045015.00,1.8,2.6,3.9,,,,*5D
$GNTXT,01,01,01,More than 100 frame errors, UART RX was disabled*70
b0|#:C%h
 
 Bq'/F4'r">oO
*{4&V^:R &
Y*daFWG)JHIJ,K&?LWUV#KW$Xbr$L4$GNRMC,045016.00,A,0420.00526,S,05539.84147,E,0.051,,230525,,,A*71
$GNVTG,,T,,M,0.051,N,0.095,K,A*35
$GNGNS,045016.00,0420.00526,S,05539.84147,E,AA,13,0.77,16.5,-47.6,,*68
$GNGGA,045016.00,0420.00526,S,05539.84147,E,1,12,0.77,16.5,M,-47.6,M,,*43
$GNGSA,A,3,24,20,05,13,15,22,12,,,,,,1.50,0.77,1.29*16
$GNGSA,A,3,86,74,75,87,71,72,,,,,,,1.50,0.77,1.29*11
$GPGSV,5,1,18,05,58,134,35,11,24,020,28,12,31,360,37,13,20,158,32*7F
$GPGSV,5,2,18,14,03,128,32,15,27,193,22,18,21,230,08,20,47,070,39*7E
$GPGSV,5,3,18,22,17,114,39,23,00,214,,24,62,246,34,25,08,335,*77
$GPGSV,5,4,18,29,10,298,,36,52,277,,40,86,350,38,41,58,082,*7D
$GPGSV,5,5,18,49,32,274,,50,10,089,38*73
$GLGSV,3,1,12,70,00,087,,71,14,128,41,72,16,178,21,73,03,149,26*61
$GLGSV,3,2,12,74,44,130,30,75,63,028,38,76,13,343,,85,01,016,*6F
$GLGSV,3,3,12,86,35,331,28,87,36,272,19,88,01,224,,,,,31*57
$GNGLL,0420.00526,S,05539.84147,E,045016.00,A,A*6F
$GNGRS,045016.00,1,-1.5,0.5,0.7,2.5,-6.5,-1.1,0.1,,,,,*56
$GNGRS,045016.00,1,1.8,7.9,1.3,2.8,-1.8,-0.3,,,,,,*53
$GNGST,045016.00,31,,,,1.8,2.5,3.8*48
$GNZDA,045016.00,23,05,2025,00,00*7F
$GNGBS,045016.00,1.8,2.5,3.8,,,,*5C
$GNTXT,01,01,01,More than 100 frame errors, UART RX was disabled*70
b0|x": "h
'
"/Fc#r>~O
*{4$V^:R #
Y)dyFWG$QH4IJ,K#?LWUV#KJW$X.bxrP4$GNRMC,045017.00,A,0420.00526,S,05539.84142,E,0.089,,230525,,,A*70
$GNVTG,,T,,M,0.089,N,0.165,K,A*3E
$GNGNS,045017.00,0420.00526,S,05539.84142,E,AA,14,0.71,16.4,-47.6,,*6C
$GNGGA,045017.00,0420.00526,S,05539.84142,E,1,12,0.71,16.4,M,-47.6,M,,*40
$GNGSA,A,3,24,20,05,13,15,22,12,18,,,,,1.43,0.71,1.24*16
$GNGSA,A,3,86,74,75,87,71,72,,,,,,,1.43,0.71,1.24*18
$GPGSV,5,1,18,05,58,134,34,11,24,020,27,12,31,360,34,13,20,158,31*71
$GPGSV,5,2,18,14,03,128,28,15,27,193,21,18,21,230,10,20,47,070,34*72
$GPGSV,5,3,18,22,17,114,35,23,00,214,,24,62,246,30,25,08,335,*7F
$GPGSV,5,4,18,29,10,298,,36,52,277,,40,86,350,36,41,58,082,*73
$GPGSV,5,5,18,49,32,274,,50,10,089,35*7E
$GLGSV,3,1,12,70,00,087,,71,14,128,36,72,16,178,20,73,03,149,24*62
$GLGSV,3,2,12,74,44,130,29,75,63,028,35,76,13,343,,85,01,016,*6A
$GLGSV,3,3,12,86,35,331,28,87,36,272,19,88,01,224,,,,,26*51
$GNGLL,0420.00526,S,05539.84142,E,045017.00,A,A*6B
$GNGRS,045017.00,1,1.3,-1.6,0.3,2.9,-5.9,-0.8,-0.2,12.0,,,,*6F
$GNGRS,045017.00,1,11.0,10.5,0.1,4.9,-1.7,-2.0,,,,,,*5B
$GNGST,045017.00,41,,,,1.8,2.6,3.8*4D
$GNZDA,045017.00,23,05,2025,00,00*7E
$GNGBS,045017.00,1.8,2.6,3.8,,,,*5E
$GNTXT,01,01,01,More than 100 frame errors, UART RX was disabled*70
b0|`#:!#hP7
<]>%/F$r">MO
*{4&V^:R $
Y+dsFWG!XH!IJ,K$?LWUV#K%W$-Xb`rS4^$GNRMC,045018.00,A,0420.00527,S,05539.84141,E,0.084,,230525,,,A*70
$GNVTG,,T,,M,0.084,N,0.156,K,A*33
$GNGNS,045018.00,0420.00527,S,05539.84141,E,AA,14,0.71,16.4,-47.6,,*61
$GNGGA,045018.00,0420.00527,S,05539.84141,E,1,12,0.71,16.4,M,-47.6,M,,*4D
$GNGSA,A,3,24,20,05,13,15,22,12,18,,,,,1.43,0.71,1.24*16
$GNGSA,A,3,86,74,75,87,71,72,,,,,,,1.43,0.71,1.24*18
$GPGSV,5,1,18,05,58,133,35,11,24,020,27,12,31,360,35,13,20,158,31*76
$GPGSV,5,2,18,14,03,128,30,15,27,193,21,18,21,230,12,20,47,070,37*7A
$GPGSV,5,3,18,22,17,114,36,23,00,214,,24,62,246,34,25,08,335,*78
$GPGSV,5,4,18,29,10,298,,36,52,277,,40,86,350,38,41,58,082,*7D
$GPGSV,5,5,18,49,32,274,,50,10,089,36*7D
$GLGSV,3,1,12,70,00,087,,71,14,128,33,72,16,178,19,73,03,149,24*6D
$GLGSV,3,2,12,74,44,130,28,75,63,028,36,76,13,343,,85,01,016,*68
$GLGSV,3,3,12,86,35,331,27,87,36,272,18,88,01,224,,,,,27*5E
$GNGLL,0420.00527,S,05539.84141,E,045018.00,A,A*66
$GNGRS,045018.00,1,-1.8,-0.4,0.3,0.5,-4.2,-1.0,-1.8,13.4,,,,*46
$GNGRS,045018.00,1,13.2,10.5,1.6,5.6,-1.7,-2.2,,,,,,*5E
$GNGST,045018.00,43,,,,1.8,2.6,3.8*40
$GNZDA,045018.00,23,05,2025,00,00*71
$GNGBS,045018.00,1.8,2.6,3.8,,,,*51
$GNTXT,01,01,01,More than 100 frame errors, UART RX was disabled*70
b0|H":*"h_
&/F%r>O
*{4%V^:R %
Y*dFWG!ZHIJ,K$?LWUV#KW$0XbHrW4$GNRMC,045019.00,A,0420.00529,S,05539.84133,E,0.001,,230525,,,A*77
$GNVTG,,T,,M,0.001,N,0.002,K,A*3E
$GNGNS,045019.00,0420.00529,S,05539.84133,E,AA,14,0.71,16.3,-47.6,,*6C
$GNGGA,045019.00,0420.00529,S,05539.84133,E,1,12,0.71,16.3,M,-47.6,M,,*40
$GNGSA,A,3,24,20,05,13,15,22,12,18,,,,,1.43,0.71,1.24*16
$GNGSA,A,3,86,74,75,87,71,72,,,,,,,1.43,0.71,1.24*18
$GPGSV,5,1,18,05,58,133,34,11,24,020,26,12,31,360,34,13,20,158,31*77
$GPGSV,5,2,18,14,03,128,31,15,27,193,22,18,21,230,14,20,47,070,38*71
$GPGSV,5,3,18,22,17,114,37,23,00,214,,24,62,246,28,25,08,335,*74
$GPGSV,5,4,18,29,10,298,,36,52,277,,40,86,350,37,41,58,082,*72
$GPGSV,5,5,18,49,32,274,,50,10,089,37*7C
$GLGSV,3,1,12,70,00,087,,71,14,128,33,72,16,178,19,73,03,149,23*6A
$GLGSV,3,2,12,74,44,130,29,75,63,028,36,76,13,343,,85,01,016,*69
$GLGSV,3,3,12,86,35,331,31,87,36,272,19,88,01,224,,,,,30*5E
$GNGLL,0420.00529,S,05539.84133,E,045019.00,A,A*6C
$GNGRS,045019.00,1,-0.5,-1.2,0.4,4.5,-3.1,-1.1,-1.6,12.4,,,,*45
$GNGRS,045019.00,1,6.4,14.5,2.2,3.0,-1.7,-2.7,,,,,,*6B
$GNGST,045019.00,42,,,,1.8,2.5,3.8*43
$GNZDA,045019.00,23,05,2025,00,00*70
$GNGBS,045019.00,1.8,2.5,3.8,,,,*53
$GNTXT,01,01,01,More than 100 frame errors, UART RX was disabled*70
b0|0!:&!hd
$/Ft#r>?O
*{4#V^:R $
Y*dFWG WHIJ,K#?LWUV#KW$.X_b0r[4k.$GNRMC,045020.00,A,0420.00531,S,05539.84133,E,0.035,,230525,,,A*73
$GNVTG,,T,,M,0.035,N,0.065,K,A*38
$GNGNS,045020.00,0420.00531,S,05539.84133,E,AA,14,0.71,16.3,-47.6,,*6F
$GNGGA,045020.00,0420.00531,S,05539.84133,E,1,12,0.71,16.3,M,-47.6,M,,*43
$GNGSA,A,3,24,20,05,13,15,22,12,18,,,,,1.43,0.71,1.24*16
$GNGSA,A,3,86,74,75,87,71,72,,,,,,,1.43,0.71,1.24*18
$GPGSV,5,1,18,05,58,133,33,11,24,020,25,12,31,360,33,13,20,158,29*7D
$GPGSV,5,2,18,14,03,128,30,15,27,193,21,18,21,230,15,20,47,070,36*7C
$GPGSV,5,3,18,22,17,114,35,23,00,214,,24,62,246,29,25,08,335,*77
$GPGSV,5,4,18,29,10,298,,36,52,277,,40,86,350,35,41,58,082,*70
$GPGSV,5,5,18,49,32,274,,50,10,089,36*7D
$GLGSV,3,1,12,70,00,087,,71,14,128,32,72,16,178,20,73,03,149,23*61
$GLGSV,3,2,12,74,44,130,28,75,63,028,35,76,13,343,,85,01,016,*6B
$GLGSV,3,3,12,86,35,331,30,87,36,272,19,88,01,224,,,,,29*57
$GNGLL,0420.00531,S,05539.84133,E,045020.00,A,A*6F
$GNGRS,045020.00,1,-1.9,-1.4,0.4,5.4,-3.2,-1.1,-1.6,12.8,,,,*4B
$GNGRS,045020.00,1,-1.3,14.2,1.8,3.0,-1.7,-3.8,,,,,,*4C
$GNGST,045020.00,40,,,,1.8,2.5,3.8*4B
$GNZDA,045020.00,23,05,2025,00,00*7A
$GNGBS,045020.00,1.8,2.5,3.8,,,,*59
$GNTXT,01,01,01,More than 100 frame errors, UART RX was disabled*70
b0|#:#hy
#:$$/F'r>%O
*{4%V^:R #
Y*dFWG&DH7IWJ,K$?LWUV#KW$YX'br_4C$GNRMC,045021.00,A,0420.00532,S,05539.84132,E,0.032,,230525,,,A*77
$GNVTG,,T,,M,0.032,N,0.059,K,A*30
$GNGNS,045021.00,0420.00532,S,05539.84132,E,AA,14,0.71,16.3,-47.6,,*6C
$GNGGA,045021.00,0420.00532,S,05539.84132,E,1,12,0.71,16.3,M,-47.6,M,,*40
$GNGSA,A,3,24,20,05,13,15,22,12,18,,,,,1.43,0.71,1.24*16
$GNGSA,A,3,86,74,75,87,71,72,,,,,,,1.43,0.71,1.24*18
$GPGSV,5,1,18,05,58,133,35,11,24,020,26,12,31,360,35,13,20,158,31*77
$GPGSV,5,2,18,14,03,128,35,15,27,193,23,18,21,230,16,20,47,070,36*78
$GPGSV,5,3,18,22,17,114,39,23,00,214,,24,62,246,31,25,08,335,*72
$GPGSV,5,4,18,29,10,298,,36,52,277,,40,86,350,37,41,58,082,*72
$GPGSV,5,5,18,49,32,274,,50,10,089,35*7E
$GLGSV,3,1,12,70,00,087,,71,14,128,38,72,16,178,20,73,03,149,22*6A
$GLGSV,3,2,12,74,44,130,29,75,63,028,36,76,13,343,,85,01,016,*69
$GLGSV,3,3,12,86,35,331,30,87,36,272,19,88,01,224,,,,,31*5E
$GNGLL,0420.00532,S,05539.84132,E,045021.00,A,A*6C
$GNGRS,045021.00,1,0.4,-1.2,0.3,5.0,-2.2,-1.1,-1.3,11.9,,,,*68
$GNGRS,045021.00,1,-0.1,12.4,1.6,0.9,-1.9,-4.6,,,,,,*4D
$GNGST,045021.00,37,,,,1.8,2.5,3.8*4A
$GNZDA,045021.00,23,05,2025,00,00*7B
$GNGBS,045021.00,1.8,2.5,3.8,,,,*58
$GNTXT,01,01,01,More than 100 frame errors, UART RX was disabled*70
b0|#:#h}Y
#Bh%/F&r>O
*{4%V^:R &
Y,d~FWG$VHIJ,/K$?LWUV#K{W$/Xqbrc4$GNRMC,045022.00,A,0420.00534,S,05539.84129,E,0.057,,230525,,,A*7B
$GNVTG,,T,,M,0.057,N,0.106,K,A*38
$GNGNS,045022.00,0420.00534,S,05539.84129,E,AA,14,0.71,16.3,-47.6,,*63
$GNGGA,045022.00,0420.00534,S,05539.84129,E,1,12,0.71,16.3,M,-47.6,M,,*4F
$GNGSA,A,3,24,20,05,13,15,22,12,18,,,,,1.43,0.71,1.24*16
$GNGSA,A,3,86,74,75,87,71,72,,,,,,,1.43,0.71,1.24*18
$GPGSV,5,1,18,05,58,133,35,11,24,020,26,12,31,360,35,13,20,158,31*77
$GPGSV,5,2,18,14,03,128,35,15,27,193,24,18,21,230,16,20,47,070,37*7E
$GPGSV,5,3,18,22,17,114,38,23,00,214,,24,62,246,31,25,08,335,*73
$GPGSV,5,4,18,29,10,298,,36,52,277,,40,86,350,37,41,58,082,*72
$GPGSV,5,5,18,49,32,274,,50,10,089,38*73
$GLGSV,3,1,12,70,00,087,,71,14,128,36,72,16,178,19,73,03,149,22*6E
$GLGSV,3,2,12,74,44,130,29,75,63,028,36,76,13,343,,85,01,016,*69
$GLGSV,3,3,12,86,35,331,30,87,36,272,18,88,01,224,,,,,31*5F
$GNGLL,0420.00534,S,05539.84129,E,045022.00,A,A*63
$GNGRS,045022.00,1,1.9,-1.1,0.1,3.4,-3.5,-0.8,-1.3,8.7,,,,*5C
$GNGRS,045022.00,1,1.2,10.7,1.5,0.5,-1.7,-5.7,,,,,,*61
$GNGST,045022.00,40,,,,1.8,2.5,3.8*49
$GNZDA,045022.00,23,05,2025,00,00*78
$GNGBS,045022.00,1.8,2.5,3.8,,,,*5B
$GNTXT,01,01,01,More than 100 frame errors, UART RX was disabled*70
b0|#:#hq q
"=%/F$r!>3O
*{4%V^:R %
Y*d}FWG#GHhIJ,K"?LWUV#KW$PXbr|g4W$GNRMC,045023.00,A,0420.00536,S,05539.84128,E,0.038,,230525,,,A*70
$GNVTG,,T,,M,0.038,N,0.070,K,A*31
$GNGNS,045023.00,0420.00536,S,05539.84128,E,AA,14,0.71,16.2,-47.6,,*60
$GNGGA,045023.00,0420.00536,S,05539.84128,E,1,12,0.71,16.2,M,-47.6,M,,*4C
$GNGSA,A,3,24,20,05,13,15,22,12,18,,,,,1.43,0.71,1.24*16
$GNGSA,A,3,86,74,75,87,71,72,,,,,,,1.43,0.71,1.24*18
$GPGSV,5,1,18,05,58,133,35,11,24,020,27,12,31,360,35,13,20,158,32*75
$GPGSV,5,2,18,14,03,128,34,15,27,193,25,18,21,230,16,20,47,070,37*7E
$GPGSV,5,3,18,22,17,114,36,23,00,214,,24,62,246,33,25,08,335,*7F
$GPGSV,5,4,18,29,10,298,,36,52,277,,40,86,350,37,41,58,082,*72
$GPGSV,5,5,18,49,32,274,,50,10,089,37*7C
$GLGSV,3,1,12,70,00,087,,71,14,128,35,72,16,178,18,73,03,149,22*6C
$GLGSV,3,2,12,74,44,130,29,75,63,028,34,76,13,343,,85,01,016,*6B
$GLGSV,3,3,12,86,35,331,28,87,36,272,18,88,01,224,,,,,29*5F
$GNGLL,0420.00536,S,05539.84128,E,045023.00,A,A*61
$GNGRS,045023.00,1,-2.1,-0.9,-0.4,6.3,-2.3,-0.7,-1.4,6.9,,,,*57
$GNGRS,045023.00,1,2.8,12.5,1.3,0.8,-1.9,-6.6,,,,,,*6E
$GNGST,045023.00,39,,,,1.8,2.5,3.8*46
$GNZDA,045023.00,23,05,2025,00,00*79
$GNGBS,045023.00,1.8,2.5,3.8,,,,*5A
$GNTXT,01,01,01,More than 100 frame errors, UART RX was disabled*70
b0|$:#h~ 
"%/F(r!>O
*{4&V^:R %
Y*dfFWG'>HqIJ,1K$?LWUV#KW$Xbrdk4$GNRMC,045024.00,A,0420.00535,S,05539.84128,E,0.067,,230525,,,A*7E
$GNVTG,,T,,M,0.067,N,0.124,K,A*3B
$GNGNS,045024.00,0420.00535,S,05539.84128,E,AA,14,0.71,16.3,-47.6,,*65
$GNGGA,045024.00,0420.00535,S,05539.84128,E,1,12,0.71,16.3,M,-47.6,M,,*49
$GNGSA,A,3,24,20,05,13,15,22,12,18,,,,,1.43,0.71,1.24*16
$GNGSA,A,3,86,74,75,87,71,72,,,,,,,1.43,0.71,1.24*18
$GPGSV,5,1,18,05,58,133,36,11,24,020,27,12,31,360,35,13,20,158,32*76
$GPGSV,5,2,18,14,03,128,34,15,27,193,24,18,21,230,17,20,47,070,37*7E
$GPGSV,5,3,18,22,17,114,40,23,00,214,,24,62,246,33,25,08,335,*7E
$GPGSV,5,4,18,29,10,298,,36,52,277,,40,86,350,38,41,58,082,*7D
$GPGSV,5,5,18,49,32,274,,50,10,089,37*7C
$GLGSV,3,1,12,70,00,087,,71,14,128,39,72,16,178,18,73,03,149,23*61
$GLGSV,3,2,12,74,44,130,30,75,63,028,36,76,13,343,,85,01,016,*61
$GLGSV,3,3,12,86,35,331,28,87,36,272,19,88,01,224,,,,,29*5E
$GNGLL,0420.00535,S,05539.84128,E,045024.00,A,A*65
$GNGRS,045024.00,1,-1.2,-0.9,-0.5,4.0,-2.3,-0.7,-1.3,4.7,,,,*5B
$GNGRS,045024.00,1,2.7,8.2,1.3,1.7,-1.9,-6.6,,,,,,*54
$GNGST,045024.00,39,,,,1.8,2.5,3.8*41
$GNZDA,045024.00,23,05,2025,00,00*7E
$GNGBS,045024.00,1.8,2.5,3.8,,,,*5D
$GNTXT,01,01,01,More than 100 frame errors, UART RX was disabled*70
b0|%:"z
 /Wz$/F'r">O
*{4#V^:R &
Y(d}FWG*MHFIJ ,K?_LWUV#KYW$TX CbrLo4'$GNRMC,045025.00,A,0420.00535,S,05539.84131,E,0.072,,230525,,,A*73
$GNVTG,,T,,M,0.072,N,0.133,K,A*39
$GNGNS,045025.00,0420.00535,S,05539.84131,E,AA,14,0.71,16.3,-47.6,,*6C
$GNGGA,045025.00,0420.00535,S,05539.84131,E,1,12,0.71,16.3,M,-47.6,M,,*40
$GNGSA,A,3,24,20,05,13,15,22,12,18,,,,,1.43,0.71,1.24*16
$GNGSA,A,3,86,74,75,87,71,72,,,,,,,1.43,0.71,1.24*18
$GPGSV,5,1,18,05,58,133,37,11,24,020,27,12,31,000,34,13,20,158,31*70
$GPGSV,5,2,18,14,03,128,32,15,27,193,24,18,21,230,16,20,47,070,36*78
$GPGSV,5,3,18,22,17,114,39,23,00,214,,24,62,246,34,25,08,335,*77
$GPGSV,5,4,18,29,10,298,,36,52,277,,40,86,350,35,41,58,082,*70
$GPGSV,5,5,18,49,32,274,,50,10,089,38*73
$GLGSV,3,1,12,70,00,087,,71,14,128,42,72,16,178,19,73,03,149,27*68
$GLGSV,3,2,12,74,44,130,32,75,63,028,31,76,13,343,,85,01,016,*64
$GLGSV,3,3,12,86,35,331,21,87,36,272,18,88,01,224,,,,,32*5C
$GNGLL,0420.00535,S,05539.84131,E,045025.00,A,A*6C
$GNGRS,045025.00,1,-3.8,-1.1,-0.5,4.5,-1.7,-0.8,-1.3,6.3,,,,*50
$GNGRS,045025.00,1,0.9,9.7,3.5,0.8,-1.8,-7.0,,,,,,*51
$GNGST,045025.00,41,,,,1.8,2.5,3.7*40
$GNZDA,045025.00,23,05,2025,00,00*7F
$GNGBS,045025.00,1.8,2.5,3.7,,,,*53
$GNTXT,01,01,01,More than 100 frame errors, UART RX was disabled*70
b0|":#n 
 5&/F&r!>O
*{4%V^:R %
Y)dpFWG)MHIJ,LK%?GLWUV#KW$TX;@br4s4z$GNRMC,045026.00,A,0420.00539,S,05539.84129,E,0.045,,230525,,,A*71
$GNVTG,,T,,M,0.045,N,0.084,K,A*30
$GNGNS,045026.00,0420.00539,S,05539.84129,E,AA,14,0.71,16.2,-47.6,,*6B
$GNGGA,045026.00,0420.00539,S,05539.84129,E,1,12,0.71,16.2,M,-47.6,M,,*47
$GNGSA,A,3,24,20,05,13,15,22,12,18,,,,,1.43,0.71,1.24*16
$GNGSA,A,3,86,74,75,87,71,72,,,,,,,1.43,0.71,1.24*18
$GPGSV,5,1,18,05,58,133,34,11,24,020,26,12,31,000,35,13,20,157,32*7F
$GPGSV,5,2,18,14,03,128,32,15,27,193,22,18,21,230,16,20,47,070,38*70
$GPGSV,5,3,18,22,17,114,38,23,00,214,,24,62,246,33,25,08,335,*71
$GPGSV,5,4,18,29,10,298,,36,52,277,,40,86,350,37,41,58,082,*72
$GPGSV,5,5,18,49,32,274,,50,10,089,37*7C
$GLGSV,3,1,12,70,00,087,,71,14,128,41,72,16,178,19,73,03,149,27*6B
$GLGSV,3,2,12,74,44,130,31,75,63,028,37,76,13,343,,85,01,016,*61
$GLGSV,3,3,12,86,35,331,30,87,36,272,20,88,01,224,,,,,31*54
$GNGLL,0420.00539,S,05539.84129,E,045026.00,A,A*6A
$GNGRS,045026.00,1,-0.5,-0.8,-0.7,4.4,-3.4,-0.7,-1.5,5.6,,,,*58
$GNGRS,045026.00,1,1.6,11.0,-1.9,0.8,-1.8,-5.6,,,,,,*45
$GNGST,045026.00,34,,,,1.8,2.5,3.7*41
$GNZDA,045026.00,23,05,2025,00,00*7C
$GNGBS,045026.00,1.8,2.5,3.7,,,,*50
$GNTXT,01,01,01,More than 100 frame errors, UART RX was disabled*70
b0|":# 
 #&/F%r >O
*{4%V^:R %
Y)dmFWG*PHItJ,K'?LWUV!#KW${Xbrw4T$GNRMC,045027.00,A,0420.00541,S,05539.84123,E,0.080,,230525,,,D*79
$GNVTG,,T,,M,0.080,N,0.147,K,D*32
$GNGNS,045027.00,0420.00541,S,05539.84123,E,DA,14,0.71,16.2,-47.6,,0000*6A
$GNGGA,045027.00,0420.00541,S,05539.84123,E,2,12,0.71,16.2,M,-47.6,M,,0000*40
$GNGSA,A,3,24,20,05,13,15,22,12,18,,,,,1.43,0.71,1.24*16
$GNGSA,A,3,86,74,75,87,71,72,,,,,,,1.43,0.71,1.24*18
$GPGSV,5,1,18,05,58,133,34,11,24,020,26,12,31,000,35,13,20,157,32*7F
$GPGSV,5,2,18,14,03,129,32,15,27,193,22,18,21,230,17,20,47,070,38*70
$GPGSV,5,3,18,22,17,114,37,23,00,214,,24,62,246,32,25,08,335,*7F
$GPGSV,5,4,18,29,10,298,,36,52,277,,40,86,350,37,41,58,082,*72
$GPGSV,5,5,18,49,32,274,,50,10,089,37*7C
$GLGSV,3,1,12,70,00,087,,71,14,128,42,72,16,178,17,73,03,149,26*67
$GLGSV,3,2,12,74,44,130,30,75,63,028,39,76,13,343,,85,01,016,*6E
$GLGSV,3,3,12,86,35,331,33,87,36,272,21,88,01,224,,,,,31*56
$GNGLL,0420.00541,S,05539.84123,E,045027.00,A,D*6B
$GNGRS,045027.00,1,-0.9,-0.6,-1.0,5.3,-2.2,-0.5,-1.1,4.0,,,,*5D
$GNGRS,045027.00,1,4.6,12.9,-0.2,-1.3,-1.8,-5.9,,,,,,*69
$GNGST,045027.00,36,,,,1.8,2.5,3.7*42
$GNZDA,045027.00,23,05,2025,00,00*7D
$GNGBS,045027.00,1.8,2.5,3.7,,,,*51
$GNTXT,01,01,01,More than 100 frame errors, UART RX was disabled*70
b0|p!:" 
%P#/F#r!>O
*{4%V^:R %
Y'dpFWG$THI;J,yK"?LWUV#KW$-Xbpr{4-$GNRMC,045028.00,A,0420.00541,S,05539.84121,E,0.046,,230525,,,D*7E
$GNVTG,,T,,M,0.046,N,0.085,K,D*37
$GNGNS,045028.00,0420.00541,S,05539.84121,E,DA,14,0.71,16.1,-47.6,,0000*64
$GNGGA,045028.00,0420.00541,S,05539.84121,E,2,12,0.71,16.1,M,-47.6,M,,0000*4E
$GNGSA,A,3,24,20,05,13,15,22,12,18,,,,,1.43,0.71,1.24*16
$GNGSA,A,3,86,74,75,87,71,72,,,,,,,1.43,0.71,1.24*18
$GPGSV,5,1,18,05,58,133,33,11,24,020,26,12,31,000,34,13,20,157,32*79
$GPGSV,5,2,18,14,03,129,31,15,27,192,22,18,21,230,16,20,47,070,35*7E
$GPGSV,5,3,18,22,17,114,35,23,00,214,,24,62,246,33,25,08,335,*7C
$GPGSV,5,4,18,29,10,298,,36,52,277,,40,86,350,37,41,58,082,*72
$GPGSV,5,5,18,49,32,274,,50,10,089,37*7C
$GLGSV,3,1,12,70,00,087,,71,14,128,36,72,16,178,17,73,03,149,25*67
$GLGSV,3,2,12,74,44,130,29,75,63,028,34,76,13,343,,85,01,016,*6B
$GLGSV,3,3,12,86,35,331,30,87,36,272,20,88,01,224,,,,,30*55
$GNGLL,0420.00541,S,05539.84121,E,045028.00,A,D*66
$GNGRS,045028.00,1,-0.5,-0.7,-1.0,4.3,-2.2,-0.7,-0.9,3.4,,,,*56
$GNGRS,045028.00,1,6.7,14.0,-0.5,-2.1,-1.7,-8.5,,,,,,*62
$GNGST,045028.00,35,,,,1.8,2.5,3.7*4E
$GNZDA,045028.00,23,05,2025,00,00*72
$GNGBS,045028.00,1.8,2.5,3.7,,,,*5E
$GNTXT,01,01,01,More than 100 frame errors, UART RX was disabled*70
b0|X%:%!
"mB&/F%r">VO
*{4'V^:R %
Y*dmFWG'IH"IbJ,oK$?LWUV#KW$8XdbXr~4$GNRMC,045029.00,A,0420.00540,S,05539.84123,E,0.156,,230525,,,D*7C
$GNVTG,,T,,M,0.156,N,0.290,K,D*31
$GNGNS,045029.00,0420.00540,S,05539.84123,E,DA,14,0.71,16.2,-47.6,,0000*65
$GNGGA,045029.00,0420.00540,S,05539.84123,E,2,12,0.71,16.2,M,-47.6,M,,0000*4F
$GNGSA,A,3,24,20,05,13,15,22,12,18,,,,,1.43,0.71,1.24*16
$GNGSA,A,3,86,74,75,87,71,72,,,,,,,1.43,0.71,1.24*18
$GPGSV,5,1,18,05,58,133,37,11,24,020,26,12,31,000,37,13,20,157,33*7F
$GPGSV,5,2,18,14,03,129,34,15,27,192,23,18,21,230,17,20,47,070,38*76
$GPGSV,5,3,18,22,17,114,37,23,00,214,,24,62,246,34,25,08,335,*79
$GPGSV,5,4,18,29,10,298,,36,52,277,,40,86,350,39,41,58,082,*7C
$GPGSV,5,5,18,49,32,274,,50,10,089,37*7C
$GLGSV,3,1,12,70,00,087,,71,14,128,39,72,16,178,16,73,03,149,25*69
$GLGSV,3,2,12,74,44,130,30,75,63,028,36,76,13,343,,85,01,016,*61
$GLGSV,3,3,12,86,35,331,29,87,36,272,19,88,01,224,,,,,30*57
$GNGLL,0420.00540,S,05539.84123,E,045029.00,A,D*64
$GNGRS,045029.00,1,-1.7,-0.3,-0.9,4.2,-1.9,-0.2,-0.9,1.5,,,,*57
$GNGRS,045029.00,1,9.4,11.3,-0.9,-2.0,-1.8,-9.9,,,,,,*66
$GNGST,045029.00,39,,,,1.8,2.5,3.6*42
$GNZDA,045029.00,23,05,2025,00,00*73
$GNGBS,045029.00,1.8,2.5,3.6,,,,*5E
$GNTXT,01,01,01,More than 100 frame errors, UART RX was disabled*70
b0|@%:$ 
#o(/F#r#>O
*{4'V^:R &
Y)dOFWG'UHFI,J,gK$?:LWUV#KW$X|b@r4P$GNRMC,045030.00,A,0420.00539,S,05539.84125,E,0.013,,230525,,,D*7C
$GNVTG,,T,,M,0.013,N,0.024,K,D*3C
$GNGNS,045030.00,0420.00539,S,05539.84125,E,DA,14,0.71,16.1,-47.6,,0000*66
$GNGGA,045030.00,0420.00539,S,05539.84125,E,2,12,0.71,16.1,M,-47.6,M,,0000*4C
$GNGSA,A,3,24,20,05,13,15,22,12,18,,,,,1.43,0.71,1.24*16
$GNGSA,A,3,86,74,75,87,71,72,,,,,,,1.43,0.71,1.24*18
$GPGSV,5,1,18,05,58,133,37,11,24,020,27,12,31,000,36,13,20,157,32*7E
$GPGSV,5,2,18,14,03,129,35,15,27,192,25,18,21,230,17,20,47,070,40*7E
$GPGSV,5,3,18,22,17,114,35,23,00,214,,24,62,246,35,25,08,335,*7A
$GPGSV,5,4,18,29,10,298,,36,52,277,,40,86,350,39,41,58,082,*7C
$GPGSV,5,5,18,49,32,274,,50,10,089,38*73
$GLGSV,3,1,12,70,00,087,,71,14,128,39,72,16,178,17,73,03,149,25*68
$GLGSV,3,2,12,74,44,130,30,75,63,028,36,76,13,343,,85,01,016,*61
$GLGSV,3,3,12,86,35,331,29,87,36,272,18,88,01,224,,,,,29*5E
$GNGLL,0420.00539,S,05539.84125,E,045030.00,A,D*64
$GNGRS,045030.00,1,-3.1,-0.3,-1.0,1.9,-3.6,0.0,-0.5,2.8,,,,*7D
$GNGRS,045030.00,1,1.4,11.3,-2.0,-1.1,-1.7,-12.1,,,,,,*52
$GNGST,045030.00,39,,,,1.8,2.4,3.6*4B
$GNZDA,045030.00,23,05,2025,00,00*7B
$GNGBS,045030.00,1.8,2.4,3.6,,,,*57
$GNTXT,01,01,01,More than 100 frame errors, UART RX was disabled*70
b0|(!:#
"^-?%/F!r >O
*{4#V^:R &
Y'dHFWG)`HIJ,hK$?LWUV#KW$Xlb(r4$GNRMC,045031.00,A,0420.00538,S,05539.84125,E,0.014,,230525,,,D*7B
$GNVTG,,T,,M,0.014,N,0.026,K,D*39
$GNGNS,045031.00,0420.00538,S,05539.84125,E,DA,14,0.71,16.1,-47.6,,0000*66
$GNGGA,045031.00,0420.00538,S,05539.84125,E,2,12,0.71,16.1,M,-47.6,M,,0000*4C
$GNGSA,A,3,24,20,05,13,15,22,12,18,,,,,1.43,0.71,1.24*16
$GNGSA,A,3,86,74,75,87,71,72,,,,,,,1.43,0.71,1.24*18
$GPGSV,5,1,18,05,58,133,33,11,24,020,27,12,31,000,35,13,20,157,31*7A
$GPGSV,5,2,18,14,03,129,34,15,27,192,24,18,22,230,18,20,47,070,37*72
$GPGSV,5,3,18,22,17,114,33,23,00,214,,24,62,246,32,25,08,335,*7B
$GPGSV,5,4,18,29,10,298,,36,52,277,,40,86,350,35,41,58,082,*70
$GPGSV,5,5,18,49,32,274,,50,10,089,38*73
$GLGSV,3,1,12,70,00,087,,71,14,128,41,72,16,178,18,73,03,149,26*6B
$GLGSV,3,2,12,74,44,130,29,75,63,028,36,76,13,343,,85,01,016,*69
$GLGSV,3,3,12,86,35,331,30,87,36,272,18,88,01,224,,,,,30*5E
$GNGLL,0420.00538,S,05539.84125,E,045031.00,A,D*64
$GNGRS,045031.00,1,-3.1,-0.2,-0.8,1.4,-2.1,0.2,-0.4,0.6,,,,*70
$GNGRS,045031.00,1,4.6,13.8,-2.3,-2.3,-1.6,-10.4,,,,,,*59
$GNGST,045031.00,40,,,,1.8,2.4,3.6*44
$GNZDA,045031.00,23,05,2025,00,00*7A
$GNGBS,045031.00,1.8,2.4,3.6,,,,*56
$GNTXT,01,01,01,More than 100 frame errors, UART RX was disabled*70
b0|!:E!{
!Qd%/F$r>O
*{4#V^:R $
Y(dKFWG#OHI~J,K"?NLWUV#K<W$Xbr4 $GNRMC,045032.00,A,0420.00538,S,05539.84126,E,0.065,,230525,,,D*7D
$GNVTG,,T,,M,0.065,N,0.121,K,D*39
$GNGNS,045032.00,0420.00538,S,05539.84126,E,DA,14,0.71,16.1,-47.6,,0000*66
$GNGGA,045032.00,0420.00538,S,05539.84126,E,2,12,0.71,16.1,M,-47.6,M,,0000*4C
$GNGSA,A,3,24,20,05,13,15,22,12,18,,,,,1.43,0.71,1.24*16
$GNGSA,A,3,86,74,75,87,71,72,,,,,,,1.43,0.71,1.24*18
$GPGSV,5,1,18,05,58,133,33,11,24,020,26,12,31,000,33,13,20,157,30*7C
$GPGSV,5,2,18,14,03,129,33,15,27,192,21,18,22,230,16,20,47,070,37*7E
$GPGSV,5,3,18,22,17,114,36,23,00,214,,24,62,246,27,25,08,335,*7A
$GPGSV,5,4,18,29,10,298,,36,52,277,,40,86,350,35,41,58,082,*70
$GPGSV,5,5,18,49,32,274,,50,10,089,36*7D
$GLGSV,3,1,12,70,00,087,,71,14,128,35,72,16,178,17,73,03,149,24*65
$GLGSV,3,2,12,74,44,130,28,75,63,028,34,76,13,343,,85,01,016,*6A
$GLGSV,3,3,12,86,35,331,30,87,36,272,17,88,01,224,,,,,28*58
$GNGLL,0420.00538,S,05539.84126,E,045032.00,A,D*64
$GNGRS,045032.00,1,-3.3,-0.1,0.7,3.8,-4.1,0.2,-0.1,-0.7,,,,*71
$GNGRS,045032.00,1,0.6,14.2,-1.8,-1.0,-1.8,-11.0,,,,,,*50
$GNGST,045032.00,42,,,,1.8,2.4,3.6*45
$GNZDA,045032.00,23,05,2025,00,00*79
$GNGBS,045032.00,1.8,2.4,3.6,,,,*55
$GNTXT,01,01,01,More than 100 frame errors, UART RX was disabled*70
b0|$:$x
$i &/E&r >0O
*{4'V^:R '
Y(d$FWG+_HI:J,K$?ELWUV#KNW$XBbr4cy$GNRMC,045033.00,A,0420.00539,S,05539.84129,E,0.011,,230525,,,D*71
$GNVTG,,T,,M,0.011,N,0.020,K,D*3A
$GNGNS,045033.00,0420.00539,S,05539.84129,E,DA,14,0.71,16.2,-47.6,,0000*6A
$GNGGA,045033.00,0420.00539,S,05539.84129,E,2,12,0.71,16.2,M,-47.6,M,,0000*40
$GNGSA,A,3,24,20,05,13,15,22,12,18,,,,,1.43,0.71,1.24*16
$GNGSA,A,3,86,74,75,87,71,72,,,,,,,1.43,0.71,1.24*18
$GPGSV,5,1,18,05,58,133,36,11,24,020,27,12,31,000,36,13,20,157,31*7C
$GPGSV,5,2,18,14,03,129,36,15,27,192,20,18,22,230,16,20,47,069,38*7D
$GPGSV,5,3,18,22,17,114,38,23,00,214,,24,62,246,32,25,08,335,*70
$GPGSV,5,4,18,29,10,298,,36,52,277,,40,86,350,39,41,58,082,*7C
$GPGSV,5,5,18,49,32,274,,50,10,089,39*72
$GLGSV,3,1,12,70,00,087,,71,14,128,43,72,16,178,17,73,03,149,25*65
$GLGSV,3,2,12,74,44,130,29,75,63,028,36,76,13,343,,85,01,016,*69
$GLGSV,3,3,12,86,35,331,29,87,36,272,15,88,01,224,,,,,29*53
$GNGLL,0420.00539,S,05539.84129,E,045033.00,A,D*6B
$GNGRS,045033.00,1,-2.1,0.1,2.8,3.8,-4.8,0.0,0.2,1.7,,,,*5A
$GNGRS,045033.00,1,0.8,14.9,-1.9,-0.2,-1.6,-11.1,,,,,,*59
$GNGST,045033.00,44,,,,1.8,2.4,3.6*42
$GNZDA,045033.00,23,05,2025,00,00*78
$GNGBS,045033.00,1.8,2.4,3.6,,,,*54
$GNTXT,01,01,01,More than 100 frame errors, UART RX was disabled*70
b0|":!
!m&/E#r>O
*{4$V^:R %
Y%dFWG&wHDIJ,K"?|LWUV #KkW$X>brt4;$GNRMC,045034.00,A,0420.00538,S,05539.84130,E,0.032,,230525,,,D*7E
$GNVTG,,T,,M,0.032,N,0.060,K,D*3F
$GNGNS,045034.00,0420.00538,S,05539.84130,E,DA,14,0.74,16.2,-47.6,,0000*61
$GNGGA,045034.00,0420.00538,S,05539.84130,E,2,12,0.74,16.2,M,-47.6,M,,0000*4B
$GNGSA,A,3,24,20,05,13,15,22,12,18,,,,,1.51,0.74,1.32*17
$GNGSA,A,3,86,74,75,87,71,72,,,,,,,1.51,0.74,1.32*19
$GPGSV,5,1,18,05,58,133,34,11,24,020,27,12,31,000,33,13,20,157,31*7B
$GPGSV,5,2,18,14,03,129,33,15,27,192,18,18,22,230,16,20,47,069,38*73
$GPGSV,5,3,18,22,17,114,35,23,00,214,,24,62,246,27,25,08,335,*79
$GPGSV,5,4,18,29,10,298,,36,52,277,,40,86,350,36,41,58,082,*73
$GPGSV,5,5,18,49,32,274,,50,10,089,37*7C
$GLGSV,3,1,12,70,00,087,,71,14,128,38,72,16,178,17,73,03,149,26*6A
$GLGSV,3,2,12,74,44,130,29,75,63,028,34,76,13,343,,85,01,016,*6B
$GLGSV,3,3,12,86,35,331,32,87,36,272,17,88,01,224,,,,,29*5B
$GNGLL,0420.00538,S,05539.84130,E,045034.00,A,D*65
$GNGRS,045034.00,1,-2.6,-0.2,-1.0,0.2,-6.1,0.0,0.2,-0.4,,,,*7F
$GNGRS,045034.00,1,1.1,14.3,-1.3,-2.7,-1.4,-9.6,,,,,,*6D
$GNGST,045034.00,37,,,,1.8,2.4,3.6*41
$GNZDA,045034.00,23,05,2025,00,00*7F
$GNGBS,045034.00,1.8,2.4,3.6,,,,*53
$GNTXT,01,01,01,More than 100 frame errors, UART RX was disabled*70
b0| :V  
 z#/E%r>O
*{4"V^:R #
Y$dFWG#HIvJ,QK!?xLWUV#KW$Xbr\4I$GNRMC,045035.00,A,0420.00537,S,05539.84131,E,0.040,,230525,,,D*74
$GNVTG,,T,,M,0.040,N,0.075,K,D*3E
$GNGNS,045035.00,0420.00537,S,05539.84131,E,DA,14,0.71,16.2,-47.6,,0000*6B
$GNGGA,045035.00,0420.00537,S,05539.84131,E,2,12,0.71,16.2,M,-47.6,M,,0000*41
$GNGSA,A,3,24,20,05,13,15,22,12,18,,,,,1.43,0.71,1.24*16
$GNGSA,A,3,86,74,75,87,71,72,,,,,,,1.43,0.71,1.24*18
$GPGSV,5,1,18,05,58,133,32,11,24,020,26,12,31,000,32,13,20,157,29*74
$GPGSV,5,2,18,14,03,129,32,15,27,192,17,18,22,230,14,20,47,069,35*72
$GPGSV,5,3,18,22,17,114,37,23,00,214,,24,62,246,29,25,08,335,*75
$GPGSV,5,4,18,29,10,298,,36,52,277,,40,86,350,34,41,58,082,*71
$GPGSV,5,5,18,49,32,274,,50,10,089,35*7E
$GLGSV,3,1,12,70,00,087,,71,14,128,35,72,16,178,17,73,03,149,25*64
$GLGSV,3,2,12,74,44,130,28,75,63,028,33,76,13,343,,85,01,016,*6D
$GLGSV,3,3,12,86,35,331,30,87,36,272,16,88,01,224,,,,,28*59
$GNGLL,0420.00537,S,05539.84131,E,045035.00,A,D*6A
$GNGRS,045035.00,1,-0.7,-0.2,-1.7,-0.4,-5.7,-0.6,0.3,-1.0,,,,*7B
$GNGRS,045035.00,1,4.2,11.0,-1.4,-2.9,-1.2,-8.5,,,,,,*61
$GNGST,045035.00,39,,,,1.8,2.4,3.6*4E
$GNZDA,045035.00,23,05,2025,00,00*7E
$GNGBS,045035.00,1.8,2.4,3.6,,,,*52
$GNTXT,01,01,01,More than 100 frame errors, UART RX was disabled*70
b0|:S!

!A1$/E(r >jO
*{4"V^:R #
YdFWG!HBIvJ,K"?LWUV#KW$XJBbrD4$GNRMC,045036.00,A,0420.00536,S,05539.84133,E,0.106,,230525,,,D*77
$GNVTG,,T,,M,0.106,N,0.196,K,D*31
$GNGNS,045036.00,0420.00536,S,05539.84133,E,DA,14,0.71,16.2,-47.6,,0000*6B
$GNGGA,045036.00,0420.00536,S,05539.84133,E,2,12,0.71,16.2,M,-47.6,M,,0000*41
$GNGSA,A,3,24,20,05,13,15,22,12,18,,,,,1.43,0.71,1.24*16
$GNGSA,A,3,86,74,75,87,71,72,,,,,,,1.43,0.71,1.24*18
$GPGSV,5,1,18,05,58,133,31,11,24,020,26,12,31,000,33,13,20,157,29*76
$GPGSV,5,2,18,14,03,129,33,15,27,192,19,18,22,230,15,20,47,069,36*7F
$GPGSV,5,3,18,22,17,114,40,23,00,214,,24,62,245,32,25,08,335,*7C
$GPGSV,5,4,18,29,10,298,,36,52,277,,40,86,350,34,41,58,082,*71
$GPGSV,5,5,18,49,32,274,,50,10,089,35*7E
$GLGSV,3,1,12,70,00,087,,71,14,128,33,72,16,178,16,73,03,149,25*63
$GLGSV,3,2,12,74,44,130,27,75,63,028,34,76,13,343,,85,01,016,*65
$GLGSV,3,3,12,86,35,331,30,87,36,272,16,88,01,224,,,,,28*59
$GNGLL,0420.00536,S,05539.84133,E,045036.00,A,D*6A
$GNGRS,045036.00,1,-4.1,-0.5,-1.7,2.9,-7.0,0.2,0.1,-2.1,,,,*73
$GNGRS,045036.00,1,5.2,12.4,-1.3,-2.5,-1.1,-9.6,,,,,,*6E
$GNGST,045036.00,43,,,,1.8,2.4,3.6*40
$GNZDA,045036.00,23,05,2025,00,00*7D
$GNGBS,045036.00,1.8,2.4,3.6,,,,*51
$GNTXT,01,01,01,More than 100 frame errors, UART RX was disabled*70
b0|#:2!y
 d0$/E)r2>O
*{4!V^:R  
YdFWG"HBIJ,OK!?fLWUV#K-W$vXb#r,4$GNRMC,045037.00,A,0420.00535,S,05539.84137,E,0.174,,230525,,,D*74
$GNVTG,,T,,M,0.174,N,0.322,K,D*39
$GNGNS,045037.00,0420.00535,S,05539.84137,E,DA,14,0.71,16.2,-47.6,,0000*6D
$GNGGA,045037.00,0420.00535,S,05539.84137,E,2,12,0.71,16.2,M,-47.6,M,,0000*47
$GNGSA,A,3,24,20,05,13,15,22,12,18,,,,,1.43,0.71,1.24*16
$GNGSA,A,3,86,74,75,87,71,72,,,,,,,1.43,0.71,1.24*18
$GPGSV,5,1,18,05,58,133,31,11,24,020,25,12,31,000,33,13,20,157,27*7B
$GPGSV,5,2,18,14,03,129,32,15,27,192,18,18,22,230,14,20,47,069,36*7E
$GPGSV,5,3,18,22,17,114,41,23,00,214,,24,62,245,29,25,09,335,*76
$GPGSV,5,4,18,29,10,298,,36,52,277,,40,86,350,33,41,58,082,*76
$GPGSV,5,5,18,49,32,274,,50,10,089,32*79
$GLGSV,3,1,12,70,00,087,,71,14,128,34,72,16,178,17,73,03,149,23*63
$GLGSV,3,2,12,74,44,130,27,75,63,028,33,76,13,343,,85,01,016,*62
$GLGSV,3,3,12,86,35,331,30,87,36,272,14,88,01,224,,,,,27*54
$GNGLL,0420.00535,S,05539.84137,E,045037.00,A,D*6C
$GNGRS,045037.00,1,-3.7,-0.6,-2.1,3.8,-7.2,0.5,0.1,-5.4,,,,*72
$GNGRS,045037.00,1,3.0,13.6,-1.5,-1.4,-1.3,-12.1,,,,,,*53
$GNGST,045037.00,46,,,,1.8,2.5,3.7*44
$GNZDA,045037.00,23,05,2025,00,00*7C
$GNGBS,045037.00,1.8,2.5,3.7,,,,*50
$GNTXT,01,01,01,More than 100 frame errors, UART RX was disabled*70
b0|' : 
!kh#/E(r>VO
*{4!V^:R 
YdbFWG!pHIJ,&K!?aLWUV#KSW$AX?b'r4$GNRMC,045038.00,A,0420.00535,S,05539.84134,E,0.043,,230525,,,D*7D
$GNVTG,,T,,M,0.043,N,0.079,K,D*31
$GNGNS,045038.00,0420.00535,S,05539.84134,E,DA,14,0.71,16.3,-47.6,,0000*60
$GNGGA,045038.00,0420.00535,S,05539.84134,E,2,12,0.71,16.3,M,-47.6,M,,0000*4A
$GNGSA,A,3,24,20,05,13,15,22,12,18,,,,,1.43,0.71,1.24*16
$GNGSA,A,3,86,74,75,87,71,72,,,,,,,1.43,0.71,1.24*18
$GPGSV,5,1,18,05,58,133,32,11,24,020,25,12,31,000,32,13,20,157,27*79
$GPGSV,5,2,18,14,03,129,33,15,27,192,17,18,22,230,13,20,47,069,35*74
$GPGSV,5,3,18,22,17,114,40,23,00,214,,24,62,245,28,25,09,335,*76
$GPGSV,5,4,18,29,10,298,,36,52,277,,40,86,350,33,41,58,082,*76
$GPGSV,5,5,18,49,32,274,,50,10,089,30*7B
$GLGSV,3,1,12,70,00,087,,71,14,128,33,72,16,178,15,73,03,149,22*67
$GLGSV,3,2,12,74,44,130,26,75,63,028,33,76,13,343,,85,01,016,*63
$GLGSV,3,3,12,86,35,331,29,87,36,272,15,88,01,224,,,,,26*5C
$GNGLL,0420.00535,S,05539.84134,E,045038.00,A,D*60
$GNGRS,045038.00,1,0.9,-0.7,-0.3,5.4,-6.6,-0.8,0.2,-7.4,,,,*72
$GNGRS,045038.00,1,3.4,13.2,-1.6,-1.9,-1.4,-12.6,,,,,,*52
$GNGST,045038.00,47,,,,1.9,2.5,3.7*4B
$GNZDA,045038.00,23,05,2025,00,00*73
$GNGBS,045038.00,1.9,2.5,3.7,,,,*5E
$GNTXT,01,01,01,More than 100 frame errors, UART RX was disabled*70
b0|h+!:"c
 #/E(r6>QO
*{4#V^:R 
YdFWGYHZIYJ,K ?qLWUV#KW$Xlbh+r4r$GNRMC,045039.00,A,0420.00537,S,05539.84135,E,0.063,,230525,,,D*7D
$GNVTG,,T,,M,0.063,N,0.117,K,D*3A
$GNGNS,045039.00,0420.00537,S,05539.84135,E,DA,14,0.71,16.3,-47.6,,0000*62
$GNGGA,045039.00,0420.00537,S,05539.84135,E,2,12,0.71,16.3,M,-47.6,M,,0000*48
$GNGSA,A,3,24,20,05,13,15,22,12,18,,,,,1.43,0.71,1.24*16
$GNGSA,A,3,86,74,75,87,71,72,,,,,,,1.43,0.71,1.24*18
$GPGSV,5,1,18,05,58,133,33,11,24,020,25,12,31,000,34,13,20,157,27*7E
$GPGSV,5,2,18,14,03,129,32,15,27,192,17,18,22,230,11,20,47,069,35*77
$GPGSV,5,3,18,22,17,114,40,23,00,214,,24,62,245,31,25,09,335,*7E
$GPGSV,5,4,18,29,10,298,,36,52,277,,40,86,350,35,41,58,082,*70
$GPGSV,5,5,18,49,32,274,,50,10,089,31*7A
$GLGSV,3,1,12,70,00,087,,71,14,128,31,72,16,178,14,73,03,149,23*65
$GLGSV,3,2,12,74,44,130,27,75,63,028,32,76,13,343,,85,01,016,*63
$GLGSV,3,3,12,86,35,331,29,87,36,272,15,88,01,224,,,,,26*5C
$GNGLL,0420.00537,S,05539.84135,E,045039.00,A,D*62
$GNGRS,045039.00,1,0.8,-0.5,0.1,3.6,-7.7,3.1,-0.2,-8.8,,,,*52
$GNGRS,045039.00,1,7.1,14.7,-1.4,-2.3,-1.7,-14.5,,,,,,*5D
$GNGST,045039.00,77406,,,,1.9,2.5,3.8*74
$GNZDA,045039.00,23,05,2025,00,00*72
$GNGBS,045039.00,1.9,2.5,3.8,,,,*50
$GNTXT,01,01,01,More than 100 frame errors, UART RX was disabled*70
b0|P/%:#
$U&/E)r >.O
*{4&V^:R 
YdFWG'_HIJ,K$?LWUV#K:W$X(bP/r4JN$GNRMC,045040.00,A,0420.00538,S,05539.84136,E,0.064,,230525,,,D*78
$GNVTG,,T,,M,0.064,N,0.118,K,D*32
$GNGNS,045040.00,0420.00538,S,05539.84136,E,DA,14,0.71,16.3,-47.6,,0000*60
$GNGGA,045040.00,0420.00538,S,05539.84136,E,2,12,0.71,16.3,M,-47.6,M,,0000*4A
$GNGSA,A,3,24,20,05,13,15,22,12,18,,,,,1.43,0.71,1.24*16
$GNGSA,A,3,86,74,75,87,71,72,,,,,,,1.43,0.71,1.24*18
$GPGSV,5,1,18,05,58,133,37,11,24,020,26,12,31,000,35,13,20,157,28*77
$GPGSV,5,2,18,14,03,129,36,15,27,192,18,18,22,230,12,20,47,069,38*72
$GPGSV,5,3,18,22,17,114,41,23,00,214,,24,62,245,32,25,09,335,*7C
$GPGSV,5,4,18,29,10,298,,36,52,277,,40,86,350,38,41,58,082,*7D
$GPGSV,5,5,18,49,32,274,,50,10,089,31*7A
$GLGSV,3,1,12,70,00,087,,71,14,128,39,72,16,178,16,73,03,149,25*69
$GLGSV,3,2,12,74,44,130,31,75,63,028,36,76,13,343,,85,01,016,*60
$GLGSV,3,3,12,86,35,331,30,87,36,272,16,88,01,224,,,,,29*58
$GNGLL,0420.00538,S,05539.84136,E,045040.00,A,D*60
$GNGRS,045040.00,1,0.5,-0.4,0.2,9.5,-10.9,-0.7,-0.2,-8.6,,,,*44
$GNGRS,045040.00,1,0.6,9.2,-1.2,-2.3,-1.6,-13.8,,,,,,*67
$GNGST,045040.00,77406,,,,1.9,2.5,3.7*75
$GNZDA,045040.00,23,05,2025,00,00*7C
$GNGBS,045040.00,1.9,2.5,3.7,,,,*51
$GNTXT,01,01,01,More than 100 frame errors, UART RX was disabled*70
b0|83&:$
$ &/E(r">bO
+{4'V^:R "
Y d.FWG%ZHI=J ,K$?LWUV#KW$8Xb83r4"$GNRMC,045041.00,A,0420.00539,S,05539.84135,E,0.013,,230525,,,D*7B
$GNVTG,,T,,M,0.013,N,0.023,K,D*3B
$GNGNS,045041.00,0420.00539,S,05539.84135,E,DA,14,0.77,16.4,-47.6,,0000*62
$GNGGA,045041.00,0420.00539,S,05539.84135,E,2,12,0.77,16.4,M,-47.6,M,,0000*48
$GNGSA,A,3,24,20,05,13,15,22,12,18,,,,,1.50,0.77,1.29*1F
$GNGSA,A,3,86,74,75,87,71,72,,,,,,,1.50,0.77,1.29*11
$GPGSV,5,1,18,05,58,133,38,11,24,020,27,12,31,000,36,13,20,157,29*7B
$GPGSV,5,2,18,14,03,129,36,15,27,192,21,18,22,230,18,20,47,069,38*72
$GPGSV,5,3,18,22,17,114,40,23,00,214,,24,62,245,34,25,09,335,*7B
$GPGSV,5,4,18,29,10,299,,36,52,277,,40,86,350,39,41,58,082,*7D
$GPGSV,5,5,18,49,32,274,,50,10,089,34*7F
$GLGSV,3,1,12,70,00,087,,71,14,128,37,72,16,178,17,73,03,149,26*65
$GLGSV,3,2,12,74,44,130,32,75,63,028,36,76,13,343,,85,01,016,*63
$GLGSV,3,3,12,86,35,331,31,87,36,272,17,88,01,224,,,,,30*50
$GNGLL,0420.00539,S,05539.84135,E,045041.00,A,D*63
$GNGRS,045041.00,1,1.0,0.1,0.0,9.0,-9.9,0.2,-0.1,-28.4,,,,*4D
$GNGRS,045041.00,1,5.2,9.2,-1.0,-2.0,-1.7,-15.7,,,,,,*6E
$GNGST,045041.00,36,,,,1.9,2.5,3.7*43
$GNZDA,045041.00,23,05,2025,00,00*7D
$GNGBS,045041.00,1.9,2.5,3.7,,,,*50
$GNTXT,01,01,01,More than 100 frame errors, UART RX was disabled*70
b0| 7&:$:
$&/E+r!>O
+{4'V^:R #
Y&dFWG(KHI[J,9K#?LWUV#KW$XFb 7r4$GNRMC,045042.00,A,0420.00537,S,05539.84135,E,0.029,,230525,,,D*7F
$GNVTG,,T,,M,0.029,N,0.053,K,D*35
$GNGNS,045042.00,0420.00537,S,05539.84135,E,DA,14,0.71,16.4,-47.6,,0000*69
$GNGGA,045042.00,0420.00537,S,05539.84135,E,2,12,0.71,16.4,M,-47.6,M,,0000*43
$GNGSA,A,3,24,20,05,13,15,22,12,18,,,,,1.43,0.71,1.24*16
$GNGSA,A,3,86,74,75,87,71,72,,,,,,,1.43,0.71,1.24*18
$GPGSV,5,1,18,05,58,133,38,11,24,020,27,12,31,000,36,13,20,157,30*73
$GPGSV,5,2,18,14,03,129,36,15,27,192,21,18,22,230,17,20,47,069,38*7D
$GPGSV,5,3,18,22,17,114,43,23,00,214,,24,62,245,33,25,09,335,*7F
$GPGSV,5,4,18,29,10,299,,36,52,277,,40,86,350,39,41,58,082,*7D
$GPGSV,5,5,18,49,32,274,,50,10,089,35*7E
$GLGSV,3,1,12,70,00,087,,71,14,128,40,72,16,178,18,73,03,149,26*6A
$GLGSV,3,2,12,74,44,130,31,75,63,028,35,76,13,343,,85,01,016,*63
$GLGSV,3,3,12,86,35,331,31,87,36,272,17,88,01,224,,,,,30*50
$GNGLL,0420.00537,S,05539.84135,E,045042.00,A,D*6E
$GNGRS,045042.00,1,0.3,0.2,-0.1,3.1,-10.9,-0.3,-0.2,11.7,,,,*5B
$GNGRS,045042.00,1,9.7,10.8,-0.9,-1.0,-1.8,-15.5,,,,,,*50
$GNGST,045042.00,3071473,,,,1.8,2.5,3.6*70
$GNZDA,045042.00,23,05,2025,00,00*7E
$GNGBS,045042.00,1.8,2.5,3.6,,,,*53
$GNTXT,01,01,01,More than 100 frame errors, UART RX was disabled*70
b0|;&:#n
$&/E&r >+O
+{4'V^:R &
Y&dFWG*;HIJ,K#?LWUV#KW$>Xwb;r4$GNRMC,045043.00,A,0420.00537,S,05539.84133,E,0.105,,230525,,,D*77
$GNVTG,,T,,M,0.105,N,0.195,K,D*31
$GNGNS,045043.00,0420.00537,S,05539.84133,E,DA,14,0.71,16.5,-47.6,,0000*6F
$GNGGA,045043.00,0420.00537,S,05539.84133,E,2,12,0.71,16.5,M,-47.6,M,,0000*45
$GNGSA,A,3,24,20,05,13,15,22,12,18,,,,,1.43,0.71,1.24*16
$GNGSA,A,3,86,74,75,87,71,72,,,,,,,1.43,0.71,1.24*18
$GPGSV,5,1,18,05,58,133,38,11,24,020,27,12,31,000,35,13,20,157,30*70
$GPGSV,5,2,18,14,03,129,36,15,27,192,21,18,22,230,11,20,47,069,38*7B
$GPGSV,5,3,18,22,17,114,38,23,00,214,,24,62,245,32,25,09,335,*72
$GPGSV,5,4,18,29,10,299,,36,52,277,,40,86,350,39,41,58,082,*7D
$GPGSV,5,5,18,49,32,274,,50,10,089,38*73
$GLGSV,3,1,12,70,00,087,,71,14,128,42,72,16,178,17,73,03,149,26*67
$GLGSV,3,2,12,74,44,130,31,75,63,028,35,76,13,343,,85,01,016,*63
$GLGSV,3,3,12,86,35,331,30,87,36,272,16,88,01,224,,,,,30*50
$GNGLL,0420.00537,S,05539.84133,E,045043.00,A,D*69
$GNGRS,045043.00,1,0.4,-0.1,-0.3,3.7,-13.2,-0.3,-0.1,11.6,,,,*7D
$GNGRS,045043.00,1,4.9,6.7,-1.1,-1.9,-2.0,-15.5,,,,,,*61
$GNGST,045043.00,3071473,,,,1.8,2.5,3.6*71
$GNZDA,045043.00,23,05,2025,00,00*7F
$GNGBS,045043.00,1.8,2.5,3.6,,,,*52
$GNTXT,01,01,01,More than 100 frame errors, UART RX was disabled*70
b0|>%:$
$S&/E$r
 >OO
+{4'V^:R &
Y'd<FWG)*HIQJ,bK#?LWUV#KW$Xub>r4$GNRMC,045044.00,A,0420.00535,S,05539.84136,E,0.047,,230525,,,D*70
$GNVTG,,T,,M,0.047,N,0.087,K,D*34
$GNGNS,045044.00,0420.00535,S,05539.84136,E,DA,13,0.77,16.5,-47.6,,0000*6E
$GNGGA,045044.00,0420.00535,S,05539.84136,E,2,12,0.77,16.5,M,-47.6,M,,0000*43
$GNGSA,A,3,24,20,05,13,15,22,12,,,,,,1.50,0.77,1.29*16
$GNGSA,A,3,86,74,75,87,71,72,,,,,,,1.50,0.77,1.29*11
$GPGSV,5,1,18,05,58,133,37,11,24,020,27,12,31,000,36,13,20,157,31*7D
$GPGSV,5,2,18,14,03,129,36,15,27,192,20,18,22,230,08,20,47,069,38*72
$GPGSV,5,3,18,22,17,114,36,23,00,214,,24,62,245,32,25,09,335,*7C
$GPGSV,5,4,18,29,10,299,,36,52,277,,40,86,350,39,41,58,082,*7D
$GPGSV,5,5,18,49,32,274,,50,10,089,38*73
$GLGSV,3,1,12,70,00,087,,71,14,128,41,72,16,178,17,73,03,149,26*64
$GLGSV,3,2,12,74,44,130,30,75,63,028,35,76,13,343,,85,01,016,*62
$GLGSV,3,3,12,86,35,331,31,87,36,272,13,88,01,224,,,,,30*54
$GNGLL,0420.00535,S,05539.84136,E,045044.00,A,D*69
$GNGRS,045044.00,1,-1.8,0.0,-0.3,2.6,-14.5,0.1,0.0,,,,,*6D
$GNGRS,045044.00,1,2.3,8.7,-0.7,-0.5,-2.1,-16.5,,,,,,*6C
$GNGST,045044.00,38,,,,1.8,2.5,3.5*4B
$GNZDA,045044.00,23,05,2025,00,00*78
$GNGBS,045044.00,1.8,2.5,3.5,,,,*56
$GNTXT,01,01,01,More than 100 frame errors, UART RX was disabled*70
b0|B#:$ 
$Ig&/E%r!>:O
+{4'V^:R %
Y'd7FWG(HIJ,K#?LWUV#KIW$dXfbBrl4G$GNRMC,045045.00,A,0420.00533,S,05539.84137,E,0.064,,230525,,,D*77
$GNVTG,,T,,M,0.064,N,0.119,K,D*33
$GNGNS,045045.00,0420.00533,S,05539.84137,E,DA,13,0.77,16.5,-47.6,,0000*68
$GNGGA,045045.00,0420.00533,S,05539.84137,E,2,12,0.77,16.5,M,-47.6,M,,0000*45
$GNGSA,A,3,24,20,05,13,15,22,12,,,,,,1.50,0.77,1.29*16
$GNGSA,A,3,86,74,75,87,71,72,,,,,,,1.50,0.77,1.29*11
$GPGSV,5,1,18,05,58,133,35,11,24,020,27,12,31,000,36,13,20,157,32*7C
$GPGSV,5,2,18,14,03,129,36,15,27,192,19,18,22,230,09,20,47,069,38*79
$GPGSV,5,3,18,22,17,114,37,23,00,214,,24,62,245,33,25,09,335,17*7A
$GPGSV,5,4,18,29,10,299,,36,52,277,,40,86,350,39,41,58,082,*7D
$GPGSV,5,5,18,49,32,274,,50,10,089,37*7C
$GLGSV,3,1,12,70,00,087,,71,14,128,40,72,16,178,17,73,03,149,26*65
$GLGSV,3,2,12,74,44,130,30,75,63,028,35,76,13,343,,85,01,016,*62
$GLGSV,3,3,12,86,35,331,31,87,36,272,13,88,01,224,,,,,29*5C
$GNGLL,0420.00533,S,05539.84137,E,045045.00,A,D*6F
$GNGRS,045045.00,1,0.6,-0.1,-0.1,0.3,-14.6,0.2,0.1,,,,,*66
$GNGRS,045045.00,1,5.8,5.0,-0.9,-1.6,-2.2,-15.1,,,,,,*63
$GNGST,045045.00,39,,,,1.8,2.4,3.5*4A
$GNZDA,045045.00,23,05,2025,00,00*79
$GNGBS,045045.00,1.8,2.4,3.5,,,,*56
$GNTXT,01,01,01,More than 100 frame errors, UART RX was disabled*70
b0|F#:$
$&/E&r!>O
+{4&V^:R &
Y)dIFWG),HIJ,K#?LWUV#KjW$XbFrT4Y$GNRMC,045046.00,A,0420.00532,S,05539.84137,E,0.059,,230525,,,D*7B
$GNVTG,,T,,M,0.059,N,0.109,K,D*3C
$GNGNS,045046.00,0420.00532,S,05539.84137,E,DA,14,0.71,16.5,-47.6,,0000*6B
$GNGGA,045046.00,0420.00532,S,05539.84137,E,2,12,0.71,16.5,M,-47.6,M,,0000*41
$GNGSA,A,3,24,20,05,13,15,22,12,18,,,,,1.43,0.71,1.24*16
$GNGSA,A,3,86,74,75,87,71,72,,,,,,,1.43,0.71,1.24*18
$GPGSV,5,1,18,05,58,133,35,11,24,020,27,12,31,000,36,13,20,157,31*7F
$GPGSV,5,2,18,14,03,129,36,15,27,192,21,18,22,230,13,20,47,069,38*79
$GPGSV,5,3,18,22,17,114,38,23,00,214,,24,62,245,33,25,09,335,*73
$GPGSV,5,4,18,29,10,299,,36,52,277,,40,86,350,38,41,58,082,*7C
$GPGSV,5,5,18,49,32,274,,50,10,089,38*73
$GLGSV,3,1,12,70,00,087,,71,14,128,41,72,16,178,16,73,03,149,25*66
$GLGSV,3,2,12,74,44,130,30,75,63,028,35,76,13,343,,85,01,016,*62
$GLGSV,3,3,12,86,35,331,31,87,36,272,13,88,01,224,,,,,30*54
$GNGLL,0420.00532,S,05539.84137,E,045046.00,A,D*6D
$GNGRS,045046.00,1,0.0,-0.1,-0.1,2.0,-15.9,0.1,0.3,7.6,,,,*42
$GNGRS,045046.00,1,3.6,2.2,-0.9,1.7,-2.1,-16.3,,,,,,*43
$GNGST,045046.00,44,,,,1.8,2.4,3.5*43
$GNZDA,045046.00,23,05,2025,00,00*7A
$GNGBS,045046.00,1.8,2.4,3.5,,,,*55
$GNTXT,01,01,01,More than 100 frame errors, UART RX was disabled*70
b0|J$:$
 5
#?%/E(r!>O
+{4'V^:R %
Y(d/FWG')HIJ,HK#?LWUV#KW$dXNbJr<41$GNRMC,045047.00,A,0420.00531,S,05539.84136,E,0.030,,230525,,,D*77
$GNVTG,,T,,M,0.030,N,0.056,K,D*38
$GNGNS,045047.00,0420.00531,S,05539.84136,E,DA,14,0.71,16.5,-47.6,,0000*68
$GNGGA,045047.00,0420.00531,S,05539.84136,E,2,12,0.71,16.5,M,-47.6,M,,0000*42
$GNGSA,A,3,24,20,05,13,15,22,12,18,,,,,1.43,0.71,1.24*16
$GNGSA,A,3,86,74,75,87,71,72,,,,,,,1.43,0.71,1.24*18
$GPGSV,5,1,18,05,58,133,36,11,24,020,27,12,31,000,36,13,20,157,32*7F
$GPGSV,5,2,18,14,03,129,35,15,27,192,19,18,22,230,14,20,47,069,37*79
$GPGSV,5,3,18,22,17,114,40,23,00,214,,24,62,245,33,25,09,335,*7C
$GPGSV,5,4,18,29,10,299,,36,52,277,,40,86,350,39,41,58,082,*7D
$GPGSV,5,5,18,49,32,274,,50,10,089,37*7C
$GLGSV,3,1,12,70,00,087,,71,14,128,39,72,16,178,15,73,03,149,25*6A
$GLGSV,3,2,12,74,44,130,30,75,63,028,35,76,13,343,,85,01,016,*62
$GLGSV,3,3,12,86,35,331,31,87,36,272,14,88,01,224,,,,,29*5B
$GNGLL,0420.00531,S,05539.84136,E,045047.00,A,D*6E
$GNGRS,045047.00,1,-0.4,-0.3,0.0,3.1,-15.9,-0.1,0.1,8.3,,,,*61
$GNGRS,045047.00,1,5.1,3.3,-1.0,1.0,-2.2,-15.9,,,,,,*46
$GNGST,045047.00,44,,,,1.8,2.4,3.5*42
$GNZDA,045047.00,23,05,2025,00,00*7B
$GNGBS,045047.00,1.8,2.4,3.5,,,,*54
$GNTXT,01,01,01,More than 100 frame errors, UART RX was disabled*70
b0|N&:% 
#F&/E(r#>O
+{4'V^:R %
Y(dFWG'8HI-J,K#?LWUV#KRW$$XKbNr$4$GNRMC,045048.00,A,0420.00531,S,05539.84137,E,0.043,,230525,,,D*7D
$GNVTG,,T,,M,0.043,N,0.080,K,D*37
$GNGNS,045048.00,0420.00531,S,05539.84137,E,DA,14,0.71,16.5,-47.6,,0000*66
$GNGGA,045048.00,0420.00531,S,05539.84137,E,2,12,0.71,16.5,M,-47.6,M,,0000*4C
$GNGSA,A,3,24,20,05,13,15,22,12,18,,,,,1.43,0.71,1.24*16
$GNGSA,A,3,86,74,75,87,71,72,,,,,,,1.43,0.71,1.24*18
$GPGSV,5,1,18,05,58,133,38,11,24,020,27,12,31,000,37,13,20,157,32*70
$GPGSV,5,2,18,14,03,129,35,15,27,192,20,18,22,230,15,20,47,069,38*7D
$GPGSV,5,3,18,22,17,114,40,23,00,214,,24,62,245,35,25,09,335,*7A
$GPGSV,5,4,18,29,10,299,,36,52,277,,40,86,350,39,41,58,082,*7D
$GPGSV,5,5,18,49,32,274,,50,10,089,37*7C
$GLGSV,3,1,12,70,00,087,,71,14,128,39,72,16,178,16,73,03,149,25*69
$GLGSV,3,2,12,74,44,130,30,75,63,028,35,76,13,343,,85,01,016,*62
$GLGSV,3,3,12,86,35,331,31,87,36,272,15,88,01,224,,,,,29*5A
$GNGLL,0420.00531,S,05539.84137,E,045048.00,A,D*60
$GNGRS,045048.00,1,-0.7,-0.1,-0.4,5.0,-14.7,-0.2,0.0,7.8,,,,*48
$GNGRS,045048.00,1,0.8,7.7,-1.1,2.9,-2.0,-15.1,,,,,,*44
$GNGST,045048.00,42,,,,1.8,2.4,3.4*4A
$GNZDA,045048.00,23,05,2025,00,00*74
$GNGBS,045048.00,1.8,2.4,3.4,,,,*5A
$GNTXT,01,01,01,More than 100 frame errors, UART RX was disabled*70
b0|xR&:% 
#&/E(r">O
+{4(V^:R %
Y'd:FWG(BHIJ,K#?LWUV #KW$XI{bxRr4$GNRMC,045049.00,A,0420.00531,S,05539.84135,E,0.012,,230525,,,D*7A
$GNVTG,,T,,M,0.012,N,0.022,K,D*3B
$GNGNS,045049.00,0420.00531,S,05539.84135,E,DA,14,0.71,16.5,-47.6,,0000*65
$GNGGA,045049.00,0420.00531,S,05539.84135,E,2,12,0.71,16.5,M,-47.6,M,,0000*4F
$GNGSA,A,3,24,20,05,13,15,22,12,18,,,,,1.43,0.71,1.24*16
$GNGSA,A,3,86,74,75,87,71,72,,,,,,,1.43,0.71,1.24*18
$GPGSV,5,1,18,05,58,133,38,11,24,020,27,12,31,000,37,13,20,157,32*70
$GPGSV,5,2,18,14,03,129,35,15,27,192,20,18,22,230,15,20,47,069,38*7D
$GPGSV,5,3,18,22,17,114,40,23,00,214,,24,62,245,34,25,09,335,*7B
$GPGSV,5,4,18,29,10,299,,36,52,277,,40,86,350,40,41,58,082,*73
$GPGSV,5,5,18,49,32,274,,50,10,089,37*7C
$GLGSV,3,1,12,70,00,087,,71,14,128,40,72,16,178,16,73,03,149,26*64
$GLGSV,3,2,12,74,44,130,30,75,63,028,35,76,13,343,,85,01,016,*62
$GLGSV,3,3,12,86,35,331,32,87,36,272,15,88,01,224,,,,,29*59
$GNGLL,0420.00531,S,05539.84135,E,045049.00,A,D*63
$GNGRS,045049.00,1,-0.5,-0.3,-0.5,4.5,-12.8,-0.4,0.0,9.0,,,,*45
$GNGRS,045049.00,1,1.9,10.1,-1.3,5.4,-1.9,-13.9,,,,,,*79
$GNGST,045049.00,41,,,,1.7,2.4,3.4*47
$GNZDA,045049.00,23,05,2025,00,00*75
$GNGBS,045049.00,1.7,2.4,3.4,,,,*54
$GNTXT,01,01,01,More than 100 frame errors, UART RX was disabled*70
b0|`V%:$* \
#)&/E(r!>O
+{4'V^:R $
Y'dLFWG)LHIIJ,K"?LWUV#KhW$Xb`Vr4L$GNRMC,045050.00,A,0420.00529,S,05539.84133,E,0.023,,230525,,,D*7F
$GNVTG,,T,,M,0.023,N,0.043,K,D*3E
$GNGNS,045050.00,0420.00529,S,05539.84133,E,DA,14,0.71,16.4,-47.6,,0000*63
$GNGGA,045050.00,0420.00529,S,05539.84133,E,2,12,0.71,16.4,M,-47.6,M,,0000*49
$GNGSA,A,3,24,20,05,13,15,22,12,18,,,,,1.43,0.71,1.24*16
$GNGSA,A,3,86,74,75,87,71,72,,,,,,,1.43,0.71,1.24*18
$GPGSV,5,1,18,05,58,133,37,11,24,020,27,12,31,000,36,13,20,157,32*7E
$GPGSV,5,2,18,14,03,129,35,15,27,192,18,18,22,230,14,20,47,069,38*77
$GPGSV,5,3,18,22,17,114,40,23,00,214,,24,62,245,33,25,09,335,*7C
$GPGSV,5,4,18,29,10,299,,36,52,277,,40,86,350,39,41,58,082,*7D
$GPGSV,5,5,18,49,32,274,,50,10,089,36*7D
$GLGSV,3,1,12,70,00,087,,71,14,128,41,72,16,178,16,73,03,149,26*65
$GLGSV,3,2,12,74,44,130,30,75,63,028,34,76,13,343,,85,01,016,*63
$GLGSV,3,3,12,86,35,331,31,87,36,272,14,88,01,224,,,,,29*5B
$GNGLL,0420.00529,S,05539.84133,E,045050.00,A,D*64
$GNGRS,045050.00,1,-0.6,-0.1,-0.5,3.5,-15.0,-0.4,0.4,9.7,,,,*47
$GNGRS,045050.00,1,3.6,6.6,-1.1,6.7,-1.8,-11.0,,,,,,*44
$GNGST,045050.00,45,,,,1.7,2.4,3.4*4B
$GNZDA,045050.00,23,05,2025,00,00*7D
$GNGBS,045050.00,1.7,2.4,3.4,,,,*5C
$GNTXT,01,01,01,More than 100 frame errors, UART RX was disabled*70
b0|HZ#:% H
#
^&/E'r">O
+{4'V^:R %
Y)dRFWG(OHIpJ,K#?LWUV#KW$[X($bHZr4$GNRMC,045051.00,A,0420.00529,S,05539.84132,E,0.078,,230525,,,D*71
$GNVTG,,T,,M,0.078,N,0.144,K,D*36
$GNGNS,045051.00,0420.00529,S,05539.84132,E,DA,14,0.71,16.4,-47.6,,0000*63
$GNGGA,045051.00,0420.00529,S,05539.84132,E,2,12,0.71,16.4,M,-47.6,M,,0000*49
$GNGSA,A,3,24,20,05,13,15,22,12,18,,,,,1.43,0.71,1.24*16
$GNGSA,A,3,86,74,75,87,71,72,,,,,,,1.43,0.71,1.24*18
$GPGSV,5,1,18,05,58,133,35,11,24,020,27,12,31,000,37,13,20,157,32*7D
$GPGSV,5,2,18,14,03,129,35,15,27,192,17,18,22,230,14,20,47,069,38*78
$GPGSV,5,3,18,22,17,114,39,23,00,214,,24,62,245,34,25,09,335,*75
$GPGSV,5,4,18,29,10,299,,36,52,277,,40,86,350,39,41,58,082,*7D
$GPGSV,5,5,18,49,32,274,,50,10,089,37*7C
$GLGSV,3,1,12,70,00,087,,71,14,128,40,72,16,178,14,73,03,149,27*67
$GLGSV,3,2,12,74,44,130,30,75,63,028,35,76,13,343,,85,01,016,*62
$GLGSV,3,3,12,86,35,331,31,87,36,272,15,88,01,224,,,,,29*5A
$GNGLL,0420.00529,S,05539.84132,E,045051.00,A,D*64
$GNGRS,045051.00,1,-0.8,0.1,-1.1,3.3,-16.0,-0.8,-0.2,8.6,,,,*42
$GNGRS,045051.00,1,2.7,7.1,-1.0,6.0,-1.8,-8.0,,,,,,*7D
$GNGST,045051.00,46,,,,1.7,2.4,3.4*49
$GNZDA,045051.00,23,05,2025,00,00*7C
$GNGBS,045051.00,1.7,2.4,3.4,,,,*5D
$GNTXT,01,01,01,More than 100 frame errors, UART RX was disabled*70
b0|0^":$ s
#&%/E&r >O
+{4$V^:R %
Y(dVFWG*aHSIJ,K"?LWUV#KW$@X3b0^r4h$GNRMC,045052.00,A,0420.00530,S,05539.84129,E,0.115,,230525,,,D*7A
$GNVTG,,T,,M,0.115,N,0.213,K,D*3D
$GNGNS,045052.00,0420.00530,S,05539.84129,E,DA,14,0.71,16.4,-47.6,,0000*62
$GNGGA,045052.00,0420.00530,S,05539.84129,E,2,12,0.71,16.4,M,-47.6,M,,0000*48
$GNGSA,A,3,24,20,05,13,15,22,12,18,,,,,1.43,0.71,1.24*16
$GNGSA,A,3,86,74,75,87,71,72,,,,,,,1.43,0.71,1.24*18
$GPGSV,5,1,18,05,58,133,34,11,24,020,27,12,31,000,36,13,20,157,32*7D
$GPGSV,5,2,18,14,03,129,35,15,27,192,17,18,22,230,14,20,47,069,37*77
$GPGSV,5,3,18,22,17,114,38,23,00,214,,24,62,245,32,25,09,335,*72
$GPGSV,5,4,18,29,10,299,,36,52,277,,40,86,350,36,41,58,082,*72
$GPGSV,5,5,18,49,32,274,,50,10,089,37*7C
$GLGSV,3,1,12,70,00,087,,71,14,128,42,72,16,178,11,73,03,149,26*61
$GLGSV,3,2,12,74,44,130,30,75,63,028,34,76,13,343,,85,01,016,*63
$GLGSV,3,3,12,86,35,331,31,87,36,272,14,88,01,224,,,,,29*5B
$GNGLL,0420.00530,S,05539.84129,E,045052.00,A,D*65
$GNGRS,045052.00,1,-1.2,-0.2,-0.8,3.7,-15.1,-0.9,-0.2,8.1,,,,*6C
$GNGRS,045052.00,1,2.4,9.7,-0.8,5.8,-1.6,-1.7,,,,,,*77
$GNGST,045052.00,49,,,,1.7,2.4,3.4*45
$GNZDA,045052.00,23,05,2025,00,00*7F
$GNGBS,045052.00,1.7,2.4,3.4,,,,*5E
$GNTXT,01,01,01,More than 100 frame errors, UART RX was disabled*70
b0|b":#p
#o$/E.(r >+O
+{4$V^:R %
Y*dUFWG(eHIJ,^K"?LWUV#K'W$Xbbr4@$GNRMC,045053.00,A,0420.00530,S,05539.84123,E,0.119,,230525,,,D*7D
$GNVTG,,T,,M,0.119,N,0.220,K,D*31
$GNGNS,045053.00,0420.00530,S,05539.84123,E,DA,14,0.71,16.3,-47.6,,0000*6E
$GNGGA,045053.00,0420.00530,S,05539.84123,E,2,12,0.71,16.3,M,-47.6,M,,0000*44
$GNGSA,A,3,24,20,05,13,15,22,12,18,,,,,1.43,0.71,1.24*16
$GNGSA,A,3,86,74,75,87,71,72,,,,,,,1.43,0.71,1.24*18
$GPGSV,5,1,18,05,58,133,34,11,24,020,27,12,31,000,35,13,20,157,31*7D
$GPGSV,5,2,18,14,03,129,35,15,27,192,18,18,22,230,13,20,47,069,36*7E
$GPGSV,5,3,18,22,17,114,40,23,00,214,,24,62,245,32,25,09,335,*7D
$GPGSV,5,4,18,29,10,299,,36,52,277,,40,86,350,36,41,58,082,*72
$GPGSV,5,5,18,49,32,274,,50,10,089,37*7C
$GLGSV,3,1,12,70,00,087,,71,14,128,40,72,16,178,13,73,03,149,27*60
$GLGSV,3,2,12,74,44,130,30,75,63,028,34,76,13,343,,85,01,016,*63
$GLGSV,3,3,12,86,35,331,31,87,36,272,15,88,01,224,,,,,29*5A
$GNGLL,0420.00530,S,05539.84123,E,045053.00,A,D*6E
$GNGRS,045053.00,1,0.4,0.5,-0.8,3.7,-14.0,-0.6,-0.3,11.4,,,,*5E
$GNGRS,045053.00,1,8.1,8.6,-0.7,6.6,-1.5,-3.4,,,,,,*79
$GNGST,045053.00,48,,,,1.7,2.4,3.4*45
$GNZDA,045053.00,23,05,2025,00,00*7E
$GNGBS,045053.00,1.7,2.4,3.4,,,,*5F
$GNTXT,01,01,01,More than 100 frame errors, UART RX was disabled*70
b0|f":$
#
%/E(r >|O
+{4&V^:R %
Y*dbFWG)RH_IJ,JK"?LWUV #KW$Xbfr4$GNRMC,045054.00,A,0420.00529,S,05539.84121,E,0.067,,230525,,,D*78
$GNVTG,,T,,M,0.067,N,0.124,K,D*3E
$GNGNS,045054.00,0420.00529,S,05539.84121,E,DA,13,0.77,16.3,-47.6,,0000*62
$GNGGA,045054.00,0420.00529,S,05539.84121,E,2,12,0.77,16.3,M,-47.6,M,,0000*4F
$GNGSA,A,3,24,20,05,13,15,22,12,,,,,,1.50,0.77,1.28*17
$GNGSA,A,3,86,74,75,87,71,72,,,,,,,1.50,0.77,1.28*10
$GPGSV,5,1,18,05,58,133,34,11,24,020,27,12,31,000,36,13,20,157,31*7E
$GPGSV,5,2,18,14,03,129,35,15,27,192,18,18,22,230,10,20,47,069,37*7C
$GPGSV,5,3,18,22,17,114,40,23,00,214,,24,62,245,32,25,09,335,*7D
$GPGSV,5,4,18,29,10,299,,36,52,277,,40,86,350,38,41,58,082,*7C
$GPGSV,5,5,18,49,32,274,,50,10,089,37*7C
$GLGSV,3,1,12,70,00,087,,71,14,128,41,72,16,178,15,73,03,149,27*67
$GLGSV,3,2,12,74,44,130,30,75,63,028,34,76,13,343,,85,01,016,*63
$GLGSV,3,3,12,86,35,331,32,87,36,272,16,88,01,224,,,,,29*5A
$GNGLL,0420.00529,S,05539.84121,E,045054.00,A,D*63
$GNGRS,045054.00,1,-1.3,0.3,-0.9,4.0,-13.7,-0.7,-0.2,,,,,*6F
$GNGRS,045054.00,1,4.9,13.5,-0.7,7.3,-1.7,-4.2,,,,,,*44
