$GNTXT,01,01,01,More than 100 frame errors, UART RX was disabled*70
b0di:>; !"'(z-#W
G{4V^:R 
Y
pAG[&HtJ
=KDL/QMOVfW:X :birr$GNRMC,055838.00,A,0420.03081,S,05539.69343,E,0.117,,230525,,,A*79
$GNVTG,,T,,M,0.117,N,0.216,K,A*3F
$GNGNS,055838.00,0420.03081,S,05539.69343,E,AA,15,0.71,24.6,-47.6,,*61
$GNGGA,055838.00,0420.03081,S,05539.69343,E,1,12,0.71,24.6,M,-47.6,M,,*4C
$GNGSA,A,3,24,20,05,13,15,12,18,25,23,,,,1.38,0.71,1.19*12
$GNGSA,A,3,86,74,75,71,72,76,,,,,,,1.38,0.71,1.19*14
$GPGSV,5,1,17,05,58,062,26,11,00,030,,12,59,025,30,13,15,129,17*71
$GPGSV,5,2,17,15,33,162,23,18,34,263,09,20,25,039,31,22,01,137,08*79
$GPGSV,5,3,17,23,25,206,22,24,45,197,26,25,35,343,22,29,10,327,*7E
$GPGSV,5,4,17,36,52,277,,40,86,350,30,41,58,082,29,49,32,274,*75
$GPGSV,5,5,17,50,10,089,*4A
$GLGSV,3,1,11,65,09,197,,71,18,091,19,72,28,144,27,74,16,154,10*63
$GLGSV,3,2,11,75,68,150,28,76,47,337,18,77,02,335,,86,12,358,09*67
$GLGSV,3,3,11,87,23,314,,88,09,256,,,,,32*64
$GNGLL,0420.03081,S,05539.69343,E,055838.00,A,A*64
$GNGRS,055838.00,1,-2.6,0.4,0.1,10.6,7.8,-0.5,9.5,-2.5,7.3,,,*63
$GNGRS,055838.00,1,7.9,5.7,5.1,-9.9,-4.0,12.5,,,,,,*69
$GNGST,055838.00,134998,,,,2.4,5.9,6.7*4F
$GNZDA,055838.00,23,05,2025,00,00*7A
$GNGBS,055838.00,2.4,5.9,6.7,,,,*57
$GNTXT,01,01,01,More than 100 frame errors, UART RX was disabled*70
$GNTXT,01,01,01,More than 100 frame errors, UART RX was disabled*70
$GNGRS,055842.00,1,-3.1,1.1,-1.5,11.4,6.2,-0.1,9.1,-1.0,7.7,,,*4E
$GNGRS,055842.00,1,7.8,5.6,0.0,-6.3,-5.7,11.0,,,,,,*65
$GNGST,055842.00,5319948,,,,2.4,5.8,6.5*74
$GNZDA,055842.00,23,05,2025,00,00*77
$GNGBS,055842.00,2.4,5.8,6.5,,,,*59
$GNTXT,01,01,01,More than 100 frame errors, UART RX was disabled*70
$GNTXT,01,01,01,More than 100 frame errors, UART RX was disabled*70
b0dp":>%;<!"%'m-'#W
G{4!V^:R 
Y
pAGZNH!QJ4KDL/QbMOVf
W:X&bprrN$GNRMC,055844.00,A,0420.03101,S,05539.69344,E,0.293,,230525,,,A*73
$GNVTG,,T,,M,0.293,N,0.543,K,A*37
$GNGNS,055844.00,0420.03101,S,05539.69344,E,AA,15,0.71,23.2,-47.6,,*67
$GNGGA,055844.00,0420.03101,S,05539.69344,E,1,12,0.71,23.2,M,-47.6,M,,*4A
$GNGSA,A,3,24,20,05,13,15,12,18,25,23,,,,1.38,0.71,1.19*12
$GNGSA,A,3,86,74,75,71,72,76,,,,,,,1.38,0.71,1.19*14
$GPGSV,5,1,17,05,58,062,34,11,00,030,,12,59,025,37,13,15,129,19*7B
$GPGSV,5,2,17,15,33,162,31,18,34,263,16,20,25,039,37,22,01,137,08*72
$GPGSV,5,3,17,23,25,206,22,24,45,197,31,25,35,343,25,29,10,327,*7F
$GPGSV,5,4,17,36,52,277,,40,86,350,33,41,58,082,31,49,32,274,*7F
$GPGSV,5,5,17,50,10,089,*4A
$GLGSV,3,1,11,65,09,197,,71,18,090,20,72,29,143,33,74,15,154,12*6A
$GLGSV,3,2,11,75,68,150,30,76,47,337,21,77,02,335,,86,12,358,12*6E
$GLGSV,3,3,11,87,23,314,,88,09,256,,,,,38*6E
$GNGLL,0420.03101,S,05539.69344,E,055844.00,A,A*61
$GNGRS,055844.00,1,0.4,1.1,0.0,10.8,2.4,-0.5,9.6,-3.1,7.5,,,*47
$GNGRS,055844.00,1,8.0,5.6,5.2,-6.9,-1.7,8.7,,,,,,*52
$GNGST,055844.00,3072879,,,,2.3,5.7,6.4*70
$GNZDA,055844.00,23,05,2025,00,00*71
$GNGBS,055844.00,2.3,5.7,6.4,,,,*56
b0dX%:>$;r!
"&'t-#W
G{4"V^:R 
Y
pAGZH J KCL/QAMOVf
W:X$bXrr|$GNRMC,055845.00,A,0420.03102,S,05539.69339,E,0.090,,230525,,,A*7A
$GNVTG,,T,,M,0.090,N,0.167,K,A*34
$GNGNS,055845.00,0420.03102,S,05539.69339,E,AA,15,0.71,22.9,-47.6,,*65
$GNGGA,055845.00,0420.03102,S,05539.69339,E,1,12,0.71,22.9,M,-47.6,M,,*48
$GNGSA,A,3,24,20,05,13,15,12,18,25,23,,,,1.38,0.71,1.19*12
$GNGSA,A,3,86,74,75,71,72,76,,,,,,,1.38,0.71,1.19*14
$GPGSV,5,1,17,05,58,062,37,11,00,030,,12,59,025,36,13,15,129,19*79
$GPGSV,5,2,17,15,33,162,31,18,34,263,10,20,25,039,38,22,01,137,09*7A
$GPGSV,5,3,17,23,25,206,22,24,45,197,31,25,35,343,22,29,10,327,*78
$GPGSV,5,4,17,36,52,277,,40,86,350,34,41,58,082,31,49,32,274,*78
$GPGSV,5,5,17,50,10,089,*4A
$GLGSV,3,1,11,65,09,197,,71,18,090,19,72,29,143,32,74,15,154,15*66
$GLGSV,3,2,11,75,67,151,29,76,47,337,20,77,02,335,,86,12,358,11*6A
$GLGSV,3,3,11,87,23,314,,88,09,256,,,,,36*60
$GNGLL,0420.03102,S,05539.69339,E,055845.00,A,A*69
$GNGRS,055845.00,1,0.0,1.2,-0.8,11.4,2.7,-0.8,9.1,-3.5,6.8,,,*68
$GNGRS,055845.00,1,7.5,5.4,6.9,-5.6,-3.1,8.3,,,,,,*5F
$GNGST,055845.00,3074497,,,,2.3,5.6,6.4*7A
$GNZDA,055845.00,23,05,2025,00,00*70
$GNGBS,055845.00,2.3,5.6,6.4,,,,*56
$GNTXT,01,01,01,More than 100 frame errors, UART RX was disabled*70
b0d($:>v';u!<"%'_M-#W
G{4#V_ :R 
Y
pAGZH&SJ]K!CtL/PMNV
f
W:X*ub(rs-$GNRMC,055847.00,A,0420.03088,S,05539.69302,E,0.070,,230525,,,A*7D
$GNVTG,,T,,M,0.070,N,0.130,K,A*38
$GNGNS,055847.00,0420.03088,S,05539.69302,E,AA,15,0.71,22.7,-47.6,,*62
$GNGGA,055847.00,0420.03088,S,05539.69302,E,1,12,0.71,22.7,M,-47.6,M,,*4F
$GNGSA,A,3,24,20,05,13,15,12,18,25,23,,,,1.38,0.71,1.19*12
$GNGSA,A,3,86,74,75,71,72,76,,,,,,,1.38,0.71,1.19*14
$GPGSV,5,1,17,05,58,062,36,11,00,030,,12,59,025,39,13,15,129,22*7F
$GPGSV,5,2,17,15,33,162,28,18,34,263,19,20,25,039,37,22,01,137,11*7D
$GPGSV,5,3,17,23,25,206,21,24,45,197,31,25,35,343,25,29,10,327,*7C
$GPGSV,5,4,17,36,52,277,,40,86,351,35,41,58,082,32,49,32,274,*7B
$GPGSV,5,5,17,50,10,089,*4A
$GLGSV,3,1,11,65,09,197,,71,18,090,12,72,29,143,38,74,15,154,15*67
$GLGSV,3,2,11,75,67,151,33,76,47,336,23,77,03,334,,86,12,358,10*62
$GLGSV,3,3,11,87,23,314,,88,09,256,,,,,42*63
$GNGLL,0420.03088,S,05539.69302,E,055847.00,A,A*60
$GNGRS,055847.00,1,-0.6,1.0,-1.4,8.8,5.7,-1.0,7.0,0.0,7.4,,,*5D
$GNGRS,055847.00,1,7.9,6.0,8.8,-5.9,-6.9,5.3,,,,,,*56
$GNGST,055847.00,77468,,,,2.2,5.4,6.2*7D
$GNZDA,055847.00,23,05,2025,00,00*72
$GNGBS,055847.00,2.2,5.4,6.2,,,,*51
$GNTXT,01,01,01,More than 100 frame errors, UART RX was disabled*70
$GNTXT,01,01,01,More than 100 frame errors, UART RX was disabled*70
$GNTXT,01,01,01,More than 100 frame errors, UART RX was disabled*70
$GNTXT,01,01,01,More than 100 frame errors, UART RX was disabled*70
$GNTXT,01,01,01,More than 100 frame errors, UART RX was disabled*70
b0d$:>%;b!"#'-x#Wz
G{4$V_AF!:R= 
Y
pAGZiH JsK CL/PMNVf
W:X$brAsd~$GNRMC,055852.00,A,0420.03089,S,05539.69276,E,0.032,,230525,,,A*7C
$GNVTG,,T,,M,0.032,N,0.060,K,A*3A
$GNGNS,055852.00,0420.03089,S,05539.69276,E,AA,16,0.78,22.0,-47.6,,*68
$GNGGA,055852.00,0420.03089,S,05539.69276,E,1,12,0.78,22.0,M,-47.6,M,,*46
$GNGSA,A,3,24,20,05,13,15,12,18,25,23,41,40,,1.48,0.78,1.25*12
$GNGSA,A,3,86,74,75,72,76,,,,,,,,1.48,0.78,1.25*13
$GPGSV,5,1,17,05,58,062,36,11,00,030,,12,59,025,37,13,15,129,21*72
$GPGSV,5,2,17,15,33,162,31,18,34,263,17,20,25,039,35,22,01,137,15*7D
$GPGSV,5,3,17,23,25,206,22,24,45,197,31,25,35,343,24,29,10,327,*7E
$GPGSV,5,4,17,36,52,277,,40,86,351,36,41,58,082,33,49,32,274,*79
$GPGSV,5,5,17,50,10,089,*4A
$GLGSV,3,1,11,65,09,197,,71,18,090,09,72,29,143,32,74,15,154,14*66
$GLGSV,3,2,11,75,67,151,32,76,47,336,21,77,03,334,,86,12,358,08*68
$GLGSV,3,3,11,87,23,314,,88,09,256,,,,,36*60
$GNGLL,0420.03089,S,05539.69276,E,055852.00,A,A*67
$GNGRS,055852.00,1,-1.4,1.9,-1.2,8.7,1.5,-0.9,6.8,-1.3,7.2,159,180,*70
$GNGRS,055852.00,1,-139,6.3,6.8,-12.7,2.3,,,,,,,*5A
$GNGST,055852.00,1497,,,,2.1,5.2,6.0*4F
$GNZDA,055852.00,23,05,2025,00,00*76
$GNGBS,055852.00,2.1,5.2,6.0,,,,*52
$GNTXT,01,01,01,More than 100 frame errors, UART RX was disabled*70
b0d$:>&;!"U$'-#W^
G{4"V_MF":R> 
Y
pAG
ZH JK CoL/PMNVfW:X$|br)s<$GNRMC,055853.00,A,0420.03087,S,05539.69270,E,0.026,,230525,,,A*70
$GNVTG,,T,,M,0.026,N,0.047,K,A*3A
$GNGNS,055853.00,0420.03087,S,05539.69270,E,AA,16,0.73,21.8,-47.6,,*61
$GNGGA,055853.00,0420.03087,S,05539.69270,E,1,12,0.73,21.8,M,-47.6,M,,*4F
$GNGSA,A,3,24,20,05,13,15,12,18,25,23,41,40,,1.27,0.73,1.04*13
$GNGSA,A,3,86,74,75,72,76,,,,,,,,1.27,0.73,1.04*12
$GPGSV,5,1,17,05,58,062,36,11,00,030,,12,59,025,38,13,15,129,22*7E
$GPGSV,5,2,17,15,33,162,31,18,34,263,17,20,25,039,36,22,01,137,13*78
$GPGSV,5,3,17,23,25,206,21,24,45,197,31,25,35,343,25,29,10,327,*7C
$GPGSV,5,4,17,36,52,277,,40,86,351,34,41,58,082,34,49,32,274,*7C
$GPGSV,5,5,17,50,10,089,*4A
$GLGSV,3,1,11,65,09,197,,71,18,090,10,72,29,143,32,74,15,154,13*69
$GLGSV,3,2,11,75,67,151,32,76,47,336,20,77,03,334,,86,12,358,08*69
$GLGSV,3,3,11,87,23,314,,88,09,256,,,,,36*60
$GNGLL,0420.03087,S,05539.69270,E,055853.00,A,A*6E
$GNGRS,055853.00,1,-2.7,3.8,-0.9,7.7,6.7,-1.1,6.0,-1.6,9.2,159,180,*78
$GNGRS,055853.00,1,8.0,7.5,6.2,-12.5,1.4,,,,,,,*60
$GNGST,055853.00,3330,,,,2.1,5.1,5.9*4F
$GNZDA,055853.00,23,05,2025,00,00*77
$GNGBS,055853.00,2.1,5.1,5.9,,,,*5A
$GNTXT,01,01,01,More than 100 frame errors, UART RX was disabled*70
b0d$:>&;cY!"%'](B-"#W
G{4#V_4F":R 
Y
pAGZHJK CL/PMNVf
W:X$Hbr"sN$GNRMC,055854.00,A,0420.03087,S,05539.69270,E,0.068,,230525,,,A*7D
$GNVTG,,T,,M,0.068,N,0.125,K,A*35
$GNGNS,055854.00,0420.03087,S,05539.69270,E,AA,16,0.71,21.5,-47.6,,*69
$GNGGA,055854.00,0420.03087,S,05539.69270,E,1,12,0.71,21.5,M,-47.6,M,,*47
$GNGSA,A,3,24,20,05,13,15,12,18,25,23,40,,,1.28,0.71,1.06*19
$GNGSA,A,3,86,74,75,71,72,76,,,,,,,1.28,0.71,1.06*1B
$GPGSV,5,1,17,05,58,062,36,11,00,030,,12,59,025,38,13,15,129,21*7D
$GPGSV,5,2,17,15,33,162,31,18,34,263,16,20,25,039,37,22,01,137,12*79
$GPGSV,5,3,17,23,25,206,20,24,45,197,31,25,35,343,24,29,10,327,*7C
$GPGSV,5,4,17,36,52,277,,40,86,351,35,41,58,082,34,49,32,274,*7D
$GPGSV,5,5,17,50,10,089,*4A
$GLGSV,3,1,11,65,09,197,,71,18,090,15,72,29,143,31,74,15,154,12*6E
$GLGSV,3,2,11,75,67,151,32,76,47,336,18,77,03,334,,86,12,358,08*62
$GLGSV,3,3,11,87,23,314,,88,09,256,,,,,36*60
$GNGLL,0420.03087,S,05539.69270,E,055854.00,A,A*69
$GNGRS,055854.00,1,-2.2,3.5,-1.1,6.0,4.7,-1.6,2.8,0.3,8.3,180,,*65
$GNGRS,055854.00,1,7.6,7.4,4.9,14.9,-8.8,0.2,,,,,,*45
$GNGST,055854.00,4612,,,,2.1,5.1,5.9*4A
$GNZDA,055854.00,23,05,2025,00,00*70
$GNGBS,055854.00,2.1,5.1,5.9,,,,*5D
$GNTXT,01,01,01,More than 100 frame errors, UART RX was disabled*70
b0dh$:>&;y)!"%'Y-#W
G{4#V_8F#:R 
Y
pAGZH /JK CIL/PMNVf
W:X$jFbhr%s$GNRMC,055855.00,A,0420.03090,S,05539.69265,E,0.037,,230525,,,A*74
$GNVTG,,T,,M,0.037,N,0.069,K,A*36
$GNGNS,055855.00,0420.03090,S,05539.69265,E,AA,16,0.76,21.2,-47.6,,*6A
$GNGGA,055855.00,0420.03090,S,05539.69265,E,1,12,0.76,21.2,M,-47.6,M,,*44
$GNGSA,A,3,24,20,05,13,15,12,18,25,23,40,,,1.47,0.76,1.26*15
$GNGSA,A,3,86,74,75,71,72,76,,,,,,,1.47,0.76,1.26*17
$GPGSV,5,1,17,05,58,062,36,11,00,030,,12,59,025,38,13,15,129,22*7E
$GPGSV,5,2,17,15,33,162,31,18,34,263,15,20,25,039,37,22,01,137,14*7C
$GPGSV,5,3,17,23,25,206,19,24,45,197,31,25,35,343,24,29,10,327,*76
$GPGSV,5,4,17,36,52,277,,40,86,351,35,41,58,082,35,49,32,274,*7C
$GPGSV,5,5,17,50,10,089,*4A
$GLGSV,3,1,11,65,09,197,,71,18,090,18,72,29,143,32,74,15,154,12*60
$GLGSV,3,2,11,75,67,151,32,76,47,336,19,77,03,334,,86,12,358,09*62
$GLGSV,3,3,11,87,23,314,,88,09,256,,,,,36*60
$GNGLL,0420.03090,S,05539.69265,E,055855.00,A,A*6A
$GNGRS,055855.00,1,-2.5,0.0,-1.1,5.5,5.1,-1.4,2.7,0.2,11.1,180,,*52
$GNGRS,055855.00,1,-85.3,9.3,5.9,15.4,-4.6,0.0,,,,,,*52
$GNGST,055855.00,1059,,,,2.1,5.1,5.9*47
$GNZDA,055855.00,23,05,2025,00,00*71
$GNGBS,055855.00,2.1,5.1,5.9,,,,*5C
$GNTXT,01,01,01,More than 100 frame errors, UART RX was disabled*70
$GPGSV,5,4,17,36,52,277,,40,86,351,34,41,58,082,35,49,32,274,*7D
$GPGSV,5,5,17,50,10,089,*4A
$GLGSV,3,1,11,65,09,197,,71,18,090,19,72,29,143,32,74,15,154,13*60
$GLGSV,3,2,11,75,67,151,31,76,47,336,19,77,03,334,,86,12,358,11*68
$GLGSV,3,3,11,87,23,314,,88,09,256,,,,,36*60
$GNGLL,0420.03091,S,05539.69264,E,055856.00,A,A*69
$GNGRS,055856.00,1,-2.9,2.4,-1.1,5.6,5.0,-1.3,0.5,-0.9,10.8,180,,*70
$GNGRS,055856.00,1,8.3,9.8,4.6,14.7,-4.6,-1.1,,,,,,*63
$GNGST,055856.00,2973941,,,,2.1,5.1,5.9*7A
$GNZDA,055856.00,23,05,2025,00,00*72
$GNGBS,055856.00,2.1,5.1,5.9,,,,*5F
b0d8$:>%;t!"$'h-L#W
G{4"V_*F":R 
Y
pAGZH!xJ.K CL/PvMNV
fF
W:X$b8r-s$GNRMC,055857.00,A,0420.03093,S,05539.69265,E,0.054,,230525,,,A*70
$GNVTG,,T,,M,0.054,N,0.101,K,A*3C
$GNGNS,055857.00,0420.03093,S,05539.69265,E,AA,16,0.71,20.8,-47.6,,*67
$GNGGA,055857.00,0420.03093,S,05539.69265,E,1,12,0.71,20.8,M,-47.6,M,,*49
$GNGSA,A,3,24,20,05,13,15,12,18,25,23,40,,,1.28,0.71,1.06*19
$GNGSA,A,3,86,74,75,71,72,76,,,,,,,1.28,0.71,1.06*1B
$GPGSV,5,1,17,05,58,062,36,11,00,030,,12,59,025,37,13,15,129,20*73
$GPGSV,5,2,17,15,33,162,29,18,34,263,13,20,25,039,36,22,01,137,14*72
$GPGSV,5,3,17,23,25,206,19,24,45,197,30,25,35,343,24,29,10,327,*77
$GPGSV,5,4,17,36,52,277,,40,86,351,34,41,58,082,34,49,32,274,*7C
$GPGSV,5,5,17,50,10,089,*4A
$GLGSV,3,1,11,65,09,197,,71,18,090,19,72,29,143,33,74,15,154,14*66
$GLGSV,3,2,11,75,67,151,32,76,47,336,19,77,03,334,,86,12,358,10*6A
$GLGSV,3,3,11,87,22,314,,88,09,256,,,,,36*61
$GNGLL,0420.03093,S,05539.69265,E,055857.00,A,A*6B
$GNGRS,055857.00,1,-1.8,2.5,-0.9,5.3,5.0,-1.4,0.1,0.0,11.7,180,,*57
$GNGRS,055857.00,1,8.4,10.7,5.0,14.1,-3.9,-1.4,,,,,,*5E
$GNGST,055857.00,2973941,,,,2.1,5.1,5.9*7B
$GNZDA,055857.00,23,05,2025,00,00*73
$GNGBS,055857.00,2.1,5.1,5.9,,,,*5E
$GNTXT,01,01,01,More than 100 frame errors, UART RX was disabled*70
b0d $:>%;T!F"_$''P>-#W
G{4"V_F":R 
Y
pAGZ;H!OJ>K!C=L/PAMNVf
W:X%b r1ss$GNRMC,055858.00,A,0420.03094,S,05539.69262,E,0.061,,230525,,,A*79
$GNVTG,,T,,M,0.061,N,0.113,K,A*39
$GNGNS,055858.00,0420.03094,S,05539.69262,E,AA,16,0.76,20.7,-47.6,,*60
$GNGGA,055858.00,0420.03094,S,05539.69262,E,1,12,0.76,20.7,M,-47.6,M,,*4E
$GNGSA,A,3,24,20,05,13,15,12,18,25,23,40,,,1.47,0.76,1.26*15
$GNGSA,A,3,86,74,75,71,72,76,,,,,,,1.47,0.76,1.26*17
$GPGSV,5,1,17,05,58,062,36,11,00,030,,12,59,025,37,13,15,129,19*79
$GPGSV,5,2,17,15,33,162,30,18,34,263,13,20,25,039,36,22,01,137,14*7A
$GPGSV,5,3,17,23,25,206,18,24,45,197,30,25,35,343,24,29,10,327,*76
$GPGSV,5,4,17,36,52,277,,40,86,351,34,41,58,082,34,49,32,274,*7C
$GPGSV,5,5,17,50,10,089,*4A
$GLGSV,3,1,11,65,09,197,,71,18,090,20,72,29,143,33,74,15,154,13*6B
$GLGSV,3,2,11,75,67,151,33,76,47,336,21,77,03,334,,86,12,358,08*69
$GLGSV,3,3,11,87,22,314,,88,09,257,,,,,37*61
$GNGLL,0420.03094,S,05539.69262,E,055858.00,A,A*64
$GNGRS,055858.00,1,1.4,0.4,-0.8,6.0,5.8,-1.1,-1.6,1.8,10.9,180,,*5B
$GNGRS,055858.00,1,-49.6,10.9,3.2,16.0,-4.3,-1.9,,,,,,*42
$GNGST,055858.00,1059,,,,2.1,5.1,5.9*4A
$GNZDA,055858.00,23,05,2025,00,00*7C
$GNGBS,055858.00,2.1,5.1,5.9,,,,*51
$GNTXT,01,01,01,More than 100 frame errors, UART RX was disabled*70
b0d#:>&;!m"E$';2-c#W
G{4#V_E!:R 
Y
piAGZuH!CJK!ChL/PMNVfH
W:X%bSbr9s"$GNRMC,055900.00,A,0420.03095,S,05539.69254,E,0.215,,230525,,,A*70
$GNVTG,,T,,M,0.215,N,0.399,K,A*38
$GNGNS,055900.00,0420.03095,S,05539.69254,E,AA,16,0.71,20.4,-47.6,,*6C
$GNGGA,055900.00,0420.03095,S,05539.69254,E,1,12,0.71,20.4,M,-47.6,M,,*42
$GNGSA,A,3,24,20,05,13,15,12,18,25,23,40,,,1.28,0.71,1.06*19
$GNGSA,A,3,86,74,75,71,72,76,,,,,,,1.28,0.71,1.06*1B
$GPGSV,5,1,17,05,58,062,35,11,00,030,,12,59,025,38,13,15,129,22*7D
$GPGSV,5,2,17,15,33,162,30,18,34,263,14,20,25,039,36,22,01,137,18*71
$GPGSV,5,3,17,23,25,206,15,24,45,197,31,25,35,343,24,29,10,327,*7A
$GPGSV,5,4,17,36,52,277,,40,86,351,35,41,58,082,33,49,32,274,*7A
$GPGSV,5,5,17,50,10,089,*4A
$GLGSV,3,1,11,65,09,197,,71,18,090,18,72,29,143,33,74,15,154,08*6A
$GLGSV,3,2,11,75,67,151,33,76,47,336,21,77,03,334,,86,12,358,07*66
$GLGSV,3,3,11,87,22,314,,88,09,257,,,,,37*61
$GNGLL,0420.03095,S,05539.69254,E,055900.00,A,A*6C
$GNGRS,055900.00,1,-1.6,0.6,-1.0,4.7,8.8,-1.2,-1.9,-0.5,10.7,179,,*5E
$GNGRS,055900.00,1,8.4,9.7,6.2,16.5,-4.4,-0.8,,,,,,*65
$GNGST,055900.00,2975830,,,,2.1,5.1,5.9*79
$GNZDA,055900.00,23,05,2025,00,00*70
$GNGBS,055900.00,2.1,5.1,5.9,,,,*5D
$GNTXT,01,01,01,More than 100 frame errors, UART RX was disabled*70
b0d#:>%;!H"z$'[1-#WA
G{4"V_F!:R 
Y
pAGZbH!?J
K!CL/PMNVfu
W:X%bri=s$GNRMC,055901.00,A,0420.03097,S,05539.69258,E,0.064,,230525,,,A*7B
$GNVTG,,T,,M,0.064,N,0.118,K,A*37
$GNGNS,055901.00,0420.03097,S,05539.69258,E,AA,16,0.72,20.5,-47.6,,*61
$GNGGA,055901.00,0420.03097,S,05539.69258,E,1,12,0.72,20.5,M,-47.6,M,,*4F
$GNGSA,A,3,24,20,05,13,15,12,18,25,23,40,,,1.32,0.72,1.11*17
$GNGSA,A,3,86,74,75,71,72,76,,,,,,,1.32,0.72,1.11*15
$GPGSV,5,1,17,05,58,062,35,11,00,030,,12,59,025,37,13,15,129,21*71
$GPGSV,5,2,17,15,33,162,30,18,34,263,08,20,25,039,36,22,01,137,19*7D
$GPGSV,5,3,17,23,25,206,15,24,45,197,30,25,35,343,23,29,10,327,*7C
$GPGSV,5,4,17,36,52,277,,40,86,351,34,41,58,082,33,49,32,274,*7B
$GPGSV,5,5,17,50,10,089,*4A
$GLGSV,3,1,11,65,09,197,,71,18,090,19,72,29,143,33,74,15,154,10*62
$GLGSV,3,2,11,75,67,151,33,76,47,336,22,77,03,334,,86,12,358,09*6B
$GLGSV,3,3,11,87,22,314,,88,09,257,,,,,37*61
$GNGLL,0420.03097,S,05539.69258,E,055901.00,A,A*63
$GNGRS,055901.00,1,-0.3,0.9,-0.8,4.2,0.7,-1.2,-1.3,0.7,10.7,179,,*7A
$GNGRS,055901.00,1,6.3,24.5,7.6,16.3,-4.5,-0.5,,,,,,*5F
$GNGST,055901.00,1060,,,,2.1,5.1,5.9*4D
$GNZDA,055901.00,23,05,2025,00,00*71
$GNGBS,055901.00,2.1,5.1,5.9,,,,*5C
$GNTXT,01,01,01,More than 100 frame errors, UART RX was disabled*70
b0d#:>%;\!H"$'ky-L#W
G{4"V_E!:R 
Y
pAGZEH!AJNK!CL/PQMNV
f;
W:X%)brQAs|$GNRMC,055902.00,A,0420.03099,S,05539.69257,E,0.055,,230525,,,A*7B
$GNVTG,,T,,M,0.055,N,0.103,K,A*3F
$GNGNS,055902.00,0420.03099,S,05539.69257,E,AA,16,0.71,20.4,-47.6,,*61
$GNGGA,055902.00,0420.03099,S,05539.69257,E,1,12,0.71,20.4,M,-47.6,M,,*4F
$GNGSA,A,3,24,20,05,13,15,12,18,25,23,40,,,1.28,0.71,1.06*19
$GNGSA,A,3,86,74,75,71,72,76,,,,,,,1.28,0.71,1.06*1B
$GPGSV,5,1,17,05,58,062,35,11,00,030,,12,59,025,37,13,15,129,20*70
$GPGSV,5,2,17,15,33,162,31,18,34,263,15,20,25,039,36,22,01,137,20*7A
$GPGSV,5,3,17,23,25,206,15,24,45,197,30,25,35,343,23,29,10,327,*7C
$GPGSV,5,4,17,36,52,277,,40,86,351,34,41,58,082,33,49,32,274,*7B
$GPGSV,5,5,17,50,10,089,*4A
$GLGSV,3,1,11,65,09,197,,71,18,090,19,72,29,143,33,74,15,154,07*64
$GLGSV,3,2,11,75,67,151,33,76,47,336,21,77,03,334,,86,12,358,10*60
$GLGSV,3,3,11,87,22,314,,88,09,257,,,,,37*61
$GNGLL,0420.03099,S,05539.69257,E,055902.00,A,A*61
$GNGRS,055902.00,1,0.8,1.1,-0.9,6.0,3.3,-1.2,9.6,1.3,10.3,179,,*71
$GNGRS,055902.00,1,8.3,5.9,7.1,16.0,-4.5,0.8,,,,,,*49
$GNGST,055902.00,151925,,,,2.1,5.1,5.9*42
$GNZDA,055902.00,23,05,2025,00,00*72
$GNGBS,055902.00,2.1,5.1,5.9,,,,*5F
$GNTXT,01,01,01,More than 100 frame errors, UART RX was disabled*70
b0d$:=%;!!X"$'yK
-5#W#
G{4#V_E":R 
Y
p6AGZ~H!JHK ClL/PGMNVf+
W:X%Nbr9Es$GNRMC,055903.00,A,0420.03101,S,05539.69255,E,0.052,,230525,,,A*7F
$GNVTG,,T,,M,0.052,N,0.097,K,A*34
$GNGNS,055903.00,0420.03101,S,05539.69255,E,AA,16,0.71,20.3,-47.6,,*65
$GNGGA,055903.00,0420.03101,S,05539.69255,E,1,12,0.71,20.3,M,-47.6,M,,*4B
$GNGSA,A,3,24,20,05,13,15,12,18,25,23,40,,,1.28,0.71,1.06*19
$GNGSA,A,3,86,74,75,71,72,76,,,,,,,1.28,0.71,1.06*1B
$GPGSV,5,1,17,05,58,061,36,11,00,030,,12,59,025,37,13,15,129,20*70
$GPGSV,5,2,17,15,33,162,33,18,34,263,16,20,25,039,36,22,01,137,21*7A
$GPGSV,5,3,17,23,25,206,15,24,45,197,31,25,35,343,24,29,10,327,*7A
$GPGSV,5,4,17,36,52,277,,40,86,351,35,41,58,082,34,49,32,274,*7D
$GPGSV,5,5,17,50,10,089,*4A
$GLGSV,3,1,11,65,09,197,,71,18,090,19,72,29,143,33,74,15,154,17*65
$GLGSV,3,2,11,75,67,151,32,76,47,336,21,77,03,334,,86,12,358,09*69
$GLGSV,3,3,11,87,22,314,,88,09,257,,,,,37*61
$GNGLL,0420.03101,S,05539.69255,E,055903.00,A,A*62
$GNGRS,055903.00,1,3.1,1.2,-0.8,7.3,3.4,-0.8,9.3,0.4,10.1,179,,*77
$GNGRS,055903.00,1,8.1,5.8,6.2,16.6,-5.0,0.7,,,,,,*44
$GNGST,055903.00,2974172,,,,2.1,5.1,5.9*74
$GNZDA,055903.00,23,05,2025,00,00*73
$GNGBS,055903.00,2.1,5.1,5.9,,,,*5E
$GNTXT,01,01,01,More than 100 frame errors, UART RX was disabled*70
b0d$:=%;d!a
"$'t/
d -/#W6
G{4$V_F":R 
Y
pAGZH!JoK CGL/PGMNVfW:X%'br!IsL$GNRMC,055904.00,A,0420.03103,S,05539.69262,E,0.162,,230525,,,A*7C
$GNVTG,,T,,M,0.162,N,0.301,K,A*3A
$GNGNS,055904.00,0420.03103,S,05539.69262,E,AA,15,0.90,20.3,-47.6,,*68
$GNGGA,055904.00,0420.03103,S,05539.69262,E,1,12,0.90,20.3,M,-47.6,M,,*45
$GNGSA,A,3,24,20,05,13,15,12,25,23,40,,,,1.61,0.90,1.33*14
$GNGSA,A,3,86,74,75,71,72,76,,,,,,,1.61,0.90,1.33*1F
$GPGSV,5,1,17,05,58,061,36,11,00,030,,12,59,025,37,13,15,129,20*70
$GPGSV,5,2,17,15,33,162,31,18,34,263,,20,25,039,36,22,01,137,20*7E
$GPGSV,5,3,17,23,25,206,17,24,45,197,32,25,35,343,25,29,10,327,*7A
$GPGSV,5,4,17,36,52,277,,40,86,351,36,41,58,082,34,49,32,274,*7E
$GPGSV,5,5,17,50,10,089,*4A
$GLGSV,3,1,11,65,09,197,,71,18,090,20,72,29,143,33,74,15,154,11*69
$GLGSV,3,2,11,75,67,151,32,76,47,336,20,77,03,334,,86,12,358,11*61
$GLGSV,3,3,11,87,22,314,,88,09,257,,,,,37*61
$GNGLL,0420.03103,S,05539.69262,E,055904.00,A,A*63
$GNGRS,055904.00,1,-2.1,1.2,-0.5,8.7,3.5,-1.0,-2.0,8.7,179,,,*62
$GNGRS,055904.00,1,-139,8.8,5.8,17.1,-5.0,-1.8,,,,,,*53
$GNGST,055904.00,1096,,,,2.1,5.1,5.9*41
$GNZDA,055904.00,23,05,2025,00,00*74
$GNGBS,055904.00,2.1,5.1,5.9,,,,*59
$GNTXT,01,01,01,More than 100 frame errors, UART RX was disabled*70
b0dx$:=%;!
"#'-#W
G{4#V_F!:R 
Y
pAGZH!J
BK!C;L/PMNV
f(W:X%mbxrMsZ$GNRMC,055905.00,A,0420.03103,S,05539.69262,E,0.081,,230525,,,A*71
$GNVTG,,T,,M,0.081,N,0.150,K,A*30
$GNGNS,055905.00,0420.03103,S,05539.69262,E,AA,15,0.82,20.3,-47.6,,*6A
$GNGGA,055905.00,0420.03103,S,05539.69262,E,1,12,0.82,20.3,M,-47.6,M,,*47
$GNGSA,A,3,24,20,05,13,15,12,25,23,40,,,,1.36,0.82,1.09*1C
$GNGSA,A,3,86,74,75,71,72,76,,,,,,,1.36,0.82,1.09*17
$GPGSV,5,1,17,05,58,061,36,11,00,030,,12,59,025,37,13,15,129,21*71
$GPGSV,5,2,17,15,33,162,30,18,34,263,19,20,25,039,35,22,01,137,19*7E
$GPGSV,5,3,17,23,25,206,19,24,45,197,31,25,35,343,25,29,10,327,*77
$GPGSV,5,4,17,36,52,277,,40,86,351,35,41,58,082,33,49,32,274,*7A
$GPGSV,5,5,17,50,10,089,*4A
$GLGSV,3,1,11,65,09,197,,71,18,090,19,72,29,143,33,74,15,154,10*62
$GLGSV,3,2,11,75,67,151,33,76,47,336,18,77,03,334,,86,12,358,10*6A
$GLGSV,3,3,11,87,22,314,,88,09,257,,,,,37*61
$GNGLL,0420.03103,S,05539.69262,E,055905.00,A,A*62
$GNGRS,055905.00,1,-0.9,1.4,-0.5,6.6,2.2,-0.7,-0.7,9.7,179,,,*64
$GNGRS,055905.00,1,8.1,5.8,8.3,16.7,-5.0,-2.7,,,,,,*63
$GNGST,055905.00,31135,,,,2.1,5.1,5.9*7B
$GNZDA,055905.00,23,05,2025,00,00*75
$GNGBS,055905.00,2.1,5.1,5.9,,,,*58
$GNTXT,01,01,01,More than 100 frame errors, UART RX was disabled*70
b0d`$:=&;!\
"3$'q- #Wr
G{4#V_E":R 
Y
pAGZjH"J
2K!C|L/PMNVfW:X%b`rPs1$GNRMC,055906.00,A,0420.03103,S,05539.69262,E,0.016,,230525,,,A*7C
$GNVTG,,T,,M,0.016,N,0.030,K,A*39
$GNGNS,055906.00,0420.03103,S,05539.69262,E,AA,15,0.82,20.3,-47.6,,*69
$GNGGA,055906.00,0420.03103,S,05539.69262,E,1,12,0.82,20.3,M,-47.6,M,,*44
$GNGSA,A,3,24,20,05,13,15,12,25,23,40,,,,1.36,0.82,1.09*1C
$GNGSA,A,3,86,74,75,71,72,76,,,,,,,1.36,0.82,1.09*17
$GPGSV,5,1,17,05,58,061,36,11,00,030,,12,59,025,38,13,15,129,22*7D
$GPGSV,5,2,17,15,33,162,30,18,34,263,18,20,25,039,36,22,01,137,20*76
$GPGSV,5,3,17,23,25,206,20,24,45,197,31,25,35,343,25,29,10,327,*7D
$GPGSV,5,4,17,36,52,277,,40,86,351,35,41,58,082,34,49,32,274,*7D
$GPGSV,5,5,17,50,10,089,*4A
$GLGSV,3,1,11,65,09,197,,71,18,090,20,72,29,143,34,74,15,154,10*6F
$GLGSV,3,2,11,75,67,151,33,76,47,336,20,77,03,334,,86,12,358,09*69
$GLGSV,3,3,11,87,22,314,,88,09,257,,,,,37*61
$GNGLL,0420.03103,S,05539.69262,E,055906.00,A,A*61
$GNGRS,055906.00,1,0.3,1.8,-0.7,3.9,6.0,-0.8,-1.4,8.8,179,,,*41
$GNGRS,055906.00,1,7.7,5.6,3.8,16.4,-4.9,-3.0,,,,,,*6A
$GNGST,055906.00,46687,,,,2.1,5.1,5.9*76
$GNZDA,055906.00,23,05,2025,00,00*76
$GNGBS,055906.00,2.1,5.1,5.9,,,,*5B
b0dH$:=&;8!
"&'N-#W
G{4#V_E":R 
Y
pAGZWH!J
K!CyL/PMNVf}W:X"bHrTs$GNRMC,055907.00,A,0420.03104,S,05539.69258,E,0.020,,230525,,,A*76
$GNVTG,,T,,M,0.020,N,0.037,K,A*3B
$GNGNS,055907.00,0420.03104,S,05539.69258,E,AA,15,0.91,20.1,-47.6,,*66
$GNGGA,055907.00,0420.03104,S,05539.69258,E,1,12,0.91,20.1,M,-47.6,M,,*4B
$GNGSA,A,3,24,20,05,13,15,12,25,23,40,,,,1.66,0.91,1.39*18
$GNGSA,A,3,86,74,75,71,72,76,,,,,,,1.66,0.91,1.39*13
$GPGSV,5,1,17,05,58,061,36,11,00,030,,12,59,025,38,13,15,129,22*7D
$GPGSV,5,2,17,15,33,162,30,18,34,263,19,20,25,039,38,22,01,137,19*73
$GPGSV,5,3,17,23,25,206,21,24,45,197,31,25,35,343,25,29,10,327,*7C
$GPGSV,5,4,17,36,52,277,,40,86,351,35,41,58,082,34,49,32,274,*7D
$GPGSV,5,5,17,50,10,089,*4A
$GLGSV,3,1,11,65,09,197,,71,18,090,20,72,29,143,33,74,15,154,10*68
$GLGSV,3,2,11,75,67,151,33,76,47,336,21,77,03,334,,86,12,358,08*69
$GLGSV,3,3,11,87,22,314,,88,09,257,,,,,34*62
$GNGLL,0420.03104,S,05539.69258,E,055907.00,A,A*6E
$GNGRS,055907.00,1,2.2,1.5,-1.1,5.7,7.6,-0.7,-3.3,6.8,179,,,*42
$GNGRS,055907.00,1,-140,22.9,6.3,16.2,-4.9,-5.5,,,,,,*6C
$GNGST,055907.00,1137,,,,2.1,5.1,5.9*48
$GNZDA,055907.00,23,05,2025,00,00*77
$GNGBS,055907.00,2.1,5.1,5.9,,,,*5A
b0d#:=&;!
"%'uE-x#W
G{4#V_E!:R 
Y
pAGZ@H JCKCL/PMNV
fPW:X#br\sQ$GNRMC,055909.00,A,0420.03111,S,05539.69266,E,0.186,,230525,,,A*7C
$GNVTG,,T,,M,0.186,N,0.344,K,A*31
$GNGNS,055909.00,0420.03111,S,05539.69266,E,AA,16,0.71,19.9,-47.6,,*6E
$GNGGA,055909.00,0420.03111,S,05539.69266,E,1,12,0.71,19.9,M,-47.6,M,,*40
$GNGSA,A,3,24,20,05,13,15,12,18,25,23,40,,,1.28,0.71,1.06*19
$GNGSA,A,3,86,74,75,71,72,76,,,,,,,1.28,0.71,1.06*1B
$GPGSV,5,1,17,05,58,061,35,11,00,030,,12,59,025,38,13,15,129,21*7D
$GPGSV,5,2,17,15,33,162,31,18,34,263,17,20,25,039,37,22,01,137,19*73
$GPGSV,5,3,17,23,25,206,19,24,45,197,31,25,35,343,25,29,10,327,*77
$GPGSV,5,4,17,36,52,277,,40,86,351,35,41,58,082,33,49,32,274,*7A
$GPGSV,5,5,17,50,10,089,*4A
$GLGSV,3,1,11,65,09,197,,71,18,090,20,72,29,143,32,74,15,154,17*6E
$GLGSV,3,2,11,75,67,151,31,76,47,336,24,77,03,334,,86,12,358,10*67
$GLGSV,3,3,11,87,22,314,,88,09,257,,,,,35*63
$GNGLL,0420.03111,S,05539.69266,E,055909.00,A,A*69
$GNGRS,055909.00,1,1.2,1.2,-1.1,4.9,6.5,-0.9,-3.4,-1.2,8.4,179,,*4E
$GNGRS,055909.00,1,8.5,5.8,7.1,13.4,-5.5,-6.1,,,,,,*67
$GNGST,055909.00,2973945,,,,2.0,5.1,5.9*74
$GNZDA,055909.00,23,05,2025,00,00*79
$GNGBS,055909.00,2.0,5.1,5.9,,,,*55
b0d#:=&; !
"c%'r-#WK
G{4$V_E!:R 
Y
pAGZH JK CL/P`MNVf<W:X$br`s$GNRMC,055910.00,A,0420.03113,S,05539.69274,E,0.027,,230525,,,A*7F
$GNVTG,,T,,M,0.027,N,0.050,K,A*3D
$GNGNS,055910.00,0420.03113,S,05539.69274,E,AA,16,0.76,19.9,-47.6,,*60
$GNGGA,055910.00,0420.03113,S,05539.69274,E,1,12,0.76,19.9,M,-47.6,M,,*4E
$GNGSA,A,3,24,20,05,13,15,12,18,25,23,40,,,1.47,0.76,1.26*15
$GNGSA,A,3,86,74,75,71,72,76,,,,,,,1.47,0.76,1.26*17
$GPGSV,5,1,17,05,58,061,35,11,00,030,,12,59,026,38,13,15,129,19*75
$GPGSV,5,2,17,15,33,162,32,18,34,263,17,20,25,039,37,22,01,137,19*70
$GPGSV,5,3,17,23,25,206,17,24,45,197,31,25,35,343,24,29,10,327,*78
$GPGSV,5,4,17,36,52,277,,40,86,351,36,41,58,082,33,49,32,274,*79
$GPGSV,5,5,17,50,10,089,*4A
$GLGSV,3,1,11,65,09,197,,71,18,090,19,72,29,143,32,74,15,154,11*62
$GLGSV,3,2,11,75,67,151,32,76,47,336,25,77,03,334,,86,12,358,08*6C
$GLGSV,3,3,11,87,22,314,,88,09,257,,,,,36*60
$GNGLL,0420.03113,S,05539.69274,E,055910.00,A,A*60
$GNGRS,055910.00,1,-5.4,1.1,-0.6,5.0,5.1,-0.9,-6.7,-1.8,7.6,179,,*62
$GNGRS,055910.00,1,155,7.4,2.1,12.9,-5.6,-4.2,,,,,,*78
$GNGST,055910.00,1059,,,,2.0,5.1,5.9*46
$GNZDA,055910.00,23,05,2025,00,00*71
$GNGBS,055910.00,2.0,5.1,5.9,,,,*5D
$GNTXT,01,01,01,More than 100 frame errors, UART RX was disabled*70
$GNTXT,01,01,01,More than 100 frame errors, UART RX was disabled*70
b0d$:=&; !X
"%'`M!-7#W
G{4$V_E!:R 
Y
pAGZH!J3K CHL/PMNVfW:X$0brahs@z$GNRMC,055912.00,A,0420.03118,S,05539.69285,E,0.136,,230525,,,A*79
$GNVTG,,T,,M,0.136,N,0.252,K,A*3C
$GNGNS,055912.00,0420.03118,S,05539.69285,E,AA,16,0.71,19.6,-47.6,,*6F
$GNGGA,055912.00,0420.03118,S,05539.69285,E,1,12,0.71,19.6,M,-47.6,M,,*41
$GNGSA,A,3,24,20,05,13,15,12,18,25,23,40,,,1.28,0.71,1.06*19
$GNGSA,A,3,86,74,75,71,72,76,,,,,,,1.28,0.71,1.06*1B
$GPGSV,5,1,17,05,58,061,36,11,00,030,,12,59,026,38,13,15,128,18*76
$GPGSV,5,2,17,15,33,162,32,18,34,263,18,20,25,039,37,22,01,137,15*73
$GPGSV,5,3,17,23,25,206,16,24,45,197,33,25,35,343,26,29,10,327,*79
$GPGSV,5,4,17,36,52,277,,40,86,351,36,41,58,082,33,49,32,274,*79
$GPGSV,5,5,17,50,10,089,*4A
$GLGSV,3,1,11,65,09,197,,71,18,090,22,72,29,143,33,74,15,154,12*68
$GLGSV,3,2,11,75,67,151,32,76,47,336,24,77,03,334,,86,12,358,09*6C
$GLGSV,3,3,11,87,22,314,,88,09,257,,,,,36*60
$GNGLL,0420.03118,S,05539.69285,E,055912.00,A,A*67
$GNGRS,055912.00,1,-2.0,1.0,-0.7,6.8,6.0,-0.7,-12.9,-3.3,7.6,179,,*56
$GNGRS,055912.00,1,7.9,5.6,5.8,15.3,-5.9,-5.2,,,,,,*66
$GNGST,055912.00,22953,,,,2.0,5.0,5.8*76
$GNZDA,055912.00,23,05,2025,00,00*73
$GNGBS,055912.00,2.0,5.0,5.8,,,,*5F
$GNTXT,01,01,01,More than 100 frame errors, UART RX was disabled*70
$GNTXT,01,01,01,More than 100 frame errors, UART RX was disabled*70
b0d#:=%; !
"4%'D -#W
G{4$V_F!:R 
Y
pAGZH!JIKCL/PMNVfOW:X$bbr1psJ$GNRMC,055914.00,A,0420.03119,S,05539.69294,E,0.042,,230525,,,A*7C
$GNVTG,,T,,M,0.042,N,0.078,K,A*34
$GNGNS,055914.00,0420.03119,S,05539.69294,E,AA,16,0.71,19.6,-47.6,,*68
$GNGGA,055914.00,0420.03119,S,05539.69294,E,1,12,0.71,19.6,M,-47.6,M,,*46
$GNGSA,A,3,24,20,05,13,15,12,18,25,23,40,,,1.28,0.71,1.06*19
$GNGSA,A,3,86,74,75,71,72,76,,,,,,,1.28,0.71,1.06*1B
$GPGSV,5,1,17,05,58,061,35,11,00,030,,12,59,026,37,13,15,128,20*71
$GPGSV,5,2,17,15,33,162,32,18,34,263,17,20,25,039,37,22,01,137,13*7A
$GPGSV,5,3,17,23,25,206,20,24,45,197,32,25,35,343,25,29,10,327,*7E
$GPGSV,5,4,17,36,52,277,,40,86,351,36,41,58,082,33,49,32,274,*79
$GPGSV,5,5,17,50,10,089,*4A
$GLGSV,3,1,11,65,09,197,,71,18,090,23,72,29,143,33,74,15,154,15*6E
$GLGSV,3,2,11,75,67,151,31,76,47,336,24,77,03,334,,86,12,358,09*6F
$GLGSV,3,3,11,87,22,314,,88,09,257,,,,,36*60
$GNGLL,0420.03119,S,05539.69294,E,055914.00,A,A*60
$GNGRS,055914.00,1,-2.6,0.7,-1.1,5.0,2.3,-0.7,-14.8,-2.7,10.2,179,,*6B
$GNGRS,055914.00,1,8.5,5.8,5.2,12.2,-6.0,-5.8,,,,,,*61
$GNGST,055914.00,2974238,,,,2.0,5.0,5.8*7E
$GNZDA,055914.00,23,05,2025,00,00*75
$GNGBS,055914.00,2.0,5.0,5.8,,,,*59
$GNTXT,01,01,01,More than 100 frame errors, UART RX was disabled*70
b0d#:=%; !
"Y%'IL-#W
G{4$V_F!:R 
Y
pAGZH J
2KCtL/P^MNVfQW:X$Ibrts$GNRMC,055915.00,A,0420.03120,S,05539.69300,E,0.100,,230525,,,A*7C
$GNVTG,,T,,M,0.100,N,0.185,K,A*30
$GNGNS,055915.00,0420.03120,S,05539.69300,E,AA,15,0.76,19.5,-47.6,,*68
$GNGGA,055915.00,0420.03120,S,05539.69300,E,1,12,0.76,19.5,M,-47.6,M,,*45
$GNGSA,A,3,24,20,05,13,15,12,18,25,23,40,,,1.47,0.76,1.26*15
$GNGSA,A,3,74,75,71,72,76,,,,,,,,1.47,0.76,1.26*19
$GPGSV,5,1,17,05,58,061,35,11,00,030,,12,59,026,37,13,15,128,20*71
$GPGSV,5,2,17,15,33,162,32,18,34,263,17,20,25,039,37,22,01,137,11*78
$GPGSV,5,3,17,23,25,206,20,24,45,197,31,25,35,343,25,29,10,327,*7D
$GPGSV,5,4,17,36,52,277,,40,86,351,36,41,58,082,33,49,32,274,*79
$GPGSV,5,5,17,50,10,089,*4A
$GLGSV,3,1,11,65,09,197,,71,18,090,22,72,29,143,32,74,15,154,10*6B
$GLGSV,3,2,11,75,67,151,31,76,47,336,25,77,03,334,,86,12,358,07*60
$GLGSV,3,3,11,87,22,314,,88,09,257,,,,,36*60
$GNGLL,0420.03120,S,05539.69300,E,055915.00,A,A*67
$GNGRS,055915.00,1,-3.8,0.7,-1.0,7.5,1.9,-0.5,-14.5,-3.4,10.1,179,,*64
$GNGRS,055915.00,1,5.6,3.7,12.3,-6.0,-4.2,,,,,,,*44
$GNGST,055915.00,65030,,,,2.0,5.0,5.8*7E
$GNZDA,055915.00,23,05,2025,00,00*74
$GNGBS,055915.00,2.0,5.0,5.8,,,,*58
$GNTXT,01,01,01,More than 100 frame errors, UART RX was disabled*70
$GNTXT,01,01,01,More than 100 frame errors, UART RX was disabled*70
$GPGSV,5,1,17,05,58,061,38,11,00,030,,12,59,026,39,13,15,128,21*73
$GPGSV,5,2,17,15,33,162,31,18,34,264,16,20,25,039,37,22,01,137,09*74
$GPGSV,5,3,17,23,25,206,20,24,45,197,30,25,35,343,25,29,10,327,*7C
$GPGSV,5,4,17,36,52,277,,40,86,351,36,41,58,082,33,49,32,274,*79
$GPGSV,5,5,17,50,10,089,*4A
$GLGSV,3,1,11,65,09,197,,71,18,090,22,72,29,143,33,74,15,154,13*69
$GLGSV,3,2,11,75,67,151,31,76,47,336,24,77,03,334,,86,12,358,10*67
$GLGSV,3,3,11,87,22,314,,88,09,257,,,,,37*61
$GNGLL,0420.03122,S,05539.69314,E,055917.00,A,A*62
$GNGRS,055917.00,1,-2.4,0.8,-0.9,7.0,3.5,-0.4,-14.2,-0.4,8.4,180,,*58
$GNGRS,055917.00,1,8.4,6.0,9.5,9.7,-6.5,-3.5,,,,,,*52
$GNGST,055917.00,39102,,,,2.0,4.9,5.8*7D
$GNZDA,055917.00,23,05,2025,00,00*76
b0d@#:=%;u!4
"i$'G-#Wz
G{4#V_F :R 
Y
pAGZH!JOKCL/P6MNVfAW:X%/b@rsP$GNRMC,055918.00,A,0420.03123,S,05539.69318,E,0.240,,230525,,,A*7C
$GNVTG,,T,,M,0.240,N,0.445,K,A*3E
$GNGNS,055918.00,0420.03123,S,05539.69318,E,AA,16,0.71,19.7,-47.6,,*69
$GNGGA,055918.00,0420.03123,S,05539.69318,E,1,12,0.71,19.7,M,-47.6,M,,*47
$GNGSA,A,3,24,20,05,13,15,12,18,25,23,40,,,1.28,0.71,1.06*19
$GNGSA,A,3,86,74,75,71,72,76,,,,,,,1.28,0.71,1.06*1B
$GPGSV,5,1,17,05,58,061,35,11,00,030,,12,59,026,37,13,15,128,20*71
$GPGSV,5,2,17,15,33,162,31,18,34,264,15,20,25,039,36,22,01,137,08*77
$GNTXT,01,01,01,More than 100 frame errors, UART RX was disabled*70
b0d#:=&;!g
"E$'K-#W
G{4#V_E :R 
Y

pAGZH"JQKCL/PMNVfLW:X%brs$GNRMC,055920.00,A,0420.03123,S,05539.69323,E,0.040,,230525,,,A*7D
$GNVTG,,T,,M,0.040,N,0.075,K,A*3B
$GNGNS,055920.00,0420.03123,S,05539.69323,E,AA,16,0.71,19.8,-47.6,,*65
$GNGGA,055920.00,0420.03123,S,05539.69323,E,1,12,0.71,19.8,M,-47.6,M,,*4B
$GNGSA,A,3,24,20,05,13,15,12,18,25,23,40,,,1.28,0.71,1.06*19
$GNGSA,A,3,86,74,75,71,72,76,,,,,,,1.28,0.71,1.06*1B
$GPGSV,5,1,17,05,58,061,35,11,00,030,,12,59,026,38,13,15,128,19*74
$GPGSV,5,2,17,15,33,162,31,18,34,264,17,20,25,039,36,22,01,138,14*77
$GPGSV,5,3,17,23,25,206,20,24,45,197,29,25,35,343,23,29,10,327,*72
$GPGSV,5,4,17,36,52,277,,40,86,351,35,41,58,082,32,49,32,274,*7B
$GPGSV,5,5,17,50,10,089,*4A
$GLGSV,3,1,11,65,09,197,,71,18,090,21,72,29,143,34,74,15,154,09*66
$GLGSV,3,2,11,75,67,151,31,76,47,336,26,77,03,334,,86,12,358,11*64
$GLGSV,3,3,11,87,22,314,,88,09,257,,,,,37*61
$GNGLL,0420.03123,S,05539.69323,E,055920.00,A,A*63
$GNGRS,055920.00,1,-3.1,0.7,-0.7,6.8,6.1,-0.5,-12.1,-2.4,9.7,179,,*53
$GNGRS,055920.00,1,8.4,5.9,5.0,10.3,-8.3,-6.0,,,,,,*61
$GNGST,055920.00,2973943,,,,2.0,4.9,5.8*71
$GNZDA,055920.00,23,05,2025,00,00*72
$GNGBS,055920.00,2.0,4.9,5.8,,,,*56
b0d#:=&; !h
"$'[-*#W
G{4#V_F :R 
Y
pAGZH!|JDKCL/PMNVfOW:X%brs$GNRMC,055921.00,A,0420.03124,S,05539.69328,E,0.005,,230525,,,A*71
$GNVTG,,T,,M,0.005,N,0.009,K,A*31
$GNGNS,055921.00,0420.03124,S,05539.69328,E,AA,16,0.71,19.8,-47.6,,*68
$GNGGA,055921.00,0420.03124,S,05539.69328,E,1,12,0.71,19.8,M,-47.6,M,,*46
$GNGSA,A,3,24,20,05,13,15,12,18,25,23,40,,,1.28,0.71,1.06*19
$GNGSA,A,3,86,74,75,71,72,76,,,,,,,1.28,0.71,1.06*1B
$GPGSV,5,1,17,05,58,061,35,11,00,030,,12,59,026,38,13,15,128,20*7E
$GPGSV,5,2,17,15,33,162,32,18,34,264,18,20,25,039,36,22,01,138,11*7E
$GPGSV,5,3,17,23,25,206,18,24,45,196,30,25,35,343,23,29,10,327,*70
$GPGSV,5,4,17,36,52,277,,40,86,351,35,41,58,082,32,49,32,274,*7B
$GPGSV,5,5,17,50,10,089,*4A
$GLGSV,3,1,11,65,09,197,,71,18,090,20,72,29,143,33,74,15,154,16*6E
$GLGSV,3,2,11,75,67,151,31,76,47,336,26,77,03,334,,86,12,358,08*6C
$GLGSV,3,3,11,87,22,314,,88,09,257,,,,,37*61
$GNGLL,0420.03124,S,05539.69328,E,055921.00,A,A*6E
$GNGRS,055921.00,1,0.4,0.9,-0.8,6.8,3.6,-0.6,-12.6,-2.3,10.5,179,,*43
$GNGRS,055921.00,1,8.5,5.8,4.3,9.2,-6.4,-8.0,,,,,,*5C
$GNGST,055921.00,2973945,,,,2.0,4.9,5.8*76
$GNZDA,055921.00,23,05,2025,00,00*73
$GNGBS,055921.00,2.0,4.9,5.8,,,,*57
$GNTXT,01,01,01,More than 100 frame errors, UART RX was disabled*70
b0d#:=&;!:
"$'Y-$WH
G{4#V_F :R 
Y
pCAGZfH!JKCL/PMNVfgW:X%brqs$GNRMC,055922.00,A,0420.03125,S,05539.69331,E,0.096,,230525,,,A*71
$GNVTG,,T,,M,0.096,N,0.177,K,A*33
$GNGNS,055922.00,0420.03125,S,05539.69331,E,AA,16,0.76,19.8,-47.6,,*65
$GNGGA,055922.00,0420.03125,S,05539.69331,E,1,12,0.76,19.8,M,-47.6,M,,*4B
$GNGSA,A,3,24,20,05,13,15,12,18,25,23,40,,,1.47,0.76,1.26*15
$GNGSA,A,3,86,74,75,71,72,76,,,,,,,1.47,0.76,1.26*17
$GPGSV,5,1,17,05,58,061,35,11,00,030,,12,59,026,38,13,15,128,21*7F
$GPGSV,5,2,17,15,33,162,31,18,34,264,18,20,25,039,36,22,01,138,*7D
$GPGSV,5,3,17,23,25,206,18,24,45,196,30,25,36,343,23,29,10,327,*73
$GPGSV,5,4,17,36,52,277,,40,86,351,35,41,58,082,32,49,32,274,*7B
$GPGSV,5,5,17,50,10,089,*4A
$GLGSV,3,1,11,65,09,197,,71,18,090,20,72,29,143,33,74,15,154,14*6C
$GLGSV,3,2,11,75,67,151,31,76,47,336,26,77,03,334,,86,12,358,09*6D
$GLGSV,3,3,11,87,22,314,,88,09,257,,,,,37*61
$GNGLL,0420.03125,S,05539.69331,E,055922.00,A,A*64
$GNGRS,055922.00,1,-5.5,0.9,-0.8,5.3,5.7,-0.6,-11.0,-1.8,10.4,179,,*6A
$GNGRS,055922.00,1,-27.1,-13.4,4.7,8.7,-5.3,-8.9,,,,,,*50
$GNGST,055922.00,1059,,,,2.0,4.9,5.8*4F
$GNZDA,055922.00,23,05,2025,00,00*70
$GNGBS,055922.00,2.0,4.9,5.8,,,,*54
$GNTXT,01,01,01,More than 100 frame errors, UART RX was disabled*70
b0d#:=&; !
"$'\-$W
G{4#V_#F!:R 
Y
pAGZtH!JRKCL/PMNVf:W:X$brAs_V$GNRMC,055924.00,A,0420.03124,S,05539.69333,E,0.135,,230525,,,A*7C
$GNVTG,,T,,M,0.135,N,0.251,K,A*3C
$GNGNS,055924.00,0420.03124,S,05539.69333,E,AA,16,0.71,19.7,-47.6,,*68
$GNGGA,055924.00,0420.03124,S,05539.69333,E,1,12,0.71,19.7,M,-47.6,M,,*46
$GNGSA,A,3,24,20,05,13,15,12,18,25,23,40,,,1.28,0.71,1.06*19
$GNGSA,A,3,86,74,75,71,72,76,,,,,,,1.28,0.71,1.06*1B
$GPGSV,5,1,17,05,58,061,35,11,00,030,,12,59,026,38,13,15,128,21*7F
$GPGSV,5,2,17,15,33,162,32,18,34,264,18,20,25,039,36,22,01,138,*7E
$GPGSV,5,3,17,23,25,206,20,24,45,196,30,25,36,343,24,29,10,327,*7F
$GPGSV,5,4,17,36,52,277,,40,86,351,35,41,58,082,33,49,32,274,*7A
$GPGSV,5,5,17,50,10,089,*4A
$GLGSV,3,1,11,65,09,197,,71,18,090,22,72,29,143,33,74,15,154,13*69
$GLGSV,3,2,11,75,67,151,31,76,47,336,26,77,03,334,,86,12,358,08*6C
$GLGSV,3,3,11,87,22,314,,88,09,257,,,,,36*60
$GNGLL,0420.03124,S,05539.69333,E,055924.00,A,A*61
$GNGRS,055924.00,1,-5.4,0.9,-1.0,3.9,4.1,-0.4,-11.3,-0.5,10.2,180,,*62
$GNGRS,055924.00,1,8.3,5.9,2.1,6.3,-7.9,-8.9,,,,,,*51
$GNGST,055924.00,4205788,,,,2.0,4.8,5.8*71
$GNZDA,055924.00,23,05,2025,00,00*76
$GNGBS,055924.00,2.0,4.8,5.8,,,,*53
$GNTXT,01,01,01,More than 100 frame errors, UART RX was disabled*70
b0d #:=&; !U
"$'M!-$W
G{4#V_&F!:R 
Y
p
AGZH!JKCL/PMNVf^W:X$Cb r)s7$GNRMC,055925.00,A,0420.03123,S,05539.69335,E,0.034,,230525,,,A*7C
$GNVTG,,T,,M,0.034,N,0.063,K,A*3F
$GNGNS,055925.00,0420.03123,S,05539.69335,E,AA,16,0.76,19.8,-47.6,,*60
$GNGGA,055925.00,0420.03123,S,05539.69335,E,1,12,0.76,19.8,M,-47.6,M,,*4E
$GNGSA,A,3,24,20,05,13,15,12,18,25,23,40,,,1.47,0.76,1.26*15
$GNGSA,A,3,86,74,75,71,72,76,,,,,,,1.47,0.76,1.26*17
$GPGSV,5,1,17,05,58,061,35,11,00,030,,12,59,026,38,13,15,128,21*7F
$GPGSV,5,2,17,15,33,162,32,18,34,264,16,20,25,039,36,22,01,138,*70
$GPGSV,5,3,17,23,25,206,22,24,45,196,29,25,36,343,23,29,10,327,*72
$GPGSV,5,4,17,36,52,277,,40,86,351,35,41,58,082,33,49,32,274,*7A
$GPGSV,5,5,17,50,10,089,*4A
$GLGSV,3,1,11,65,09,197,,71,18,090,22,72,29,143,33,74,15,154,17*6D
$GLGSV,3,2,11,75,67,151,31,76,47,336,25,77,03,334,,86,12,358,09*6E
$GLGSV,3,3,11,87,22,314,,88,09,257,,,,,36*60
$GNGLL,0420.03123,S,05539.69335,E,055925.00,A,A*61
$GNGRS,055925.00,1,-2.5,0.8,-1.0,4.1,0.9,-0.4,-11.5,-0.7,8.0,180,,*58
$GNGRS,055925.00,1,-75.9,12.4,4.7,6.4,-8.2,-8.8,,,,,,*74
$GNGST,055925.00,1059,,,,2.0,4.8,5.8*49
$GNZDA,055925.00,23,05,2025,00,00*77
$GNGBS,055925.00,2.0,4.8,5.8,,,,*52
$GNTXT,01,01,01,More than 100 frame errors, UART RX was disabled*70
b0d$%:=&; !
"0%'K-$WS
H{4$V_F":R 
Y
p]
AGZH!JmKCNL/PMNVfQW:X%T*b$rs&$GNRMC,055926.00,A,0420.03121,S,05539.69337,E,0.071,,230525,,,A*7E
$GNVTG,,T,,M,0.071,N,0.131,K,A*38
$GNGNS,055926.00,0420.03121,S,05539.69337,E,AA,16,0.71,19.8,-47.6,,*64
$GNGGA,055926.00,0420.03121,S,05539.69337,E,1,12,0.71,19.8,M,-47.6,M,,*4A
$GNGSA,A,3,24,20,05,13,15,12,18,25,23,40,,,1.28,0.71,1.06*19
$GNGSA,A,3,86,74,75,71,72,76,,,,,,,1.28,0.71,1.06*1B
$GPGSV,5,1,17,05,58,061,37,11,00,030,,12,59,026,38,13,15,128,22*7E
$GPGSV,5,2,17,15,33,162,32,18,34,264,18,20,25,039,37,22,01,138,*7F
$GPGSV,5,3,17,23,25,206,22,24,45,196,31,25,36,343,24,29,10,328,*73
$GPGSV,5,4,17,36,52,277,,40,86,351,36,41,58,082,34,49,32,274,*7E
$GPGSV,5,5,17,50,10,089,*4A
$GLGSV,3,1,11,65,09,197,,71,18,090,22,72,29,143,33,74,15,154,13*69
$GLGSV,3,2,11,75,67,151,31,76,47,336,25,77,03,334,,86,12,358,08*6F
$GLGSV,3,3,11,87,22,314,,88,09,257,,,,,37*61
$GNGLL,0420.03121,S,05539.69337,E,055926.00,A,A*62
$GNGRS,055926.00,1,-1.0,0.7,-0.9,5.1,-0.7,-0.4,-9.8,-1.7,7.8,179,,*4C
$GNGRS,055926.00,1,8.5,6.2,5.9,4.0,-8.0,-8.8,,,,,,*54
$GNGST,055926.00,126487,,,,2.0,4.8,5.8*49
$GNZDA,055926.00,23,05,2025,00,00*74
$GNGBS,055926.00,2.0,4.8,5.8,,,,*51
$GNTXT,01,01,01,More than 100 frame errors, UART RX was disabled*70
$GNTXT,01,01,01,More than 100 frame errors, UART RX was disabled*70
b0d80$:='; !
"%'#O-!$W,
H{4#V_1F#:R 
Y
pAGZH!JVKC#L/PMNVfJW:X$b80rsq$GNRMC,055929.00,A,0420.03121,S,05539.69341,E,0.103,,230525,,,D*71
$GNVTG,,T,,M,0.103,N,0.191,K,D*33
$GNGNS,055929.00,0420.03121,S,05539.69341,E,DA,15,0.76,19.7,-47.6,,0000*64
$GNGGA,055929.00,0420.03121,S,05539.69341,E,2,12,0.76,19.7,M,-47.6,M,,0000*4F
$GNGSA,A,3,74,75,71,72,76,,,,,,,,1.47,0.76,1.26*19
$GPGSV,5,1,17,05,58,061,36,11,00,030,,12,59,026,39,13,15,128,22*7E
$GPGSV,5,2,17,15,33,162,32,18,34,264,20,20,25,039,37,22,01,138,*74
$GPGSV,5,3,17,23,25,206,21,24,45,196,30,25,36,343,26,29,10,328,*73
$GPGSV,5,4,17,36,52,277,,40,86,351,35,41,58,082,35,49,32,274,*7C
$GPGSV,5,5,17,50,10,089,*4A
$GLGSV,3,1,11,65,09,197,,71,18,090,24,72,29,143,33,74,15,154,14*68
$GLGSV,3,2,11,75,67,151,31,76,47,336,24,77,03,334,,86,12,358,07*61
$GLGSV,3,3,11,87,22,314,,88,09,257,,,,,36*60
$GNGLL,0420.03121,S,05539.69341,E,055929.00,A,D*69
$GNGRS,055929.00,1,0.3,0.4,-1.3,0.0,6.9,-1.3,-6.0,0.4,5.9,180,,*6E
$GNGRS,055929.00,1,6.0,2.9,1.7,-7.9,-10.0,,,,,,,*48
$GNGST,055929.00,95989,,,,1.9,4.7,5.7*76
$GNZDA,055929.00,23,05,2025,00,00*7B
$GNGBS,055929.00,1.9,4.7,5.7,,,,*54
$GNTXT,01,01,01,More than 100 frame errors, UART RX was disabled*70
b0d8":=&;g!
"a$')m-$W
H{4!V_SF :R 
Y
pGAGZ!H"JWKC;L/PMNV
fW:X'Tb8rsHA$GNRMC,055931.00,A,0420.03114,S,05539.69333,E,0.026,,230525,,,D*7D
$GNVTG,,T,,M,0.026,N,0.049,K,D*31
$GNGNS,055931.00,0420.03114,S,05539.69333,E,DA,16,0.77,19.8,-47.6,,0000*63
$GNGGA,055931.00,0420.03114,S,05539.69333,E,2,12,0.77,19.8,M,-47.6,M,,0000*4B
$GNGSA,A,3,24,20,05,13,15,12,18,25,23,40,,,1.52,0.77,1.31*16
$GNGSA,A,3,86,74,75,71,72,76,,,,,,,1.52,0.77,1.31*14
$GPGSV,5,2,17,15,33,162,31,18,34,264,19,20,25,039,36,22,01,138,*7C
$GPGSV,5,3,17,23,25,206,28,24,45,196,30,25,36,343,25,29,10,328,*79
$GPGSV,5,4,17,36,52,277,,40,86,351,33,41,58,082,32,49,32,274,*7D
$GPGSV,5,5,17,50,10,089,*4A
$GLGSV,3,1,11,65,09,197,,71,18,090,22,72,29,143,34,74,15,154,11*6C
$GLGSV,3,2,11,75,67,151,31,76,47,336,24,77,03,334,,86,12,358,10*67
$GLGSV,3,3,11,87,22,314,,88,09,257,,,,,39*6F
$GNGLL,0420.03114,S,05539.69333,E,055931.00,A,D*63
$GNGRS,055931.00,1,-3.7,0.4,-1.0,-1.3,4.2,-1.5,-6.7,-2.4,6.2,180,,*4E
$GNGRS,055931.00,1,-138,34.2,3.2,0.3,-7.7,-10.9,,,,,,*6D
$GNGST,055931.00,1096,,,,1.9,4.6,5.6*45
$GNZDA,055931.00,23,05,2025,00,00*72
$GNGBS,055931.00,1.9,4.6,5.6,,,,*5D
$GNTXT,01,01,01,More than 100 frame errors, UART RX was disabled*70
b0d;!:=&; !
"%'*-|$W
H{4 V_xF :R 
Y
p'AGZH!J_K CL/P\MNVfYW:X'b;rs$GNRMC,055932.00,A,0420.03115,S,05539.69332,E,0.045,,230525,,,D*7B
$GNVTG,,T,,M,0.045,N,0.083,K,D*32
$GNGNS,055932.00,0420.03115,S,05539.69332,E,DA,16,0.71,19.8,-47.6,,0000*66
$GNGGA,055932.00,0420.03115,S,05539.69332,E,2,12,0.71,19.8,M,-47.6,M,,0000*4E
$GNGSA,A,3,24,20,05,13,15,12,18,25,23,40,,,1.28,0.71,1.06*19
$GNGSA,A,3,86,74,75,71,72,76,,,,,,,1.28,0.71,1.06*1B
$GPGSV,5,1,17,05,58,061,33,11,00,030,,12,59,026,38,13,15,128,21*79
$GPGSV,5,2,17,15,33,162,32,18,34,264,18,20,25,039,37,22,01,138,*7F
$GNTXT,01,01,01,More than 100 frame errors, UART RX was disabled*70
$GNTXT,01,01,01,More than 100 frame errors, UART RX was disabled*70
$GNTXT,01,01,01,More than 100 frame errors, UART RX was disabled*70
b0dG#:=&;!!U
"$'^ -$W
H{4"V_F :R 
Y
pAGZcH!'JMKCL/PMNVfGW:X'[FbGr9s$GNRMC,055935.00,A,0420.03117,S,05539.69322,E,0.085,,230525,,,D*73
$GNVTG,,T,,M,0.085,N,0.157,K,D*36
$GNGNS,055935.00,0420.03117,S,05539.69322,E,DA,16,0.69,19.6,-47.6,,0000*65
$GNGGA,055935.00,0420.03117,S,05539.69322,E,2,12,0.69,19.6,M,-47.6,M,,0000*4D
$GNGSA,A,3,24,20,05,13,15,12,18,25,23,40,,,1.24,0.69,1.03*19
$GNGSA,A,3,86,74,75,71,72,76,,,,,,,1.24,0.69,1.03*1B
$GPGSV,5,1,17,05,58,061,35,11,00,030,,12,59,026,38,13,15,128,18*75
$GPGSV,5,2,17,15,33,162,33,18,34,264,19,20,25,039,36,22,01,138,*7E
$GPGSV,5,3,17,23,25,206,26,24,45,196,32,25,36,343,25,29,10,328,*75
$GPGSV,5,4,17,36,52,277,,40,86,351,34,41,58,082,32,49,32,274,*7A
$GPGSV,5,5,17,50,10,089,*4A
$GLGSV,3,1,11,65,09,197,,71,18,090,23,72,29,143,33,74,15,154,12*69
$GLGSV,3,2,11,75,67,151,31,76,47,336,25,77,03,334,,86,12,358,09*6E
$GLGSV,3,3,11,87,22,314,,88,09,257,,,,,39*6F
$GNGLL,0420.03117,S,05539.69322,E,055935.00,A,D*64
$GNGRS,055935.00,1,1.4,0.9,-0.6,-0.7,3.4,-0.6,-8.8,-0.2,4.2,181,,*6C
$GNGRS,055935.00,1,8.4,5.9,7.7,1.0,-7.3,-8.6,,,,,,*54
$GNGST,055935.00,2887263,,,,1.9,4.5,5.5*7D
$GNZDA,055935.00,23,05,2025,00,00*76
$GNGBS,055935.00,1.9,4.5,5.5,,,,*59
$GNTXT,01,01,01,More than 100 frame errors, UART RX was disabled*70
b0dK":=&; !|
"x$'dC-$W
H{4!V_F :R 
Y
p_AGZ|H!IJ8K CL/PMNVf=W:X(bKr!s:$GNRMC,055936.00,A,0420.03117,S,05539.69321,E,0.050,,230525,,,D*7B
$GNVTG,,T,,M,0.050,N,0.094,K,D*30
$GNGNS,055936.00,0420.03117,S,05539.69321,E,DA,16,0.69,19.7,-47.6,,0000*64
$GNGGA,055936.00,0420.03117,S,05539.69321,E,2,12,0.69,19.7,M,-47.6,M,,0000*4C
$GNGSA,A,3,24,20,05,13,15,12,18,25,23,40,,,1.24,0.69,1.03*19
$GNGSA,A,3,86,74,75,71,72,76,,,,,,,1.24,0.69,1.03*1B
$GPGSV,5,1,17,05,58,061,34,11,00,030,,12,59,026,38,13,15,128,18*74
$GPGSV,5,2,17,15,33,162,32,18,34,264,19,20,25,039,36,22,01,138,05*7A
$GPGSV,5,3,17,23,25,206,27,24,45,196,31,25,36,343,24,29,10,328,*76
$GPGSV,5,4,17,36,52,277,,40,86,351,33,41,58,082,32,49,32,274,*7D
$GPGSV,5,5,17,50,10,089,*4A
$GLGSV,3,1,11,65,09,197,,71,18,090,24,72,29,143,33,74,15,154,12*6E
$GLGSV,3,2,11,75,67,151,32,76,47,336,23,77,03,334,,86,12,358,08*6A
$GLGSV,3,3,11,87,22,314,,88,09,257,,,,,40*61
$GNGLL,0420.03117,S,05539.69321,E,055936.00,A,D*64
$GNGRS,055936.00,1,-3.0,1.0,-0.5,1.8,3.8,-0.5,-6.5,-0.3,3.2,181,,*66
$GNGRS,055936.00,1,8.3,5.7,9.2,-1.3,-7.0,-8.1,,,,,,*7F
$GNGST,055936.00,2890074,,,,1.9,4.5,5.5*7C
$GNZDA,055936.00,23,05,2025,00,00*75
$GNGBS,055936.00,1.9,4.5,5.5,,,,*5A
$GNTXT,01,01,01,More than 100 frame errors, UART RX was disabled*70
$GNTXT,01,01,01,More than 100 frame errors, UART RX was disabled*70
b0d`S#:=&;!
"d$'T
1$-$WC
H{4"V_F :R 
Y
pAGZH![J`K!CGL/PMNVfTW:X(b`Srs.$GNRMC,055938.00,A,0420.03115,S,05539.69322,E,0.023,,230525,,,D*70
$GNVTG,,T,,M,0.023,N,0.043,K,D*3E
$GNGNS,055938.00,0420.03115,S,05539.69322,E,DA,16,0.69,19.8,-47.6,,0000*64
$GNGGA,055938.00,0420.03115,S,05539.69322,E,2,12,0.69,19.8,M,-47.6,M,,0000*4C
$GNGSA,A,3,24,20,05,13,15,12,18,25,23,40,,,1.24,0.69,1.03*19
$GNGSA,A,3,86,74,75,71,72,76,,,,,,,1.24,0.69,1.03*1B
$GPGSV,5,1,17,05,58,061,35,11,00,030,,12,59,026,38,13,15,128,20*7E
$GPGSV,5,2,17,15,33,162,31,18,34,264,18,20,25,039,36,22,01,138,10*7C
$GPGSV,5,3,17,23,25,206,27,24,45,196,30,25,36,343,25,29,10,328,*76
$GPGSV,5,4,17,36,52,277,,40,86,351,34,41,58,082,32,49,32,274,*7A
$GPGSV,5,5,17,50,10,089,*4A
$GLGSV,3,1,11,65,09,197,,71,18,090,22,72,29,143,33,74,15,154,12*68
$GLGSV,3,2,11,75,67,151,33,76,47,336,21,77,03,334,,86,12,358,08*69
$GLGSV,3,3,11,87,22,314,,88,09,257,,,,,40*61
$GNGLL,0420.03115,S,05539.69322,E,055938.00,A,D*6B
$GNGRS,055938.00,1,-0.4,0.8,-0.9,5.3,3.9,-0.3,-6.7,-1.9,-2.2,181,,*47
$GNGRS,055938.00,1,8.5,6.1,3.3,0.0,-6.8,-7.4,,,,,,*55
$GNGST,055938.00,2885147,,,,1.9,4.4,5.5*76
$GNZDA,055938.00,23,05,2025,00,00*7B
$GNGBS,055938.00,1.9,4.4,5.5,,,,*55
$GNTXT,01,01,01,More than 100 frame errors, UART RX was disabled*70
$GNTXT,01,01,01,More than 100 frame errors, UART RX was disabled*70
$GPGSV,5,2,17,15,33,162,32,18,34,264,18,20,25,039,36,22,01,138,14*7B
b0d_#:=&;!!;
"$'k#W-\$W
H{4!V_wF!:R 
Y
p%AGZ1H!]JZK CL/PMNVfZW:X'Ub_rs?$GNRMC,055941.00,A,0420.03115,S,05539.69334,E,0.036,,230525,,,D*7D
$GNVTG,,T,,M,0.036,N,0.067,K,D*3C
$GNGNS,055941.00,0420.03115,S,05539.69334,E,DA,16,0.71,19.9,-47.6,,0000*65
$GNGGA,055941.00,0420.03115,S,05539.69334,E,2,12,0.71,19.9,M,-47.6,M,,0000*4D
$GNGSA,A,3,24,20,05,13,15,12,18,25,23,40,,,1.28,0.71,1.06*19
$GNGSA,A,3,86,74,75,71,72,76,,,,,,,1.28,0.71,1.06*1B
$GPGSV,5,1,17,05,58,061,35,11,00,030,,12,59,026,38,13,15,128,21*7F
$GPGSV,5,2,17,15,33,162,33,18,34,264,20,20,25,039,36,22,01,138,16*73
$GPGSV,5,3,17,23,25,206,26,24,45,196,29,25,36,343,25,29,10,328,*7F
$GPGSV,5,4,17,36,52,277,,40,86,351,33,41,58,082,33,49,32,274,*7C
$GPGSV,5,5,17,50,10,089,*4A
$GLGSV,3,1,11,65,09,197,,71,18,090,21,72,29,143,33,74,15,154,13*6A
$GLGSV,3,2,11,75,67,151,32,76,47,336,24,77,03,334,,86,12,358,08*6D
$GLGSV,3,3,11,87,22,314,,88,09,257,,,,,39*6F
$GNGLL,0420.03115,S,05539.69334,E,055941.00,A,D*62
$GNGRS,055941.00,1,0.9,1.1,-1.1,6.7,3.1,-0.3,-6.2,-1.2,-1.7,180,,*6E
$GNGRS,055941.00,1,8.6,6.0,4.5,3.0,-6.7,-6.1,,,,,,*50
$GNGST,055941.00,44579,,,,1.9,4.4,5.5*76
$GNZDA,055941.00,23,05,2025,00,00*75
$GNGBS,055941.00,1.9,4.4,5.5,,,,*5B
$GNTXT,01,01,01,More than 100 frame errors, UART RX was disabled*70
b0dc":=&;"!)
"$'O-$W
H{4!V_wF!:R 
Y
pAGZH!]J
IK CL/PMNV
f\W:X(Jbbcrs$GNRMC,055942.00,A,0420.03117,S,05539.69338,E,0.151,,230525,,,D*70
$GNVTG,,T,,M,0.151,N,0.279,K,D*31
$GNGNS,055942.00,0420.03117,S,05539.69338,E,DA,16,0.71,19.9,-47.6,,0000*68
$GNGGA,055942.00,0420.03117,S,05539.69338,E,2,12,0.71,19.9,M,-47.6,M,,0000*40
$GNGSA,A,3,24,20,05,13,15,12,18,25,23,40,,,1.28,0.71,1.06*19
$GNGSA,A,3,86,74,75,71,72,76,,,,,,,1.28,0.71,1.06*1B
$GPGSV,5,1,17,05,58,061,34,11,00,030,,12,59,026,38,13,15,128,21*7E
$GPGSV,5,2,17,15,33,162,34,18,34,264,20,20,25,039,36,22,01,138,17*75
$GPGSV,5,3,17,23,25,206,27,24,45,196,29,25,36,343,25,29,10,328,*7E
$GPGSV,5,4,17,36,52,277,,40,86,351,33,41,58,082,33,49,32,274,*7C
$GPGSV,5,5,17,50,10,089,*4A
$GLGSV,3,1,11,65,09,197,,71,18,090,23,72,29,143,33,74,15,154,10*6B
$GLGSV,3,2,11,75,67,151,32,76,47,336,23,77,03,334,,86,12,358,10*63
$GLGSV,3,3,11,87,22,314,,88,09,257,,,,,40*61
$GNTXT,01,01,01,More than 100 frame errors, UART RX was disabled*70
b0df":=&;!!.
"$'[G-!$W
H{4!V_F!:R 
Y
p=AGZsH!EJ
K CL/PMNVfW:X(ebfryse$GNRMC,055943.00,A,0420.03117,S,05539.69342,E,0.024,,230525,,,D*7F
$GNVTG,,T,,M,0.024,N,0.044,K,D*3E
$GNGNS,055943.00,0420.03117,S,05539.69342,E,DA,16,0.75,19.9,-47.6,,0000*60
$GNGGA,055943.00,0420.03117,S,05539.69342,E,2,12,0.75,19.9,M,-47.6,M,,0000*48
$GNGSA,A,3,24,20,05,13,15,12,18,25,23,40,,,1.42,0.75,1.21*14
$GNGSA,A,3,86,74,75,71,72,76,,,,,,,1.42,0.75,1.21*16
$GPGSV,5,1,17,05,58,061,34,11,00,030,,12,59,026,38,13,15,128,21*7E
$GNTXT,01,01,01,More than 100 frame errors, UART RX was disabled*70
$GNTXT,01,01,01,More than 100 frame errors, UART RX was disabled*70
$GNTXT,01,01,01,More than 100 frame errors, UART RX was disabled*70
$GNTXT,01,01,01,More than 100 frame errors, UART RX was disabled*70
$GNTXT,01,01,01,More than 100 frame errors, UART RX was disabled*70
$GNTXT,01,01,01,More than 100 frame errors, UART RX was disabled*70
b0d":='; !
"$'-$W
H{4"V_F!:R 
Y
pA
GZH!NJK CL/PEMNVfW:X(rbrt$GNRMC,055952.00,A,0420.03124,S,05539.69352,E,0.008,,230525,,,D*70
$GNVTG,,T,,M,0.008,N,0.016,K,D*37
$GNGNS,055952.00,0420.03124,S,05539.69352,E,DA,15,0.81,19.9,-47.6,,0000*69
$GNGGA,055952.00,0420.03124,S,05539.69352,E,2,12,0.81,19.9,M,-47.6,M,,0000*42
$GNGSA,A,3,24,20,05,13,15,12,18,25,23,40,,,1.54,0.81,1.31*19
$GNGSA,A,3,86,74,75,71,72,,,,,,,,1.54,0.81,1.31*1A
$GPGSV,5,1,17,05,58,061,34,11,00,030,,12,59,026,39,13,15,128,19*74
$GPGSV,5,2,17,15,33,162,32,18,34,264,20,20,25,039,36,22,01,138,17*73
$GPGSV,5,3,17,23,25,206,28,24,45,196,30,25,36,343,24,29,10,328,*78
$GPGSV,5,4,17,36,52,277,,40,86,351,34,41,58,082,33,49,32,274,*7B
$GPGSV,5,5,17,50,10,089,*4A
$GLGSV,3,1,11,65,10,196,,71,18,090,22,72,29,143,33,74,15,154,12*61
$GLGSV,3,2,11,75,67,151,32,76,47,336,08,77,03,334,,86,12,358,08*63
$GLGSV,3,3,11,87,22,314,,88,09,257,,,,,40*61
$GNGLL,0420.03124,S,05539.69352,E,055952.00,A,D*62
$GNGRS,055952.00,1,-0.8,1.3,1.7,5.2,7.5,-0.4,-10.3,-2.7,-0.5,181,,*5A
$GNGRS,055952.00,1,58.7,65.5,4.2,-0.4,-6.9,,,,,,,*71
$GNGST,055952.00,1137,,,,1.9,4.3,5.4*4D
$GNZDA,055952.00,23,05,2025,00,00*77
$GNGBS,055952.00,1.9,4.3,5.4,,,,*5F
$GNTXT,01,01,01,More than 100 frame errors, UART RX was disabled*70
$GNTXT,01,01,01,More than 100 frame errors, UART RX was disabled*70
$GNTXT,01,01,01,More than 100 frame errors, UART RX was disabled*70
b0d!:=';!!
"%''-$W
H{4"V_G!:R 
Y
pA
GZH"rJK C=L/P&MNV
fi<W:X'brYt$GNRMC,055955.00,A,0420.03128,S,05539.69363,E,0.368,,230525,,,D*7C
$GNVTG,,T,,M,0.368,N,0.681,K,D*3A
$GNGNS,055955.00,0420.03128,S,05539.69363,E,DA,16,0.81,20.3,-47.6,,0000*63
$GNGGA,055955.00,0420.03128,S,05539.69363,E,2,12,0.81,20.3,M,-47.6,M,,0000*4B
$GNGSA,A,3,24,20,05,13,15,12,18,25,23,40,,,1.54,0.81,1.31*19
$GNGSA,A,3,86,74,75,71,72,76,,,,,,,1.54,0.81,1.31*1B
$GPGSV,5,1,17,05,58,061,33,11,00,030,,12,59,026,39,13,15,128,15*7F
$GPGSV,5,2,17,15,33,162,33,18,34,264,20,20,25,039,37,22,01,138,16*72
$GPGSV,5,3,17,23,25,206,29,24,45,196,31,25,36,343,26,29,10,328,*7A
$GPGSV,5,4,17,36,52,277,,40,86,351,34,41,58,082,33,49,32,274,*7B
$GPGSV,5,5,17,50,10,089,*4A
$GLGSV,3,1,11,65,10,196,,71,18,090,23,72,29,143,34,74,15,154,09*6D
$GLGSV,3,2,11,75,67,151,32,76,47,336,09,77,03,334,,86,12,358,10*6B
$GLGSV,3,3,11,87,22,314,,88,09,257,,,,,39*6F
$GNGLL,0420.03128,S,05539.69363,E,055955.00,A,D*6B
$GNGRS,055955.00,1,4.1,1.3,2.3,6.6,0.1,-0.5,-8.0,-2.2,0.4,182,,*6F
$GNGRS,055955.00,1,155,-21.2,10.8,-2.3,-6.5,-50.8,,,,,,*71
$GNGST,055955.00,1137,,,,1.9,4.2,5.3*4C
$GNZDA,055955.00,23,05,2025,00,00*70
$GNGBS,055955.00,1.9,4.2,5.3,,,,*5E
$GNTXT,01,01,01,More than 100 frame errors, UART RX was disabled*70
b0d!:=';!!
"$'-$W
H{4"V_G!:R 
Y
p{A
GYyH!iJgK C!L
/PFMNVf_W:X(brAt\8$GNRMC,055956.00,A,0420.03130,S,05539.69366,E,0.161,,230525,,,D*78
$GNVTG,,T,,M,0.161,N,0.299,K,D*3C
$GNGNS,055956.00,0420.03130,S,05539.69366,E,DA,16,0.71,20.3,-47.6,,0000*63
$GNGGA,055956.00,0420.03130,S,05539.69366,E,2,12,0.71,20.3,M,-47.6,M,,0000*4B
$GNGSA,A,3,24,20,05,13,15,12,18,25,23,40,,,1.28,0.71,1.06*19
$GNGSA,A,3,86,74,75,71,72,76,,,,,,,1.28,0.71,1.06*1B
$GPGSV,5,1,17,05,58,061,33,11,00,030,,12,59,026,39,13,15,128,16*7C
$GPGSV,5,2,17,15,33,162,33,18,34,264,20,20,25,039,36,22,01,138,16*73
$GPGSV,5,3,17,23,25,206,28,24,45,196,30,25,36,343,26,29,10,328,*7A
$GPGSV,5,4,17,36,52,277,,40,86,351,34,41,58,082,33,49,32,274,*7B
$GPGSV,5,5,17,50,10,089,*4A
$GLGSV,3,1,11,65,10,196,,71,18,089,24,72,29,143,33,74,15,154,09*65
$GLGSV,3,2,11,75,67,151,32,76,47,336,10,77,03,334,,86,12,358,08*6A
$GLGSV,3,3,11,87,22,314,,88,09,257,,,,,40*61
$GNGLL,0420.03130,S,05539.69366,E,055956.00,A,D*64
$GNGRS,055956.00,1,1.8,1.3,-1.0,9.1,4.5,-0.4,-7.9,-3.2,2.0,182,,*45
$GNGRS,055956.00,1,8.6,6.2,8.0,-1.4,-6.6,-4.4,,,,,,*70
$GNGST,055956.00,2980126,,,,1.9,4.2,5.3*7D
$GNZDA,055956.00,23,05,2025,00,00*73
$GNGBS,055956.00,1.9,4.2,5.3,,,,*5D
b0d!:=(; !]
"$'e-$Wo
H{4!V_F!:R 
Y
peA
GYwH!rJiK CGL/P6MNVfeW:X'$br)t4$GNRMC,055957.00,A,0420.03131,S,05539.69367,E,0.035,,230525,,,D*79
$GNVTG,,T,,M,0.035,N,0.065,K,D*3D
$GNGNS,055957.00,0420.03131,S,05539.69367,E,DA,16,0.71,20.4,-47.6,,0000*65
$GNGGA,055957.00,0420.03131,S,05539.69367,E,2,12,0.71,20.4,M,-47.6,M,,0000*4D
$GNGSA,A,3,24,20,05,13,15,12,18,25,23,40,,,1.28,0.71,1.06*19
$GNGSA,A,3,86,74,75,71,72,76,,,,,,,1.28,0.71,1.06*1B
$GPGSV,5,1,17,05,58,061,33,11,00,030,,12,59,026,40,13,15,128,17*73
$GPGSV,5,2,17,15,33,162,32,18,34,264,20,20,25,039,36,22,01,138,16*72
$GPGSV,5,3,17,23,25,206,27,24,45,196,30,25,36,343,26,29,10,328,*75
$GPGSV,5,4,17,36,52,277,,40,86,351,33,41,58,082,33,49,32,274,*7C
$GPGSV,5,5,17,50,10,089,*4A
$GLGSV,3,1,11,65,10,196,,71,18,089,23,72,29,142,33,74,15,154,09*63
$GLGSV,3,2,11,75,67,151,32,76,47,336,11,77,03,334,,86,12,358,09*6A
$GLGSV,3,3,11,87,22,314,,88,09,257,,,,,39*6F
$GNGLL,0420.03131,S,05539.69367,E,055957.00,A,D*65
$GNGRS,055957.00,1,-0.5,1.0,-0.6,10.4,3.5,-0.3,-6.2,-1.5,0.0,182,,*51
$GNGRS,055957.00,1,8.7,6.2,8.4,-1.4,-6.5,-4.6,,,,,,*75
$GNGST,055957.00,2980128,,,,1.9,4.2,5.3*72
$GNZDA,055957.00,23,05,2025,00,00*72
$GNGBS,055957.00,1.9,4.2,5.3,,,,*5C
$GNTXT,01,01,01,More than 100 frame errors, UART RX was disabled*70
b0d!:='; !
"f$'\x-$Wl
H{4!V_F!:R 
Y
pA
GYH!cJK CL/PMNVfW:X')ebrt$GNRMC,055958.00,A,0420.03132,S,05539.69368,E,0.117,,230525,,,D*7B
$GNVTG,,T,,M,0.117,N,0.217,K,D*3B
$GNGNS,055958.00,0420.03132,S,05539.69368,E,DA,16,0.77,20.4,-47.6,,0000*60
$GNGGA,055958.00,0420.03132,S,05539.69368,E,2,12,0.77,20.4,M,-47.6,M,,0000*48
$GNGSA,A,3,24,20,05,13,15,12,18,25,23,40,,,1.61,0.77,1.42*12
$GNGSA,A,3,86,74,75,71,72,76,,,,,,,1.61,0.77,1.42*10
$GPGSV,5,1,17,05,58,061,33,11,00,030,,12,59,026,39,13,15,128,16*7C
$GPGSV,5,2,17,15,33,162,32,18,34,264,20,20,25,039,36,22,01,138,15*71
$GPGSV,5,3,17,23,25,206,28,24,45,196,30,25,36,343,26,29,10,328,*7A
$GPGSV,5,4,17,36,52,277,,40,86,351,33,41,58,082,33,49,32,274,*7C
$GPGSV,5,5,17,50,10,089,*4A
$GLGSV,3,1,11,65,10,196,,71,18,089,25,72,29,142,33,74,15,154,08*64
$GLGSV,3,2,11,75,67,151,32,76,47,336,12,77,03,334,,86,12,358,09*69
$GLGSV,3,3,11,87,22,314,,88,09,257,,,,,39*6F
$GNGLL,0420.03132,S,05539.69368,E,055958.00,A,D*66
$GNGRS,055958.00,1,1.5,0.9,-0.4,12.5,7.4,-0.2,-6.7,-1.5,0.1,182,,*7B
$GNGRS,055958.00,1,-138,-16.6,6.8,-3.1,-6.7,12.2,,,,,,*4D
$GNGST,055958.00,55,,,,1.9,4.2,5.3*45
$GNZDA,055958.00,23,05,2025,00,00*7D
$GNGBS,055958.00,1.9,4.2,5.3,,,,*53
$GNTXT,01,01,01,More than 100 frame errors, UART RX was disabled*70
b0dh!:=';X !
"N$'g/-)$W7
H{4!V_F!:R 
Y
pA
GY2H!]J
cK CL/P@MNVfbW:X'bhrtm$GNRMC,055959.00,A,0420.03133,S,05539.69367,E,0.051,,230525,,,D*77
$GNVTG,,T,,M,0.051,N,0.094,K,D*31
$GNGNS,055959.00,0420.03133,S,05539.69367,E,DA,16,0.71,20.4,-47.6,,0000*69
$GNGGA,055959.00,0420.03133,S,05539.69367,E,2,12,0.71,20.4,M,-47.6,M,,0000*41
$GNGSA,A,3,24,20,05,13,15,12,18,25,23,40,,,1.28,0.71,1.06*19
$GNGSA,A,3,86,74,75,71,72,76,,,,,,,1.28,0.71,1.06*1B
$GPGSV,5,1,17,05,58,061,33,11,00,030,,12,59,026,39,13,15,128,14*7E
$GPGSV,5,2,17,15,33,162,32,18,34,264,18,20,25,039,36,22,01,138,15*7A
$GPGSV,5,3,17,23,25,206,28,24,45,196,30,25,36,343,26,29,10,328,*7A
$GPGSV,5,4,17,36,52,277,,40,86,351,33,41,58,082,33,49,32,274,*7C
$GPGSV,5,5,17,50,10,089,*4A
$GLGSV,3,1,11,65,10,196,,71,18,089,25,72,29,142,33,74,15,154,10*6D
$GLGSV,3,2,11,75,67,151,32,76,47,336,11,77,03,334,,86,12,358,09*6A
$GLGSV,3,3,11,87,22,314,,88,09,257,,,,,39*6F
$GNGLL,0420.03133,S,05539.69367,E,055959.00,A,D*69
$GNGRS,055959.00,1,-2.1,1.0,-0.2,16.2,4.3,-0.4,-6.9,-2.0,0.5,181,,*50
$GNGRS,055959.00,1,8.7,6.1,9.5,-4.6,-6.7,-4.5,,,,,,*7E
$GNGST,055959.00,2979022,,,,1.9,4.1,5.2*73
$GNZDA,055959.00,23,05,2025,00,00*7C
$GNGBS,055959.00,1.9,4.1,5.2,,,,*50
b0dP!:<'< !
"#'u-$Wj
H{4"V_F :R 
Y
p|A
GYH!MJ\K!CL/P.MNVf_W:X'8bPr#t$GNRMC,060000.00,A,0420.03133,S,05539.69370,E,0.126,,230525,,,D*73
$GNVTG,,T,,M,0.126,N,0.233,K,D*3F
$GNGNS,060000.00,0420.03133,S,05539.69370,E,DA,16,0.69,20.5,-47.6,,0000*64
$GNGGA,060000.00,0420.03133,S,05539.69370,E,2,12,0.69,20.5,M,-47.6,M,,0000*4C
$GNGSA,A,3,24,20,05,13,15,12,18,25,23,40,,,1.24,0.69,1.03*19
$GNGSA,A,3,86,74,75,71,72,76,,,,,,,1.24,0.69,1.03*1B
$GPGSV,5,1,17,05,58,060,33,11,00,030,,12,60,027,39,13,15,128,16*76
$GPGSV,5,2,17,15,33,161,32,18,34,264,19,20,25,039,35,22,01,138,14*7A
$GPGSV,5,3,17,23,25,206,27,24,45,196,30,25,36,343,25,29,10,328,*76
$GPGSV,5,4,17,36,52,277,,40,86,351,34,41,58,082,32,49,32,274,*7A
$GPGSV,5,5,17,50,10,089,*4A
$GLGSV,3,1,11,65,10,196,,71,18,089,25,72,29,142,33,74,15,154,12*6F
$GLGSV,3,2,11,75,67,152,33,76,47,336,09,77,03,334,,86,12,358,09*61
$GLGSV,3,3,11,87,22,314,,88,09,257,,,,,39*6F
$GNGLL,0420.03133,S,05539.69370,E,060000.00,A,D*6C
$GNGRS,060000.00,1,-0.8,1.2,-0.3,15.1,2.6,-0.6,-8.7,-1.5,-0.9,182,,*7E
$GNGRS,060000.00,1,8.6,6.0,6.5,-5.5,-6.9,-4.7,,,,,,*7C
$GNGST,060000.00,4080216,,,,1.9,4.1,5.2*7C
$GNZDA,060000.00,23,05,2025,00,00*7F
$GNGBS,060000.00,1.9,4.1,5.2,,,,*53
$GNTXT,01,01,01,More than 100 frame errors, UART RX was disabled*70
