b0X&9; <3?#"}
"'U<,j%WZ
I{4!V_HF:R 
Y
pA
GXHJ
 K A_L1OMNVhpW<Xb&rv))$GNRMC,060243.00,A,0420.03330,S,05539.69085,E,0.243,,230525,,,D*7E
$GNVTG,,T,,M,0.243,N,0.451,K,D*3D
$GNGNS,060243.00,0420.03330,S,05539.69085,E,DA,16,0.78,18.2,-47.6,,0000*65
$GNGGA,060243.00,0420.03330,S,05539.69085,E,2,12,0.78,18.2,M,-47.6,M,,0000*4D
$GNGSA,A,3,24,20,05,13,15,12,18,25,23,40,,,1.53,0.78,1.32*1B
$GNGSA,A,3,86,74,75,71,72,76,,,,,,,1.53,0.78,1.32*19
$GPGSV,4,1,16,05,57,059,31,12,60,028,32,13,15,127,26,15,34,161,35*79
$GPGSV,4,2,16,18,34,265,18,20,24,039,25,22,00,138,23,23,26,206,08*75
$GPGSV,4,3,16,24,44,195,27,25,37,343,16,29,10,329,,36,52,277,*75
$GPGSV,4,4,16,40,86,351,33,41,58,082,,49,32,274,,50,10,089,*79
$GLGSV,3,1,11,65,10,196,18,71,18,088,11,72,29,141,12,74,13,154,10*64
$GLGSV,3,2,11,75,65,154,32,76,49,335,26,77,04,334,,86,11,360,09*6B
$GLGSV,3,3,11,87,22,316,,88,09,258,,,,,19*60
$GNGLL,0420.03330,S,05539.69085,E,060243.00,A,D*61
$GNGRS,060243.00,1,-4.1,-1.7,-0.4,0.6,1.2,0.5,-5.8,-4.2,7.5,180,,*67
$GNGRS,060243.00,1,29.3,82.2,1.0,11.7,1.5,2.3,,,,,,*60
$GNGST,060243.00,1097,,,,3.2,5.7,8.4*4A
$GNZDA,060243.00,23,05,2025,00,00*7A
$GNGBS,060243.00,3.2,5.7,8.4,,,,*53
$GNTXT,01,01,01,More than 100 frame errors, UART RX was disabled*70
$GPGSV,4,3,16,24,44,195,27,25,37,343,16,29,10,329,,36,52,277,*75
$GPGSV,4,4,16,40,86,351,34,41,58,082,,49,32,274,,50,10,089,*7E
$GLGSV,3,1,11,65,10,196,17,71,18,088,09,72,29,141,09,74,13,154,08*61
$GLGSV,3,2,11,75,65,154,29,76,49,335,25,77,04,334,,86,11,360,09*62
$GLGSV,3,3,11,87,22,316,,88,09,258,,,,,18*61
$GNGLL,0420.03326,S,05539.69086,E,060244.00,A,D*62
$GNGRS,060244.00,1,-4.9,-1.9,-0.5,1.9,1.4,5.8,-4.0,-1.9,11.2,180,,*50
$GNGRS,060244.00,1,9.6,7.2,0.2,3.7,3.3,,,,,,,*76
$GNGST,060244.00,3071870,,,,3.2,5.8,8.6*75
$GNZDA,060244.00,23,05,2025,00,00*7D
$GNGBS,060244.00,3.2,5.8,8.6,,,,*59
$GNTXT,01,01,01,More than 100 frame errors, UART RX was disabled*70
b0X-9; <&"d
"F'R,>%W
I{4!V_CF:R 
Y
pA
GXHBJ
KACL1O0MNV
hW<X8b-rhv$GNRMC,060245.00,A,0420.03325,S,05539.69092,E,0.080,,230525,,,D*77
$GNVTG,,T,,M,0.080,N,0.149,K,D*3C
$GNGNS,060245.00,0420.03325,S,05539.69092,E,DA,16,0.71,18.0,-47.6,,0000*6A
$GNGGA,060245.00,0420.03325,S,05539.69092,E,2,12,0.71,18.0,M,-47.6,M,,0000*42
$GNGSA,A,3,24,20,05,13,15,12,18,25,23,40,,,1.27,0.71,1.05*15
$GNGSA,A,3,86,74,75,71,72,76,,,,,,,1.27,0.71,1.05*17
$GPGSV,4,1,16,05,57,059,27,12,60,028,32,13,15,127,26,15,34,161,38*73
$GPGSV,4,2,16,18,34,265,18,20,24,039,23,22,00,138,25,23,26,206,13*7F
$GPGSV,4,3,16,24,44,195,26,25,37,343,14,29,10,329,,36,52,277,*76
$GPGSV,4,4,16,40,86,351,33,41,58,082,,49,32,274,,50,10,089,*79
$GLGSV,3,1,11,65,10,196,17,71,18,088,12,72,29,141,16,74,13,154,10*6C
$GLGSV,3,2,11,75,65,154,31,76,49,335,26,77,04,334,,86,11,360,10*60
$GNTXT,01,01,01,More than 100 frame errors, UART RX was disabled*70
b0X19;$<%$"W
"J'},%Wm
I{4"V_BF:R 
Y

pA
GXH}J3K AL1OMNVhpW<Xmb1rPvR$GNRMC,060246.00,A,0420.03335,S,05539.69101,E,0.203,,230525,,,D*77
$GNVTG,,T,,M,0.203,N,0.376,K,D*3B
$GNGNS,060246.00,0420.03335,S,05539.69101,E,DA,16,0.85,18.4,-47.6,,0000*6C
$GNGGA,060246.00,0420.03335,S,05539.69101,E,2,12,0.85,18.4,M,-47.6,M,,0000*44
$GNGSA,A,3,24,20,05,13,15,12,18,25,23,40,,,1.62,0.85,1.38*11
$GNGSA,A,3,86,74,75,71,72,76,,,,,,,1.62,0.85,1.38*13
$GPGSV,4,1,16,05,57,059,30,12,60,028,36,13,15,127,26,15,34,161,36*7F
$GPGSV,4,2,16,18,34,265,20,20,24,039,23,22,00,138,26,23,26,206,12*76
$GPGSV,4,3,16,24,44,195,25,25,37,343,12,29,10,329,,36,52,277,*73
$GPGSV,4,4,16,40,86,351,34,41,58,082,,49,32,274,,50,10,089,*7E
$GLGSV,3,1,11,65,10,196,18,71,18,088,13,72,29,141,11,74,13,154,08*6C
$GLGSV,3,2,11,75,65,154,32,76,49,335,29,77,04,334,,86,11,360,09*64
$GLGSV,3,3,11,87,22,316,,88,09,258,,,,,19*60
$GNGLL,0420.03335,S,05539.69101,E,060246.00,A,D*6C
$GNGRS,060246.00,1,-5.1,-3.2,2.1,2.9,0.9,-1.0,-4.4,1.1,-80.7,180,,*56
$GNGRS,060246.00,1,-137,133,1.9,9.9,-6.4,-0.6,,,,,,*73
$GNGST,060246.00,1138,,,,3.2,5.8,8.7*47
$GNZDA,060246.00,23,05,2025,00,00*7F
$GNGBS,060246.00,3.2,5.8,8.7,,,,*5A
b0X59;$<1%"H
"'KC[,%W
I{4"V_7F:R 
Y
p
A
GXHqJK!A L1OMNVhW<X&rb5r8v$GNRMC,060247.00,A,0420.03334,S,05539.69105,E,0.084,,230525,,,D*7E
$GNVTG,,T,,M,0.084,N,0.156,K,D*36
$GNGNS,060247.00,0420.03334,S,05539.69105,E,DA,15,0.72,18.4,-47.6,,0000*63
$GNGGA,060247.00,0420.03334,S,05539.69105,E,2,12,0.72,18.4,M,-47.6,M,,0000*48
$GNGSA,A,3,24,20,05,13,15,12,18,25,23,40,,,1.32,0.72,1.11*17
$GNGSA,A,3,86,75,71,72,76,,,,,,,,1.32,0.72,1.11*16
$GPGSV,4,1,16,05,57,059,31,12,60,028,36,13,15,127,26,15,34,161,37*7F
$GPGSV,4,2,16,18,34,265,20,20,24,039,25,22,00,138,27,23,26,206,15*76
$GPGSV,4,3,16,24,44,195,25,25,37,343,12,29,10,329,,36,52,277,*73
$GPGSV,4,4,16,40,86,351,34,41,58,082,,49,32,274,,50,10,089,*7E
$GLGSV,3,1,11,65,10,196,19,71,18,088,15,72,29,141,14,74,13,154,06*60
$GLGSV,3,2,11,75,65,154,33,76,49,335,30,77,04,334,,86,11,360,11*64
$GLGSV,3,3,11,87,22,316,,88,09,258,,,,,18*61
$GNGLL,0420.03334,S,05539.69105,E,060247.00,A,D*68
$GNGRS,060247.00,1,-3.0,-4.4,1.6,1.8,0.7,0.5,-5.3,2.1,11.1,180,,*56
$GNGRS,060247.00,1,9.7,2.9,10.3,3.7,1.6,,,,,,,*4D
$GNGST,060247.00,3073073,,,,3.1,5.8,8.7*7D
$GNZDA,060247.00,23,05,2025,00,00*7E
$GNGBS,060247.00,3.1,5.8,8.7,,,,*58
b0X99:#<j&"*
"'P0` ,%Wj
I{4#V_9F:R 
Y
pyA
GXHUJK A~L1OJMNVhW<Xb9r v`"$GNRMC,060248.00,A,0420.03337,S,05539.69112,E,0.015,,230525,,,D*7C
$GNVTG,,T,,M,0.015,N,0.028,K,D*36
$GNGNS,060248.00,0420.03337,S,05539.69112,E,DA,16,0.69,18.4,-47.6,,0000*60
$GNGGA,060248.00,0420.03337,S,05539.69112,E,2,12,0.69,18.4,M,-47.6,M,,0000*48
$GNGSA,A,3,24,20,05,13,15,12,18,25,23,40,,,1.24,0.69,1.03*19
$GNGSA,A,3,86,74,75,71,72,76,,,,,,,1.24,0.69,1.03*1B
$GPGSV,4,1,16,05,57,058,31,12,60,028,35,13,15,127,28,15,34,161,38*7C
$GPGSV,4,2,16,18,34,265,19,20,24,039,25,22,00,138,26,23,26,206,19*71
$GPGSV,4,3,16,24,44,195,32,25,37,343,11,29,10,329,,36,52,277,*76
$GPGSV,4,4,16,40,86,351,35,41,58,082,,49,32,274,,50,10,089,*7F
$GLGSV,3,1,11,65,10,196,19,71,18,088,16,72,29,141,16,74,13,154,11*67
$GLGSV,3,2,11,75,65,154,32,76,49,335,30,77,04,334,,86,11,360,09*6C
$GLGSV,3,3,11,87,22,316,,88,09,258,,,,,19*60
$GNGLL,0420.03337,S,05539.69112,E,060248.00,A,D*62
$GNGRS,060248.00,1,-2.7,-4.3,-0.9,3.6,0.4,-1.1,-5.8,3.6,11.2,180,,*52
$GNGRS,060248.00,1,9.6,7.3,3.8,11.7,3.4,3.3,,,,,,*68
$GNGST,060248.00,4082604,,,,3.1,5.7,8.7*72
$GNZDA,060248.00,23,05,2025,00,00*71
$GNGBS,060248.00,3.1,5.7,8.7,,,,*58
b0Xx=9:/"<&"3
"' ,%W
I{4#V_JF:R 
Y
pA
GXH2JK A@L1OMNV
h`W<XNlbx=rv8$GNRMC,060249.00,A,0420.03336,S,05539.69120,E,0.086,,230525,,,D*77
$GNVTG,,T,,M,0.086,N,0.160,K,D*31
$GNGNS,060249.00,0420.03336,S,05539.69120,E,DA,16,0.77,18.3,-47.6,,0000*69
$GNGGA,060249.00,0420.03336,S,05539.69120,E,2,12,0.77,18.3,M,-47.6,M,,0000*41
$GNGSA,A,3,24,20,05,13,15,12,18,25,23,40,,,1.47,0.77,1.25*17
$GNGSA,A,3,86,74,75,71,72,76,,,,,,,1.47,0.77,1.25*15
$GPGSV,4,1,16,05,57,058,30,12,60,028,34,13,15,127,30,15,34,161,38*75
$GPGSV,4,2,16,18,34,265,19,20,24,039,25,22,00,138,25,23,26,206,15*7E
$GPGSV,4,3,16,24,44,195,32,25,37,343,13,29,10,329,,36,52,277,*74
$GPGSV,4,4,16,40,86,351,35,41,58,082,,49,32,274,,50,10,089,*7F
$GLGSV,3,1,11,65,10,196,20,71,18,088,17,72,29,141,18,74,13,154,13*60
$GLGSV,3,2,11,75,65,154,32,76,49,335,29,77,04,334,,86,11,360,10*6C
$GLGSV,3,3,11,87,22,316,,88,09,258,,,,,19*60
$GNGLL,0420.03336,S,05539.69120,E,060249.00,A,D*63
$GNGRS,060249.00,1,-3.1,-2.7,0.5,-2.9,0.5,-0.5,-6.0,3.9,10.4,180,,*53
$GNGRS,060249.00,1,-137,-139,0.6,12.7,5.6,-0.9,,,,,,*42
$GNGST,060249.00,1060,,,,3.0,5.6,8.7*48
$GNZDA,060249.00,23,05,2025,00,00*70
$GNGBS,060249.00,3.0,5.6,8.7,,,,*59
$GNTXT,01,01,01,More than 100 frame errors, UART RX was disabled*70
b0X`A9:\!<&"D
"S'PR!,%W
I{4#V_cF:R 
Y
p
A
GXHiJK!AL1OMNVhW<X
b`Arv$GNRMC,060250.00,A,0420.03337,S,05539.69128,E,0.065,,230525,,,D*7B
$GNVTG,,T,,M,0.065,N,0.120,K,D*38
$GNGNS,060250.00,0420.03337,S,05539.69128,E,DA,16,0.69,18.1,-47.6,,0000*65
$GNGGA,060250.00,0420.03337,S,05539.69128,E,2,12,0.69,18.1,M,-47.6,M,,0000*4D
$GNGSA,A,3,24,20,05,13,15,12,18,25,23,40,,,1.24,0.69,1.03*19
$GNGSA,A,3,86,74,75,71,72,76,,,,,,,1.24,0.69,1.03*1B
$GPGSV,4,1,16,05,57,058,30,12,60,028,33,13,15,127,29,15,34,161,38*7A
$GPGSV,4,2,16,18,34,265,19,20,24,039,25,22,00,138,24,23,26,206,15*7F
$GPGSV,4,3,16,24,44,195,33,25,37,343,14,29,10,329,,36,52,277,*72
$GPGSV,4,4,16,40,86,351,35,41,58,082,,49,32,274,,50,10,089,*7F
$GLGSV,3,2,11,75,65,154,33,76,49,335,28,77,04,334,,86,11,360,11*6D
$GLGSV,3,3,11,87,22,316,,88,09,258,,,,,19*60
$GNGLL,0420.03337,S,05539.69128,E,060250.00,A,D*62
$GNGRS,060250.00,1,0.0,-1.8,0.9,1.6,0.7,1.4,-6.8,1.5,12.3,180,,*79
$GNGRS,060250.00,1,9.6,7.0,-1.2,11.7,3.6,-5.7,,,,,,*6A
$GNGST,060250.00,23649,,,,3.0,5.6,8.6*7C
$GNZDA,060250.00,23,05,2025,00,00*78
$GNGBS,060250.00,3.0,5.6,8.6,,,,*50
$GLGSV,3,1,11,65,10,196,20,71,18,088,20,72,29,141,15,74,13,154,08*63
$GLGSV,3,2,11,75,65,154,33,76,49,335,29,77,04,334,,86,11,360,10*6D
$GLGSV,3,3,11,87,22,316,,88,09,258,,,,,18*61
$GNGLL,0420.03340,S,05539.69144,E,060251.00,A,D*69
$GNGRS,060251.00,1,-2.0,-0.8,0.0,-1.4,0.4,1.1,-8.4,-0.8,13.8,180,,*5F
$GNGRS,060251.00,1,9.7,6.8,4.3,12.8,3.5,-1.7,,,,,,*41
$GNGST,060251.00,6250,,,,2.9,5.5,8.6*4D
$GNZDA,060251.00,23,05,2025,00,00*79
$GNGBS,060251.00,2.9,5.5,8.6,,,,*5A
b0X0I9:!<f&"
"F'A!,%W
I{4"V_-F:R 
Y
p%A
GX\H\J+K"A+L1OMNVhW<XNb0Irv$GNRMC,060252.00,A,0420.03342,S,05539.69148,E,0.070,,230525,,,D*79
$GNVTG,,T,,M,0.070,N,0.130,K,D*3D
$GNGNS,060252.00,0420.03342,S,05539.69148,E,DA,16,0.77,18.4,-47.6,,0000*69
$GNGGA,060252.00,0420.03342,S,05539.69148,E,2,12,0.77,18.4,M,-47.6,M,,0000*41
$GNGSA,A,3,24,20,05,13,15,12,18,25,23,40,,,1.47,0.77,1.25*17
$GNGSA,A,3,86,74,75,71,72,76,,,,,,,1.47,0.77,1.25*15
$GPGSV,4,1,16,05,57,058,31,12,60,028,33,13,15,127,30,15,34,161,38*73
$GPGSV,4,2,16,18,34,265,17,20,24,039,26,22,00,138,20,23,26,206,20*70
$GPGSV,4,3,16,24,44,195,33,25,37,343,12,29,10,329,,36,52,277,*74
$GPGSV,4,4,16,40,86,351,34,41,58,082,,49,32,274,,50,10,089,*7E
$GLGSV,3,1,11,65,10,196,20,71,18,088,20,72,29,141,17,74,13,154,09*60
$GLGSV,3,2,11,75,65,154,34,76,49,335,30,77,04,334,,86,11,360,11*63
$GLGSV,3,3,11,87,22,316,,88,09,258,,,,,18*61
$GNGLL,0420.03342,S,05539.69148,E,060252.00,A,D*64
$GNGRS,060252.00,1,2.4,-1.9,-1.2,2.6,0.1,1.0,-9.5,-2.7,10.0,180,,*75
$GNGRS,060252.00,1,-105,113,3.0,13.7,3.5,-1.2,,,,,,*67
$GNGST,060252.00,1059,,,,2.9,5.4,8.5*40
$GNZDA,060252.00,23,05,2025,00,00*7A
$GNGBS,060252.00,2.9,5.4,8.5,,,,*5B
$GNTXT,01,01,01,More than 100 frame errors, UART RX was disabled*70
$GPGSV,4,2,16,18,34,265,17,20,24,039,26,22,00,138,17,23,26,206,22*76
$GPGSV,4,3,16,24,44,195,33,25,37,343,13,29,10,329,,36,52,277,*75
$GPGSV,4,4,16,40,86,351,34,41,58,082,,49,32,274,,50,10,089,*7E
$GLGSV,3,1,11,65,10,196,20,71,18,088,19,72,29,141,18,74,13,154,10*6D
$GLGSV,3,2,11,75,65,154,34,76,49,335,30,77,04,334,,86,11,360,10*62
$GLGSV,3,3,11,87,22,316,,88,09,258,,,,,18*61
$GNGLL,0420.03340,S,05539.69147,E,060253.00,A,D*68
$GNGRS,060253.00,1,-0.1,-2.7,-0.4,1.8,-0.1,1.3,-9.9,-2.5,9.6,180,,*47
$GNGRS,060253.00,1,9.6,7.4,-0.3,12.8,1.9,6.0,,,,,,*45
$GNGST,060253.00,4080214,,,,2.8,5.4,8.4*77
$GNZDA,060253.00,23,05,2025,00,00*7B
$GNGBS,060253.00,2.8,5.4,8.4,,,,*5A
b0XQ9:F!<x'"
"'!,U%WY
I{4"V_+F:R 
Y
pnA
GXHJK"AL1O!MNVhW<XbQrvo$GNRMC,060254.00,A,0420.03340,S,05539.69154,E,0.056,,230525,,,D*74
$GNVTG,,T,,M,0.056,N,0.104,K,D*3E
$GNGNS,060254.00,0420.03340,S,05539.69154,E,DA,16,0.69,18.2,-47.6,,0000*69
$GNGGA,060254.00,0420.03340,S,05539.69154,E,2,12,0.69,18.2,M,-47.6,M,,0000*41
$GNGSA,A,3,24,20,05,13,15,12,18,25,23,40,,,1.24,0.69,1.03*19
$GNGSA,A,3,86,74,75,71,72,76,,,,,,,1.24,0.69,1.03*1B
$GPGSV,4,1,16,05,57,058,31,12,60,028,33,13,15,127,30,15,34,161,39*72
$GPGSV,4,2,16,18,34,265,17,20,24,039,26,22,00,138,15,23,26,206,22*74
$GPGSV,4,3,16,24,44,195,33,25,37,343,12,29,10,329,,36,52,277,*74
$GPGSV,4,4,16,40,86,351,34,41,58,082,,49,32,274,,50,10,089,*7E
$GLGSV,3,1,11,65,10,196,20,71,18,088,18,72,29,141,17,74,13,154,09*6B
$GLGSV,3,2,11,75,65,154,34,76,49,335,30,77,04,334,,86,11,360,07*64
$GLGSV,3,3,11,87,22,316,,88,09,258,,,,,20*6A
$GNGLL,0420.03340,S,05539.69154,E,060254.00,A,D*6D
$GNGRS,060254.00,1,-1.7,-2.7,-1.9,4.8,-0.2,1.2,-8.1,-6.8,6.9,180,,*4C
$GNGRS,060254.00,1,9.5,7.3,-0.6,9.6,4.0,0.3,,,,,,*7E
$GNGST,060254.00,4080214,,,,2.8,5.3,8.4*77
$GNZDA,060254.00,23,05,2025,00,00*7C
$GNGBS,060254.00,2.8,5.3,8.4,,,,*5A
$GNTXT,01,01,01,More than 100 frame errors, UART RX was disabled*70
b0XT9:!=Bn'"
"'N&!,w%W
I{4!V_EF:R 
Y
pA
GXHJK"AL1O?MNVh\W<XvbTrxvF$GNRMC,060255.00,A,0420.03340,S,05539.69160,E,0.048,,230525,,,D*7D
$GNVTG,,T,,M,0.048,N,0.090,K,D*3D
$GNGNS,060255.00,0420.03340,S,05539.69160,E,DA,15,0.77,18.2,-47.6,,0000*63
$GNGGA,060255.00,0420.03340,S,05539.69160,E,2,12,0.77,18.2,M,-47.6,M,,0000*48
$GNGSA,A,3,24,20,05,13,15,12,18,25,23,40,,,1.47,0.77,1.25*17
$GNGSA,A,3,74,75,71,72,76,,,,,,,,1.47,0.77,1.25*1B
$GPGSV,4,1,16,05,57,058,31,12,61,028,33,13,15,127,29,15,34,161,39*7B
$GPGSV,4,2,16,18,34,265,17,20,24,039,27,22,00,138,18,23,26,206,21*7B
$GPGSV,4,3,16,24,44,195,33,25,37,343,11,29,10,329,,36,52,277,*77
$GPGSV,4,4,16,40,86,351,33,41,58,082,,49,32,274,,50,10,089,*79
$GLGSV,3,1,11,65,10,196,18,71,18,088,19,72,29,141,18,74,13,154,07*60
$GLGSV,3,2,11,75,65,154,34,76,49,335,31,77,04,334,,86,11,360,07*65
$GLGSV,3,3,11,87,22,316,,88,09,258,,,,,20*6A
$GNGLL,0420.03340,S,05539.69160,E,060255.00,A,D*6B
$GNGRS,060255.00,1,-1.4,-1.8,-0.4,1.1,-0.1,0.7,-8.4,-8.7,4.5,180,,*4F
$GNGRS,060255.00,1,-33.9,2.2,9.4,3.9,0.6,,,,,,,*6F
$GNGST,060255.00,1059,,,,2.7,5.2,8.3*49
$GNZDA,060255.00,23,05,2025,00,00*7D
$GNGBS,060255.00,2.7,5.2,8.3,,,,*52
$GNTXT,01,01,01,More than 100 frame errors, UART RX was disabled*70
b0XX9:!=3A'"
"4'9 ,%W
I{4"V_iF:R 
Y
pA
GXH^J
K!AL1OMNVhW<X|bXr`vP$GNRMC,060256.00,A,0420.03341,S,05539.69169,E,0.131,,230525,,,D*79
$GNVTG,,T,,M,0.131,N,0.243,K,D*3E
$GNGNS,060256.00,0420.03341,S,05539.69169,E,DA,16,0.69,18.4,-47.6,,0000*62
$GNGGA,060256.00,0420.03341,S,05539.69169,E,2,12,0.69,18.4,M,-47.6,M,,0000*4A
$GNGSA,A,3,24,20,05,13,15,12,18,25,23,40,,,1.24,0.69,1.03*19
$GNGSA,A,3,86,74,75,71,72,76,,,,,,,1.24,0.69,1.03*1B
$GPGSV,4,1,16,05,57,058,30,12,61,028,33,13,15,127,30,15,34,161,39*72
$GPGSV,4,2,16,18,34,265,16,20,24,039,26,22,00,138,18,23,26,206,23*79
$GPGSV,4,3,16,24,44,195,32,25,37,343,13,29,10,329,,36,52,277,*74
$GPGSV,4,4,16,40,86,351,34,41,58,082,,49,32,274,,50,10,089,*7E
$GLGSV,3,1,11,65,10,196,21,71,18,088,18,72,29,141,20,74,13,154,10*66
$GLGSV,3,2,11,75,65,154,33,76,49,335,30,77,04,334,,86,11,360,09*6D
$GLGSV,3,3,11,87,22,316,,88,09,258,,,,,19*60
$GNGLL,0420.03341,S,05539.69169,E,060256.00,A,D*60
$GNGRS,060256.00,1,-3.0,-2.0,-3.2,0.6,-0.5,0.5,-9.7,-8.3,4.5,180,,*42
$GNGRS,060256.00,1,10.0,7.4,2.5,10.0,3.5,1.5,,,,,,*51
$GNGST,060256.00,2885148,,,,2.7,5.2,8.3*7D
$GNZDA,060256.00,23,05,2025,00,00*7E
$GNGBS,060256.00,2.7,5.2,8.3,,,,*51
$GNTXT,01,01,01,More than 100 frame errors, UART RX was disabled*70
b0Xd9:!=2'"
"'ag!,%W]
I{4"V_F:R 
Y
pA
GXOHJK!AL1OMNV
hW<Xbdrv$GNRMC,060259.00,A,0420.03345,S,05539.69187,E,0.105,,230525,,,D*75
$GNVTG,,T,,M,0.105,N,0.195,K,D*31
$GNGNS,060259.00,0420.03345,S,05539.69187,E,DA,16,0.69,18.9,-47.6,,0000*64
$GNGGA,060259.00,0420.03345,S,05539.69187,E,2,12,0.69,18.9,M,-47.6,M,,0000*4C
$GNGSA,A,3,24,20,05,13,15,12,18,25,23,40,,,1.24,0.69,1.03*19
$GNGSA,A,3,86,74,75,71,72,76,,,,,,,1.24,0.69,1.03*1B
$GPGSV,4,1,16,05,57,058,31,12,61,028,33,13,15,127,29,15,34,160,39*7A
$GPGSV,4,2,16,18,34,265,20,20,24,039,25,22,00,138,15,23,26,206,21*70
$GPGSV,4,3,16,24,44,195,33,25,37,343,16,29,10,329,,36,52,277,*70
$GPGSV,4,4,16,40,86,351,34,41,58,082,,49,32,274,,50,10,089,*7E
$GLGSV,3,1,11,65,10,196,22,71,18,088,20,72,29,141,20,74,13,154,11*6F
$GLGSV,3,2,11,75,65,154,33,76,49,335,31,77,04,334,,86,11,360,10*64
$GLGSV,3,3,11,87,22,316,,88,09,258,,,,,20*6A
$GNGLL,0420.03345,S,05539.69187,E,060259.00,A,D*6B
$GNGRS,060259.00,1,-0.3,-4.2,1.4,-0.6,-0.7,0.5,-10.2,-11.9,1.9,180,,*49
$GNGRS,060259.00,1,10.0,7.5,2.2,11.0,-0.7,-0.9,,,,,,*55
$GNGST,060259.00,2890419,,,,2.6,5.0,8.1*76
$GNZDA,060259.00,23,05,2025,00,00*71
$GNGBS,060259.00,2.6,5.0,8.1,,,,*5F
$GNTXT,01,01,01,More than 100 frame errors, UART RX was disabled*70
b0Xph9:!=D'"
"q' 
!,%W.
I{4"V_lF:R 
Y
pA
GXHJK AL1OMNVhW<X$bphrv~$GNRMC,060300.00,A,0420.03345,S,05539.69195,E,0.167,,230525,,,D*7F
$GNVTG,,T,,M,0.167,N,0.310,K,D*3A
$GNGNS,060300.00,0420.03345,S,05539.69195,E,DA,16,0.69,19.1,-47.6,,0000*63
$GNGGA,060300.00,0420.03345,S,05539.69195,E,2,12,0.69,19.1,M,-47.6,M,,0000*4B
$GNGSA,A,3,24,20,05,13,15,12,18,25,23,40,,,1.24,0.69,1.03*19
$GNGSA,A,3,86,74,75,71,72,76,,,,,,,1.24,0.69,1.03*1B
$GPGSV,4,1,16,05,57,058,30,12,61,028,33,13,15,127,29,15,34,160,39*7B
$GPGSV,4,2,16,18,34,265,20,20,24,039,25,22,00,138,14,23,26,206,21*71
$GPGSV,4,3,16,24,44,195,33,25,37,343,15,29,10,329,,36,52,277,*73
$GPGSV,4,4,16,40,86,351,34,41,58,082,,49,32,274,,50,10,089,*7E
$GLGSV,3,1,11,65,10,196,22,71,18,088,20,72,29,141,22,74,13,154,07*6A
$GLGSV,3,2,11,75,65,154,32,76,49,335,31,77,04,334,,86,11,360,08*6C
$GLGSV,3,3,11,87,22,316,,88,09,258,,,,,21*6B
$GNGLL,0420.03345,S,05539.69195,E,060300.00,A,D*65
$GNGRS,060300.00,1,0.1,-4.8,-0.5,-2.5,-0.6,0.7,-9.1,-14.9,2.7,180,,*7D
$GNGRS,060300.00,1,9.9,7.5,1.9,12.6,-1.1,-0.6,,,,,,*6C
$GNGST,060300.00,4080214,,,,2.6,5.0,8.1*7F
$GNZDA,060300.00,23,05,2025,00,00*7C
$GNGBS,060300.00,2.6,5.0,8.1,,,,*52
$GNTXT,01,01,01,More than 100 frame errors, UART RX was disabled*70
$GNTXT,01,01,01,More than 100 frame errors, UART RX was disabled*70
b0X{9:!='"
"
&v ,%W
I{4"V_iF:R 
Y
pA
GXH{J
K!AL1OMNVhW<Xb{rv$GNRMC,060305.00,A,0420.03347,S,05539.69209,E,0.041,,230525,,,D*7B
$GNVTG,,T,,M,0.041,N,0.076,K,D*3C
$GNGNS,060305.00,0420.03347,S,05539.69209,E,DA,16,0.69,19.4,-47.6,,0000*67
$GNGGA,060305.00,0420.03347,S,05539.69209,E,2,12,0.69,19.4,M,-47.6,M,,0000*4F
$GNGSA,A,3,24,20,05,13,15,12,18,25,23,40,,,1.24,0.69,1.02*18
$GNGSA,A,3,86,74,75,71,72,76,,,,,,,1.24,0.69,1.02*1A
$GPGSV,4,1,16,05,57,058,30,12,61,028,33,13,15,127,30,15,34,160,39*73
$GPGSV,4,2,16,18,34,266,20,20,24,038,25,22,00,138,21,23,27,206,23*76
$GPGSV,4,3,16,24,44,195,32,25,37,343,12,29,10,329,,36,52,277,*75
$GNTXT,01,01,01,More than 100 frame errors, UART RX was disabled*70
b0X9:!=)'"
"
0&#g!,%W
I{4!V_7F:R 
Y
pA
GX<HgJK!A|L1OMNVhW<X,brpvN$GNRMC,060306.00,A,0420.03349,S,05539.69213,E,0.049,,230525,,,D*75
$GNVTG,,T,,M,0.049,N,0.090,K,D*3C
$GNGNS,060306.00,0420.03349,S,05539.69213,E,DA,14,0.77,19.5,-47.6,,0000*6D
$GNGGA,060306.00,0420.03349,S,05539.69213,E,2,12,0.77,19.5,M,-47.6,M,,0000*47
$GNGSA,A,3,24,20,05,13,15,12,18,25,23,40,,,1.47,0.77,1.25*17
$GNGSA,A,3,75,71,72,76,,,,,,,,,1.47,0.77,1.25*18
$GPGSV,4,1,16,05,57,058,31,12,61,028,33,13,15,127,30,15,34,160,39*72
$GPGSV,4,2,16,18,34,266,20,20,24,038,26,22,00,138,24,23,27,206,22*71
$GPGSV,4,3,16,24,44,194,33,25,37,343,15,29,10,329,,36,52,277,*72
$GPGSV,4,4,16,40,86,351,33,41,58,082,,49,32,274,,50,10,089,*79
$GLGSV,3,1,11,65,10,196,20,71,18,088,20,72,29,141,20,74,13,154,07*6A
$GLGSV,3,2,11,75,65,154,33,76,49,335,31,77,04,334,,86,11,360,07*62
$GLGSV,3,3,11,87,22,316,,88,09,258,,,,,22*68
$GNGLL,0420.03349,S,05539.69213,E,060306.00,A,D*62
$GNGRS,060306.00,1,-0.9,-4.9,-0.7,-0.3,-0.3,0.4,-7.2,-10.2,1.0,180,,*59
$GNGRS,060306.00,1,1.2,8.3,-4.1,-1.0,,,,,,,,*5F
$GNGST,060306.00,1059,,,,2.5,4.7,7.9*4D
$GNZDA,060306.00,23,05,2025,00,00*7A
$GNGBS,060306.00,2.5,4.7,7.9,,,,*56
$GNTXT,01,01,01,More than 100 frame errors, UART RX was disabled*70
b0X9:!=\'"
"
&? ,&W
I{4!V_9F:R 
Y
pA
GXWHBJK!A}L1OrMNVhW<XbrXvd$GNRMC,060307.00,A,0420.03349,S,05539.69214,E,0.121,,230525,,,D*7C
$GNVTG,,T,,M,0.121,N,0.223,K,D*39
$GNGNS,060307.00,0420.03349,S,05539.69214,E,DA,16,0.77,19.5,-47.6,,0000*69
$GNGGA,060307.00,0420.03349,S,05539.69214,E,2,12,0.77,19.5,M,-47.6,M,,0000*41
$GNGSA,A,3,24,20,05,13,15,12,18,25,23,40,,,1.47,0.77,1.25*17
$GNGSA,A,3,86,74,75,71,72,76,,,,,,,1.47,0.77,1.25*15
$GPGSV,4,1,16,05,57,058,29,12,61,028,33,13,15,127,29,15,34,160,39*73
$GPGSV,4,2,16,18,34,266,20,20,24,038,25,22,00,138,25,23,27,206,22*73
$GPGSV,4,3,16,24,44,194,32,25,38,343,14,29,10,329,,36,52,277,*7D
$GPGSV,4,4,16,40,86,351,33,41,58,082,,49,32,274,,50,10,089,*79
$GLGSV,3,1,11,65,10,196,21,71,18,088,20,72,29,141,18,74,13,154,11*67
$GLGSV,3,2,11,75,65,154,33,76,49,335,31,77,04,334,,86,11,360,11*65
$GLGSV,3,3,11,87,22,316,,88,09,258,,,,,21*6B
$GNGLL,0420.03349,S,05539.69214,E,060307.00,A,D*64
$GNGRS,060307.00,1,-0.9,-4.5,-0.6,2.7,-0.1,0.9,-6.4,-7.9,0.2,180,,*48
$GNGRS,060307.00,1,-51.3,32.3,1.3,6.0,-7.0,1.1,,,,,,*54
$GNGST,060307.00,1059,,,,2.4,4.7,7.9*4D
$GNZDA,060307.00,23,05,2025,00,00*7B
$GNGBS,060307.00,2.4,4.7,7.9,,,,*56
$GNTXT,01,01,01,More than 100 frame errors, UART RX was disabled*70
b0X9:!='"
"
&1 ,s&W
I{4!V_,F:R 
Y
pA
GXmHJ
K AL1OHMNVhW<Xbr@w= $GNRMC,060308.00,A,0420.03352,S,05539.69220,E,0.053,,230525,,,D*7A
$GNVTG,,T,,M,0.053,N,0.098,K,D*3F
$GNGNS,060308.00,0420.03352,S,05539.69220,E,DA,16,0.71,19.7,-47.6,,0000*6F
$GNGGA,060308.00,0420.03352,S,05539.69220,E,2,12,0.71,19.7,M,-47.6,M,,0000*47
$GNGSA,A,3,24,20,05,13,15,12,18,25,23,40,,,1.27,0.71,1.05*15
$GNGSA,A,3,86,74,75,71,72,76,,,,,,,1.27,0.71,1.05*17
$GPGSV,4,1,16,05,57,058,30,12,61,028,33,13,15,127,30,15,34,160,39*73
$GPGSV,4,2,16,18,34,266,21,20,24,038,25,22,00,138,24,23,27,206,23*72
$GPGSV,4,3,16,24,44,194,32,25,38,343,14,29,10,329,,36,52,277,*7D
$GPGSV,4,4,16,40,86,351,33,41,58,082,,49,32,274,,50,10,089,*79
$GLGSV,3,1,11,65,10,196,21,71,18,088,20,72,29,141,19,74,13,154,10*67
$GLGSV,3,2,11,75,65,154,32,76,49,335,31,77,04,334,,86,11,360,07*63
$GLGSV,3,3,11,87,22,316,,88,09,258,,,,,21*6B
$GNGLL,0420.03352,S,05539.69220,E,060308.00,A,D*66
$GNGRS,060308.00,1,-1.4,-2.5,-0.7,0.2,-0.5,0.2,-4.9,-8.9,2.3,180,,*47
$GNGRS,060308.00,1,10.1,7.5,1.3,6.2,-8.2,-1.8,,,,,,*6A
$GNGST,060308.00,4205788,,,,2.4,4.7,7.8*7A
$GNZDA,060308.00,23,05,2025,00,00*74
$GNGBS,060308.00,2.4,4.7,7.8,,,,*58
$GNTXT,01,01,01,More than 100 frame errors, UART RX was disabled*70
b0X9:"=C'"
"
?&Rl ,k&W
I{4"V_F:R 
Y
pA
GXH JK AL1OMNV
hW<XMbr(w$GNRMC,060309.00,A,0420.03355,S,05539.69223,E,0.024,,230525,,,D*7F
$GNVTG,,T,,M,0.024,N,0.044,K,D*3E
$GNGNS,060309.00,0420.03355,S,05539.69223,E,DA,16,0.71,19.8,-47.6,,0000*65
$GNGGA,060309.00,0420.03355,S,05539.69223,E,2,12,0.71,19.8,M,-47.6,M,,0000*4D
$GNGSA,A,3,24,20,05,13,15,12,18,25,23,40,,,1.27,0.71,1.05*15
$GNGSA,A,3,86,74,75,71,72,76,,,,,,,1.27,0.71,1.05*17
$GPGSV,4,1,16,05,57,058,31,12,61,028,34,13,15,127,30,15,34,160,39*75
$GPGSV,4,2,16,18,34,266,20,20,24,038,25,22,00,138,24,23,27,206,23*73
$GPGSV,4,3,16,24,44,194,32,25,38,343,16,29,10,329,,36,52,277,*7F
$GPGSV,4,4,16,40,86,351,34,41,58,082,,49,32,274,,50,10,089,*7E
$GLGSV,3,1,11,65,10,196,21,71,18,088,21,72,29,141,19,74,13,154,08*6F
$GLGSV,3,2,11,75,65,154,32,76,49,335,31,77,04,334,,86,11,360,10*65
$GLGSV,3,3,11,87,22,316,,88,09,258,,,,,21*6B
$GNGLL,0420.03355,S,05539.69223,E,060309.00,A,D*63
$GNGRS,060309.00,1,-1.5,-2.7,-0.6,0.2,-0.6,-1.9,-4.5,-10.2,1.1,179,,*59
$GNGRS,060309.00,1,10.0,7.4,1.3,4.2,-7.4,-3.0,,,,,,*6A
$GNGST,060309.00,4205788,,,,2.4,4.6,7.8*7A
$GNZDA,060309.00,23,05,2025,00,00*75
$GNGBS,060309.00,2.4,4.6,7.8,,,,*58
$GNTXT,01,01,01,More than 100 frame errors, UART RX was disabled*70
b0X9:"='"
"
&\ ,d&W
I{4"V_F:R 
Y
pA
GXHJK AkL1OrMNVh"W<Xbr
w$GNRMC,060310.00,A,0420.03355,S,05539.69225,E,0.021,,230525,,,D*74
$GNVTG,,T,,M,0.021,N,0.039,K,D*31
$GNGNS,060310.00,0420.03355,S,05539.69225,E,DA,16,0.78,19.8,-47.6,,0000*62
$GNGGA,060310.00,0420.03355,S,05539.69225,E,2,12,0.78,19.8,M,-47.6,M,,0000*4A
$GNGSA,A,3,24,20,05,13,15,12,18,25,23,40,,,1.53,0.78,1.32*1B
$GNGSA,A,3,86,74,75,71,72,76,,,,,,,1.53,0.78,1.32*19
$GPGSV,4,1,16,05,57,058,31,12,61,028,34,13,15,127,30,15,34,160,39*75
$GPGSV,4,2,16,18,34,266,20,20,24,038,24,22,00,138,22,23,27,206,23*74
$GPGSV,4,3,16,24,44,194,32,25,38,343,15,29,10,329,,36,52,277,*7C
$GPGSV,4,4,16,40,86,351,34,41,58,082,,49,32,274,,50,10,089,*7E
$GLGSV,3,1,11,65,10,196,21,71,18,088,21,72,29,141,18,74,13,154,09*6F
$GLGSV,3,2,11,75,65,154,32,76,49,335,31,77,04,334,,86,11,360,11*64
$GLGSV,3,3,11,87,22,316,,88,09,258,,,,,21*6B
$GNGLL,0420.03355,S,05539.69225,E,060310.00,A,D*6D
$GNGRS,060310.00,1,-1.6,-2.9,-2.4,1.8,-0.3,0.0,-5.4,-10.1,0.9,179,,*7D
$GNGRS,060310.00,1,88.5,40.2,1.1,5.0,-5.7,-1.4,,,,,,*55
$GNGST,060310.00,1096,,,,2.4,4.6,7.8*48
$GNZDA,060310.00,23,05,2025,00,00*7D
$GNGBS,060310.00,2.4,4.6,7.8,,,,*50
$GNTXT,01,01,01,More than 100 frame errors, UART RX was disabled*70
b0Xh9:"=\'"
"
I&!,p&W
I{4"V_F:R 
Y
pA
GXyHJ
K!A`L1OMNVhW<X-$bhrwU$GNRMC,060311.00,A,0420.03362,S,05539.69233,E,0.124,,230525,,,D*72
$GNVTG,,T,,M,0.124,N,0.229,K,D*36
$GNGNS,060311.00,0420.03362,S,05539.69233,E,DA,16,0.71,20.1,-47.6,,0000*6A
$GNGGA,060311.00,0420.03362,S,05539.69233,E,2,12,0.71,20.1,M,-47.6,M,,0000*42
$GNGSA,A,3,24,20,05,13,15,12,18,25,23,40,,,1.27,0.71,1.05*15
$GNGSA,A,3,86,74,75,71,72,76,,,,,,,1.27,0.71,1.05*17
$GPGSV,4,1,16,05,57,058,30,12,61,028,34,13,15,127,30,15,34,160,39*74
$GPGSV,4,2,16,18,34,266,21,20,24,038,24,22,00,138,21,23,27,206,23*76
$GPGSV,4,3,16,24,44,194,33,25,38,343,15,29,10,329,,36,52,277,*7D
$GPGSV,4,4,16,40,86,351,34,41,58,082,,49,32,274,,50,10,089,*7E
$GLGSV,3,1,11,65,10,196,21,71,18,088,20,72,29,141,17,74,13,154,10*69
$GLGSV,3,2,11,75,65,154,33,76,49,335,31,77,04,334,,86,11,360,09*6C
$GLGSV,3,3,11,87,22,316,,88,09,258,,,,,22*68
$GNGLL,0420.03362,S,05539.69233,E,060311.00,A,D*6F
$GNGRS,060311.00,1,-1.4,-3.3,-0.6,1.4,-0.4,-1.6,-4.4,-11.5,1.9,179,,*51
$GNGRS,060311.00,1,10.2,7.6,1.0,3.8,-8.4,-5.9,,,,,,*6D
$GNGST,060311.00,2974431,,,,2.4,4.6,7.8*79
$GNZDA,060311.00,23,05,2025,00,00*7C
$GNGBS,060311.00,2.4,4.6,7.8,,,,*51
$GNTXT,01,01,01,More than 100 frame errors, UART RX was disabled*70
b0X89:"='"
"
&"!,&W
I{4"V_;F:R 
Y

pA
GXH9J
K!ATL1OMNVhW<X(b8rwt%$GNRMC,060313.00,A,0420.03363,S,05539.69233,E,0.051,,230525,,,D*72
$GNVTG,,T,,M,0.051,N,0.094,K,D*31
$GNGNS,060313.00,0420.03363,S,05539.69233,E,DA,15,0.77,20.3,-47.6,,0000*6E
$GNGGA,060313.00,0420.03363,S,05539.69233,E,2,12,0.77,20.3,M,-47.6,M,,0000*45
$GNGSA,A,3,24,20,05,13,15,12,18,25,23,40,,,1.47,0.77,1.26*14
$GNGSA,A,3,74,75,71,72,76,,,,,,,,1.47,0.77,1.26*18
$GPGSV,4,1,16,05,57,058,31,12,61,028,34,13,15,127,31,15,34,160,39*74
$GPGSV,4,2,16,18,34,266,21,20,24,038,24,22,00,138,20,23,27,206,22*76
$GPGSV,4,3,16,24,44,194,33,25,38,343,15,29,10,329,,36,52,277,*7D
$GPGSV,4,4,16,40,86,351,34,41,58,082,,49,32,274,,50,10,089,*7E
$GLGSV,3,1,11,65,10,196,20,71,18,088,20,72,29,141,22,74,13,154,10*6E
$GLGSV,3,2,11,75,65,154,33,76,49,335,31,77,04,334,,86,11,360,06*63
$GLGSV,3,3,11,87,22,316,,88,09,258,,,,,21*6B
$GNGLL,0420.03363,S,05539.69233,E,060313.00,A,D*6C
$GNGRS,060313.00,1,-1.0,-3.8,-0.6,2.2,-0.9,-0.6,-3.8,-13.9,-0.3,180,,*70
$GNGRS,060313.00,1,-18.5,0.8,4.9,-9.7,2.3,,,,,,,*4F
$GNGST,060313.00,1059,,,,2.4,4.5,7.8*4B
$GNZDA,060313.00,23,05,2025,00,00*7E
$GNGBS,060313.00,2.4,4.5,7.8,,,,*50
$GNTXT,01,01,01,More than 100 frame errors, UART RX was disabled*70
b0X 9:O"='"
"
q&3)!,T&W
I{4"V_9F:R 
Y
p\A
GXHJK!AaL1OsMNVhW<Xb rwL$GNRMC,060314.00,A,0420.03365,S,05539.69233,E,0.089,,230525,,,D*76
$GNVTG,,T,,M,0.089,N,0.164,K,D*3A
$GNGNS,060314.00,0420.03365,S,05539.69233,E,DA,16,0.69,20.3,-47.6,,0000*63
$GNGGA,060314.00,0420.03365,S,05539.69233,E,2,12,0.69,20.3,M,-47.6,M,,0000*4B
$GNGSA,A,3,24,20,05,13,15,12,18,25,23,40,,,1.24,0.69,1.02*18
$GNGSA,A,3,86,74,75,71,72,76,,,,,,,1.24,0.69,1.02*1A
$GPGSV,4,1,16,05,57,058,31,12,61,028,34,13,15,127,30,15,34,160,39*75
$GPGSV,4,2,16,18,34,266,20,20,24,038,24,22,00,138,21,23,27,206,22*76
$GPGSV,4,3,16,24,44,194,33,25,38,343,15,29,10,329,,36,52,277,*7D
$GPGSV,4,4,16,40,86,351,34,41,58,082,,49,32,274,,50,10,089,*7E
$GLGSV,3,1,11,65,10,196,21,71,18,088,21,72,29,141,22,74,13,154,09*66
$GLGSV,3,2,11,75,65,154,33,76,49,335,31,77,04,334,,86,11,360,09*6C
$GLGSV,3,3,11,87,22,316,,88,09,258,,,,,21*6B
$GNGLL,0420.03365,S,05539.69233,E,060314.00,A,D*6D
$GNGRS,060314.00,1,-1.7,-2.0,-4.3,1.8,-0.4,-0.9,-4.0,-14.0,-2.1,180,,*72
$GNGRS,060314.00,1,10.0,7.5,1.0,7.3,-11.0,1.2,,,,,,*78
$GNGST,060314.00,2885148,,,,2.4,4.5,7.8*7B
$GNZDA,060314.00,23,05,2025,00,00*79
$GNGBS,060314.00,2.4,4.5,7.8,,,,*57
b0X 9:"='"
"
[&ls!,&W
I{4"V_9F:R 
Y
p@A
GX;HHJK!ApL1O2MNVhW<Xbrw$$GNRMC,060315.00,A,0420.03367,S,05539.69236,E,0.063,,230525,,,D*74
$GNVTG,,T,,M,0.063,N,0.118,K,D*35
$GNGNS,060315.00,0420.03367,S,05539.69236,E,DA,16,0.69,20.4,-47.6,,0000*62
$GNGGA,060315.00,0420.03367,S,05539.69236,E,2,12,0.69,20.4,M,-47.6,M,,0000*4A
$GNGSA,A,3,24,20,05,13,15,12,18,25,23,40,,,1.24,0.69,1.02*18
$GNGSA,A,3,86,74,75,71,72,76,,,,,,,1.24,0.69,1.02*1A
$GPGSV,4,1,16,05,57,058,32,12,61,028,34,13,15,127,30,15,34,160,39*76
$GPGSV,4,2,16,18,34,266,21,20,24,038,25,22,00,138,23,23,27,206,20*76
$GPGSV,4,3,16,24,44,194,33,25,38,343,14,29,10,329,,36,52,277,*7C
$GPGSV,4,4,16,40,86,351,34,41,58,082,,49,32,274,,50,10,089,*7E
$GLGSV,3,1,11,65,10,196,21,71,18,088,21,72,29,141,21,74,13,154,09*65
$GLGSV,3,2,11,75,65,154,33,76,49,335,31,77,04,334,,86,11,360,09*6C
$GLGSV,3,3,11,87,22,316,,88,09,258,,,,,22*68
$GNGLL,0420.03367,S,05539.69236,E,060315.00,A,D*6B
$GNGRS,060315.00,1,-0.8,-4.0,-2.3,1.9,-0.3,-0.4,-4.2,-15.9,-1.4,180,,*7A
$GNGRS,060315.00,1,9.9,7.3,1.1,5.7,-12.1,0.5,,,,,,*4D
$GNGST,060315.00,2885150,,,,2.4,4.5,7.7*7C
$GNZDA,060315.00,23,05,2025,00,00*78
$GNGBS,060315.00,2.4,4.5,7.7,,,,*59
$GNTXT,01,01,01,More than 100 frame errors, UART RX was disabled*70
b0X9:R"='"
"
& ,i&W
I{4"V_@F:R 
Y
pA
GXH`J
:K"AbL1OMNV
hUW<Xbr!wN$GNRMC,060316.00,A,0420.03368,S,05539.69242,E,0.222,,230525,,,D*7C
$GNVTG,,T,,M,0.222,N,0.411,K,D*3E
$GNGNS,060316.00,0420.03368,S,05539.69242,E,DA,16,0.77,20.6,-47.6,,0000*60
$GNGGA,060316.00,0420.03368,S,05539.69242,E,2,12,0.77,20.6,M,-47.6,M,,0000*48
$GNGSA,A,3,24,20,05,13,15,12,18,25,23,40,,,1.47,0.77,1.25*17
$GNGSA,A,3,86,74,75,71,72,76,,,,,,,1.47,0.77,1.25*15
$GPGSV,4,1,16,05,57,058,31,12,61,028,34,13,15,127,29,15,34,160,39*7D
$GPGSV,4,2,16,18,34,266,21,20,24,038,25,22,00,138,26,23,27,206,19*79
$GPGSV,4,3,16,24,44,194,32,25,38,343,12,29,10,329,,36,52,277,*7B
$GPGSV,4,4,16,40,86,351,34,41,58,082,,49,32,274,,50,10,089,*7E
$GLGSV,3,1,11,65,10,196,21,71,18,088,21,72,29,141,20,74,13,154,10*6C
$GLGSV,3,2,11,75,65,154,34,76,49,335,31,77,04,334,,86,11,360,10*63
$GLGSV,3,3,11,87,22,316,,88,09,258,,,,,22*68
$GNGLL,0420.03368,S,05539.69242,E,060316.00,A,D*64
$GNGRS,060316.00,1,1.1,-2.6,0.8,1.8,-0.2,-0.7,-6.4,-16.1,-1.1,180,,*71
$GNGRS,060316.00,1,-37.5,-68.5,1.0,4.6,-14.4,2.2,,,,,,*47
$GNGST,060316.00,1059,,,,2.4,4.5,7.7*41
$GNZDA,060316.00,23,05,2025,00,00*7B
$GNGBS,060316.00,2.4,4.5,7.7,,,,*5A
$GNTXT,01,01,01,More than 100 frame errors, UART RX was disabled*70
b0X9:4"='"
"
I&|!,&W&
I{4!V_>F:R 
Y
pA
GX HJK!AmL 1ORMNVhW<Xabrh%w$GNRMC,060317.00,A,0420.03369,S,05539.69243,E,0.071,,230525,,,D*79
$GNVTG,,T,,M,0.071,N,0.131,K,D*3D
$GNGNS,060317.00,0420.03369,S,05539.69243,E,DA,16,0.69,20.5,-47.6,,0000*6D
$GNGGA,060317.00,0420.03369,S,05539.69243,E,2,12,0.69,20.5,M,-47.6,M,,0000*45
$GNGSA,A,3,24,20,05,13,15,12,18,25,23,40,,,1.24,0.69,1.02*18
$GNGSA,A,3,86,74,75,71,72,76,,,,,,,1.24,0.69,1.02*1A
$GPGSV,4,1,16,05,57,058,31,12,61,028,34,13,15,127,28,15,34,160,39*7C
$GPGSV,4,2,16,18,34,266,22,20,24,038,24,22,00,138,27,23,27,206,19*7A
$GPGSV,4,3,16,24,44,194,33,25,38,343,13,29,10,329,,36,52,277,*7B
$GPGSV,4,4,16,40,86,351,33,41,58,082,,49,32,274,,50,10,089,*79
$GLGSV,3,1,11,65,10,196,21,71,18,088,21,72,29,141,21,74,13,154,13*6E
$GLGSV,3,2,11,75,65,154,33,76,49,335,32,77,04,334,,86,11,360,09*6F
$GLGSV,3,3,11,87,22,316,,88,09,258,,,,,23*69
$GNGLL,0420.03369,S,05539.69243,E,060317.00,A,D*65
$GNGRS,060317.00,1,-0.2,-0.3,-2.0,0.2,-0.1,-0.7,-7.0,-15.0,-1.3,180,,*72
$GNGRS,060317.00,1,9.9,7.5,1.1,5.4,-13.9,0.8,,,,,,*4E
$GNGST,060317.00,2885241,,,,2.4,4.4,7.7*7C
$GNZDA,060317.00,23,05,2025,00,00*7A
$GNGBS,060317.00,2.4,4.4,7.7,,,,*5A
$GNTXT,01,01,01,More than 100 frame errors, UART RX was disabled*70
$GPGSV,4,4,16,40,86,351,33,41,58,082,,49,32,274,,50,10,089,*79
$GLGSV,3,1,11,65,10,196,19,71,18,088,20,72,29,141,21,74,13,154,11*66
$GLGSV,3,2,11,75,65,154,31,76,49,335,30,77,04,334,,86,11,360,10*67
$GLGSV,3,3,11,87,22,316,,88,09,258,,,,,22*68
$GNGLL,0420.03370,S,05539.69251,E,060318.00,A,D*61
$GNGRS,060318.00,1,-2.1,-0.7,-0.7,0.3,-0.1,-0.6,-7.2,-15.7,0.0,180,,*57
$GNGRS,060318.00,1,9.9,7.5,0.2,5.6,-13.1,0.8,,,,,,*49
$GNGST,060318.00,2885358,,,,2.4,4.4,7.7*7A
$GNZDA,060318.00,23,05,2025,00,00*75
$GNGBS,060318.00,2.4,4.4,7.7,,,,*55
$GNTXT,01,01,01,More than 100 frame errors, UART RX was disabled*70
$GNTXT,01,01,01,More than 100 frame errors, UART RX was disabled*70
$GPGSV,4,2,16,18,34,266,21,20,24,038,24,22,00,138,27,23,27,206,21*72
$GPGSV,4,3,16,24,44,194,33,25,38,343,12,29,10,329,,36,52,277,*7A
$GPGSV,4,4,16,40,86,351,34,41,58,082,,49,32,274,,50,10,089,*7E
$GLGSV,3,1,11,65,10,196,18,71,18,088,21,72,29,141,22,74,13,154,09*6C
$GLGSV,3,2,11,75,65,154,31,76,49,335,30,77,04,334,,86,11,360,09*6F
$GLGSV,3,3,11,87,22,316,,88,09,258,,,,,19*60
$GNGLL,0420.03373,S,05539.69257,E,060320.00,A,D*6F
$GNGRS,060320.00,1,1.4,1.0,0.0,2.9,-0.5,-0.3,-8.1,-18.0,0.7,180,,*7E
$GNGRS,060320.00,1,10.1,7.5,-1.2,6.2,-13.4,-1.8,,,,,,*70
$GNGST,060320.00,4232,,,,2.4,4.4,7.7*4F
$GNZDA,060320.00,23,05,2025,00,00*7E
$GNGBS,060320.00,2.4,4.4,7.7,,,,*5E
b0X`9:#='"
"
&(=,&W
I{4#V_%F:R 
Y
p0A
GXHJ!K!AL1OMNVhyW<XWb`r8w
$GNRMC,060322.00,A,0420.03370,S,05539.69266,E,0.294,,230525,,,D*79
$GNVTG,,T,,M,0.294,N,0.545,K,D*33
$GNGNS,060322.00,0420.03370,S,05539.69266,E,DA,16,0.76,20.7,-47.6,,0000*68
$GNGGA,060322.00,0420.03370,S,05539.69266,E,2,12,0.76,20.7,M,-47.6,M,,0000*40
$GNGSA,A,3,24,20,05,13,15,12,18,25,23,40,,,1.43,0.76,1.21*16
$GNGSA,A,3,86,74,75,71,72,76,,,,,,,1.43,0.76,1.21*14
$GPGSV,4,1,16,05,57,058,30,12,61,028,35,13,15,127,30,15,34,160,39*75
$GPGSV,4,2,16,18,34,266,22,20,24,038,22,22,00,138,28,23,27,206,20*79
$GPGSV,4,3,16,24,44,194,31,25,38,343,15,29,10,329,,36,52,277,*7F
$GPGSV,4,4,16,40,86,351,35,41,58,082,,49,32,274,,50,10,089,*7F
$GLGSV,3,1,11,65,10,196,18,71,18,088,21,72,29,141,21,74,13,154,13*64
$GLGSV,3,2,11,75,65,154,33,76,49,335,31,77,04,334,,86,11,360,08*6D
$GLGSV,3,3,11,87,22,316,,88,09,258,,,,,20*6A
$GNGRS,060322.00,1,2.5,-0.9,-0.3,0.1,-0.6,-0.4,-3.4,-16.0,0.6,180,,*7A
$GNGRS,060322.00,1,-137,18.2,0.2,5.4,-13.1,-1.0,,,,,,*69
$GNGST,060322.00,1026,,,,2.4,4.4,7.7*4F
$GNZDA,060322.00,23,05,2025,00,00*7C
$GNGBS,060322.00,2.4,4.4,7.7,,,,*5C
$GNTXT,01,01,01,More than 100 frame errors, UART RX was disabled*70
b0XH9:#=a&"
"
~&u ,*&W_
I{4"V_&F:R 
Y
puA
GXHJK AL1OFMNV
hW<XHCbHr<w#$GNRMC,060323.00,A,0420.03371,S,05539.69266,E,0.057,,230525,,,D*74
$GNVTG,,T,,M,0.057,N,0.105,K,D*3E
$GNGNS,060323.00,0420.03371,S,05539.69266,E,DA,16,0.69,20.7,-47.6,,0000*66
$GNGGA,060323.00,0420.03371,S,05539.69266,E,2,12,0.69,20.7,M,-47.6,M,,0000*4E
$GNGSA,A,3,24,20,05,13,15,12,18,25,23,40,,,1.24,0.69,1.02*18
$GNGSA,A,3,86,74,75,71,72,76,,,,,,,1.24,0.69,1.02*1A
$GPGSV,4,1,16,05,57,058,30,12,61,028,35,13,15,127,29,15,34,160,38*7C
$GPGSV,4,2,16,18,34,266,21,20,24,038,22,22,00,138,25,23,27,206,20*77
$GPGSV,4,3,16,24,44,194,32,25,38,343,15,29,10,329,,36,52,277,*7C
$GPGSV,4,4,16,40,86,351,34,41,58,082,,49,32,274,,50,10,089,*7E
$GLGSV,3,1,11,65,10,196,17,71,18,088,22,72,29,141,21,74,13,154,08*62
$GLGSV,3,2,11,75,65,154,32,76,49,335,30,77,04,334,,86,11,360,10*64
$GLGSV,3,3,11,87,22,316,,88,09,258,,,,,20*6A
$GNGLL,0420.03371,S,05539.69266,E,060323.00,A,D*6C
$GNGRS,060323.00,1,0.4,-0.2,2.2,1.8,-0.7,-1.6,-3.9,-14.4,-0.1,180,,*76
$GNGRS,060323.00,1,10.0,7.7,-0.8,4.7,-12.9,3.3,,,,,,*54
$GNGST,060323.00,110562,,,,2.4,4.4,7.8*45
$GNZDA,060323.00,23,05,2025,00,00*7D
b0X09:L#=&"
"
s&R!X,5&W0
I{4#V_)F:R 
Y
pA
GX2HJK AL1OMNVhW<XCb0r@w$GNRMC,060324.00,A,0420.03368,S,05539.69267,E,0.067,,230525,,,D*79
$GNVTG,,T,,M,0.067,N,0.123,K,D*39
$GNGNS,060324.00,0420.03368,S,05539.69267,E,DA,16,0.69,20.8,-47.6,,0000*67
$GNGGA,060324.00,0420.03368,S,05539.69267,E,2,12,0.69,20.8,M,-47.6,M,,0000*4F
$GNGSA,A,3,24,20,05,13,15,12,18,25,23,40,,,1.24,0.69,1.02*18
$GNGSA,A,3,86,74,75,71,72,76,,,,,,,1.24,0.69,1.02*1A
$GPGSV,4,1,16,05,57,058,29,12,61,028,35,13,15,127,29,15,34,160,38*74
$GPGSV,4,2,16,18,34,266,21,20,24,038,24,22,00,138,21,23,27,206,22*77
$GPGSV,4,3,16,24,44,194,31,25,38,343,17,29,10,329,,36,52,277,*7D
$GPGSV,4,4,16,40,86,351,35,41,58,082,,49,32,274,,50,10,089,*7F
$GLGSV,3,1,11,65,10,196,17,71,18,088,22,72,29,141,21,74,13,154,09*63
$GLGSV,3,2,11,75,65,154,32,76,49,335,31,77,04,334,,86,11,360,09*6D
$GLGSV,3,3,11,87,22,316,,88,09,258,,,,,20*6A
$GNGLL,0420.03368,S,05539.69267,E,060324.00,A,D*62
$GNGRS,060324.00,1,0.5,-1.7,3.3,4.8,-0.6,2.1,-4.0,-12.3,-1.7,180,,*51
$GNGRS,060324.00,1,9.8,7.7,-0.8,5.6,-13.5,2.6,,,,,,*6A
$GNGST,060324.00,162933,,,,2.4,4.4,7.8*4F
$GNZDA,060324.00,23,05,2025,00,00*7A
$GNGBS,060324.00,2.4,4.4,7.8,,,,*55
$GNTXT,01,01,01,More than 100 frame errors, UART RX was disabled*70
$GPGSV,4,1,16,05,57,058,29,12,61,028,35,13,15,127,29,15,34,160,38*74
$GPGSV,4,2,16,18,34,266,20,20,24,038,24,22,00,138,21,23,27,206,22*76
$GPGSV,4,3,16,24,44,194,31,25,38,343,16,29,10,329,,36,52,277,*7C
$GPGSV,4,4,16,40,86,351,35,41,58,082,,49,32,274,,50,10,089,*7F
$GLGSV,3,1,11,65,10,196,17,71,18,088,22,72,29,141,22,74,13,154,07*6E
$GLGSV,3,2,11,75,65,154,32,76,49,335,30,77,04,334,,86,11,360,10*64
$GLGSV,3,3,11,87,22,316,,88,09,258,,,,,23*69
$GNGLL,0420.03369,S,05539.69274,E,060325.00,A,D*60
$GNGRS,060325.00,1,-2.5,-2.9,2.0,1.2,-0.8,1.2,-4.3,-11.9,1.2,180,,*53
$GNGRS,060325.00,1,-64.3,1.2,6.0,-13.1,-0.7,,,,,,,*51
$GNGST,060325.00,1059,,,,2.4,4.4,7.8*4F
$GNZDA,060325.00,23,05,2025,00,00*7B
$GNGBS,060325.00,2.4,4.4,7.8,,,,*54
$GNTXT,01,01,01,More than 100 frame errors, UART RX was disabled*70
b0X9:#=&"
"
=&1|#,R&W#
I{4"V_5F:R 
Y
pNA
GXiHJK AL1O-MNVhW<XrEbrHwj[$GNRMC,060326.00,A,0420.03368,S,05539.69278,E,0.079,,230525,,,D*7A
$GNVTG,,T,,M,0.079,N,0.146,K,D*35
$GNGNS,060326.00,0420.03368,S,05539.69278,E,DA,16,0.69,21.0,-47.6,,0000*62
$GNGGA,060326.00,0420.03368,S,05539.69278,E,2,12,0.69,21.0,M,-47.6,M,,0000*4A
$GNGSA,A,3,24,20,05,13,15,12,18,25,23,40,,,1.24,0.69,1.02*18
$GNGSA,A,3,86,74,75,71,72,76,,,,,,,1.24,0.69,1.02*1A
$GPGSV,4,1,16,05,57,058,28,12,61,028,35,13,15,127,29,15,34,160,38*75
$GPGSV,4,2,16,18,34,266,21,20,24,038,23,22,00,138,19,23,27,206,23*7A
$GPGSV,4,3,16,24,44,194,30,25,38,343,16,29,10,329,,36,52,277,*7D
$GPGSV,4,4,16,40,86,351,34,41,58,082,,49,32,274,,50,10,089,*7E
$GLGSV,3,1,11,65,10,196,18,71,18,088,21,72,29,141,22,74,13,154,11*65
$GLGSV,3,2,11,75,65,154,32,76,49,335,30,77,04,334,,86,11,360,12*66
$GLGSV,3,3,11,87,22,316,,88,09,258,,,,,24*6E
$GNGLL,0420.03368,S,05539.69278,E,060326.00,A,D*6E
$GNGRS,060326.00,1,-1.7,-4.6,4.3,4.6,-0.4,-1.0,-7.1,-12.5,0.3,180,,*71
$GNGRS,060326.00,1,9.9,7.5,1.6,6.2,-13.6,3.0,,,,,,*4A
$GNGST,060326.00,2885153,,,,2.4,4.4,7.8*71
$GNZDA,060326.00,23,05,2025,00,00*78
$GNGBS,060326.00,2.4,4.4,7.8,,,,*57
$GNTXT,01,01,01,More than 100 frame errors, UART RX was disabled*70
b0X9:#=&"
"
k&_,;&W
I{4#V_HF:R 
Y
pA
GXPHJ
KAL1OMNVhW<X?brxLwA$GNRMC,060327.00,A,0420.03367,S,05539.69276,E,0.007,,230525,,,D*73
$GNVTG,,T,,M,0.007,N,0.013,K,D*3D
$GNGNS,060327.00,0420.03367,S,05539.69276,E,DA,16,0.69,20.9,-47.6,,0000*6A
$GNGGA,060327.00,0420.03367,S,05539.69276,E,2,12,0.69,20.9,M,-47.6,M,,0000*42
$GNGSA,A,3,24,20,05,13,15,12,18,25,23,40,,,1.24,0.69,1.02*18
$GNGSA,A,3,86,74,75,71,72,76,,,,,,,1.24,0.69,1.02*1A
$GPGSV,4,1,16,05,57,058,28,12,61,028,35,13,15,127,29,15,34,160,38*75
$GPGSV,4,2,16,18,34,266,21,20,24,038,24,22,00,138,19,23,27,206,23*7D
$GPGSV,4,3,16,24,44,194,30,25,38,343,15,29,10,329,,36,52,277,*7E
$GPGSV,4,4,16,40,86,351,35,41,58,082,,49,32,274,,50,10,089,*7F
$GLGSV,3,1,11,65,10,196,18,71,18,088,20,72,29,141,23,74,13,154,10*64
$GLGSV,3,2,11,75,65,154,31,76,49,335,30,77,04,334,,86,11,360,09*6F
$GLGSV,3,3,11,87,22,316,,88,09,258,,,,,23*69
$GNGLL,0420.03367,S,05539.69276,E,060327.00,A,D*6E
$GNGRS,060327.00,1,-2.0,-3.5,4.7,-0.3,-0.5,-2.3,-6.6,-12.6,-0.4,180,,*76
$GNGRS,060327.00,1,9.7,7.2,-0.3,5.9,-13.1,4.6,,,,,,*65
$GNGST,060327.00,2885160,,,,2.4,4.4,7.8*70
$GNZDA,060327.00,23,05,2025,00,00*79
$GNGBS,060327.00,2.4,4.4,7.8,,,,*56
b0X9:#=7&"
"
&,&W|
I{4#V_QF:R 
Y
pA
GXfHJ
'KAL1OMNV
hW<X4qbr`Pw$GNRMC,060328.00,A,0420.03367,S,05539.69274,E,0.035,,230525,,,D*7F
$GNVTG,,T,,M,0.035,N,0.065,K,D*3D
$GNGNS,060328.00,0420.03367,S,05539.69274,E,DA,16,0.71,20.9,-47.6,,0000*6E
$GNGGA,060328.00,0420.03367,S,05539.69274,E,2,12,0.71,20.9,M,-47.6,M,,0000*46
$GNGSA,A,3,24,20,05,13,15,12,18,25,23,40,,,1.28,0.71,1.06*19
$GNGSA,A,3,86,74,75,71,72,76,,,,,,,1.28,0.71,1.06*1B
$GPGSV,4,1,16,05,57,058,29,12,61,028,35,13,15,127,29,15,34,160,38*74
$GPGSV,4,2,16,18,34,266,21,20,24,038,23,22,00,138,18,23,27,206,22*7A
$GPGSV,4,3,16,24,44,194,30,25,38,343,13,29,10,329,,36,52,277,*78
$GPGSV,4,4,16,40,86,351,35,41,58,082,,49,32,274,,50,10,089,*7F
$GLGSV,3,1,11,65,10,196,17,71,18,088,19,72,29,141,23,74,13,154,10*61
$GLGSV,3,2,11,75,65,154,31,76,49,335,31,77,04,334,,86,11,360,10*66
$GLGSV,3,3,11,87,22,316,,88,09,258,,,,,23*69
$GNGLL,0420.03367,S,05539.69274,E,060328.00,A,D*63
$GNGRS,060328.00,1,-2.3,-3.7,1.8,0.5,-0.2,-2.3,-5.0,-11.6,-1.2,180,,*5F
$GNGRS,060328.00,1,-9.9,102,-0.1,8.7,-15.2,4.5,,,,,,*56
$GNGST,060328.00,1026,,,,2.4,4.4,7.8*4A
$GNZDA,060328.00,23,05,2025,00,00*76
$GNGBS,060328.00,2.4,4.4,7.8,,,,*59
$GNTXT,01,01,01,More than 100 frame errors, UART RX was disabled*70
b0X9:6#=f&"
"
&, &WM
I{4"V_CF:R 
Y
pA
GXHoJKAL1OMNVhW<XbrHTw$GNRMC,060329.00,A,0420.03368,S,05539.69274,E,0.100,,230525,,,D*76
$GNVTG,,T,,M,0.100,N,0.186,K,D*36
$GNGNS,060329.00,0420.03368,S,05539.69274,E,DA,16,0.69,20.9,-47.6,,0000*69
$GNGGA,060329.00,0420.03368,S,05539.69274,E,2,12,0.69,20.9,M,-47.6,M,,0000*41
$GNGSA,A,3,24,20,05,13,15,12,18,25,23,40,,,1.24,0.69,1.02*18
$GNGSA,A,3,86,74,75,71,72,76,,,,,,,1.24,0.69,1.02*1A
$GPGSV,4,1,16,05,57,058,29,12,61,028,35,13,15,127,29,15,34,160,38*74
$GPGSV,4,2,16,18,34,266,20,20,24,038,23,22,00,138,20,23,27,206,22*70
$GPGSV,4,3,16,24,44,194,30,25,38,343,13,29,10,329,,36,52,277,*78
$GPGSV,4,4,16,40,86,351,34,41,58,082,,49,32,274,,50,10,089,*7E
$GLGSV,3,1,11,65,10,196,16,71,18,088,20,72,29,141,23,74,13,154,08*63
$GLGSV,3,2,11,75,65,154,30,76,49,335,31,77,04,334,,86,11,360,08*6E
$GLGSV,3,3,11,87,22,316,,88,09,258,,,,,23*69
$GNGLL,0420.03368,S,05539.69274,E,060329.00,A,D*6D
$GNGRS,060329.00,1,-2.2,-3.6,0.5,1.5,-0.2,-1.5,-6.0,-12.0,-2.9,180,,*58
$GNGRS,060329.00,1,10.2,7.7,4.2,9.2,-14.3,2.5,,,,,,*7C
$GNGST,060329.00,4080214,,,,2.4,4.4,7.8*75
$GNZDA,060329.00,23,05,2025,00,00*77
$GNGBS,060329.00,2.4,4.4,7.8,,,,*58
b0X9:{#=&"
"
&3N,&W
I{4#V_SF:R 
Y
pA
GX
HxJKAL1OMNV
hW<Xbr0Xw$GNRMC,060330.00,A,0420.03369,S,05539.69279,E,0.027,,230525,,,D*76
$GNVTG,,T,,M,0.027,N,0.051,K,D*39
$GNGNS,060330.00,0420.03369,S,05539.69279,E,DA,16,0.69,21.0,-47.6,,0000*65
$GNGGA,060330.00,0420.03369,S,05539.69279,E,2,12,0.69,21.0,M,-47.6,M,,0000*4D
$GNGSA,A,3,24,20,05,13,15,12,18,25,23,40,,,1.24,0.69,1.02*18
$GNGSA,A,3,86,74,75,71,72,76,,,,,,,1.24,0.69,1.02*1A
$GPGSV,4,1,16,05,57,058,30,12,61,028,35,13,15,127,29,15,34,160,38*7C
$GPGSV,4,2,16,18,34,266,23,20,24,038,24,22,00,138,21,23,27,206,25*72
$GPGSV,4,3,16,24,44,194,29,25,38,343,14,29,10,329,,36,52,277,*77
$GPGSV,4,4,16,40,86,351,35,41,58,082,,49,32,274,,50,10,089,*7F
$GLGSV,3,1,11,65,10,196,17,71,18,088,21,72,29,141,21,74,13,154,09*60
$GLGSV,3,2,11,75,65,154,30,76,49,335,30,77,04,334,,86,11,360,10*66
$GLGSV,3,3,11,87,22,316,,88,09,258,,,,,25*6F
$GNGLL,0420.03369,S,05539.69279,E,060330.00,A,D*69
$GNGRS,060330.00,1,1.8,-2.1,-1.3,4.5,-0.2,-0.2,-8.2,-10.7,-1.0,180,,*58
$GNGRS,060330.00,1,10.4,7.6,1.3,7.8,-14.2,-3.2,,,,,,*59
$GNGST,060330.00,4080214,,,,2.4,4.3,7.8*7A
$GNZDA,060330.00,23,05,2025,00,00*7F
$GNGBS,060330.00,2.4,4.3,7.8,,,,*57
$GNTXT,01,01,01,More than 100 frame errors, UART RX was disabled*70
b0X9:#=y&"
"
&,&WQ
I{4"V_LF:R 
Y
pSA
GXHJKAL1OMNVhW<X$<br\wT$GNRMC,060331.00,A,0420.03369,S,05539.69283,E,0.126,,230525,,,D*72
$GNVTG,,T,,M,0.126,N,0.233,K,D*3F
$GNGNS,060331.00,0420.03369,S,05539.69283,E,DA,16,0.77,21.1,-47.6,,0000*6F
$GNGGA,060331.00,0420.03369,S,05539.69283,E,2,12,0.77,21.1,M,-47.6,M,,0000*47
$GNGSA,A,3,24,20,05,13,15,12,18,25,23,40,,,1.47,0.77,1.25*17
$GNGSA,A,3,86,74,75,71,72,76,,,,,,,1.47,0.77,1.25*15
$GPGSV,4,1,16,05,57,058,29,12,61,028,35,13,15,127,29,15,34,160,38*74
$GPGSV,4,2,16,18,34,266,23,20,24,038,25,22,00,138,22,23,27,206,26*73
$GPGSV,4,3,16,24,44,194,29,25,38,343,14,29,10,329,,36,52,277,*77
$GPGSV,4,4,16,40,86,351,34,41,58,082,,49,32,274,,50,10,089,*7E
$GLGSV,3,1,11,65,10,196,17,71,18,088,21,72,29,141,18,74,13,154,08*6B
$GLGSV,3,2,11,75,65,154,31,76,49,335,30,77,04,334,,86,11,360,11*66
$GLGSV,3,3,11,87,22,316,,88,09,258,,,,,25*6F
$GNGLL,0420.03369,S,05539.69283,E,060331.00,A,D*6D
$GNGRS,060331.00,1,-2.5,-2.6,2.2,3.8,-0.3,-0.1,-6.2,-9.4,-0.9,180,,*67
$GNGRS,060331.00,1,-136,-59.1,2.3,7.5,-16.2,-3.5,,,,,,*40
$GNGST,060331.00,1059,,,,2.4,4.3,7.8*4D
$GNZDA,060331.00,23,05,2025,00,00*7E
$GNGBS,060331.00,2.4,4.3,7.8,,,,*56
$GNTXT,01,01,01,More than 100 frame errors, UART RX was disabled*70
b0Xp9:@#=@&"
"
m&B),&WA
I{4"V_,F:R 
Y
pCA
GXJHJKAL1OMNVhW<X^bpr`wy$GNRMC,060332.00,A,0420.03371,S,05539.69288,E,0.054,,230525,,,D*77
$GNVTG,,T,,M,0.054,N,0.101,K,D*39
$GNGNS,060332.00,0420.03371,S,05539.69288,E,DA,16,0.69,21.3,-47.6,,0000*63
$GNGGA,060332.00,0420.03371,S,05539.69288,E,2,12,0.69,21.3,M,-47.6,M,,0000*4B
$GNGSA,A,3,24,20,05,13,15,12,18,25,23,40,,,1.24,0.69,1.02*18
$GNGSA,A,3,86,74,75,71,72,76,,,,,,,1.24,0.69,1.02*1A
$GPGSV,4,1,16,05,57,058,29,12,61,028,35,13,15,127,29,15,34,160,38*74
$GPGSV,4,2,16,18,34,266,23,20,24,038,25,22,00,138,21,23,27,206,25*73
$GPGSV,4,3,16,24,44,194,28,25,38,343,13,29,10,329,,36,52,277,*71
$GPGSV,4,4,16,40,86,351,34,41,58,082,,49,32,274,,50,10,089,*7E
$GLGSV,3,1,11,65,10,196,18,71,18,088,20,72,29,141,19,74,13,154,12*6F
$GLGSV,3,2,11,75,65,154,31,76,49,335,30,77,04,334,,86,11,360,11*66
$GLGSV,3,3,11,87,22,316,,88,09,258,,,,,25*6F
$GNGLL,0420.03371,S,05539.69288,E,060332.00,A,D*6C
$GNGRS,060332.00,1,-4.8,-4.5,0.6,3.2,-0.7,-0.1,-6.6,-7.0,-2.1,180,,*66
$GNGRS,060332.00,1,10.3,7.6,1.9,5.9,-16.6,-0.4,,,,,,*56
$GNGST,060332.00,2885148,,,,2.4,4.3,7.8*79
$GNZDA,060332.00,23,05,2025,00,00*7D
$GNGBS,060332.00,2.4,4.3,7.8,,,,*55
b0XX9:)#=w%"
"
f&f,&W
I{4"V_(F:R 
Y
pA
GXHJKAL1O MNVhW<XDbXrcwP!$GNRMC,060333.00,A,0420.03373,S,05539.69296,E,0.058,,230525,,,D*77
$GNVTG,,T,,M,0.058,N,0.107,K,D*33
$GNGNS,060333.00,0420.03373,S,05539.69296,E,DA,16,0.69,21.4,-47.6,,0000*68
$GNGGA,060333.00,0420.03373,S,05539.69296,E,2,12,0.69,21.4,M,-47.6,M,,0000*40
$GNGSA,A,3,24,20,05,13,15,12,18,25,23,40,,,1.24,0.69,1.02*18
$GNGSA,A,3,86,74,75,71,72,76,,,,,,,1.24,0.69,1.02*1A
$GPGSV,4,1,16,05,57,058,29,12,61,028,35,13,15,127,29,15,34,160,37*7B
$GPGSV,4,2,16,18,34,266,22,20,24,038,24,22,00,138,20,23,27,206,23*74
$GPGSV,4,3,16,24,44,194,28,25,38,343,11,29,10,329,,36,52,277,*73
$GPGSV,4,4,16,40,86,351,34,41,58,082,,49,32,274,,50,10,089,*7E
$GLGSV,3,1,11,65,10,196,17,71,18,088,19,72,29,141,20,74,13,154,08*6B
$GLGSV,3,2,11,75,65,154,30,76,49,335,31,77,04,334,,86,11,360,08*6E
$GLGSV,3,3,11,87,22,316,,88,09,258,,,,,24*6E
$GNGLL,0420.03373,S,05539.69296,E,060333.00,A,D*60
$GNGRS,060333.00,1,-5.0,-4.9,0.4,1.2,-0.5,-0.3,-6.7,-5.2,-2.4,180,,*66
$GNGRS,060333.00,1,10.4,7.4,-0.4,4.5,-18.1,-4.8,,,,,,*7F
$GNGST,060333.00,2885150,,,,2.4,4.3,7.8*71
$GNZDA,060333.00,23,05,2025,00,00*7C
$GNGBS,060333.00,2.4,4.3,7.8,,,,*54
$GNTXT,01,01,01,More than 100 frame errors, UART RX was disabled*70
$GNGGA,060335.00,0420.03377,S,05539.69294,E,2,12,0.73,21.6,M,-47.6,M,,0000*49
$GNGSA,A,3,24,20,05,13,15,12,18,23,40,,,,1.29,0.73,1.07*1C
$GNGSA,A,3,86,75,71,72,76,,,,,,,,1.29,0.73,1.07*1A
$GPGSV,4,1,16,05,57,058,29,12,61,028,36,13,15,127,28,15,34,160,38*76
$GPGSV,4,2,16,18,34,266,23,20,24,038,24,22,00,138,19,23,27,206,23*7F
$GPGSV,4,3,16,24,44,194,30,25,38,343,09,29,10,329,,36,52,277,*73
$GPGSV,4,4,16,40,86,351,34,41,58,082,,49,32,274,,50,10,089,*7E
$GLGSV,3,1,11,65,11,195,17,71,18,088,22,72,29,141,21,74,13,154,05*6D
$GLGSV,3,2,11,75,65,154,31,76,49,335,30,77,04,334,,86,11,360,10*67
$GLGSV,3,3,11,87,22,316,,88,09,258,,,,,25*6F
$GNGLL,0420.03377,S,05539.69294,E,060335.00,A,D*60
$GNGRS,060335.00,1,2.4,-4.3,1.6,-0.3,-0.4,-0.5,-6.3,-1.4,180,,,*6E
$GNGRS,060335.00,1,10.1,-1.0,0.0,-17.5,-1.1,,,,,,,*52
$GNGST,060335.00,3272,,,,2.4,4.3,7.8*40
$GNZDA,060335.00,23,05,2025,00,00*7A
$GNGBS,060335.00,2.4,4.3,7.8,,,,*52
b0X9:<$=K&"
"
&l3,&W
I{4#V_9F:R 
Y
pAGXHJb0X9:$=&"
"
&?2.,&W
I{4#V_\F:R 
Y
pAGXH#JKAEL1OcMNVhW<Xbrpww$GNRMC,060338.00,A,0420.03382,S,05539.69279,E,0.015,,230525,,,D*7A
$GNVTG,,T,,M,0.015,N,0.027,K,D*39
$GNGNS,060338.00,0420.03382,S,05539.69279,E,DA,14,0.73,21.6,-47.6,,0000*67
$GNGGA,060338.00,0420.03382,S,05539.69279,E,2,12,0.73,21.6,M,-47.6,M,,0000*4D
$GNGSA,A,3,24,20,05,13,15,12,18,23,40,,,,1.29,0.73,1.07*1C
$GNGSA,A,3,86,75,71,72,76,,,,,,,,1.29,0.73,1.07*1A
$GPGSV,4,1,16,05,57,058,30,12,61,028,36,13,15,127,28,15,34,160,38*7E
$GPGSV,4,2,16,18,34,266,23,20,24,038,23,22,00,138,19,23,27,206,23*78
$GPGSV,4,3,16,24,44,194,30,25,38,343,,29,10,329,,36,52,277,*7A
$GPGSV,4,4,16,40,86,351,35,41,58,082,,49,32,274,,50,10,089,*7F
$GLGSV,3,1,11,65,11,195,13,71,18,088,22,72,29,141,23,74,13,154,07*69
$GLGSV,3,2,11,75,65,154,30,76,49,335,30,77,04,334,,86,11,360,09*6E
$GLGSV,3,3,11,87,22,316,,88,09,258,,,,,25*6F
$GNGLL,0420.03382,S,05539.69279,E,060338.00,A,D*64
$GNGRS,060338.00,1,-3.1,-1.9,-0.9,1.4,-0.1,-1.1,-8.6,0.5,180,,,*6B
$GNGRS,060338.00,1,10.3,0.7,-2.8,-17.6,1.0,,,,,,,*7E
$GNGST,060338.00,3071473,,,,2.4,4.3,7.8*7C
$GNZDA,060338.00,23,05,2025,00,00*77
$GNGBS,060338.00,2.4,4.3,7.8,,,,*5F
$GNTXT,01,01,01,More than 100 frame errors, UART RX was disabled*70
b0X9:#=&"
"
&V,-&W
I{4!V__F:R 
Y
p!AGXHJKAYL1OMNVhW<XbrX{w`$GNRMC,060339.00,A,0420.03385,S,05539.69278,E,0.172,,230525,,,D*7D
$GNVTG,,T,,M,0.172,N,0.319,K,D*37
$GNGNS,060339.00,0420.03385,S,05539.69278,E,DA,15,0.72,21.7,-47.6,,0000*61
$GNGGA,060339.00,0420.03385,S,05539.69278,E,2,12,0.72,21.7,M,-47.6,M,,0000*4A
$GNGSA,A,3,24,20,05,13,15,12,18,23,40,,,,1.25,0.72,1.03*15
$GNGSA,A,3,86,74,75,71,72,76,,,,,,,1.25,0.72,1.03*10
$GPGSV,4,1,16,05,57,058,29,12,61,028,35,13,15,127,29,15,34,160,38*74
$GPGSV,4,2,16,18,34,266,24,20,24,038,22,22,00,138,19,23,27,206,24*79
$GPGSV,4,3,16,24,44,194,29,25,38,343,,29,10,329,,36,52,277,*72
$GPGSV,4,4,16,40,86,351,33,41,58,082,,49,32,274,,50,10,089,*79
$GLGSV,3,1,11,65,11,195,15,71,18,088,22,72,29,141,23,74,13,154,09*61
$GLGSV,3,2,11,75,65,154,30,76,49,335,30,77,04,334,,86,11,360,08*6F
$GLGSV,3,3,11,87,22,316,,88,09,258,,,,,24*6E
$GNGLL,0420.03385,S,05539.69278,E,060339.00,A,D*63
$GNGRS,060339.00,1,-2.1,-1.7,-2.7,0.3,-0.1,-1.1,-10.3,1.5,180,,,*52
$GNGRS,060339.00,1,10.4,7.8,0.9,-3.7,-18.7,-0.8,,,,,,*73
$GNGST,060339.00,4205788,,,,2.4,4.3,7.8*7C
$GNZDA,060339.00,23,05,2025,00,00*76
$GNGBS,060339.00,2.4,4.3,7.8,,,,*5E
$GNTXT,01,01,01,More than 100 frame errors, UART RX was disabled*70
b0X9:c#=%"
"
&tC,&W
I{4!V_NF:R 
Y
pAGXHJKAL1OMNVh,W<X&br@w8$GNRMC,060340.00,A,0420.03383,S,05539.69277,E,0.054,,230525,,,D*7F
$GNVTG,,T,,M,0.054,N,0.101,K,D*39
$GNGNS,060340.00,0420.03383,S,05539.69277,E,DA,15,0.83,21.7,-47.6,,0000*68
$GNGGA,060340.00,0420.03383,S,05539.69277,E,2,12,0.83,21.7,M,-47.6,M,,0000*43
$GNGSA,A,3,24,20,05,13,15,12,18,23,40,,,,1.53,0.83,1.29*12
$GNGSA,A,3,86,74,75,71,72,76,,,,,,,1.53,0.83,1.29*17
$GPGSV,4,1,16,05,57,058,30,12,61,028,35,13,15,127,29,15,34,160,37*73
$GPGSV,4,2,16,18,34,266,24,20,24,038,24,22,00,138,18,23,27,206,25*7F
$GPGSV,4,3,16,24,44,194,29,25,38,343,08,29,10,329,,36,52,277,*7A
$GPGSV,4,4,16,40,86,351,33,41,58,082,,49,32,274,,50,10,089,*79
$GLGSV,3,1,11,65,11,195,14,71,18,088,23,72,29,141,22,74,13,154,08*61
$GLGSV,3,2,11,75,65,154,31,76,49,335,29,77,04,334,,86,11,360,08*66
$GLGSV,3,3,11,87,22,316,,88,09,258,,,,,25*6F
$GNGLL,0420.03383,S,05539.69277,E,060340.00,A,D*64
$GNGRS,060340.00,1,-3.1,-1.4,-1.6,1.6,-0.2,-1.3,-10.5,3.2,180,,,*5A
$GNGRS,060340.00,1,-89.2,-108,-0.2,-2.6,-18.9,2.7,,,,,,*6B
$GNGST,060340.00,1096,,,,2.4,4.2,7.8*49
$GNZDA,060340.00,23,05,2025,00,00*78
$GNGBS,060340.00,2.4,4.2,7.8,,,,*51
b0X9:c#=$"
"
&?,&W
I{4!V_SF:R 
Y
p'AGWHJ
KAL1OMNVhW<X4br(w`$GNRMC,060341.00,A,0420.03383,S,05539.69269,E,0.299,,230525,,,D*72
$GNVTG,,T,,M,0.299,N,0.553,K,D*39
$GNGNS,060341.00,0420.03383,S,05539.69269,E,DA,15,0.72,21.4,-47.6,,0000*6B
$GNGGA,060341.00,0420.03383,S,05539.69269,E,2,12,0.72,21.4,M,-47.6,M,,0000*40
$GNGSA,A,3,24,20,05,13,15,12,18,23,40,,,,1.25,0.72,1.03*15
$GNGSA,A,3,86,74,75,71,72,76,,,,,,,1.25,0.72,1.03*10
$GPGSV,4,1,16,05,57,058,29,12,61,028,35,13,15,127,29,15,34,160,36*7A
$GPGSV,4,2,16,18,34,266,22,20,24,038,23,22,00,138,18,23,27,206,25*7E
$GPGSV,4,3,16,24,44,194,28,25,38,343,09,29,10,329,,36,52,277,*7A
$GPGSV,4,4,16,40,86,351,33,41,58,082,,49,32,274,,50,10,089,*79
$GLGSV,3,1,11,65,11,195,15,71,18,087,23,72,29,141,21,74,13,154,10*65
$GLGSV,3,2,11,75,65,154,30,76,49,335,30,77,04,334,,86,11,360,09*6E
$GLGSV,3,3,11,87,22,316,,88,09,258,,,,,24*6E
$GNGLL,0420.03383,S,05539.69269,E,060341.00,A,D*6A
$GNTXT,01,01,01,More than 100 frame errors, UART RX was disabled*70
b0X9:#=%"
"
K&tA,&W
I{4"V_`F:R 
Y
pAGWHJKAWL1OMNVhW<Xbrw$GNRMC,060342.00,A,0420.03383,S,05539.69271,E,0.071,,230525,,,D*7C
$GNVTG,,T,,M,0.071,N,0.131,K,D*3D
$GNGNS,060342.00,0420.03383,S,05539.69271,E,DA,15,0.72,21.5,-47.6,,0000*60
$GNGGA,060342.00,0420.03383,S,05539.69271,E,2,12,0.72,21.5,M,-47.6,M,,0000*4B
$GNGSA,A,3,24,20,05,13,15,12,18,23,40,,,,1.25,0.72,1.03*15
$GNGSA,A,3,86,74,75,71,72,76,,,,,,,1.25,0.72,1.03*10
$GPGSV,4,1,16,05,57,058,29,12,61,028,35,13,15,127,28,15,34,160,37*7A
$GNTXT,01,01,01,More than 100 frame errors, UART RX was disabled*70
b0Xh9:n#=%"
"
&e,$&W
I{4"V_kF:R 
Y
p8AGWHJKA"L1OJMNV
hW<Xbhrw-$GNRMC,060343.00,A,0420.03385,S,05539.69275,E,0.057,,230525,,,D*7B
$GNVTG,,T,,M,0.057,N,0.105,K,D*3E
$GNGNS,060343.00,0420.03385,S,05539.69275,E,DA,14,0.83,21.6,-47.6,,0000*6F
$GNGGA,060343.00,0420.03385,S,05539.69275,E,2,12,0.83,21.6,M,-47.6,M,,0000*45
$GNGSA,A,3,24,20,05,13,15,12,18,23,40,,,,1.53,0.83,1.29*12
$GNGSA,A,3,86,75,71,72,76,,,,,,,,1.53,0.83,1.29*14
$GPGSV,4,1,16,05,57,058,29,12,61,028,35,13,15,127,29,15,34,160,37*7B
$GPGSV,4,2,16,18,34,266,21,20,24,038,22,22,00,138,17,23,27,206,24*72
$GPGSV,4,3,16,24,44,194,28,25,38,343,15,29,10,329,,36,52,277,*77
$GPGSV,4,4,16,40,86,351,34,41,58,082,,49,32,274,,50,10,089,*7E
$GLGSV,3,1,11,65,11,195,14,71,18,087,22,72,30,140,22,74,13,154,07*69
$GLGSV,3,2,11,75,65,154,30,76,49,335,30,77,04,334,,86,11,360,10*66
$GLGSV,3,3,11,87,22,316,,88,09,258,,,,,24*6E
$GNGLL,0420.03385,S,05539.69275,E,060343.00,A,D*63
$GNGRS,060343.00,1,-4.8,1.4,-1.5,2.3,0.1,-0.9,-10.8,1.0,180,,,*57
$GNGRS,060343.00,1,39.9,0.3,-0.3,-19.0,0.7,,,,,,,*70
$GNGST,060343.00,1096,,,,2.5,4.2,7.8*4B
$GNZDA,060343.00,23,05,2025,00,00*7B
$GNGBS,060343.00,2.5,4.2,7.8,,,,*53
$GNTXT,01,01,01,More than 100 frame errors, UART RX was disabled*70
$GNGLL,0420.03387,S,05539.69275,E,060344.00,A,D*66
$GNGRS,060344.00,1,-0.2,2.5,-1.3,3.7,0.0,-1.3,-11.3,-29.8,0.8,180,,*66
$GNGRS,060344.00,1,0.2,-0.9,-18.7,6.3,,,,,,,,*65
$GNGST,060344.00,1096,,,,2.5,4.3,7.8*4D
$GNZDA,060344.00,23,05,2025,00,00*7C
$GNGBS,060344.00,2.5,4.3,7.8,,,,*55
b0X89:#=%"
"
s&A,1&W
I{4"V_F:R 
Y
pAGWHjJ$GNGGA,060346.00,0420.03385,S,05539.69272,E,2,12,0.83,21.5,M,-47.6,M,,0000*44
$GNGSA,A,3,24,20,05,13,15,12,18,25,23,40,,,1.53,0.83,1.29*15
$GNGSA,A,3,86,74,75,71,72,76,,,,,,,1.53,0.83,1.29*17
$GPGSV,4,1,16,05,57,058,30,12,61,028,35,13,15,127,29,15,34,160,37*73
$GPGSV,4,2,16,18,34,266,21,20,24,038,20,22,00,138,14,23,27,206,23*74
$GPGSV,4,3,16,24,44,194,29,25,38,343,18,29,10,329,,36,52,277,*7B
$GPGSV,4,4,16,40,86,351,34,41,58,082,,49,32,274,,50,10,089,*7E
$GLGSV,3,1,11,65,11,195,15,71,18,087,22,72,30,140,23,74,13,154,10*6F
$GLGSV,3,2,11,75,65,155,29,76,50,334,30,77,04,334,,86,11,360,09*6E
$GLGSV,3,3,11,87,22,316,,88,09,258,,,,,25*6F
$GNGLL,0420.03385,S,05539.69272,E,060346.00,A,D*61
$GNGRS,060346.00,1,-2.1,-0.1,-0.8,-0.9,-0.3,-1.3,-12.1,-28.2,0.1,180,,*49
$GNGRS,060346.00,1,-137,-42.0,-4.5,-3.4,-17.2,0.9,,,,,,*6C
$GNGST,060346.00,1096,,,,2.5,4.3,7.9*4E
$GNZDA,060346.00,23,05,2025,00,00*7E
$GNGBS,060346.00,2.5,4.3,7.9,,,,*56
b0X#9:$=^%"
"
&,:&W
I{4"V_<F:R 
Y
pbAGWHJ
KA}L2NMNVhW<X[b#rw&$GNRMC,060348.00,A,0420.03381,S,05539.69262,E,0.166,,230525,,,D*71
$GNVTG,,T,,M,0.166,N,0.307,K,D*3D
$GNGNS,060348.00,0420.03381,S,05539.69262,E,DA,16,0.72,21.1,-47.6,,0000*6D
$GNGGA,060348.00,0420.03381,S,05539.69262,E,2,12,0.72,21.1,M,-47.6,M,,0000*45
$GNGSA,A,3,24,20,05,13,15,12,18,25,23,40,,,1.25,0.72,1.03*12
$GNGSA,A,3,86,74,75,71,72,76,,,,,,,1.25,0.72,1.03*10
$GPGSV,4,1,16,05,57,058,29,12,61,028,36,13,15,127,29,15,34,160,37*78
$GPGSV,4,2,16,18,34,266,21,20,24,038,21,22,00,138,15,23,27,206,23*74
$GPGSV,4,3,16,24,44,194,29,25,38,343,15,29,10,329,,36,52,277,*76
$GPGSV,4,4,16,40,86,351,34,41,58,082,,49,32,274,,50,10,089,*7E
$GLGSV,3,1,11,65,11,195,16,71,18,087,21,72,30,140,22,74,13,154,10*6E
$GLGSV,3,2,11,75,65,155,29,76,50,334,30,77,05,334,,86,11,360,08*6E
$GLGSV,3,3,11,87,22,316,,88,09,258,,,,,25*6F
$GNGLL,0420.03381,S,05539.69262,E,060348.00,A,D*6A
$GNGRS,060348.00,1,0.6,-0.3,1.4,0.9,-0.2,-1.0,-10.7,-23.3,-0.7,180,,*47
$GNGRS,060348.00,1,9.7,7.7,-1.3,-3.4,-19.0,2.0,,,,,,*45
$GNGST,060348.00,2973945,,,,2.5,4.3,7.9*79
$GNZDA,060348.00,23,05,2025,00,00*70
$GNGBS,060348.00,2.5,4.3,7.9,,,,*58
$GPGSV,4,4,16,40,86,351,34,41,58,082,,49,32,274,,50,10,089,*7E
$GLGSV,3,1,11,65,11,195,15,71,18,087,21,72,30,140,23,74,13,154,10*6C
$GLGSV,3,2,11,75,65,155,29,76,50,334,30,77,05,334,,86,11,360,10*67
$GLGSV,3,3,11,87,22,316,,88,09,258,,,,,26*6C
$GNGLL,0420.03379,S,05539.69261,E,060349.00,A,D*6F
$GNGRS,060349.00,1,0.9,-0.3,2.2,4.4,-0.4,-1.5,-9.8,-21.9,-1.1,180,,*7E
$GNGRS,060349.00,1,42.7,7.0,-0.2,-4.1,-18.4,3.2,,,,,,*78
$GNGST,060349.00,1059,,,,2.5,4.3,7.9*42
$GNZDA,060349.00,23,05,2025,00,00*71
$GNGBS,060349.00,2.5,4.3,7.9,,,,*59
$GNTXT,01,01,01,More than 100 frame errors, UART RX was disabled*70
b0XH?9:#=}U$"
"
&2,&W
I{4#V_+F:R 
Y
pAGWHJ=KAL2NMNVh{W<X;$GNTXT,01,01,01,More than 100 frame errors, UART RX was disabled*70
$GLGSV,3,3,11,87,21,317,,88,09,258,,,,,22*6A
$GNGLL,0420.03376,S,05539.69251,E,060357.00,A,D*6C
$GNGRS,060357.00,1,-2.3,-5.0,-2.8,1.4,-0.1,-1.3,-8.9,-13.8,-4.2,180,,*75
$GNGRS,060357.00,1,10.4,-0.2,-7.9,-16.2,4.6,,,,,,,*5A
$GNGST,060357.00,4612,,,,2.6,4.4,8.1*42
$GNZDA,060357.00,23,05,2025,00,00*7E
$GNGBS,060357.00,2.6,4.4,8.1,,,,*55
$GNTXT,01,01,01,More than 100 frame errors, UART RX was disabled*70
$GNGRS,060358.00,1,-1.6,-3.1,-0.8,-1.2,0.0,-1.4,-7.6,-12.7,-4.1,179,,*72
$GNGRS,060358.00,1,-94.5,-69.5,3.9,-8.9,-14.6,4.1,,,,,,*67
$GNGST,060358.00,1059,,,,2.6,4.4,8.1*41
$GNZDA,060358.00,23,05,2025,00,00*71
$GNGBS,060358.00,2.6,4.4,8.1,,,,*5A
$GNTXT,01,01,01,More than 100 frame errors, UART RX was disabled*70
b0XN9:#=%"
"
K&,j&W
I{4#V_F:R 
Y
pAGWkHKJKA*L2NTMNV
W=XbNrxw<$GNRMC,060359.00,A,0420.03379,S,05539.69254,E,0.114,,230525,,,D*76
$GNVTG,,T,,M,0.114,N,0.211,K,D*3E
$GNGNS,060359.00,0420.03379,S,05539.69254,E,DA,16,0.69,20.9,-47.6,,0000*6C
