b0L`)%
IKO
m'N! !!,s"b8V&X{4V_:R 
YvD@E$pFI@.NJGP1ST
K>UH6b`U
|sY+$GNRMC,062202.00,A,0419.80667,S,05539.82797,E,0.131,,280525,,,A*76
$GNVTG,,T,,M,0.131,N,0.242,K,A*3A
$GNGNS,062202.00,0419.80667,S,05539.82797,E,AA,14,0.91,12.1,-47.6,,*6C
$GNGGA,062202.00,0419.80667,S,05539.82797,E,1,12,0.91,12.1,M,-47.6,M,,*40
$GNGSA,A,3,24,05,20,15,12,13,18,25,23,,,,1.87,0.91,1.63*15
$GNGSA,A,3,80,84,69,73,85,,,,,,,,1.87,0.91,1.63*1C
$GPGSV,5,1,17,05,41,037,27,10,04,212,,12,73,075,27,13,13,109,08*7E
$GPGSV,5,2,17,15,39,140,31,18,33,288,25,20,09,033,11,23,44,209,23*7D
$GPGSV,5,3,17,24,34,179,22,25,56,342,22,28,04,294,,29,13,344,06*7B
$GPGSV,5,4,17,36,52,277,,40,86,351,,41,58,082,,49,32,274,*7C
$GPGSV,5,5,17,50,10,089,*4A
$GLGSV,3,1,09,68,12,064,,69,36,112,23,70,20,185,,73,64,302,23*67
$GLGSV,3,2,09,74,20,327,,80,49,168,25,83,01,020,,84,14,331,10*66
$GLGSV,3,3,09,85,09,283,09*58
$GNGLL,0419.80667,S,05539.82797,E,062202.00,A,A*64
$GNGRS,062202.00,1,-19.5,-1.2,31.0,0.8,-1.8,22.7,2.2,2.9,1.2,,,*65
$GNGRS,062202.00,1,7.3,16.0,-8.7,-9.5,22.7,,,,,,,*7D
$GNGST,062202.00,5424,,,,5.7,6.0,17*66
$GNZDA,062202.00,28,05,2025,00,00*76
$GNGBS,062202.00,5.7,6.0,16.9,,,,*61
$GNTXT,01,01,01,More than 100 frame errors, UART RX was disabled*70
b0LH!)%.
IK@
m'H! !*,"8V&
X{4V_:R 
YvD@E$pFI@.JGP1STK?UX#bH!U
s0$GNRMC,062203.00,A,0419.80663,S,05539.82800,E,0.129,,280525,,,A*7B
$GNVTG,,T,,M,0.129,N,0.239,K,A*3F
$GNGNS,062203.00,0419.80663,S,05539.82800,E,AA,15,0.91,12.0,-47.6,,*68
$GNGGA,062203.00,0419.80663,S,05539.82800,E,1,12,0.91,12.0,M,-47.6,M,,*45
$GNGSA,A,3,24,05,20,15,12,13,18,29,25,23,,,1.85,0.91,1.61*1E
$GNGSA,A,3,80,84,69,73,85,,,,,,,,1.85,0.91,1.61*1C
$GPGSV,5,1,17,05,41,037,23,10,04,212,,12,73,075,25,13,13,109,09*79
$GPGSV,5,2,17,15,39,140,29,18,33,288,24,20,09,033,12,23,44,209,22*77
$GPGSV,5,3,17,24,34,179,21,25,56,342,21,28,04,294,,29,13,344,10*7C
$GPGSV,5,4,17,36,52,277,,40,86,351,,41,58,082,,49,32,274,*7C
$GPGSV,5,5,17,50,10,089,*4A
$GLGSV,3,1,09,68,12,064,,69,36,112,22,70,20,185,,73,64,302,22*67
$GLGSV,3,2,09,74,20,327,,80,49,168,23,83,01,020,,84,14,331,08*69
$GLGSV,3,3,09,85,09,283,09*58
$GNGLL,0419.80663,S,05539.82800,E,062203.00,A,A*60
$GNGRS,062203.00,1,-17.8,-2.1,110,5.8,-1.9,-98.3,2.0,-8.4,3.9,-1.0,,*44
$GNGRS,062203.00,1,4.8,163,-7.7,-7.6,22.2,,,,,,,*5E
$GNGST,062203.00,49,,,,5.7,6.0,17*6D
$GNZDA,062203.00,28,05,2025,00,00*77
$GNGBS,062203.00,5.7,6.0,17.0,,,,*68
$GNTXT,01,01,01,More than 100 frame errors, UART RX was disabled*70
b0L0%)%
IKt

m"' !!,"8V&X{4V_:R 
YvD@E$pFI@.JGP1STKUb0%U
s$GNRMC,062204.00,A,0419.80660,S,05539.82801,E,0.116,,280525,,,A*72
$GNVTG,,T,,M,0.116,N,0.214,K,A*3C
$GNGNS,062204.00,0419.80660,S,05539.82801,E,AA,15,0.91,11.8,-47.6,,*66
$GNGGA,062204.00,0419.80660,S,05539.82801,E,1,12,0.91,11.8,M,-47.6,M,,*4B
$GNGSA,A,3,24,05,20,15,12,13,18,29,25,23,,,1.87,0.91,1.63*1E
$GNGSA,A,3,80,84,69,73,85,,,,,,,,1.87,0.91,1.63*1C
$GPGSV,5,1,17,05,41,037,22,10,04,212,,12,73,075,25,13,13,109,10*70
$GPGSV,5,2,17,15,39,140,34,18,32,289,26,20,09,033,11,23,44,209,23*7B
$GPGSV,5,3,17,24,34,179,22,25,56,342,24,28,04,294,,29,13,344,12*78
$GPGSV,5,4,17,36,52,277,,40,86,351,,41,58,082,,49,32,274,*7C
$GPGSV,5,5,17,50,10,089,*4A
$GLGSV,3,1,09,68,12,064,,69,36,112,21,70,20,185,,73,64,302,21*67
$GLGSV,3,2,09,74,20,327,,80,49,168,24,83,01,020,,84,14,331,07*61
$GLGSV,3,3,09,85,09,283,07*56
$GNGLL,0419.80660,S,05539.82801,E,062204.00,A,A*65
$GNGRS,062204.00,1,-18.7,2.2,30.2,1.9,-4.0,21.9,2.4,22.5,2.4,2.1,,*5D
$GNGRS,062204.00,1,5.0,15.4,-6.3,-8.1,22.4,,,,,,,*71
$GNGST,062204.00,3616,,,,5.8,6.0,17*6A
$GNZDA,062204.00,28,05,2025,00,00*70
$GNGBS,062204.00,5.8,6.0,17.1,,,,*61
$GNTXT,01,01,01,More than 100 frame errors, UART RX was disabled*70
b0L))%
IK_
m$' !:
!,"$8V&X{4V_:R 
YvD@E$pFI@.JGP1uSTKU%Sb)U
s`$GNRMC,062205.00,A,0419.80655,S,05539.82800,E,0.134,,280525,,,A*74
$GNVTG,,T,,M,0.134,N,0.247,K,A*3A
$GNGNS,062205.00,0419.80655,S,05539.82800,E,AA,15,0.91,12.1,-47.6,,*6A
$GNGGA,062205.00,0419.80655,S,05539.82800,E,1,12,0.91,12.1,M,-47.6,M,,*47
$GNGSA,A,3,24,05,20,15,12,13,18,29,25,23,,,1.87,0.91,1.63*1E
$GNGSA,A,3,80,84,69,73,85,,,,,,,,1.87,0.91,1.63*1C
$GPGSV,5,1,17,05,41,037,24,10,04,212,,12,73,075,28,13,13,109,09*73
$GPGSV,5,2,17,15,39,140,36,18,32,289,27,20,09,033,10,23,44,209,24*7E
$GPGSV,5,3,17,24,34,179,24,25,56,342,26,28,04,294,,29,13,344,16*78
$GPGSV,5,4,17,36,52,277,,40,86,351,,41,58,082,,49,32,274,*7C
$GPGSV,5,5,17,50,10,089,*4A
$GLGSV,3,1,09,68,12,064,,69,36,112,24,70,20,185,,73,64,302,21*62
$GLGSV,3,2,09,74,20,327,,80,49,168,31,83,01,020,,84,14,331,12*61
$GLGSV,3,3,09,85,09,283,12*52
$GNGLL,0419.80655,S,05539.82800,E,062205.00,A,A*63
$GNGRS,062205.00,1,-17.6,2.2,30.4,-0.7,1.0,21.9,3.1,22.4,1.9,2.2,,*56
$GNGRS,062205.00,1,6.3,15.5,-7.7,-8.9,22.5,,,,,,,*7D
$GNGST,062205.00,5424,,,,5.8,5.9,17*64
$GNZDA,062205.00,28,05,2025,00,00*71
$GNGBS,062205.00,5.8,5.9,16.9,,,,*63
$GNTXT,01,01,01,More than 100 frame errors, UART RX was disabled*70
b0L-)%
IK5
m$'4 !!,"28Vt&X\{#4V_:R 
YvD@E$pFI@.JGP 1ST
KU2b-U
s$GNRMC,062206.00,A,0419.80648,S,05539.82797,E,0.097,,280525,,,A*72
$GNVTG,,T,,M,0.097,N,0.180,K,A*3A
$GNGNS,062206.00,0419.80648,S,05539.82797,E,AA,14,0.75,11.8,-47.6,,*65
$GNGGA,062206.00,0419.80648,S,05539.82797,E,1,12,0.75,11.8,M,-47.6,M,,*49
$GNGSA,A,3,24,05,20,15,12,18,29,25,23,,,,1.38,0.75,1.15*13
$GNGSA,A,3,80,84,69,73,85,,,,,,,,1.38,0.75,1.15*13
$GPGSV,5,1,17,05,41,037,25,10,04,212,,12,73,075,30,13,13,109,*72
$GPGSV,5,2,17,15,39,140,36,18,32,289,30,20,09,033,14,23,44,209,24*7C
$GPGSV,5,3,17,24,34,179,23,25,56,342,26,28,04,294,,29,13,344,11*78
$GPGSV,5,4,17,36,52,277,35,40,86,351,,41,58,082,,49,32,274,*7A
$GPGSV,5,5,17,50,10,089,*4A
$GLGSV,3,1,09,68,12,064,,69,36,112,23,70,20,185,,73,64,302,22*66
$GLGSV,3,2,09,74,20,327,,80,49,168,32,83,01,020,,84,14,331,10*60
$GLGSV,3,3,09,85,09,283,11*51
$GNGLL,0419.80648,S,05539.82797,E,062206.00,A,A*6D
$GNGRS,062206.00,1,-20.0,2.5,-0.3,0.5,-2.0,4.4,16.3,3.7,5.1,,,*56
$GNGRS,062206.00,1,1.8,-13.4,-8.7,-8.0,-1.3,,,,,,,*44
$GNGST,062206.00,67,,,,5.6,5.8,16*6F
$GNZDA,062206.00,28,05,2025,00,00*72
$GNGBS,062206.00,5.6,5.8,16.4,,,,*62
$GNTXT,01,01,01,More than 100 frame errors, UART RX was disabled*70
b0L0)%
IK
m$' !
!,"8V&X{"4V_:R 
YvD@E$pFI@.SJGP#1nSTKU5b0U
s!$GNRMC,062207.00,A,0419.80646,S,05539.82792,E,0.128,,280525,,,A*7D
$GNVTG,,T,,M,0.128,N,0.237,K,A*30
$GNGNS,062207.00,0419.80646,S,05539.82792,E,AA,14,0.91,11.2,-47.6,,*6F
$GNGGA,062207.00,0419.80646,S,05539.82792,E,1,12,0.91,11.2,M,-47.6,M,,*43
$GNGSA,A,3,24,05,20,15,12,18,29,25,23,,,,1.87,0.91,1.63*1C
$GNGSA,A,3,80,84,69,73,85,,,,,,,,1.87,0.91,1.63*1C
$GPGSV,5,1,17,05,41,037,22,10,04,212,,12,73,075,30,13,13,109,16*72
$GPGSV,5,2,17,15,39,140,36,18,32,289,30,20,09,033,10,23,44,209,24*78
$GPGSV,5,3,17,24,34,179,23,25,56,342,28,28,04,294,,29,13,344,16*71
$GPGSV,5,4,17,36,52,277,34,40,86,351,,41,58,082,,49,32,274,*7B
$GPGSV,5,5,17,50,10,089,*4A
$GLGSV,3,1,09,68,12,064,,69,36,112,25,70,20,185,,73,64,302,23*61
$GLGSV,3,2,09,74,20,327,,80,49,168,35,83,01,020,,84,14,331,09*6F
$GLGSV,3,3,09,85,09,283,11*51
$GNGLL,0419.80646,S,05539.82792,E,062207.00,A,A*67
$GNGRS,062207.00,1,-18.0,2.2,30.0,2.7,-5.0,4.0,22.3,5.3,7.3,,,*40
$GNGRS,062207.00,1,-1.5,15.1,-10.6,-6.8,22.0,,,,,,,*6A
$GNGST,062207.00,3586708,,,,5.5,5.7,16*54
$GNZDA,062207.00,28,05,2025,00,00*73
$GNGBS,062207.00,5.5,5.7,16.1,,,,*6A
$GNTXT,01,01,01,More than 100 frame errors, UART RX was disabled*70
b0L4)%
IK
m"' !Y
!,"8V&X{"4V_:R 
YvD@E$pFI@.JGP"1bSTKURXb4U
sg$GNRMC,062208.00,A,0419.80649,S,05539.82783,E,0.055,,280525,,,A*76
$GNVTG,,T,,M,0.055,N,0.102,K,A*3E
$GNGNS,062208.00,0419.80649,S,05539.82783,E,AA,14,0.91,10.7,-47.6,,*6B
$GNGGA,062208.00,0419.80649,S,05539.82783,E,1,12,0.91,10.7,M,-47.6,M,,*47
$GNGSA,A,3,24,05,20,15,12,18,29,25,23,,,,1.87,0.91,1.63*1C
$GNGSA,A,3,80,84,69,73,85,,,,,,,,1.87,0.91,1.63*1C
$GPGSV,5,1,17,05,41,037,19,10,04,212,,12,73,075,30,13,13,109,15*79
$GPGSV,5,2,17,15,39,140,34,18,32,289,31,20,09,033,10,23,44,210,24*73
$GPGSV,5,3,17,24,34,179,23,25,56,342,28,28,04,294,,29,13,344,15*72
$GPGSV,5,4,17,36,52,277,34,40,86,351,,41,58,082,,49,32,274,*7B
$GPGSV,5,5,17,50,10,089,*4A
$GLGSV,3,1,09,68,12,064,,69,36,112,27,70,20,185,,73,64,302,22*62
$GLGSV,3,2,09,74,20,327,,80,49,168,34,83,01,020,,84,14,331,08*6F
$GLGSV,3,3,09,85,09,283,11*51
$GNGLL,0419.80649,S,05539.82783,E,062208.00,A,A*67
$GNGRS,062208.00,1,-18.6,2.5,29.6,5.0,-5.8,3.5,22.0,2.5,6.8,,,*42
$GNGRS,062208.00,1,1.0,14.6,-11.4,-6.0,21.3,,,,,,,*40
$GNGST,062208.00,3586708,,,,5.4,5.6,16*5B
$GNZDA,062208.00,28,05,2025,00,00*7C
$GNGBS,062208.00,5.4,5.6,15.8,,,,*6F
$GNTXT,01,01,01,More than 100 frame errors, UART RX was disabled*70
b0L8)%
IK
m#'! !H!27,!\8VB&X*{ 4V_:R 
YvD@E$p@FI@.JGP!1'STK+U8b8U
is?$GNRMC,062209.00,A,0419.80644,S,05539.82769,E,0.068,,280525,,,A*70
$GNVTG,,T,,M,0.068,N,0.126,K,A*36
$GNGNS,062209.00,0419.80644,S,05539.82769,E,AA,14,0.99,10.3,-47.6,,*6F
$GNGGA,062209.00,0419.80644,S,05539.82769,E,1,12,0.99,10.3,M,-47.6,M,,*43
$GNGSA,A,3,24,05,20,15,12,18,29,25,23,,,,2.62,0.99,2.42*1C
$GNGSA,A,3,80,84,69,73,85,,,,,,,,2.62,0.99,2.42*1C
$GPGSV,5,1,17,05,41,037,20,10,04,212,,12,73,075,30,13,13,109,14*72
$GPGSV,5,2,17,15,39,140,35,18,32,289,33,20,09,033,09,23,44,210,22*7E
$GPGSV,5,3,17,24,33,178,21,25,56,342,29,28,04,294,,29,13,344,12*70
$GPGSV,5,4,17,36,52,277,32,40,86,351,,41,58,082,,49,32,274,*7D
$GPGSV,5,5,17,50,10,089,*4A
$GLGSV,3,1,09,68,12,064,,69,36,112,27,70,20,185,,73,64,302,21*61
$GLGSV,3,2,09,74,20,327,,80,49,168,33,83,01,020,,84,14,331,11*60
$GLGSV,3,3,09,85,09,283,08*59
$GNGLL,0419.80644,S,05539.82769,E,062209.00,A,A*6F
$GNGRS,062209.00,1,-17.0,2.9,141,1.5,-5.3,3.3,20.9,3.2,6.9,,,*61
$GNGRS,062209.00,1,-2.2,-133,-12.2,-6.4,-77.2,,,,,,,*42
$GNGST,062209.00,35,,,,5.4,5.5,16*68
$GNZDA,062209.00,28,05,2025,00,00*7D
$GNGBS,062209.00,5.4,5.5,15.5,,,,*60
$GNTXT,01,01,01,More than 100 frame errors, UART RX was disabled*70
b0L<)%
IK
mo"'  !+!,!9V&X{!4V_:R 
YvD@E$pFI@.JGP 1|STKU<^b<U
QsY$GNRMC,062210.00,A,0419.80629,S,05539.82752,E,0.116,,280525,,,A*73
$GNVTG,,T,,M,0.116,N,0.214,K,A*3C
$GNGNS,062210.00,0419.80629,S,05539.82752,E,AA,14,0.89,9.0,-47.6,,*5E
$GNGGA,062210.00,0419.80629,S,05539.82752,E,1,12,0.89,9.0,M,-47.6,M,,*72
$GNGSA,A,3,24,05,20,15,12,18,29,25,23,,,,1.69,0.89,1.44*10
$GNGSA,A,3,80,84,69,73,85,,,,,,,,1.69,0.89,1.44*10
$GPGSV,5,1,17,05,41,037,22,10,04,212,,12,73,075,30,13,13,109,12*76
$GPGSV,5,2,17,15,39,140,34,18,32,289,32,20,09,033,11,23,44,210,23*76
$GPGSV,5,3,17,24,33,178,20,25,57,342,29,28,04,294,,29,13,344,16*74
$GPGSV,5,4,17,36,52,277,33,40,86,351,,41,58,082,,49,32,274,*7C
$GPGSV,5,5,17,50,10,089,*4A
$GLGSV,3,1,09,68,12,064,,69,36,112,26,70,20,185,,73,64,302,20*61
$GLGSV,3,2,09,74,20,327,,80,49,168,32,83,01,020,,84,14,331,11*61
$GLGSV,3,3,09,85,09,283,08*59
$GNGLL,0419.80629,S,05539.82752,E,062210.00,A,A*64
$GNGRS,062210.00,1,-18.2,-0.2,29.6,1.9,-5.4,8.1,17.8,6.9,5.0,,,*64
$GNGRS,062210.00,1,1.2,14.3,-13.6,-5.0,21.1,,,,,,,*4F
$GNGST,062210.00,3462,,,,5.3,5.4,15*60
$GNZDA,062210.00,28,05,2025,00,00*75
$GNGBS,062210.00,5.3,5.4,15.2,,,,*69
$GNTXT,01,01,01,More than 100 frame errors, UART RX was disabled*70
b0L@)%
IK#
m&', !
!C,!9V'&X{!4V_:R 
YvD@E$pFI@.JGP 1STK9U"b@U
9s$GNRMC,062211.00,A,0419.80625,S,05539.82746,E,0.051,,280525,,,A*79
$GNVTG,,T,,M,0.051,N,0.095,K,A*35
$GNGNS,062211.00,0419.80625,S,05539.82746,E,AA,14,0.89,7.8,-47.6,,*50
$GNGGA,062211.00,0419.80625,S,05539.82746,E,1,12,0.89,7.8,M,-47.6,M,,*7C
$GNGSA,A,3,24,05,20,15,12,18,29,25,23,,,,1.69,0.89,1.44*10
$GNGSA,A,3,80,84,69,73,85,,,,,,,,1.69,0.89,1.44*10
$GPGSV,5,1,17,05,41,037,22,10,04,212,,12,73,075,29,13,13,109,09*74
$GPGSV,5,2,17,15,39,140,38,18,32,289,31,20,09,033,10,23,44,210,25*7E
$GPGSV,5,3,17,24,33,178,21,25,57,342,28,28,04,294,,29,13,344,17*75
$GPGSV,5,4,17,36,52,277,33,40,86,351,,41,58,082,,49,32,274,*7C
$GPGSV,5,5,17,50,10,089,*4A
$GLGSV,3,1,09,68,12,064,,69,36,112,25,70,20,185,,73,64,302,18*69
$GLGSV,3,2,09,74,20,327,,80,49,168,32,83,01,020,,84,14,331,13*63
$GLGSV,3,3,09,85,09,283,11*51
$GNGLL,0419.80625,S,05539.82746,E,062211.00,A,A*6C
$GNGRS,062211.00,1,-17.6,-0.3,28.8,3.0,-7.3,7.6,14.4,5.5,4.7,,,*60
$GNGRS,062211.00,1,-1.1,13.4,-12.5,-5.1,20.0,,,,,,,*63
$GNGST,062211.00,5193,,,,5.2,5.3,15*6A
$GNZDA,062211.00,28,05,2025,00,00*74
$GNGBS,062211.00,5.2,5.3,14.9,,,,*64
$GNTXT,01,01,01,More than 100 frame errors, UART RX was disabled*70
b0LpD)%w
IK5
m$' !&
!,x!'9VE&X{"4V_:R 
YvD@E$pFI@.'JGP 1ySTK#U
bpDU
!s)$GNRMC,062212.00,A,0419.80618,S,05539.82739,E,0.055,,280525,,,A*78
$GNVTG,,T,,M,0.055,N,0.102,K,A*3E
$GNGNS,062212.00,0419.80618,S,05539.82739,E,AA,14,0.91,7.1,-47.6,,*55
$GNGGA,062212.00,0419.80618,S,05539.82739,E,1,12,0.91,7.1,M,-47.6,M,,*79
$GNGSA,A,3,24,05,20,15,12,18,29,25,23,,,,1.85,0.91,1.61*1C
$GNGSA,A,3,80,84,69,73,85,,,,,,,,1.85,0.91,1.61*1C
$GPGSV,5,1,17,05,41,037,21,10,04,212,,12,73,075,30,13,13,109,09*7F
$GPGSV,5,2,17,15,39,140,36,18,32,289,30,20,09,033,10,23,44,210,25*71
$GPGSV,5,3,17,24,33,178,19,25,57,342,27,28,04,294,,29,13,344,17*71
$GPGSV,5,4,17,36,52,277,34,40,86,351,,41,58,082,,49,32,274,*7B
$GPGSV,5,5,17,50,10,089,*4A
$GLGSV,3,1,09,68,12,064,,69,36,112,26,70,20,185,,73,64,302,18*6A
$GLGSV,3,2,09,74,20,327,,80,49,168,32,83,01,020,,84,14,331,09*68
$GLGSV,3,3,09,85,09,283,10*50
$GNGLL,0419.80618,S,05539.82739,E,062212.00,A,A*69
$GNGRS,062212.00,1,-17.5,-1.4,55.4,2.6,-2.0,8.1,11.7,10.9,1.2,,,*57
$GNGRS,062212.00,1,-1.4,91.0,-11.0,-4.7,56.0,,,,,,,*6B
$GNGST,062212.00,40,,,,5.1,5.2,15*61
$GNZDA,062212.00,28,05,2025,00,00*77
$GNGBS,062212.00,5.1,5.2,14.7,,,,*6B
$GNTXT,01,01,01,More than 100 frame errors, UART RX was disabled*70
b0LXH)%
IK
m#' !
!,r!9Vz%X'{"4V_:R 
YvD@E$pvFI@.JGP14STKUbXHU
s$GNRMC,062213.00,A,0419.80600,S,05539.82742,E,0.263,,280525,,,A*7B
$GNVTG,,T,,M,0.263,N,0.487,K,A*31
$GNGNS,062213.00,0419.80600,S,05539.82742,E,AA,15,0.82,6.3,-47.6,,*51
$GNGGA,062213.00,0419.80600,S,05539.82742,E,1,12,0.82,6.3,M,-47.6,M,,*7C
$GNGSA,A,3,24,05,20,15,12,13,18,29,25,23,,,1.48,0.82,1.23*1B
$GNGSA,A,3,80,84,69,73,85,,,,,,,,1.48,0.82,1.23*19
$GPGSV,5,1,17,05,41,037,20,10,04,212,,12,73,075,30,13,13,109,11*77
$GPGSV,5,2,17,15,39,140,35,18,32,289,30,20,09,033,10,23,44,210,26*71
$GPGSV,5,3,17,24,33,178,17,25,57,342,27,28,04,293,,29,13,344,17*78
$GPGSV,5,4,17,36,52,277,34,40,86,351,,41,58,082,,49,32,274,*7B
$GPGSV,5,5,17,50,10,089,*4A
$GLGSV,3,1,09,68,12,064,,69,36,112,28,70,20,185,,73,64,302,21*6E
$GLGSV,3,2,09,74,20,327,,80,49,168,30,83,01,020,,84,14,331,09*6A
$GLGSV,3,3,09,85,09,283,12*52
$GNGLL,0419.80600,S,05539.82742,E,062213.00,A,A*6D
$GNGRS,062213.00,1,-16.0,-0.5,29.7,2.6,-0.2,-3.5,4.5,10.6,11.5,-1.4,,*71
$GNGRS,062213.00,1,-2.0,14.8,-9.1,-6.1,21.9,,,,,,,*5D
$GNGST,062213.00,56540,,,,5.1,5.1,14*54
$GNZDA,062213.00,28,05,2025,00,00*76
$GNGBS,062213.00,5.1,5.1,14.5,,,,*6B
$GNTXT,01,01,01,More than 100 frame errors, UART RX was disabled*70
b0L@L)%
IKX
mX#' !!,N!9V%Ye{"4V_:R 
YvD@E$pFI@.JGP1STKU`b@LU
sv$GNRMC,062214.00,A,0419.80594,S,05539.82733,E,0.030,,280525,,,A*70
$GNVTG,,T,,M,0.030,N,0.056,K,A*3D
$GNGNS,062214.00,0419.80594,S,05539.82733,E,AA,15,0.82,6.0,-47.6,,*5D
$GNGGA,062214.00,0419.80594,S,05539.82733,E,1,12,0.82,6.0,M,-47.6,M,,*70
$GNGSA,A,3,24,05,20,15,12,13,18,29,25,23,,,1.48,0.82,1.23*1B
$GNGSA,A,3,80,84,69,73,85,,,,,,,,1.48,0.82,1.23*19
$GPGSV,5,1,17,05,41,037,24,10,04,212,,12,73,075,31,13,13,109,11*72
$GPGSV,5,2,17,15,39,140,35,18,32,289,30,20,09,033,12,23,44,210,26*73
$GPGSV,5,3,17,24,33,178,15,25,57,342,28,28,04,293,,29,14,345,19*7D
$GPGSV,5,4,17,36,52,277,34,40,86,351,,41,58,082,,49,32,274,*7B
$GPGSV,5,5,17,50,10,089,*4A
$GLGSV,3,1,09,68,12,064,,69,36,112,29,70,20,185,,73,64,302,23*6D
$GLGSV,3,2,09,74,20,327,,80,49,168,29,83,01,020,,84,14,331,12*68
$GLGSV,3,3,09,85,09,283,09*58
$GNGLL,0419.80594,S,05539.82733,E,062214.00,A,A*62
$GNGRS,062214.00,1,-16.3,-3.2,29.5,2.7,-1.7,-9.4,5.1,8.7,12.5,-1.8,,*4F
$GNGRS,062214.00,1,-0.3,14.4,-10.8,-7.6,21.4,,,,,,,*6D
$GNGST,062214.00,83147,,,,5.0,5.0,14*58
$GNZDA,062214.00,28,05,2025,00,00*71
$GNGBS,062214.00,5.0,5.0,14.1,,,,*68
$GNTXT,01,01,01,More than 100 frame errors, UART RX was disabled*70
b0L(P)%2
IK

m$' !c!,!l9V%Yc{!4V_:R 
YvD@E$p^FI@.JGP1STKU{b(PU
sN^$GNRMC,062215.00,A,0419.80596,S,05539.82725,E,0.073,,280525,,,A*73
$GNVTG,,T,,M,0.073,N,0.135,K,A*3E
$GNGNS,062215.00,0419.80596,S,05539.82725,E,AA,14,0.91,6.0,-47.6,,*5A
$GNGGA,062215.00,0419.80596,S,05539.82725,E,1,12,0.91,6.0,M,-47.6,M,,*76
$GNGSA,A,3,24,05,20,15,12,18,29,25,23,,,,1.85,0.91,1.61*1C
$GNGSA,A,3,80,84,69,73,85,,,,,,,,1.85,0.91,1.61*1C
$GPGSV,5,1,17,05,41,037,25,10,04,212,,12,73,075,30,13,13,109,10*73
$GPGSV,5,2,17,15,39,140,36,18,32,289,30,20,09,033,13,23,44,210,25*72
$GPGSV,5,3,17,24,33,178,15,25,57,342,27,28,04,293,,29,14,345,21*79
$GPGSV,5,4,17,36,52,277,33,40,86,351,,41,58,082,,49,32,274,*7C
$GPGSV,5,5,17,50,10,089,*4A
$GLGSV,3,1,09,68,12,064,,69,36,112,29,70,20,185,,73,64,302,25*6B
$GLGSV,3,2,09,74,20,327,,80,49,168,29,83,01,020,,84,14,331,09*62
$GLGSV,3,3,09,85,09,283,12*52
$GNGLL,0419.80596,S,05539.82725,E,062215.00,A,A*66
$GNGRS,062215.00,1,-16.8,-4.6,-34.3,2.3,-0.4,3.6,6.1,12.5,-0.5,,,*6C
$GNGRS,062215.00,1,1.6,-111,-6.7,-8.7,-96.1,,,,,,,*54
$GNGST,062215.00,36,,,,4.9,5.0,14*6D
$GNZDA,062215.00,28,05,2025,00,00*70
$GNGBS,062215.00,4.9,5.0,13.9,,,,*6E
$GNTXT,01,01,01,More than 100 frame errors, UART RX was disabled*70
b0LT)%
IK
m1&' !
!,!9Vd%Y{"4V_:R 
YvD@E$pFI@.FJGP1MST
KU4bTU
s&$GNRMC,062216.00,A,0419.80595,S,05539.82719,E,0.066,,280525,,,A*78
$GNVTG,,T,,M,0.066,N,0.122,K,A*3C
$GNGNS,062216.00,0419.80595,S,05539.82719,E,AA,15,0.82,5.7,-47.6,,*52
$GNGGA,062216.00,0419.80595,S,05539.82719,E,1,12,0.82,5.7,M,-47.6,M,,*7F
$GNGSA,A,3,24,05,20,15,12,13,18,29,25,23,,,1.48,0.82,1.23*1B
$GNGSA,A,3,80,84,69,73,85,,,,,,,,1.48,0.82,1.23*19
$GPGSV,5,1,17,05,41,037,22,10,04,212,,12,73,075,29,13,13,109,12*7E
$GPGSV,5,2,17,15,39,140,38,18,32,289,30,20,09,033,10,23,44,210,24*7E
$GPGSV,5,3,17,24,33,178,19,25,57,342,26,28,04,293,,29,14,345,21*74
$GPGSV,5,4,17,36,52,277,34,40,86,351,,41,58,082,,49,32,274,*7B
$GPGSV,5,5,17,50,10,089,*4A
$GLGSV,3,1,09,68,12,064,,69,36,112,27,70,20,185,,73,64,302,24*64
$GLGSV,3,2,09,74,20,327,,80,49,168,29,83,01,020,,84,14,331,10*6A
$GLGSV,3,3,09,85,09,283,09*58
$GNGLL,0419.80595,S,05539.82719,E,062216.00,A,A*69
$GNGRS,062216.00,1,-16.3,-5.6,30.2,1.8,-0.8,-9.8,6.5,2.7,13.8,1.3,,*69
$GNGRS,062216.00,1,0.8,15.1,-5.6,-9.5,22.1,,,,,,,*7C
$GNGST,062216.00,3299292,,,,4.8,4.9,14*5A
$GNZDA,062216.00,28,05,2025,00,00*73
$GNGBS,062216.00,4.8,4.9,13.6,,,,*6B
$GNTXT,01,01,01,More than 100 frame errors, UART RX was disabled*70
b0LW)%
IK
m$' !!,!9V%Y{!4V_:R 
YvD@E$p[FI@.#JGP1ST
KUbWU
s$GNRMC,062217.00,A,0419.80602,S,05539.82705,E,0.558,,280525,,,A*71
$GNVTG,,T,,M,0.558,N,1.034,K,A*33
$GNGNS,062217.00,0419.80602,S,05539.82705,E,AA,15,0.82,5.7,-47.6,,*53
$GNGGA,062217.00,0419.80602,S,05539.82705,E,1,12,0.82,5.7,M,-47.6,M,,*7E
$GNGSA,A,3,24,05,20,15,12,13,18,29,25,23,,,1.48,0.82,1.23*1B
$GNGSA,A,3,80,84,69,73,85,,,,,,,,1.48,0.82,1.23*19
$GPGSV,5,1,17,05,41,037,19,10,04,212,,12,73,075,30,13,13,109,11*7D
$GPGSV,5,2,17,15,39,140,36,18,32,289,29,20,09,033,09,23,44,210,22*76
$GPGSV,5,3,17,24,33,178,22,25,57,342,26,28,04,293,,29,14,345,20*7D
$GPGSV,5,4,17,36,52,277,33,40,86,351,,41,58,082,,49,32,274,*7C
$GPGSV,5,5,17,50,10,089,*4A
$GLGSV,3,1,09,68,12,064,,69,36,112,24,70,20,185,,73,64,302,24*67
$GLGSV,3,2,09,74,20,327,,80,49,168,29,83,01,020,,84,14,331,10*6A
$GLGSV,3,3,09,85,09,283,11*51
$GNGLL,0419.80602,S,05539.82705,E,062217.00,A,A*68
$GNGRS,062217.00,1,-15.2,-7.6,30.3,1.9,-2.6,-8.4,7.5,2.9,10.2,-2.5,,*47
$GNGRS,062217.00,1,-0.4,14.8,-4.2,-9.9,22.0,,,,,,,*5C
$GNGST,062217.00,3299292,,,,4.8,4.9,13*5C
$GNZDA,062217.00,28,05,2025,00,00*72
$GNGBS,062217.00,4.8,4.9,13.5,,,,*69
$GNTXT,01,01,01,More than 100 frame errors, UART RX was disabled*70
b0L[)%
IK
m ' !!,{!9V%Y{ 4V_:R 
YvD@E$p\FI@.JGP1STK(UWb[U
s$GNRMC,062218.00,A,0419.80603,S,05539.82694,E,0.211,,280525,,,A*7C
$GNVTG,,T,,M,0.211,N,0.391,K,A*34
$GNGNS,062218.00,0419.80603,S,05539.82694,E,AA,13,0.89,5.5,-47.6,,*5B
$GNGGA,062218.00,0419.80603,S,05539.82694,E,1,12,0.89,5.5,M,-47.6,M,,*70
$GNGSA,A,3,24,05,15,12,18,29,25,23,,,,,1.69,0.89,1.44*12
$GNGSA,A,3,80,84,69,73,85,,,,,,,,1.69,0.89,1.44*10
$GPGSV,5,1,17,05,41,037,19,10,04,212,,12,73,075,30,13,13,109,09*74
$GPGSV,5,2,17,15,39,140,32,18,32,289,28,20,09,033,05,23,44,210,22*7F
$GPGSV,5,3,17,24,33,178,19,25,57,342,27,28,04,293,,29,14,345,19*7E
$GPGSV,5,4,17,36,52,277,32,40,86,351,,41,58,082,,49,32,274,*7D
$GPGSV,5,5,17,50,10,089,*4A
$GLGSV,3,1,09,68,12,064,,69,36,112,23,70,20,185,,73,64,302,23*67
$GLGSV,3,2,09,74,20,327,,80,49,168,30,83,01,020,,84,14,331,12*60
$GLGSV,3,3,09,85,09,283,09*58
$GNGLL,0419.80603,S,05539.82694,E,062218.00,A,A*6F
$GNGRS,062218.00,1,-15.9,-6.3,2.3,-0.6,12.2,-0.6,6.5,-6.5,,,,*7A
$GNGRS,062218.00,1,-0.2,13.2,-4.2,-11.3,22.5,,,,,,,*6E
$GNGST,062218.00,48,,,,4.8,4.9,13*67
$GNZDA,062218.00,28,05,2025,00,00*7D
$GNGBS,062218.00,4.8,4.9,13.3,,,,*60
$GNTXT,01,01,01,More than 100 frame errors, UART RX was disabled*70
b0L_)%
IK~
m!' !!,!9V3%Y{4V_:R 
YvD@E$pFI@.OJGP1~STKUb_U
ys$GNRMC,062219.00,A,0419.80607,S,05539.82688,E,0.143,,280525,,,A*70
$GNVTG,,T,,M,0.143,N,0.264,K,A*3B
$GNGNS,062219.00,0419.80607,S,05539.82688,E,AA,15,0.82,5.6,-47.6,,*5D
$GNGGA,062219.00,0419.80607,S,05539.82688,E,1,12,0.82,5.6,M,-47.6,M,,*70
$GNGSA,A,3,24,05,20,15,12,13,18,29,25,23,,,1.48,0.82,1.23*1B
$GNGSA,A,3,80,84,69,73,85,,,,,,,,1.48,0.82,1.23*19
$GPGSV,5,1,17,05,41,037,19,10,04,212,,12,73,075,30,13,13,109,11*7D
$GPGSV,5,2,17,15,39,140,33,18,32,289,28,20,09,033,09,23,44,210,24*74
$GPGSV,5,3,17,24,33,178,16,25,57,342,27,28,04,293,,29,14,345,18*70
$GPGSV,5,4,17,36,52,277,31,40,86,351,,41,58,082,,49,32,274,*7E
$GPGSV,5,5,17,50,10,089,*4A
$GLGSV,3,1,09,68,12,064,,69,36,112,23,70,20,185,,73,64,302,21*65
$GLGSV,3,2,09,74,20,327,,80,49,168,31,83,01,020,,84,14,331,11*62
$GLGSV,3,3,09,85,09,283,12*52
$GNGLL,0419.80607,S,05539.82688,E,062219.00,A,A*67
$GNGRS,062219.00,1,-15.2,-6.3,30.4,2.3,1.3,-0.9,12.9,-3.2,5.6,-8.9,,*44
$GNGRS,062219.00,1,6.4,15.4,2.8,-12.0,22.3,,,,,,,*65
$GNGST,062219.00,13304,,,,4.8,4.9,13*5F
$GNZDA,062219.00,28,05,2025,00,00*7C
$GNGBS,062219.00,4.8,4.9,13.2,,,,*60
$GNTXT,01,01,01,More than 100 frame errors, UART RX was disabled*70
b0Lc)%
IK
mn"' !(!,!9V`%Y{4V_:R 
YvD@E$pFI@.zJGP1nST
KU
bcU
asW$GNRMC,062220.00,A,0419.80608,S,05539.82692,E,0.062,,280525,,,A*7C
$GNVTG,,T,,M,0.062,N,0.114,K,A*3D
$GNGNS,062220.00,0419.80608,S,05539.82692,E,AA,15,0.82,5.5,-47.6,,*50
$GNGGA,062220.00,0419.80608,S,05539.82692,E,1,12,0.82,5.5,M,-47.6,M,,*7D
$GNGSA,A,3,24,05,20,15,12,13,18,29,25,23,,,1.48,0.82,1.23*1B
$GNGSA,A,3,80,84,69,73,85,,,,,,,,1.48,0.82,1.23*19
$GPGSV,5,1,17,05,41,037,20,10,04,212,,12,73,075,28,13,13,109,12*7D
$GPGSV,5,2,17,15,39,140,34,18,32,289,28,20,09,033,11,23,44,210,24*7A
$GPGSV,5,3,17,24,33,178,14,25,57,342,27,28,04,293,,29,14,345,18*72
$GPGSV,5,4,17,36,52,277,31,40,86,351,,41,58,082,,49,32,274,*7E
$GPGSV,5,5,17,50,10,089,*4A
$GLGSV,3,1,09,68,12,064,,69,36,112,24,70,20,185,,73,64,302,22*61
$GLGSV,3,2,09,74,20,327,,80,49,168,31,83,01,020,,84,14,331,10*63
$GLGSV,3,3,09,85,09,283,10*50
$GNGLL,0419.80608,S,05539.82692,E,062220.00,A,A*69
$GNGRS,062220.00,1,-16.1,-5.8,29.9,2.2,4.1,1.1,8.1,-5.4,-1.6,-10.6,,*4D
$GNGRS,062220.00,1,3.7,15.3,2.2,-14.1,22.2,,,,,,,*62
$GNGST,062220.00,19955,,,,4.7,4.8,13*5F
$GNZDA,062220.00,28,05,2025,00,00*76
$GNGBS,062220.00,4.7,4.8,13.1,,,,*67
$GNTXT,01,01,01,More than 100 frame errors, UART RX was disabled*70
b0Lg)%
IK
m#' !i!,'!P9V%Yh{ 4V_:R 
YvD@E$p&FI@.JGP1USTKU
.SbgU
Is]$GNRMC,062221.00,A,0419.80612,S,05539.82696,E,0.123,,280525,,,A*76
$GNVTG,,T,,M,0.123,N,0.228,K,A*35
$GNGNS,062221.00,0419.80612,S,05539.82696,E,AA,15,0.82,5.7,-47.6,,*5C
$GNGGA,062221.00,0419.80612,S,05539.82696,E,1,12,0.82,5.7,M,-47.6,M,,*71
$GNGSA,A,3,24,05,20,15,12,13,18,29,25,23,,,1.48,0.82,1.23*1B
$GNGSA,A,3,80,84,69,73,85,,,,,,,,1.48,0.82,1.23*19
$GPGSV,5,1,17,05,41,037,21,10,04,212,,12,73,075,28,13,13,109,13*7D
$GPGSV,5,2,17,15,39,140,35,18,32,289,30,20,09,033,08,23,44,210,24*7A
$GPGSV,5,3,17,24,33,178,15,25,57,342,27,28,04,293,,29,14,345,18*73
$GPGSV,5,4,17,36,52,277,32,40,86,351,,41,58,082,,49,32,274,*7D
$GPGSV,5,5,17,50,10,089,*4A
$GLGSV,3,1,09,68,12,064,,69,36,112,22,70,20,185,,73,64,302,22*67
$GLGSV,3,2,09,74,20,327,,80,49,168,30,83,01,020,,84,14,331,11*63
$GLGSV,3,3,09,85,09,283,10*50
$GNGLL,0419.80612,S,05539.82696,E,062221.00,A,A*67
$GNGRS,062221.00,1,-14.6,-8.1,-26.3,2.2,5.1,2.5,1.1,-6.6,-1.0,-12.4,,*6D
$GNGRS,062221.00,1,3.4,12.5,2.9,-14.0,-20.0,,,,,,,*46
$GNGST,062221.00,54,,,,4.7,4.8,13*6E
$GNZDA,062221.00,28,05,2025,00,00*77
$GNGBS,062221.00,4.7,4.8,12.9,,,,*6F
$GNTXT,01,01,01,More than 100 frame errors, UART RX was disabled*70
b0Lk)%
IKE
m#' !!,q!9V%Yn{4V_:R 
YvD@E$pFI@.JGP1IST
KUfpbkU
1s5'$GNRMC,062222.00,A,0419.80608,S,05539.82711,E,0.113,,280525,,,A*73
$GNVTG,,T,,M,0.113,N,0.210,K,A*3D
$GNGNS,062222.00,0419.80608,S,05539.82711,E,AA,15,0.82,5.6,-47.6,,*5B
$GNGGA,062222.00,0419.80608,S,05539.82711,E,1,12,0.82,5.6,M,-47.6,M,,*76
$GNGSA,A,3,24,05,20,15,12,13,18,29,25,23,,,1.48,0.82,1.23*1B
$GNGSA,A,3,80,84,69,73,85,,,,,,,,1.48,0.82,1.23*19
$GPGSV,5,1,17,05,41,037,21,10,04,212,,12,73,075,30,13,13,109,14*73
$GPGSV,5,2,17,15,39,140,35,18,32,289,30,20,09,033,09,23,44,210,23*7C
$GPGSV,5,3,17,24,33,178,17,25,57,342,26,28,04,293,,29,14,345,18*70
$GPGSV,5,4,17,36,52,277,31,40,86,351,,41,58,082,,49,32,274,*7E
$GPGSV,5,5,17,50,10,089,*4A
$GLGSV,3,1,09,68,12,064,,69,36,112,19,70,20,185,,73,64,302,22*6F
$GLGSV,3,2,09,74,20,327,,80,49,168,20,83,01,020,,84,14,331,10*63
$GLGSV,3,3,09,85,09,283,11*51
$GNGLL,0419.80608,S,05539.82711,E,062222.00,A,A*61
$GNGRS,062222.00,1,-15.4,-10.4,30.2,2.0,5.8,0.2,-2.3,-6.6,2.2,-11.7,,*74
$GNGRS,062222.00,1,3.3,15.4,4.6,-13.5,22.6,,,,,,,*66
$GNGST,062222.00,33259,,,,4.7,4.8,13*52
$GNZDA,062222.00,28,05,2025,00,00*74
$GNGBS,062222.00,4.7,4.8,12.9,,,,*6C
$GNTXT,01,01,01,More than 100 frame errors, UART RX was disabled*70
b0Lho)%(
IK
m"' !U!,!l9Vp%Y{4V_:R 
YvD@E$p]FI@.JGP1STKU
bhoU
s$GNRMC,062223.00,A,0419.80608,S,05539.82718,E,0.090,,280525,,,A*71
$GNVTG,,T,,M,0.090,N,0.166,K,A*35
$GNGNS,062223.00,0419.80608,S,05539.82718,E,AA,15,0.82,5.7,-47.6,,*52
$GNGGA,062223.00,0419.80608,S,05539.82718,E,1,12,0.82,5.7,M,-47.6,M,,*7F
$GNGSA,A,3,24,05,20,15,12,13,18,29,25,23,,,1.48,0.82,1.23*1B
$GNGSA,A,3,80,84,69,73,85,,,,,,,,1.48,0.82,1.23*19
$GPGSV,5,1,17,05,41,037,24,10,04,212,,12,73,075,30,13,13,109,13*71
$GPGSV,5,2,17,15,39,140,34,18,32,289,29,20,09,033,08,23,44,210,24*73
$GPGSV,5,3,17,24,33,178,19,25,57,342,27,28,04,293,,29,14,345,18*7F
$GPGSV,5,4,17,36,52,277,31,40,86,351,,41,58,082,,49,32,274,*7E
$GPGSV,5,5,17,50,10,089,*4A
$GLGSV,3,1,09,68,12,064,,69,36,112,18,70,20,185,,73,64,302,23*6F
$GLGSV,3,2,09,74,20,327,,80,49,168,20,83,01,020,,84,14,331,08*6A
$GLGSV,3,3,09,85,09,283,10*50
$GNGLL,0419.80608,S,05539.82718,E,062223.00,A,A*69
$GNGRS,062223.00,1,-14.3,-9.8,30.0,2.1,0.1,1.6,-1.7,-8.2,3.7,-10.8,,*4A
$GNGRS,062223.00,1,-3.3,15.3,6.1,-12.6,22.7,,,,,,,*4B
$GNGST,062223.00,49889,,,,4.7,4.8,13*59
$GNZDA,062223.00,28,05,2025,00,00*75
$GNGBS,062223.00,4.7,4.8,12.8,,,,*6C
$GNTXT,01,01,01,More than 100 frame errors, UART RX was disabled*70
b0LPs)%A
IK
m"' !(!,!9V%YP{4V_:R 
YvD@E$pFI@.JGP1ST
KU&(DbPsU
s$GNRMC,062224.00,A,0419.80601,S,05539.82728,E,0.152,,280525,,,A*73
$GNVTG,,T,,M,0.152,N,0.282,K,A*33
$GNGNS,062224.00,0419.80601,S,05539.82728,E,AA,15,0.81,5.6,-47.6,,*5D
$GNGGA,062224.00,0419.80601,S,05539.82728,E,1,12,0.81,5.6,M,-47.6,M,,*70
$GNGSA,A,3,24,05,20,15,12,13,18,29,25,23,,,1.49,0.81,1.25*1F
$GNGSA,A,3,80,84,69,73,85,,,,,,,,1.49,0.81,1.25*1D
$GPGSV,5,1,17,05,41,037,23,10,04,212,,12,73,075,30,13,13,109,11*74
$GPGSV,5,2,17,15,39,140,34,18,32,289,30,20,09,033,08,23,44,210,27*78
$GPGSV,5,3,17,24,33,178,21,25,57,342,27,28,04,293,,29,14,345,17*7B
$GPGSV,5,4,17,36,52,277,31,40,86,351,,41,58,082,,49,32,274,*7E
$GPGSV,5,5,17,50,10,089,*4A
$GLGSV,3,1,09,68,12,064,,69,36,112,16,70,20,185,,73,64,302,24*66
$GLGSV,3,2,09,74,20,327,,80,49,168,23,83,01,020,,84,14,331,10*60
$GLGSV,3,3,09,85,09,283,09*58
$GNGLL,0419.80601,S,05539.82728,E,062224.00,A,A*64
$GNGRS,062224.00,1,-15.7,-9.6,-6.4,2.1,-0.1,1.8,0.4,-9.4,4.4,-10.7,,*5A
$GNGRS,062224.00,1,6.9,-62.4,9.6,-12.6,103,,,,,,,*67
$GNGST,062224.00,57,,,,4.7,4.8,13*68
$GNZDA,062224.00,28,05,2025,00,00*72
$GNGBS,062224.00,4.7,4.8,12.7,,,,*64
$GNTXT,01,01,01,More than 100 frame errors, UART RX was disabled*70
b0L8w)%v
IK
m ' !9!,d!9Vu%Y{4V_:R 
YvD@E$pfFI@.SJGP19STKUb.b8wU
s\$GNRMC,062225.00,A,0419.80597,S,05539.82741,E,0.237,,280525,,,A*71
$GNVTG,,T,,M,0.237,N,0.440,K,A*3B
$GNGNS,062225.00,0419.80597,S,05539.82741,E,AA,15,0.82,5.7,-47.6,,*5D
$GNGGA,062225.00,0419.80597,S,05539.82741,E,1,12,0.82,5.7,M,-47.6,M,,*70
$GNGSA,A,3,24,05,20,15,12,13,18,29,25,23,,,1.48,0.82,1.23*1B
$GNGSA,A,3,80,84,69,73,85,,,,,,,,1.48,0.82,1.23*19
$GPGSV,5,1,17,05,41,037,24,10,04,212,,12,73,075,28,13,13,109,11*7A
$GPGSV,5,2,17,15,39,140,32,18,32,289,29,20,09,033,11,23,44,210,28*71
$GPGSV,5,3,17,24,33,178,21,25,57,342,25,28,04,293,,29,14,345,16*78
$GPGSV,5,4,17,36,52,277,,40,86,351,,41,58,082,,49,32,274,*7C
$GPGSV,5,5,17,50,10,089,*4A
$GLGSV,3,1,09,68,12,064,,69,36,112,18,70,20,185,,73,64,302,23*6F
$GLGSV,3,2,09,74,20,327,,80,49,168,27,83,01,020,,84,14,331,11*65
$GLGSV,3,3,09,85,09,283,11*51
$GNGLL,0419.80597,S,05539.82741,E,062225.00,A,A*66
$GNGRS,062225.00,1,-13.5,-9.1,30.6,2.0,2.7,-0.7,3.1,-7.9,6.3,-14.4,,*4E
$GNGRS,062225.00,1,3.1,15.7,11.3,-14.5,22.8,,,,,,,*58
$GNGST,062225.00,46563,,,,4.7,4.8,13*59
$GNZDA,062225.00,28,05,2025,00,00*73
$GNGBS,062225.00,4.7,4.8,12.6,,,,*64
$GNTXT,01,01,01,More than 100 frame errors, UART RX was disabled*70
b0L {)%[
IK
m#' !!,!*9Vq%Y_{4V_:R 
YvD@E$pRFI@.JGP1STKU"b {U
s$GNRMC,062226.00,A,0419.80586,S,05539.82756,E,0.163,,280525,,,A*76
$GNVTG,,T,,M,0.163,N,0.302,K,A*38
$GNGNS,062226.00,0419.80586,S,05539.82756,E,AA,15,0.82,5.3,-47.6,,*5C
$GNGGA,062226.00,0419.80586,S,05539.82756,E,1,12,0.82,5.3,M,-47.6,M,,*71
$GNGSA,A,3,24,05,20,15,12,13,18,29,25,23,,,1.48,0.82,1.23*1B
$GNGSA,A,3,80,84,69,73,85,,,,,,,,1.48,0.82,1.23*19
$GPGSV,5,1,17,05,41,037,24,10,04,212,,12,73,075,29,13,13,109,13*79
$GPGSV,5,2,17,15,39,140,35,18,32,289,30,20,09,033,11,23,44,210,28*7E
$GPGSV,5,3,17,24,33,178,19,25,57,342,25,28,04,293,,29,14,345,18*7D
$GPGSV,5,4,17,36,52,277,,40,86,351,,41,58,082,,49,32,274,*7C
$GPGSV,5,5,17,50,10,089,*4A
$GLGSV,3,1,09,68,12,064,,69,36,112,21,70,20,185,,73,64,302,22*64
$GLGSV,3,2,09,74,20,327,,80,49,168,26,83,01,020,,84,14,331,08*6C
$GLGSV,3,3,09,85,09,283,09*58
$GNGLL,0419.80586,S,05539.82756,E,062226.00,A,A*63
$GNGRS,062226.00,1,-12.4,-6.8,30.1,2.2,-2.6,-0.8,2.2,-6.7,6.2,-10.8,,*69
$GNGRS,062226.00,1,0.0,15.3,11.1,-15.7,22.7,,,,,,,*53
$GNGST,062226.00,69844,,,,4.7,4.8,13*5F
$GNZDA,062226.00,28,05,2025,00,00*70
$GNGBS,062226.00,4.7,4.8,12.6,,,,*67
$GNTXT,01,01,01,More than 100 frame errors, UART RX was disabled*70
b0L)%
IK
m#' ![!,w!9V%Y/{4V_:R 
YvD@E$pFI@.JGP1STKuUMzbU
sl,$GNRMC,062227.00,A,0419.80581,S,05539.82762,E,0.070,,280525,,,A*74
$GNVTG,,T,,M,0.070,N,0.130,K,A*38
$GNGNS,062227.00,0419.80581,S,05539.82762,E,AA,15,0.82,4.9,-47.6,,*56
$GNGGA,062227.00,0419.80581,S,05539.82762,E,1,12,0.82,4.9,M,-47.6,M,,*7B
$GNGSA,A,3,24,05,20,15,12,13,18,29,25,23,,,1.48,0.82,1.23*1B
$GNGSA,A,3,80,84,69,73,85,,,,,,,,1.48,0.82,1.23*19
$GPGSV,5,1,17,05,41,037,24,10,04,212,,12,73,075,31,13,13,109,17*74
$GPGSV,5,2,17,15,39,140,35,18,32,289,30,20,09,033,16,23,44,210,29*78
$GPGSV,5,3,17,24,33,178,18,25,57,342,24,28,04,293,,29,14,345,20*76
$GPGSV,5,4,17,36,52,277,,40,86,351,,41,58,082,,49,32,274,*7C
$GPGSV,5,5,17,50,10,089,*4A
$GLGSV,3,1,09,68,12,064,,69,36,112,23,70,20,185,,73,64,302,24*60
$GLGSV,3,2,09,74,20,327,,80,49,168,25,83,01,020,,84,14,331,12*64
$GLGSV,3,3,09,85,09,283,09*58
$GNGLL,0419.80581,S,05539.82762,E,062227.00,A,A*62
$GNGRS,062227.00,1,-11.2,-8.7,20.0,2.4,-0.9,-3.2,3.5,-7.2,9.4,-6.5,,*5F
$GNGRS,062227.00,1,-0.7,19.1,12.5,-13.9,53.8,,,,,,,*70
$GNGST,062227.00,50,,,,4.6,4.7,12*63
$GNZDA,062227.00,28,05,2025,00,00*71
$GNGBS,062227.00,4.6,4.7,12.4,,,,*6A
$GNTXT,01,01,01,More than 100 frame errors, UART RX was disabled*70
b0L)%m
IK[
mq#' !!,g!9V%Y{4V_:R 
YvD@E$pFI@.JGP1#STK UbU
sD$GNRMC,062228.00,A,0419.80583,S,05539.82769,E,0.036,,280525,,,A*70
$GNVTG,,T,,M,0.036,N,0.066,K,A*38
$GNGNS,062228.00,0419.80583,S,05539.82769,E,AA,15,0.82,4.9,-47.6,,*50
$GNGGA,062228.00,0419.80583,S,05539.82769,E,1,12,0.82,4.9,M,-47.6,M,,*7D
$GNGSA,A,3,24,05,20,15,12,13,18,29,25,23,,,1.48,0.82,1.23*1B
$GNGSA,A,3,80,84,69,73,85,,,,,,,,1.48,0.82,1.23*19
$GPGSV,5,1,17,05,41,037,23,10,04,212,,12,73,075,31,13,13,109,16*72
$GPGSV,5,2,17,15,39,140,35,18,32,289,29,20,09,033,13,23,44,210,28*74
$GPGSV,5,3,17,24,33,178,18,25,57,342,22,28,04,293,,29,14,345,18*7B
$GPGSV,5,4,17,36,52,277,,40,86,351,,41,58,082,,49,32,274,*7C
$GPGSV,5,5,17,50,10,089,*4A
$GLGSV,3,1,09,68,12,064,,69,36,112,21,70,20,185,,73,64,302,26*60
$GLGSV,3,2,09,74,20,327,,80,49,168,24,83,01,020,,84,14,331,12*65
$GLGSV,3,3,09,85,09,283,09*58
$GNGLL,0419.80583,S,05539.82769,E,062228.00,A,A*64
$GNGRS,062228.00,1,-13.5,-9.1,30.7,2.4,-1.6,-4.0,-0.8,-7.9,14.4,-4.1,,*4D
$GNGRS,062228.00,1,0.4,15.7,15.6,-11.3,22.7,,,,,,,*5E
$GNGST,062228.00,46563,,,,4.6,4.7,12*5B
$GNZDA,062228.00,28,05,2025,00,00*7E
$GNGBS,062228.00,4.6,4.7,12.3,,,,*62
$GNTXT,01,01,01,More than 100 frame errors, UART RX was disabled*70
b0L)%
IK{
mS$' !w!,\!9V%YL{4V_:R 
YvD@E$pFI@.JGP1STK.UmbU
s$GNRMC,062229.00,A,0419.80591,S,05539.82767,E,0.271,,280525,,,A*7D
$GNVTG,,T,,M,0.271,N,0.503,K,A*3F
$GNGNS,062229.00,0419.80591,S,05539.82767,E,AA,15,0.82,5.2,-47.6,,*56
$GNGGA,062229.00,0419.80591,S,05539.82767,E,1,12,0.82,5.2,M,-47.6,M,,*7B
$GNGSA,A,3,24,05,20,15,12,13,18,29,25,23,,,1.48,0.82,1.23*1B
$GNGSA,A,3,80,84,69,73,85,,,,,,,,1.48,0.82,1.23*19
$GPGSV,5,1,17,05,41,037,22,10,04,212,,12,73,075,30,13,13,109,14*70
$GPGSV,5,2,17,15,39,140,36,18,32,289,28,20,09,033,11,23,44,210,27*7B
$GPGSV,5,3,17,24,33,178,19,25,57,342,24,28,04,293,,29,14,345,17*73
$GPGSV,5,4,17,36,52,277,,40,86,351,,41,58,082,,49,32,274,*7C
$GPGSV,5,5,17,50,10,089,*4A
$GLGSV,3,1,09,68,12,064,,69,36,112,18,70,20,185,,73,64,302,25*69
$GLGSV,3,2,09,74,20,327,,80,49,168,23,83,01,020,,84,14,331,13*63
$GLGSV,3,3,09,85,09,283,11*51
$GNGLL,0419.80591,S,05539.82767,E,062229.00,A,A*68
$GNGRS,062229.00,1,-14.1,-7.7,31.0,2.5,-1.3,-4.3,6.3,-6.9,14.4,-4.2,,*64
$GNGRS,062229.00,1,1.9,15.8,16.8,-10.0,22.9,,,,,,,*5D
$GNGST,062229.00,69844,,,,4.6,4.6,12*5E
$GNZDA,062229.00,28,05,2025,00,00*7F
$GNGBS,062229.00,4.6,4.6,12.2,,,,*63
$GNTXT,01,01,01,More than 100 frame errors, UART RX was disabled*70
b0L)%
IK
mq$' !;!,!E9Vz%Y){4V_:R 
YvD@E$pFI@.JGP1ST
KU
@
cbU
psQ$GNRMC,062230.00,A,0419.80586,S,05539.82774,E,0.083,,280525,,,A*7E
$GNVTG,,T,,M,0.083,N,0.154,K,A*36
$GNGNS,062230.00,0419.80586,S,05539.82774,E,AA,15,0.78,4.6,-47.6,,*5A
$GNGGA,062230.00,0419.80586,S,05539.82774,E,1,12,0.78,4.6,M,-47.6,M,,*77
$GNGSA,A,3,24,05,20,15,12,13,18,29,25,23,,,1.41,0.78,1.17*10
$GNGSA,A,3,80,84,69,73,85,,,,,,,,1.41,0.78,1.17*12
$GPGSV,5,1,17,05,41,037,22,10,04,212,,12,73,075,31,13,13,109,13*76
$GPGSV,5,2,17,15,39,140,36,18,32,289,29,20,09,033,09,23,44,210,27*73
$GPGSV,5,3,17,24,33,178,20,25,57,342,25,28,04,293,,29,14,345,15*7A
$GPGSV,5,4,17,36,52,277,,40,86,351,,41,58,082,,49,32,274,*7C
$GPGSV,5,5,17,50,10,089,*4A
$GLGSV,3,1,09,68,12,064,,69,36,112,18,70,20,185,,73,64,302,24*68
$GLGSV,3,2,09,74,20,327,,80,49,168,21,83,01,020,,84,14,331,10*62
$GLGSV,3,3,09,85,09,283,10*50
$GNGLL,0419.80586,S,05539.82774,E,062230.00,A,A*64
$GNGRS,062230.00,1,-12.1,-5.1,-4.8,2.4,-5.9,-6.6,5.7,-7.3,14.0,-10.8,,*42
$GNGRS,062230.00,1,2.8,11.6,17.0,-8.6,26.2,,,,,,,*64
$GNGST,062230.00,64,,,,4.6,4.6,12*63
$GNZDA,062230.00,28,05,2025,00,00*77
$GNGBS,062230.00,4.6,4.6,12.1,,,,*68
$GNTXT,01,01,01,More than 100 frame errors, UART RX was disabled*70
b0L)%
IK
mw#' !
!,!{9Vd%Y-{4V_:R 
YvD@E$pjFI@.JGP1STKUbU
Xs$GNRMC,062231.00,A,0419.80581,S,05539.82784,E,0.080,,280525,,,A*74
$GNVTG,,T,,M,0.080,N,0.149,K,A*39
$GNGNS,062231.00,0419.80581,S,05539.82784,E,AA,14,0.85,4.7,-47.6,,*51
$GNGGA,062231.00,0419.80581,S,05539.82784,E,1,12,0.85,4.7,M,-47.6,M,,*7D
$GNGSA,A,3,24,05,20,15,12,13,18,29,25,23,,,1.60,0.85,1.36*12
$GNGSA,A,3,80,69,73,85,,,,,,,,,1.60,0.85,1.36*1C
$GPGSV,5,1,17,05,41,037,23,10,04,212,,12,73,075,30,13,13,109,14*71
$GPGSV,5,2,17,15,39,140,35,18,32,289,29,20,09,033,10,23,44,210,28*77
$GPGSV,5,3,17,24,33,178,21,25,57,342,24,28,04,293,,29,14,345,16*79
$GPGSV,5,4,17,36,52,277,,40,86,351,,41,58,082,,49,32,274,*7C
$GPGSV,5,5,17,50,10,089,*4A
$GLGSV,3,1,09,68,12,064,,69,36,112,18,70,20,185,,73,64,302,23*6F
$GLGSV,3,2,09,74,20,327,,80,49,168,20,83,01,020,,84,14,331,06*64
$GLGSV,3,3,09,85,09,283,11*51
$GNGLL,0419.80581,S,05539.82784,E,062231.00,A,A*6D
$GNGRS,062231.00,1,-9.0,-3.0,30.5,2.4,-1.1,-6.5,1.3,-7.2,11.2,-14.0,,*6D
$GNGRS,062231.00,1,4.1,19.0,-8.1,22.7,,,,,,,,*7A
$GNGST,062231.00,47,,,,4.6,4.6,12*63
$GNZDA,062231.00,28,05,2025,00,00*76
$GNGBS,062231.00,4.6,4.6,12.1,,,,*69
$GNTXT,01,01,01,More than 100 frame errors, UART RX was disabled*70
b0L)%L
IK,
m#' !c
!,S!U9V%Y{4V_:R 
YvD@E$pFI@._JGP1STKUbU
@s!$GNRMC,062232.00,A,0419.80563,S,05539.82800,E,0.159,,280525,,,A*7D
$GNVTG,,T,,M,0.159,N,0.295,K,A*3E
$GNGNS,062232.00,0419.80563,S,05539.82800,E,AA,15,0.82,4.3,-47.6,,*5F
$GNGGA,062232.00,0419.80563,S,05539.82800,E,1,12,0.82,4.3,M,-47.6,M,,*72
$GNGSA,A,3,24,05,20,15,12,13,18,29,25,23,,,1.48,0.82,1.23*1B
$GNGSA,A,3,80,84,69,73,85,,,,,,,,1.48,0.82,1.23*19
$GPGSV,5,1,17,05,41,037,25,10,04,212,,12,73,075,29,13,13,109,13*78
$GPGSV,5,2,17,15,39,140,35,18,32,289,28,20,09,033,10,23,44,210,27*79
$GPGSV,5,3,17,24,33,178,19,25,57,342,24,28,04,293,,29,14,345,18*7C
$GPGSV,5,4,17,36,52,277,,40,86,351,,41,58,082,,49,32,274,*7C
$GPGSV,5,5,17,50,10,089,*4A
$GLGSV,3,1,09,68,12,064,,69,36,112,16,70,20,185,,73,64,302,23*61
$GLGSV,3,2,09,74,20,327,,80,49,168,21,83,01,020,,84,14,331,09*6A
$GLGSV,3,3,09,85,09,283,08*59
$GNGLL,0419.80563,S,05539.82800,E,062232.00,A,A*61
$GNGRS,062232.00,1,-6.8,-1.8,29.7,2.2,3.0,-8.3,6.1,-5.3,9.0,-22.2,,*73
$GNGRS,062232.00,1,4.2,14.9,22.4,-6.7,22.6,,,,,,,*6D
$GNGST,062232.00,63192,,,,4.6,4.5,12*5F
$GNZDA,062232.00,28,05,2025,00,00*75
$GNGBS,062232.00,4.6,4.5,12.0,,,,*68
$GNTXT,01,01,01,More than 100 frame errors, UART RX was disabled*70
b0Lx)%h
IKQ
m#' !!,p!9V%Y{4V_:R 
YvD@E$p}FI@.JGP1)STKUbxU
(sz$GNRMC,062233.00,A,0419.80554,S,05539.82807,E,0.107,,280525,,,A*74
$GNVTG,,T,,M,0.107,N,0.197,K,A*34
$GNGNS,062233.00,0419.80554,S,05539.82807,E,AA,14,0.85,4.1,-47.6,,*59
$GNGGA,062233.00,0419.80554,S,05539.82807,E,1,12,0.85,4.1,M,-47.6,M,,*75
$GNGSA,A,3,24,05,20,15,12,18,29,25,23,,,,1.61,0.85,1.36*11
$GNGSA,A,3,80,84,69,73,85,,,,,,,,1.61,0.85,1.36*11
$GPGSV,5,1,17,05,41,037,26,10,04,212,,12,73,075,29,13,13,109,09*70
$GPGSV,5,2,17,15,39,140,35,18,32,289,27,20,09,033,11,23,44,210,27*77
$GPGSV,5,3,17,24,33,178,17,25,57,342,24,28,04,293,,29,14,345,19*73
$GPGSV,5,4,17,36,52,277,,40,86,351,,41,58,082,,49,32,274,*7C
$GPGSV,5,5,17,50,10,089,*4A
$GLGSV,3,1,09,68,12,064,,69,36,112,15,70,20,185,,73,64,302,23*62
$GLGSV,3,2,09,74,20,327,,80,49,168,22,83,01,020,,84,14,331,12*63
$GLGSV,3,3,09,85,09,283,11*51
$GNGLL,0419.80554,S,05539.82807,E,062233.00,A,A*63
$GNGRS,062233.00,1,-5.4,-1.5,-7.9,1.9,-1.7,6.7,-5.3,9.4,-16.8,,,*48
$GNGRS,062233.00,1,5.5,20.5,21.7,-5.5,-28.8,,,,,,,*49
$GNGST,062233.00,54,,,,4.5,4.5,12*63
$GNZDA,062233.00,28,05,2025,00,00*74
$GNGBS,062233.00,4.5,4.5,12.0,,,,*6A
$GNTXT,01,01,01,More than 100 frame errors, UART RX was disabled*70
b0L`)%
IK
m"' !o!,!q9Vy%Y{4V_:R 
YvD@E$pFI@.7JGP1'STKUEb`U
sR$GNRMC,062234.00,A,0419.80544,S,05539.82815,E,0.027,,280525,,,A*72
$GNVTG,,T,,M,0.027,N,0.050,K,A*3D
$GNGNS,062234.00,0419.80544,S,05539.82815,E,AA,15,0.86,3.9,-47.6,,*51
$GNGGA,062234.00,0419.80544,S,05539.82815,E,1,12,0.86,3.9,M,-47.6,M,,*7C
$GNGSA,A,3,24,05,20,15,12,13,18,29,25,23,,,1.50,0.86,1.23*16
$GNGSA,A,3,80,84,69,73,85,,,,,,,,1.50,0.86,1.23*14
$GPGSV,5,1,17,05,41,037,26,10,04,212,,12,73,075,29,13,13,109,12*7A
$GPGSV,5,2,17,15,39,140,34,18,32,289,27,20,09,033,14,23,44,210,28*7C
$GPGSV,5,3,17,24,33,178,19,25,57,342,23,28,04,293,,29,14,345,20*70
$GPGSV,5,4,17,36,52,277,,40,86,351,,41,58,082,,49,32,274,*7C
$GPGSV,5,5,17,50,10,089,*4A
$GLGSV,3,1,09,68,12,064,,69,36,112,16,70,20,185,,73,64,302,25*67
$GLGSV,3,2,09,74,20,327,,80,49,168,24,83,01,020,,84,14,331,09*6F
$GLGSV,3,3,09,85,09,283,11*51
$GNGLL,0419.80544,S,05539.82815,E,062234.00,A,A*66
$GNGRS,062234.00,1,-4.0,-0.5,30.4,1.6,-2.4,-13.7,6.2,-7.9,8.9,-18.5,,*64
$GNGRS,062234.00,1,5.5,15.4,22.9,-2.0,22.6,,,,,,,*6F
$GNGST,062234.00,113023,,,,4.5,4.5,12*67
$GNZDA,062234.00,28,05,2025,00,00*73
$GNGBS,062234.00,4.5,4.5,12.0,,,,*6D
$GNTXT,01,01,01,More than 100 frame errors, UART RX was disabled*70
b0LH)%
IK
mk$' !p
!,!9V\%Y[{4V_:R 
YwD@E$pFI@.JGP14STKUbHU
s)V$GNRMC,062235.00,A,0419.80541,S,05539.82821,E,0.085,,280525,,,A*79
$GNVTG,,T,,M,0.085,N,0.157,K,A*33
$GNGNS,062235.00,0419.80541,S,05539.82821,E,AA,15,0.86,3.9,-47.6,,*52
$GNGGA,062235.00,0419.80541,S,05539.82821,E,1,12,0.86,3.9,M,-47.6,M,,*7F
$GNGSA,A,3,24,05,20,15,12,13,18,29,25,23,,,1.50,0.86,1.23*16
$GNGSA,A,3,80,84,69,73,85,,,,,,,,1.50,0.86,1.23*14
$GPGSV,5,1,17,05,41,037,28,10,04,212,,12,73,075,28,13,13,109,15*72
$GPGSV,5,2,17,15,39,140,36,18,32,289,27,20,09,033,10,23,44,210,27*75
$GPGSV,5,3,17,24,33,178,19,25,57,342,26,28,04,293,,29,14,345,21*74
$GPGSV,5,4,17,36,52,277,,40,86,351,,41,58,082,,49,32,274,*7C
$GPGSV,5,5,17,50,10,089,*4A
$GLGSV,3,1,09,68,12,064,,69,36,112,17,70,20,185,,73,64,302,26*65
$GLGSV,3,2,09,74,20,327,,80,49,168,23,83,01,020,,84,14,331,14*64
$GLGSV,3,3,09,85,09,283,09*58
$GNGLL,0419.80541,S,05539.82821,E,062235.00,A,A*65
$GNGRS,062235.00,1,-5.8,-5.5,30.2,1.6,2.4,-14.3,6.2,-9.3,6.0,-15.3,,*49
$GNGRS,062235.00,1,5.6,15.3,22.4,-3.4,22.7,,,,,,,*63
$GNGST,062235.00,137861,,,,4.5,4.5,12*6E
$GNZDA,062235.00,28,05,2025,00,00*72
$GNGBS,062235.00,4.5,4.5,12.0,,,,*6C
$GNTXT,01,01,01,More than 100 frame errors, UART RX was disabled*70
b0L0)%
IK

m#' !!w,|!j9V%Y{4V_:R 
YwD@E$pFI@.JGP1STKUP?b0U
t$GNRMC,062236.00,A,0419.80541,S,05539.82826,E,0.060,,280525,,,A*76
$GNVTG,,T,,M,0.060,N,0.111,K,A*3A
$GNGNS,062236.00,0419.80541,S,05539.82826,E,AA,15,1.01,4.0,-47.6,,*56
$GNGGA,062236.00,0419.80541,S,05539.82826,E,1,12,1.01,4.0,M,-47.6,M,,*7B
$GNGSA,A,3,24,05,20,15,12,13,18,29,25,23,,,1.94,1.01,1.65*12
$GNGSA,A,3,80,84,69,73,85,,,,,,,,1.94,1.01,1.65*10
$GPGSV,5,1,17,05,41,037,28,10,04,212,,12,73,075,28,13,13,109,10*77
$GPGSV,5,2,17,15,39,140,35,18,32,289,27,20,09,033,11,23,44,210,28*78
$GPGSV,5,3,17,24,33,178,17,25,57,342,27,28,04,293,,29,14,345,20*7A
$GPGSV,5,4,17,36,52,277,,40,86,351,,41,58,082,,49,32,274,*7C
$GPGSV,5,5,17,50,10,089,*4A
$GLGSV,3,1,09,68,12,064,,69,36,112,18,70,20,185,,73,64,302,27*6B
$GLGSV,3,2,09,74,20,327,,80,49,168,22,83,01,020,,84,14,331,09*69
$GLGSV,3,3,09,85,09,283,09*58
$GNGLL,0419.80541,S,05539.82826,E,062236.00,A,A*61
$GNGRS,062236.00,1,-6.6,-8.5,-27.0,1.8,2.0,-49.5,4.0,-8.9,4.1,-14.1,,*6C
$GNGRS,062236.00,1,2.7,48.5,22.6,-3.3,46.9,,,,,,,*61
$GNGST,062236.00,37,,,,4.4,4.4,12*63
$GNZDA,062236.00,28,05,2025,00,00*71
$GNGBS,062236.00,4.4,4.4,12.0,,,,*6F
$GNTXT,01,01,01,More than 100 frame errors, UART RX was disabled*70
b0L)%^
IK
m$' !!,>!9V%Y>{4V_:R 
YwD@E$pFI@.JGP1STKU[bU
t($GNRMC,062237.00,A,0419.80541,S,05539.82830,E,0.015,,280525,,,A*72
$GNVTG,,T,,M,0.015,N,0.029,K,A*32
$GNGNS,062237.00,0419.80541,S,05539.82830,E,AA,14,1.00,3.9,-47.6,,*5E
$GNGGA,062237.00,0419.80541,S,05539.82830,E,1,12,1.00,3.9,M,-47.6,M,,*72
$GNGSA,A,3,24,05,20,15,12,13,18,29,25,23,,,1.78,1.00,1.48*1E
$GNGSA,A,3,80,84,69,73,,,,,,,,,1.78,1.00,1.48*11
$GPGSV,5,1,17,05,41,037,28,10,04,212,,12,73,075,26,13,13,109,09*71
$GPGSV,5,2,17,15,39,140,36,18,32,289,28,20,09,033,13,23,44,210,28*76
$GPGSV,5,3,17,24,33,178,18,25,57,342,26,28,04,293,,29,14,345,21*75
$GPGSV,5,4,17,36,52,277,,40,86,351,,41,58,082,,49,32,274,*7C
$GPGSV,5,5,17,50,10,089,*4A
$GLGSV,3,1,09,68,12,064,,69,36,112,20,70,20,185,,73,64,302,27*60
$GLGSV,3,2,09,74,20,327,,80,49,168,21,83,01,020,,84,14,331,09*6A
$GLGSV,3,3,09,85,09,283,07*56
$GNGLL,0419.80541,S,05539.82830,E,062237.00,A,A*67
$GNGRS,062237.00,1,-6.3,-6.7,30.7,1.7,-0.3,22.0,3.9,-9.6,4.4,-12.2,,*4E
$GNGRS,062237.00,1,0.2,15.6,23.3,-3.5,,,,,,,,*7B
$GNGST,062237.00,3586708,,,,4.3,4.4,12*56
$GNZDA,062237.00,28,05,2025,00,00*70
$GNGBS,062237.00,4.3,4.4,11.9,,,,*63
$GNTXT,01,01,01,More than 100 frame errors, UART RX was disabled*70
b0L)%
IK
m$' !!,!9V8%Y/{4V_:R 
YwD@E$pFI@.UJGP1STKU:bU
t$GNRMC,062238.00,A,0419.80544,S,05539.82833,E,0.015,,280525,,,A*7B
$GNVTG,,T,,M,0.015,N,0.027,K,A*3C
$GNGNS,062238.00,0419.80544,S,05539.82833,E,AA,15,1.00,3.8,-47.6,,*57
$GNGGA,062238.00,0419.80544,S,05539.82833,E,1,12,1.00,3.8,M,-47.6,M,,*7A
$GNGSA,A,3,24,05,20,15,12,13,18,29,25,23,,,1.78,1.00,1.48*1E
$GNGSA,A,3,80,84,69,73,85,,,,,,,,1.78,1.00,1.48*1C
$GPGSV,5,1,17,05,41,037,27,10,04,212,,12,73,075,25,13,13,109,08*7C
$GPGSV,5,2,17,15,39,140,36,18,32,289,27,20,09,033,14,23,44,210,28*7E
$GPGSV,5,3,17,24,33,178,16,25,57,342,25,28,04,293,,29,14,345,21*78
$GPGSV,5,4,17,36,52,277,,40,86,351,,41,58,082,,49,32,274,*7C
$GPGSV,5,5,17,50,10,089,*4A
$GLGSV,3,1,09,68,12,064,,69,36,112,22,70,20,185,,73,64,302,27*62
$GLGSV,3,2,09,74,20,327,,80,49,168,21,83,01,020,,84,14,331,15*67
$GLGSV,3,3,09,85,09,283,09*58
$GNGLL,0419.80544,S,05539.82833,E,062238.00,A,A*6E
$GNGRS,062238.00,1,-3.1,-11.2,30.6,1.9,-0.1,22.0,2.7,-9.8,3.1,-12.7,,*7E
$GNGRS,062238.00,1,1.5,15.6,20.4,-4.3,22.3,,,,,,,*6A
$GNGST,062238.00,3586708,,,,4.3,4.3,12*5E
$GNZDA,062238.00,28,05,2025,00,00*7F
$GNGBS,062238.00,4.3,4.3,11.9,,,,*6B
$GNTXT,01,01,01,More than 100 frame errors, UART RX was disabled*70
b0L)%
IKl
mC$' !K!,%!9VZ%Y:{4V_:R 
YwD@E$pFI@.JGP1STKBU;KbU
t$GNRMC,062239.00,A,0419.80536,S,05539.82848,E,0.205,,280525,,,A*70
$GNVTG,,T,,M,0.205,N,0.379,K,A*37
$GNGNS,062239.00,0419.80536,S,05539.82848,E,AA,15,0.84,3.5,-47.6,,*5F
$GNGGA,062239.00,0419.80536,S,05539.82848,E,1,12,0.84,3.5,M,-47.6,M,,*72
$GNGSA,A,3,24,05,20,15,12,13,18,29,25,23,,,1.54,0.84,1.30*12
$GNGSA,A,3,80,84,69,73,85,,,,,,,,1.54,0.84,1.30*10
$GPGSV,5,1,17,05,41,037,25,10,04,212,,12,73,075,23,13,13,109,11*70
$GPGSV,5,2,17,15,39,140,36,18,32,289,27,20,09,033,12,23,44,210,28*78
$GPGSV,5,3,17,24,33,178,13,25,57,342,26,28,04,293,,29,14,345,20*7F
$GPGSV,5,4,17,36,52,277,,40,86,351,,41,58,082,,49,32,274,*7C
$GPGSV,5,5,17,50,10,089,*4A
$GLGSV,3,1,09,68,12,064,,69,36,112,22,70,20,185,,73,64,302,27*62
$GLGSV,3,2,09,74,20,327,,80,49,168,21,83,01,020,,84,14,331,12*60
$GLGSV,3,3,09,85,09,283,11*51
$GNGLL,0419.80536,S,05539.82848,E,062239.00,A,A*66
$GNGRS,062239.00,1,-3.0,-5.3,-28.4,1.6,6.2,-125,3.3,-9.7,3.5,-15.0,,*40
$GNGRS,062239.00,1,2.3,-12.1,20.0,-5.4,-17.7,,,,,,,*6E
$GNGST,062239.00,62,,,,4.3,4.3,12*6C
$GNZDA,062239.00,28,05,2025,00,00*7E
$GNGBS,062239.00,4.3,4.3,11.9,,,,*6A
$GNTXT,01,01,01,More than 100 frame errors, UART RX was disabled*70
b0L)%
IK
mv&' !S!,R!9V(%Y{4V_:R 
YwD@E$p[FI@.JGP1ST
KUGbU
taQ$GNRMC,062240.00,A,0419.80528,S,05539.82863,E,0.103,,280525,,,A*7D
$GNVTG,,T,,M,0.103,N,0.190,K,A*37
$GNGNS,062240.00,0419.80528,S,05539.82863,E,AA,15,0.89,3.0,-47.6,,*5F
$GNGGA,062240.00,0419.80528,S,05539.82863,E,1,12,0.89,3.0,M,-47.6,M,,*72
$GNGSA,A,3,24,05,20,15,12,13,18,29,25,23,,,1.69,0.89,1.43*15
$GNGSA,A,3,80,84,69,73,85,,,,,,,,1.69,0.89,1.43*17
$GPGSV,5,1,17,05,41,037,25,10,04,212,,12,73,075,21,13,13,109,09*7B
$GPGSV,5,2,17,15,39,140,38,18,32,289,28,20,09,033,09,23,44,210,28*73
$GPGSV,5,3,17,24,33,178,11,25,57,342,26,28,04,293,,29,14,345,20*7D
$GPGSV,5,4,17,36,52,277,,40,86,351,,41,58,082,,49,32,274,*7C
$GPGSV,5,5,17,50,10,089,*4A
$GLGSV,3,1,09,68,12,064,,69,36,112,21,70,20,185,,73,64,302,27*61
$GLGSV,3,2,09,74,20,327,,80,49,168,20,83,01,020,,84,14,331,10*63
$GLGSV,3,3,09,85,09,283,08*59
$GNGLL,0419.80528,S,05539.82863,E,062240.00,A,A*6E
$GNGRS,062240.00,1,-3.1,-3.1,30.5,1.4,7.1,21.7,3.4,-10.7,3.0,-14.5,,*51
$GNGRS,062240.00,1,2.1,15.5,18.8,-5.6,22.5,,,,,,,*64
$GNGST,062240.00,3435102,,,,4.2,4.3,12*55
$GNZDA,062240.00,28,05,2025,00,00*70
$GNGBS,062240.00,4.2,4.3,11.9,,,,*65
$GNTXT,01,01,01,More than 100 frame errors, UART RX was disabled*70
b0L)%
IK
mX$'l !"!,
!9V%Y{4V_:R 
YwD@E$pFI@.JGP1LST
KU
bU
ht9$GNRMC,062241.00,A,0419.80522,S,05539.82871,E,0.092,,280525,,,A*7C
$GNVTG,,T,,M,0.092,N,0.170,K,A*30
$GNGNS,062241.00,0419.80522,S,05539.82871,E,AA,15,0.89,2.7,-47.6,,*51
$GNGGA,062241.00,0419.80522,S,05539.82871,E,1,12,0.89,2.7,M,-47.6,M,,*7C
$GNGSA,A,3,24,05,20,15,12,13,18,29,25,23,,,1.69,0.89,1.43*15
$GNGSA,A,3,80,84,69,73,85,,,,,,,,1.69,0.89,1.43*17
$GPGSV,5,1,17,05,41,037,26,10,04,212,,12,73,075,19,13,13,109,07*7D
$GPGSV,5,2,17,15,39,140,36,18,32,289,29,20,09,033,09,23,44,210,27*73
$GPGSV,5,3,17,24,33,178,10,25,57,342,26,28,04,293,,29,14,345,20*7C
$GPGSV,5,4,17,36,52,277,,40,86,351,,41,58,082,,49,32,274,*7C
$GPGSV,5,5,17,50,10,089,*4A
$GLGSV,3,1,09,68,12,064,,69,36,112,24,70,20,185,,73,64,302,27*64
$GLGSV,3,2,09,74,20,327,,80,49,168,20,83,01,020,,84,14,331,10*63
$GLGSV,3,3,09,85,09,283,10*50
$GNGLL,0419.80522,S,05539.82871,E,062241.00,A,A*66
$GNGRS,062241.00,1,-3.2,-3.2,30.3,1.1,7.4,21.4,8.0,-12.7,4.0,-15.2,,*59
$GNGRS,062241.00,1,3.3,15.2,15.7,-5.8,22.4,,,,,,,*6C
$GNGST,062241.00,3435102,,,,4.2,4.3,12*54
$GNZDA,062241.00,28,05,2025,00,00*71
$GNGBS,062241.00,4.2,4.3,11.9,,,,*64
$GNTXT,01,01,01,More than 100 frame errors, UART RX was disabled*70
b0L)%
IK
m0$'q !!Y,!)9Vl%Y{4V_:R 
YwD@E$oFI@.JGP1STKU
qbU
Pt!$GNRMC,062242.00,A,0419.80519,S,05539.82880,E,0.095,,280525,,,A*7E
$GNVTG,,T,,M,0.095,N,0.176,K,A*31
$GNGNS,062242.00,0419.80519,S,05539.82880,E,AA,15,0.81,2.5,-47.6,,*5E
$GNGGA,062242.00,0419.80519,S,05539.82880,E,1,12,0.81,2.5,M,-47.6,M,,*73
$GNGSA,A,3,24,05,20,15,12,13,18,29,25,23,,,1.44,0.81,1.19*1D
$GNGSA,A,3,80,84,69,73,85,,,,,,,,1.44,0.81,1.19*1F
$GPGSV,5,1,17,05,41,037,25,10,04,212,,12,73,075,20,13,13,109,15*77
$GPGSV,5,2,17,15,39,140,36,18,32,289,28,20,09,033,09,23,44,210,28*7D
$GPGSV,5,3,17,24,33,178,15,25,57,342,26,28,04,293,,29,14,345,20*79
$GPGSV,5,4,17,36,52,277,,40,86,351,,41,58,082,,49,32,274,*7C
$GPGSV,5,5,17,50,10,089,*4A
$GLGSV,3,1,09,68,12,064,,69,36,111,24,70,20,185,,73,64,302,28*68
$GLGSV,3,2,09,74,20,327,,80,49,168,20,83,01,020,,84,14,331,08*6A
$GLGSV,3,3,09,85,09,283,10*50
$GNGLL,0419.80519,S,05539.82880,E,062242.00,A,A*63
$GNGRS,062242.00,1,106,-2.3,-11.9,1.1,3.9,-48.2,4.4,-14.1,6.2,-13.6,,*6C
$GNGRS,062242.00,1,2.5,10.1,12.0,-7.6,1.1,,,,,,,*56
$GNGST,062242.00,68,,,,4.2,4.2,12*6A
$GNZDA,062242.00,28,05,2025,00,00*72
$GNGBS,062242.00,4.2,4.2,11.9,,,,*66
$GNTXT,01,01,01,More than 100 frame errors, UART RX was disabled*70
b0L)%
IK
m#' !!!,!q9V%Y{4V_:R 
YwD@E$oFI@.JGP1>STK)U
~bU
8t$GNRMC,062243.00,A,0419.80522,S,05539.82885,E,0.246,,280525,,,A*7E
$GNVTG,,T,,M,0.246,N,0.455,K,A*39
$GNGNS,062243.00,0419.80522,S,05539.82885,E,AA,15,0.89,2.6,-47.6,,*59
$GNGGA,062243.00,0419.80522,S,05539.82885,E,1,12,0.89,2.6,M,-47.6,M,,*74
$GNGSA,A,3,24,05,20,15,12,13,18,29,25,23,,,1.69,0.89,1.43*15
$GNGSA,A,3,80,84,69,73,85,,,,,,,,1.69,0.89,1.43*17
$GPGSV,5,1,17,05,41,037,23,10,04,212,,12,73,075,20,13,13,109,14*70
$GPGSV,5,2,17,15,39,140,35,18,32,289,28,20,09,033,11,23,44,210,27*78
$GPGSV,5,3,17,24,33,178,09,25,57,342,25,28,04,293,,29,14,345,20*77
$GPGSV,5,4,17,36,52,277,,40,86,351,,41,58,082,,49,32,274,*7C
$GPGSV,5,5,17,50,10,089,*4A
$GLGSV,3,1,09,68,12,064,,69,36,111,23,70,21,185,,73,64,302,28*6E
$GLGSV,3,2,09,74,20,327,,80,49,168,22,83,01,020,,84,14,331,11*60
$GLGSV,3,3,09,85,09,283,10*50
$GNGLL,0419.80522,S,05539.82885,E,062243.00,A,A*6F
$GNGRS,062243.00,1,11.4,-3.1,31.1,-0.6,4.9,22.2,-1.2,-12.9,3.9,-13.0,,*41
$GNGRS,062243.00,1,0.6,15.8,9.3,-6.2,22.9,,,,,,,*5F
$GNGST,062243.00,3434516,,,,4.2,4.2,12*57
$GNZDA,062243.00,28,05,2025,00,00*73
$GNGBS,062243.00,4.2,4.2,11.9,,,,*67
$GNTXT,01,01,01,More than 100 frame errors, UART RX was disabled*70
b0Lp)%
IK
m"' !V!,!l9V%Y{4V_:R 
YwD@E$o.FI@.JGP1STKUbpU
  t$GNRMC,062244.00,A,0419.80525,S,05539.82891,E,0.043,,280525,,,A*7C
$GNVTG,,T,,M,0.043,N,0.079,K,A*34
$GNGNS,062244.00,0419.80525,S,05539.82891,E,AA,15,0.89,2.3,-47.6,,*59
$GNGGA,062244.00,0419.80525,S,05539.82891,E,1,12,0.89,2.3,M,-47.6,M,,*74
$GNGSA,A,3,24,05,20,15,12,13,18,29,25,23,,,1.69,0.89,1.43*15
$GNGSA,A,3,80,84,69,73,85,,,,,,,,1.69,0.89,1.43*17
$GPGSV,5,1,17,05,41,037,24,10,04,212,,12,73,075,19,13,13,109,17*7E
$GPGSV,5,2,17,15,39,140,34,18,32,289,28,20,09,033,08,23,44,210,27*71
$GPGSV,5,3,17,24,33,178,16,25,57,342,23,28,04,293,,29,14,345,19*75
$GPGSV,5,4,17,36,52,277,,40,86,351,,41,58,082,,49,32,274,*7C
$GPGSV,5,5,17,50,10,089,*4A
$GLGSV,3,1,09,68,12,064,,69,36,111,21,70,21,185,,73,64,302,28*6C
$GLGSV,3,2,09,74,20,327,,80,49,168,24,83,01,020,,84,14,331,09*6F
$GLGSV,3,3,09,85,09,283,09*58
$GNGLL,0419.80525,S,05539.82891,E,062244.00,A,A*6A
$GNGRS,062244.00,1,11.3,-7.7,30.8,4.6,6.6,22.0,3.4,-10.4,2.6,-13.0,,*45
$GNGRS,062244.00,1,1.9,15.5,8.1,-5.1,22.9,,,,,,,*58
$GNGST,062244.00,3435102,,,,4.2,4.2,12*50
$GNZDA,062244.00,28,05,2025,00,00*74
$GNGBS,062244.00,4.2,4.2,11.9,,,,*60
$GNTXT,01,01,01,More than 100 frame errors, UART RX was disabled*70
b0LX)%
IKW
m#'y !!,!9VC%Y4{4V_:R 
YwD@E$oFI@.^JGP1ST
K9?UPbXU
$tY$GNRMC,062245.00,A,0419.80525,S,05539.82894,E,0.134,,280525,,,A*79
$GNVTG,,T,,M,0.134,N,0.247,K,A*3A
$GNGNS,062245.00,0419.80525,S,05539.82894,E,AA,15,0.85,2.0,-47.6,,*52
$GNGGA,062245.00,0419.80525,S,05539.82894,E,1,12,0.85,2.0,M,-47.6,M,,*7F
$GNGSA,A,3,24,05,20,15,12,13,18,29,25,23,,,1.61,0.85,1.36*13
$GNGSA,A,3,80,84,69,73,85,,,,,,,,1.61,0.85,1.36*11
$GPGSV,5,1,17,05,41,037,26,10,04,212,,12,73,075,18,13,13,109,13*79
$GPGSV,5,2,17,15,39,140,35,18,32,289,27,20,09,033,12,23,44,210,26*75
$GPGSV,5,3,17,24,33,178,08,25,57,342,21,28,04,293,,29,14,345,18*79
$GPGSV,5,4,17,36,52,277,,40,86,351,,41,58,082,,49,32,274,*7C
$GPGSV,5,5,17,50,10,089,*4A
$GLGSV,3,1,09,68,12,064,,69,36,111,20,70,21,185,,73,64,302,28*6D
$GLGSV,3,2,09,74,20,327,,80,49,168,25,83,01,020,,84,14,331,10*66
$GLGSV,3,3,09,85,09,283,11*51
$GNGLL,0419.80525,S,05539.82894,E,062245.00,A,A*6E
$GNGRS,062245.00,1,7.9,-5.8,-19.1,3.8,6.0,19.9,6.4,-9.7,0.7,-13.2,,*6A
$GNGRS,062245.00,1,2.3,162,7.9,-4.2,-81.7,,,,,,,*55
$GNGST,062245.00,59,,,,4.2,4.2,12*6F
$GNZDA,062245.00,28,05,2025,00,00*75
$GNGBS,062245.00,4.2,4.2,12.0,,,,*6B
$GNTXT,01,01,01,More than 100 frame errors, UART RX was disabled*70
b0L@)%Q
IK
m!' !!,!T9Vj%Y~{"4V_:R 
YwD@E$oFIA-JGP1STK$Ub@U
'tp$GNRMC,062246.00,A,0419.80526,S,05539.82894,E,0.090,,280525,,,A*76
$GNVTG,,T,,M,0.090,N,0.166,K,A*35
$GNGNS,062246.00,0419.80526,S,05539.82894,E,AA,14,0.82,1.7,-47.6,,*50
$GNGGA,062246.00,0419.80526,S,05539.82894,E,1,12,0.82,1.7,M,-47.6,M,,*7C
$GNGSA,A,3,24,05,20,15,12,13,18,29,25,23,,,1.48,0.82,1.23*1B
$GNGSA,A,3,80,84,69,73,,,,,,,,,1.48,0.82,1.23*14
$GPGSV,5,1,17,05,41,037,27,10,04,212,,12,73,075,18,13,13,109,13*78
$GPGSV,5,2,17,15,39,140,33,18,32,289,28,20,09,033,09,23,44,210,25*75
$GPGSV,5,3,17,24,33,178,11,25,57,342,20,28,04,293,,29,14,345,17*7F
$GPGSV,5,4,17,36,52,277,34,40,86,351,,41,58,082,,49,32,274,*7B
$GPGSV,5,5,17,50,10,089,*4A
$GLGSV,3,1,09,68,12,064,,69,36,111,22,70,21,185,,73,65,301,28*6D
$GLGSV,3,2,09,74,20,327,,80,49,168,23,83,01,020,,84,14,331,09*68
$GLGSV,3,3,09,85,09,283,06*57
$GNGLL,0419.80526,S,05539.82894,E,062246.00,A,A*6E
$GNGRS,062246.00,1,11.1,-9.4,30.8,5.2,3.8,17.5,10.0,-9.0,1.1,-13.2,,*49
$GNGRS,062246.00,1,2.1,15.7,9.3,-3.1,,,,,,,,*41
$GNGST,062246.00,36736,,,,4.2,4.2,12*57
$GNZDA,062246.00,28,05,2025,00,00*76
$GNGBS,062246.00,4.2,4.2,12.0,,,,*68
$GNTXT,01,01,01,More than 100 frame errors, UART RX was disabled*70
b0L()%
IK{
m!' !m!,t
!=9V=%Y{"4V_:R 
YwD@E$oFIA-JGP1ST
K#U
oTb(U
+tH&$GNRMC,062247.00,A,0419.80525,S,05539.82897,E,0.025,,280525,,,A*79
$GNVTG,,T,,M,0.025,N,0.046,K,A*38
$GNGNS,062247.00,0419.80525,S,05539.82897,E,AA,15,0.82,1.3,-47.6,,*54
$GNGGA,062247.00,0419.80525,S,05539.82897,E,1,12,0.82,1.3,M,-47.6,M,,*79
$GNGSA,A,3,24,05,20,15,12,13,18,29,25,23,,,1.48,0.82,1.23*1B
$GNGSA,A,3,80,84,69,73,85,,,,,,,,1.48,0.82,1.23*19
$GPGSV,5,1,17,05,41,037,25,10,04,212,,12,73,075,18,13,13,109,11*78
$GPGSV,5,2,17,15,39,140,33,18,32,289,28,20,09,033,09,23,44,210,25*75
$GPGSV,5,3,17,24,33,178,10,25,57,342,20,28,04,293,,29,14,345,15*7C
$GPGSV,5,4,17,36,52,277,34,40,86,351,,41,58,082,,49,32,274,*7B
$GPGSV,5,5,17,50,10,089,*4A
$GLGSV,3,1,09,68,12,064,,69,36,111,23,70,21,185,,73,65,301,27*63
$GLGSV,3,2,09,74,21,327,,80,49,168,21,83,01,020,,84,14,331,10*63
$GLGSV,3,3,09,85,09,283,10*50
$GNGLL,0419.80525,S,05539.82897,E,062247.00,A,A*6F
$GNGRS,062247.00,1,10.8,-10.3,30.5,4.5,6.3,14.2,6.2,-6.1,3.2,-14.2,,*43
$GNGRS,062247.00,1,1.8,15.7,9.1,-3.8,22.5,,,,,,,*5A
$GNGST,062247.00,53448,,,,4.2,4.2,12*5F
$GNZDA,062247.00,28,05,2025,00,00*77
$GNGBS,062247.00,4.2,4.2,12.0,,,,*69
$GNTXT,01,01,01,More than 100 frame errors, UART RX was disabled*70
b0L)%
IK}

mS!'s !!,g!9V%Y<{"4V_:R 
YwD@E$oFIA-iJGP1aSTKOU(bU
/t $GNRMC,062248.00,A,0419.80530,S,05539.82901,E,0.091,,280525,,,A*73
$GNVTG,,T,,M,0.091,N,0.169,K,A*3B
$GNGNS,062248.00,0419.80530,S,05539.82901,E,AA,15,0.92,1.5,-47.6,,*56
$GNGGA,062248.00,0419.80530,S,05539.82901,E,1,12,0.92,1.5,M,-47.6,M,,*7B
$GNGSA,A,3,24,05,20,15,12,13,18,29,25,23,,,1.67,0.92,1.40*12
$GNGSA,A,3,80,84,69,73,85,,,,,,,,1.67,0.92,1.40*10
$GPGSV,5,1,17,05,41,037,25,10,04,212,,12,73,075,17,13,13,109,10*76
$GPGSV,5,2,17,15,39,140,33,18,32,289,27,20,09,033,09,23,44,210,25*7A
$GPGSV,5,3,17,24,33,178,16,25,57,342,19,28,04,293,,29,14,345,18*7D
$GPGSV,5,4,17,36,52,277,34,40,86,351,,41,58,082,,49,32,274,*7B
$GPGSV,5,5,17,50,10,089,*4A
$GLGSV,3,1,09,68,12,064,,69,36,111,24,70,21,185,,73,65,301,28*6B
$GLGSV,3,2,09,74,21,327,,80,49,168,21,83,01,020,,84,14,331,09*6B
$GLGSV,3,3,09,85,09,283,09*58
$GNGLL,0419.80530,S,05539.82901,E,062248.00,A,A*6A
$GNGRS,062248.00,1,-34.1,-11.3,-116,3.7,6.4,13.6,4.3,-7.1,4.4,-14.3,,*6F
$GNGRS,062248.00,1,3.5,31.5,9.1,-4.1,-89.2,,,,,,,*7B
$GNGST,062248.00,48,,,,4.2,4.2,12*62
$GNZDA,062248.00,28,05,2025,00,00*78
$GNGBS,062248.00,4.2,4.2,12.1,,,,*67
$GNTXT,01,01,01,More than 100 frame errors, UART RX was disabled*70
b0L)%
IK
m#' !_!,!X9V%Y{"4V_:R 
YwD@E$oCFIA-0JGP1STKU
}bU
3t$GNRMC,062249.00,A,0419.80534,S,05539.82907,E,0.085,,280525,,,A*75
$GNVTG,,T,,M,0.085,N,0.158,K,A*3C
$GNGNS,062249.00,0419.80534,S,05539.82907,E,AA,15,0.82,0.8,-47.6,,*58
$GNGGA,062249.00,0419.80534,S,05539.82907,E,1,12,0.82,0.8,M,-47.6,M,,*75
$GNGSA,A,3,24,05,20,15,12,13,18,29,25,23,,,1.48,0.82,1.23*1B
$GNGSA,A,3,80,84,69,73,85,,,,,,,,1.48,0.82,1.23*19
$GPGSV,5,1,17,05,41,037,25,10,04,212,,12,73,075,17,13,13,109,11*77
$GPGSV,5,2,17,15,39,140,35,18,32,289,27,20,09,033,13,23,44,210,24*76
