b0X,'
HBo&2!^!
*#6V'W{4V_:R 
YvDCE#sFI?4oJH
OP4STIUXbU
yYo$GNRMC,061731.00,A,0419.81687,S,05539.81949,E,0.134,,280525,,,A*74
$GNVTG,,T,,M,0.134,N,0.247,K,A*3A
$GNGNS,061731.00,0419.81687,S,05539.81949,E,AA,14,0.92,11.8,-47.6,,*62
$GNGGA,061731.00,0419.81687,S,05539.81949,E,1,12,0.92,11.8,M,-47.6,M,,*4E
$GNGSA,A,3,24,05,20,15,12,18,29,25,23,,,,1.92,0.92,1.69*11
$GNGSA,A,3,80,84,69,73,85,,,,,,,,1.92,0.92,1.69*11
$GPGSV,5,1,17,05,44,039,25,10,02,213,,12,72,066,24,13,14,111,*76
$GPGSV,5,2,17,15,38,142,20,18,33,286,21,20,11,033,07,23,42,209,20*7F
$GPGSV,5,3,17,24,35,180,12,25,54,342,21,28,03,295,,29,13,343,08*71
$GPGSV,5,4,17,36,52,277,,40,86,351,31,41,58,082,28,49,32,274,*74
$GPGSV,5,5,17,50,10,089,*4A
$GLGSV,3,1,10,68,13,067,,69,35,115,21,70,18,187,,73,63,308,21*6D
$GLGSV,3,2,10,74,18,328,,79,01,155,09,80,52,167,21,83,01,017,*61
$GLGSV,3,3,10,84,15,329,07,85,09,280,11*6D
$GNGLL,0419.81687,S,05539.81949,E,061731.00,A,A*63
$GNGRS,061731.00,1,-6.0,-0.5,26.9,8.2,-8.0,-6.7,23.1,-16.5,10.2,,,*5D
$GNGRS,061731.00,1,-7.4,14.5,1.9,3.7,21.4,,,,,,,*59
$GNGST,061731.00,3586708,,,,6.9,6.9,25*55
$GNZDA,061731.00,28,05,2025,00,00*70
$GNGBS,061731.00,6.9,6.9,25.1,,,,*6B
$GNTXT,01,01,01,More than 100 frame errors, UART RX was disabled*70
b0X,' 
HBo&!
!
*#6V'
W{4V_:R 
YvDCE#sFI?4JH
O
wP4ST
IU!bU
a]o$GNRMC,061732.00,A,0419.81711,S,05539.81905,E,0.829,,280525,,,A*74
$GNVTG,,T,,M,0.829,N,1.535,K,A*3C
$GNGNS,061732.00,0419.81711,S,05539.81905,E,AA,14,0.92,11.5,-47.6,,*6A
$GNGGA,061732.00,0419.81711,S,05539.81905,E,1,12,0.92,11.5,M,-47.6,M,,*46
$GNGSA,A,3,24,05,20,15,12,18,29,25,23,,,,1.92,0.92,1.69*11
$GNGSA,A,3,80,84,69,73,85,,,,,,,,1.92,0.92,1.69*11
$GPGSV,5,1,17,05,44,039,23,10,02,213,,12,72,066,21,13,14,111,*75
$GPGSV,5,2,17,15,38,142,18,18,33,286,19,20,11,033,10,23,42,209,18*72
$GPGSV,5,3,17,24,35,180,15,25,54,342,20,28,03,295,,29,13,343,10*7E
$GPGSV,5,4,17,36,52,277,,40,86,351,28,41,58,082,28,49,32,274,*7C
$GPGSV,5,5,17,50,10,089,*4A
$GLGSV,3,1,10,68,13,067,,69,35,115,20,70,18,187,,73,63,308,21*6C
$GLGSV,3,2,10,74,18,328,,79,01,155,10,80,52,167,20,83,01,017,*68
$GLGSV,3,3,10,84,15,329,10,85,09,280,11*6B
$GNGLL,0419.81711,S,05539.81905,E,061732.00,A,A*66
$GNGRS,061732.00,1,-5.6,-7.4,27.5,7.4,-8.4,-5.5,23.1,-16.1,11.5,,,*5E
$GNGRS,061732.00,1,-6.1,14.4,1.4,4.5,20.6,,,,,,,*54
$GNGST,061732.00,3586708,,,,7.0,7.1,25*57
$GNZDA,061732.00,28,05,2025,00,00*73
$GNGBS,061732.00,7.0,7.1,25.4,,,,*6C
$GNTXT,01,01,01,More than 100 frame errors, UART RX was disabled*70
b0X,'1
HBo&
!!~*#6V~'W}{4V_:R 
YvDCE#sFI?4]JH
OP4lSTIUWbU
Iaoe$GNRMC,061733.00,A,0419.81732,S,05539.81911,E,0.299,,280525,,,A*70
$GNVTG,,T,,M,0.299,N,0.554,K,A*3B
$GNGNS,061733.00,0419.81732,S,05539.81911,E,AA,14,0.91,11.9,-47.6,,*60
$GNGGA,061733.00,0419.81732,S,05539.81911,E,1,12,0.91,11.9,M,-47.6,M,,*4C
$GNGSA,A,3,24,05,20,15,12,18,29,25,23,,,,1.85,0.91,1.62*1F
$GNGSA,A,3,80,84,69,73,85,,,,,,,,1.85,0.91,1.62*1F
$GPGSV,5,1,17,05,44,039,23,10,02,213,,12,72,066,20,13,14,111,*74
$GPGSV,5,2,17,15,38,142,17,18,33,286,17,20,11,033,08,23,42,209,16*74
$GPGSV,5,3,17,24,35,180,16,25,54,342,17,28,03,295,,29,13,343,09*71
$GPGSV,5,4,17,36,52,277,,40,86,351,27,41,58,082,29,49,32,274,*72
$GPGSV,5,5,17,50,10,089,*4A
$GLGSV,3,1,10,68,13,067,,69,35,115,18,70,18,187,,73,63,308,20*66
$GLGSV,3,2,10,74,18,328,,79,01,155,05,80,52,167,19,83,01,017,*66
$GLGSV,3,3,10,84,15,329,07,85,09,280,09*64
$GNGLL,0419.81732,S,05539.81911,E,061733.00,A,A*63
$GNGRS,061733.00,1,-6.1,-4.6,-78.1,2.7,-7.6,-3.3,-6.4,-16.7,12.2,,,*6F
$GNGRS,061733.00,1,-4.0,-132,1.5,6.0,-52.9,,,,,,,*75
$GNGST,061733.00,60,,,,7.2,7.3,25*67
$GNZDA,061733.00,28,05,2025,00,00*72
$GNGBS,061733.00,7.2,7.3,25.4,,,,*6D
$GNTXT,01,01,01,More than 100 frame errors, UART RX was disabled*70
b0X,'
HB7o&!,
!
*#6V}'W{4V_:R 
YvDCE#sSFI?4JH
O
P4bSTIUIbU
1eoc$GNRMC,061734.00,A,0419.81745,S,05539.81878,E,0.562,,280525,,,A*7A
$GNVTG,,T,,M,0.562,N,1.040,K,A*39
$GNGNS,061734.00,0419.81745,S,05539.81878,E,AA,14,0.92,12.1,-47.6,,*61
$GNGGA,061734.00,0419.81745,S,05539.81878,E,1,12,0.92,12.1,M,-47.6,M,,*4D
$GNGSA,A,3,24,05,20,15,12,18,29,25,23,,,,1.92,0.92,1.69*11
$GNGSA,A,3,80,84,69,73,85,,,,,,,,1.92,0.92,1.69*11
$GPGSV,5,1,17,05,44,039,26,10,02,213,,12,72,066,21,13,14,111,*70
$GPGSV,5,2,17,15,38,142,14,18,33,286,19,20,11,033,10,23,42,209,13*75
$GPGSV,5,3,17,24,35,180,15,25,54,342,17,28,03,295,,29,13,343,12*78
$GPGSV,5,4,17,36,52,277,,40,86,351,27,41,58,082,31,49,32,274,*7B
$GPGSV,5,5,17,50,10,089,*4A
$GLGSV,3,1,10,68,13,067,,69,35,115,20,70,18,187,,73,63,308,25*68
$GLGSV,3,2,10,74,18,328,,79,01,155,10,80,52,167,19,83,01,017,*62
$GLGSV,3,3,10,84,15,329,09,85,09,280,12*60
$GNGLL,0419.81745,S,05539.81878,E,061734.00,A,A*6A
$GNGRS,061734.00,1,-5.9,-6.1,27.6,-0.1,-7.1,-2.1,23.1,-16.7,12.7,,,*71
$GNGRS,061734.00,1,-1.6,14.5,0.8,6.9,21.2,,,,,,,*55
$GNGST,061734.00,90463,,,,7.3,7.4,26*5B
$GNZDA,061734.00,28,05,2025,00,00*75
$GNGBS,061734.00,7.3,7.4,25.5,,,,*6D
$GNTXT,01,01,01,More than 100 frame errors, UART RX was disabled*70
b0Xh
,'
HB o
&!E!
*#6V'W{4V_:R 
YvDCE#sEFI ?49JH
OwP4STImU
7dbh
U
io;5$GNRMC,061735.00,A,0419.81717,S,05539.81861,E,0.757,,280525,,,A*70
$GNVTG,,T,,M,0.757,N,1.401,K,A*3C
$GNGNS,061735.00,0419.81717,S,05539.81861,E,AA,14,0.92,11.5,-47.6,,*68
$GNGGA,061735.00,0419.81717,S,05539.81861,E,1,12,0.92,11.5,M,-47.6,M,,*44
$GNGSA,A,3,24,05,20,15,12,18,29,25,23,,,,1.92,0.92,1.69*11
$GNGSA,A,3,80,84,69,73,85,,,,,,,,1.92,0.92,1.69*11
$GPGSV,5,1,17,05,44,039,28,10,02,213,,12,72,066,22,13,14,111,*7D
$GPGSV,5,2,17,15,38,142,10,18,33,286,20,20,11,033,11,23,42,209,14*7D
$GPGSV,5,3,17,24,35,180,13,25,54,342,20,28,03,295,,29,13,343,11*79
$GPGSV,5,4,17,36,52,277,,40,86,351,29,41,58,082,30,49,32,274,*74
$GPGSV,5,5,17,50,10,089,*4A
$GLGSV,3,1,10,68,13,067,,69,35,115,24,70,18,187,,73,63,308,32*6A
$GLGSV,3,2,10,74,18,328,,79,01,155,11,80,52,167,18,83,01,017,*62
$GLGSV,3,3,10,84,15,329,12,85,09,280,10*68
$GNGLL,0419.81717,S,05539.81861,E,061735.00,A,A*64
$GNGRS,061735.00,1,-5.0,-5.1,27.1,-2.9,-7.4,-1.9,22.2,-13.7,11.6,,,*7C
$GNGRS,061735.00,1,0.0,13.9,0.7,0.6,21.0,,,,,,,*71
$GNGST,061735.00,90553,,,,7.4,7.5,26*5E
$GNZDA,061735.00,28,05,2025,00,00*74
$GNGBS,061735.00,7.4,7.5,25.7,,,,*68
$GNTXT,01,01,01,More than 100 frame errors, UART RX was disabled*70
b0XP,'
HBLo&!
!*N
#v6V'
W{4 V_:R 
YvDCE#sFFI?4JH
OP4STI4UbPU
mo$GNRMC,061736.00,A,0419.81744,S,05539.81863,E,0.306,,280525,,,A*77
$GNVTG,,T,,M,0.306,N,0.567,K,A*3C
$GNGNS,061736.00,0419.81744,S,05539.81863,E,AA,14,0.95,10.2,-47.6,,*6E
$GNGGA,061736.00,0419.81744,S,05539.81863,E,1,12,0.95,10.2,M,-47.6,M,,*42
$GNGSA,A,3,24,05,20,15,12,18,29,25,23,,,,1.93,0.95,1.68*16
$GNGSA,A,3,80,84,69,73,85,,,,,,,,1.93,0.95,1.68*16
$GPGSV,5,1,17,05,44,039,27,10,02,213,,12,72,066,22,13,14,111,*72
$GPGSV,5,2,17,15,38,142,08,18,33,286,22,20,11,033,10,23,42,209,19*7A
$GPGSV,5,3,17,24,35,180,10,25,54,342,25,28,03,295,,29,13,343,10*7E
$GPGSV,5,4,17,36,52,277,,40,86,351,32,41,58,082,30,49,32,274,*7E
$GPGSV,5,5,17,50,10,089,*4A
$GLGSV,3,1,10,68,13,067,,69,35,115,26,70,18,187,,73,63,308,30*6A
$GLGSV,3,2,10,74,18,328,,79,01,155,07,80,52,167,18,83,01,017,*65
$GLGSV,3,3,10,84,15,329,08,85,09,280,08*6A
$GNGLL,0419.81744,S,05539.81863,E,061736.00,A,A*63
$GNGRS,061736.00,1,29.3,-6.3,-85.6,-8.7,-6.9,-0.4,-22.9,-10.4,11.0,,,*68
$GNGRS,061736.00,1,-0.6,135,0.7,-5.8,-2.7,,,,,,,*46
$GNGST,061736.00,64,,,,7.3,7.4,26*63
$GNZDA,061736.00,28,05,2025,00,00*77
$GNGBS,061736.00,7.3,7.4,25.7,,,,*6D
$GNTXT,01,01,01,More than 100 frame errors, UART RX was disabled*70
b0X8,'T
HBo&"!!
*#6V'W{4 V_:R 
YvDCE#suFI?4kJH
O|P4zSTIUOb8U
po$GNRMC,061737.00,A,0419.81773,S,05539.81872,E,0.278,,280525,,,A*7A
$GNVTG,,T,,M,0.278,N,0.515,K,A*31
$GNGNS,061737.00,0419.81773,S,05539.81872,E,AA,14,0.92,9.3,-47.6,,*55
$GNGGA,061737.00,0419.81773,S,05539.81872,E,1,12,0.92,9.3,M,-47.6,M,,*79
$GNGSA,A,3,24,05,20,15,12,18,29,25,23,,,,1.92,0.92,1.69*11
$GNGSA,A,3,80,84,69,73,85,,,,,,,,1.92,0.92,1.69*11
$GPGSV,5,1,17,05,44,039,26,10,02,213,,12,72,066,20,13,14,111,16*76
$GPGSV,5,2,17,15,38,142,16,18,33,286,21,20,11,033,11,23,42,209,18*76
$GPGSV,5,3,17,24,35,180,19,25,54,342,26,28,03,295,,29,13,343,09*7C
$GPGSV,5,4,17,36,52,277,,40,86,351,32,41,58,082,30,49,32,274,*7E
$GPGSV,5,5,17,50,10,089,*4A
$GLGSV,3,1,10,68,13,067,,69,35,115,24,70,18,187,,73,63,308,30*68
$GLGSV,3,2,10,74,18,328,,79,01,155,07,80,52,167,16,83,01,017,*6B
$GLGSV,3,3,10,84,15,329,07,85,09,280,14*68
$GNGLL,0419.81773,S,05539.81872,E,061737.00,A,A*66
$GNGRS,061737.00,1,10.1,-6.8,27.4,-9.9,-7.9,1.8,23.3,-10.8,9.7,,,*77
$GNGRS,061737.00,1,1.2,14.9,-1.4,-6.6,21.3,,,,,,,*70
$GNGST,061737.00,5073176,,,,7.3,7.4,26*51
$GNZDA,061737.00,28,05,2025,00,00*76
$GNGBS,061737.00,7.3,7.4,25.7,,,,*6C
$GNTXT,01,01,01,More than 100 frame errors, UART RX was disabled*70
b0X ,'
HBMo&!L!
*#O6Ve'W.{4V_:R 
YvDCE#sFI?4JH
OP4@STIU
h6b U
toj$GNRMC,061738.00,A,0419.81829,S,05539.81863,E,0.880,,280525,,,A*78
$GNVTG,,T,,M,0.880,N,1.630,K,A*39
$GNGNS,061738.00,0419.81829,S,05539.81863,E,AA,14,0.92,8.6,-47.6,,*5E
$GNGGA,061738.00,0419.81829,S,05539.81863,E,1,12,0.92,8.6,M,-47.6,M,,*72
$GNGSA,A,3,24,05,20,15,12,18,29,25,23,,,,1.92,0.92,1.69*11
$GNGSA,A,3,80,84,69,73,85,,,,,,,,1.92,0.92,1.69*11
$GPGSV,5,1,17,05,44,039,27,10,02,213,,12,72,066,17,13,14,111,15*70
$GPGSV,5,2,17,15,38,142,17,18,33,286,21,20,11,033,13,23,42,209,18*75
$GPGSV,5,3,17,24,35,180,13,25,54,342,26,28,03,295,,29,13,343,08*77
$GPGSV,5,4,17,36,52,277,,40,86,351,31,41,58,082,29,49,32,274,*75
$GPGSV,5,5,17,50,10,089,*4A
$GLGSV,3,1,10,68,13,067,,69,35,115,21,70,18,187,,73,63,308,29*65
$GLGSV,3,2,10,74,18,328,,79,01,155,12,80,52,167,18,83,01,017,*61
$GLGSV,3,3,10,84,15,329,09,85,09,280,10*62
$GNGLL,0419.81829,S,05539.81863,E,061738.00,A,A*69
$GNGRS,061738.00,1,8.5,-4.8,27.9,-11.5,-6.9,0.8,23.5,-9.2,7.9,,,*4B
$GNGRS,061738.00,1,0.6,15.2,-2.3,-4.8,20.6,,,,,,,*7C
$GNGST,061738.00,5073176,,,,7.4,7.4,26*59
$GNZDA,061738.00,28,05,2025,00,00*79
$GNGBS,061738.00,7.4,7.4,25.9,,,,*6A
$GNTXT,01,01,01,More than 100 frame errors, UART RX was disabled*70
b0X,'S
HBuo%&3!!*b#6V'W]B{4V_:R 
YvDCE#s[FI?4oJH
O
OP4STIU(bU
xo$GNRMC,061739.00,A,0419.81842,S,05539.81860,E,0.500,,280525,,,A*72
$GNVTG,,T,,M,0.500,N,0.926,K,A*35
$GNGNS,061739.00,0419.81842,S,05539.81860,E,AA,14,1.00,7.8,-47.6,,*5A
$GNGGA,061739.00,0419.81842,S,05539.81860,E,1,12,1.00,7.8,M,-47.6,M,,*76
$GNGSA,A,3,24,05,20,15,12,18,29,25,23,,,,2.75,1.00,2.56*1E
$GNGSA,A,3,80,84,69,73,85,,,,,,,,2.75,1.00,2.56*1E
$GPGSV,5,1,17,05,44,039,26,10,02,213,,12,72,066,20,13,14,111,14*74
$GPGSV,5,2,17,15,38,142,14,18,33,286,18,20,11,033,09,23,42,209,15*7A
$GPGSV,5,3,17,24,35,180,18,25,54,342,25,28,03,295,,29,13,343,11*77
$GPGSV,5,4,17,36,52,277,,40,86,351,31,41,58,082,31,49,32,274,*7C
$GPGSV,5,5,17,50,10,089,*4A
$GLGSV,3,1,10,68,13,067,,69,35,115,18,70,18,187,,73,63,308,29*6F
$GLGSV,3,2,10,74,18,328,,79,01,155,10,80,52,167,20,83,01,017,*68
$GLGSV,3,3,10,84,15,329,11,85,09,280,15*6E
$GNGLL,0419.81842,S,05539.81860,E,061739.00,A,A*66
$GNGRS,061739.00,1,7.8,-4.3,-89.9,-14.9,-9.1,1.6,170,-11.2,8.7,,,*7F
$GNGRS,061739.00,1,1.4,-131,-1.7,-4.0,-25.2,,,,,,,*5B
$GNGST,061739.00,55,,,,7.4,7.3,26*6E
$GNZDA,061739.00,28,05,2025,00,00*78
$GNGBS,061739.00,7.4,7.3,25.9,,,,*6C
$GNTXT,01,01,01,More than 100 frame errors, UART RX was disabled*70
b0X,'
HBo]&=!!
*p#6V'W{4V_:R 
YvDCE#sCFI?4JH
O5P4ST
I~U2CbU
|oq+$GNRMC,061740.00,A,0419.81842,S,05539.81856,E,0.176,,280525,,,A*7C
$GNVTG,,T,,M,0.176,N,0.326,K,A*3A
$GNGNS,061740.00,0419.81842,S,05539.81856,E,AA,14,0.92,7.1,-47.6,,*52
$GNGGA,061740.00,0419.81842,S,05539.81856,E,1,12,0.92,7.1,M,-47.6,M,,*7E
$GNGSA,A,3,24,05,20,15,12,18,29,25,23,,,,1.92,0.92,1.69*11
$GNGSA,A,3,80,84,69,73,85,,,,,,,,1.92,0.92,1.69*11
$GPGSV,5,1,17,05,44,039,24,10,02,213,,12,72,066,18,13,14,111,09*71
$GPGSV,5,2,17,15,38,142,13,18,33,286,19,20,11,033,11,23,42,209,13*73
$GPGSV,5,3,17,24,35,180,19,25,54,342,25,28,03,295,,29,13,343,12*75
$GPGSV,5,4,17,36,52,277,,40,86,351,30,41,58,082,31,49,32,274,*7D
$GPGSV,5,5,17,50,10,089,*4A
$GLGSV,3,1,10,68,13,067,,69,35,115,20,70,18,187,,73,63,308,29*64
$GLGSV,3,2,10,74,18,328,,79,01,155,11,80,52,167,18,83,01,017,*62
$GLGSV,3,3,10,84,15,329,10,85,09,280,12*68
$GNGLL,0419.81842,S,05539.81856,E,061740.00,A,A*6D
$GNGRS,061740.00,1,4.3,-3.4,27.1,10.9,-7.8,2.9,22.6,-11.3,8.8,,,*5A
$GNGRS,061740.00,1,1.3,14.1,-1.9,-1.1,21.0,,,,,,,*77
$GNGST,061740.00,32741,,,,7.5,7.3,26*52
$GNZDA,061740.00,28,05,2025,00,00*76
$GNGBS,061740.00,7.5,7.3,26.0,,,,*69
$GNTXT,01,01,01,More than 100 frame errors, UART RX was disabled*70
b0X!,'n
HBmo
&S!+!
*#6V'
W{4V_:R 
YvDBE#sGFI?4JH
O;P4ST
IUjzb!U
oI$GNRMC,061741.00,A,0419.81883,S,05539.81841,E,0.799,,280525,,,A*71
$GNVTG,,T,,M,0.799,N,1.480,K,A*37
$GNGNS,061741.00,0419.81883,S,05539.81841,E,AA,14,0.92,6.7,-47.6,,*5F
$GNGGA,061741.00,0419.81883,S,05539.81841,E,1,12,0.92,6.7,M,-47.6,M,,*73
$GNGSA,A,3,24,05,20,15,12,18,29,25,23,,,,1.92,0.92,1.69*11
$GNGSA,A,3,80,84,69,73,85,,,,,,,,1.92,0.92,1.69*11
$GPGSV,5,1,17,05,44,039,22,10,02,213,,12,72,066,16,13,14,111,08*78
$GPGSV,5,2,17,15,38,142,08,18,33,286,18,20,11,033,11,23,42,209,14*7F
$GPGSV,5,3,17,24,35,180,18,25,54,342,23,28,03,295,,29,13,343,10*70
$GPGSV,5,4,17,36,52,277,,40,86,351,29,41,58,082,30,49,32,274,*74
$GPGSV,5,5,17,50,10,089,*4A
$GLGSV,3,1,10,68,13,066,,69,35,115,19,70,18,187,,73,63,308,24*62
$GLGSV,3,2,10,74,18,328,,79,01,155,08,80,52,167,16,83,01,017,*64
$GLGSV,3,3,10,84,15,329,10,85,09,280,09*62
$GNGLL,0419.81883,S,05539.81841,E,061741.00,A,A*67
$GNGRS,061741.00,1,2.4,-4.0,27.6,11.1,-9.1,3.0,22.8,-10.6,12.2,,,*63
$GNGRS,061741.00,1,-1.2,14.1,-7.0,1.6,20.6,,,,,,,*78
$GNGST,061741.00,49111,,,,7.6,7.5,26*59
$GNZDA,061741.00,28,05,2025,00,00*77
$GNGBS,061741.00,7.6,7.5,26.1,,,,*6C
$GNTXT,01,01,01,More than 100 frame errors, UART RX was disabled*70
b0X%,'
HBoH&!
!*#6V'
W{4V_:R 
YvDBE#rFI?4JH
OJP4STI(U{b%U
qo!$GNRMC,061742.00,A,0419.81871,S,05539.81814,E,0.438,,280525,,,A*77
$GNVTG,,T,,M,0.438,N,0.812,K,A*39
$GNGNS,061742.00,0419.81871,S,05539.81814,E,AA,13,0.97,7.9,-47.6,,*5C
$GNGGA,061742.00,0419.81871,S,05539.81814,E,1,12,0.97,7.9,M,-47.6,M,,*77
$GNGSA,A,3,24,05,20,15,12,29,25,23,,,,,1.71,0.97,1.40*1B
$GNGSA,A,3,80,84,69,73,85,,,,,,,,1.71,0.97,1.40*12
$GPGSV,5,1,17,05,44,039,20,10,02,213,,12,72,066,15,13,14,111,08*79
$GPGSV,5,2,17,15,38,142,11,18,33,286,,20,11,033,10,23,42,209,16*7D
$GPGSV,5,3,17,24,35,180,16,25,54,342,22,28,03,295,,29,13,343,10*7F
$GPGSV,5,4,17,36,52,277,,40,86,351,27,41,58,082,28,49,32,274,*73
$GPGSV,5,5,17,50,10,089,*4A
$GLGSV,3,1,10,68,13,066,,69,35,114,18,70,18,187,,73,63,308,24*62
$GLGSV,3,2,10,74,18,328,,79,01,155,11,80,52,167,16,83,01,017,*6C
$GLGSV,3,3,10,84,15,329,11,85,09,280,11*6A
$GNGLL,0419.81871,S,05539.81814,E,061742.00,A,A*69
$GNGRS,061742.00,1,1.7,-5.1,-11.3,14.1,-7.8,-16.2,-7.6,9.8,,,,*44
$GNGRS,061742.00,1,-0.4,104,-7.5,-1.0,-31.3,,,,,,,*55
$GNGST,061742.00,71,,,,7.7,7.7,26*63
$GNZDA,061742.00,28,05,2025,00,00*74
$GNGBS,061742.00,7.7,7.7,26.1,,,,*6C
$GNTXT,01,01,01,More than 100 frame errors, UART RX was disabled*70
b0X),'k
HBo&!!
*#86V'W{4V_:R 
YvDBE#rFI?4}JH
OZP4STIU_ab)U
Yoc$GNRMC,061743.00,A,0419.81859,S,05539.81794,E,0.579,,280525,,,A*7F
$GNVTG,,T,,M,0.579,N,1.072,K,A*32
$GNGNS,061743.00,0419.81859,S,05539.81794,E,AA,13,1.02,7.9,-47.6,,*5D
$GNGGA,061743.00,0419.81859,S,05539.81794,E,1,12,1.02,7.9,M,-47.6,M,,*76
$GNGSA,A,3,24,05,20,15,12,29,25,23,,,,,1.98,1.02,1.70*12
$GNGSA,A,3,80,84,69,73,85,,,,,,,,1.98,1.02,1.70*1B
$GPGSV,5,1,17,05,44,039,19,10,02,213,,12,72,066,14,13,14,111,08*72
$GPGSV,5,2,17,15,38,142,11,18,33,286,,20,11,033,13,23,42,209,16*7E
$GPGSV,5,3,17,24,35,180,14,25,54,342,23,28,03,295,,29,13,343,14*78
$GPGSV,5,4,17,36,52,277,,40,86,351,27,41,58,082,28,49,32,274,*73
$GPGSV,5,5,17,50,10,089,*4A
$GLGSV,3,1,10,68,13,066,,69,35,114,16,70,19,186,,73,63,308,25*6D
$GLGSV,3,2,10,74,18,328,,79,01,155,09,80,52,167,17,83,01,017,*64
$GLGSV,3,3,10,84,15,329,13,85,09,280,15*6C
$GNGLL,0419.81859,S,05539.81794,E,061743.00,A,A*65
$GNGRS,061743.00,1,0.6,-4.0,27.5,10.5,-6.1,23.2,-7.4,7.1,,,,*4D
$GNGRS,061743.00,1,1.9,14.5,-6.2,3.8,21.4,,,,,,,*54
$GNGST,061743.00,247535,,,,8.0,8.0,26*66
$GNZDA,061743.00,28,05,2025,00,00*75
$GNGBS,061743.00,8.0,8.0,26.4,,,,*68
$GNTXT,01,01,01,More than 100 frame errors, UART RX was disabled*70
b0X-,'
HBo&!!<*h#6V'Wa{4V_:R 
YvDBE#rFI?4mJH
O
-P4STIU
4b-U
Ao$GNRMC,061744.00,A,0419.81892,S,05539.81740,E,1.011,,280525,,,A*7C
$GNVTG,,T,,M,1.011,N,1.872,K,A*30
$GNGNS,061744.00,0419.81892,S,05539.81740,E,AA,13,1.02,7.6,-47.6,,*5B
$GNGGA,061744.00,0419.81892,S,05539.81740,E,1,12,1.02,7.6,M,-47.6,M,,*70
$GNGSA,A,3,24,05,20,15,12,29,25,23,,,,,1.98,1.02,1.70*12
$GNGSA,A,3,80,84,69,73,85,,,,,,,,1.98,1.02,1.70*1B
$GPGSV,5,1,17,05,44,039,18,10,02,213,,12,72,066,14,13,14,111,08*73
$GPGSV,5,2,17,15,38,142,16,18,33,286,,20,11,033,12,23,42,209,16*78
$GPGSV,5,3,17,24,35,180,09,25,54,342,23,28,03,295,,29,13,343,12*72
$GPGSV,5,4,17,36,52,277,,40,86,351,28,41,58,082,,49,32,274,*76
$GPGSV,5,5,17,50,10,089,*4A
$GLGSV,3,1,10,68,13,066,,69,35,114,14,70,19,186,,73,63,308,24*6E
$GLGSV,3,2,10,74,18,328,,79,01,155,10,80,52,167,18,83,01,017,*63
$GLGSV,3,3,10,84,15,329,08,85,09,280,10*63
$GNGLL,0419.81892,S,05539.81740,E,061744.00,A,A*6C
$GNGRS,061744.00,1,0.0,-5.0,28.8,10.4,-5.4,24.0,-6.1,6.2,,,,*4B
$GNGRS,061744.00,1,2.1,14.9,-5.8,3.6,21.0,,,,,,,*57
$GNGST,061744.00,3763120,,,,8.2,8.4,27*56
$GNZDA,061744.00,28,05,2025,00,00*72
$GNGBS,061744.00,8.2,8.4,26.7,,,,*6A
$GNTXT,01,01,01,More than 100 frame errors, UART RX was disabled*70
b0Xx1,'
HBoJ&!!*#]6V'
WB{4V_:R 
YvDBE#rFI?4JH
O$P4eSTIUUYbx1U
)o3$GNRMC,061745.00,A,0419.81869,S,05539.81725,E,0.684,,280525,,,A*71
$GNVTG,,T,,M,0.684,N,1.267,K,A*35
$GNGNS,061745.00,0419.81869,S,05539.81725,E,AA,13,1.29,8.2,-47.6,,*5F
$GNGGA,061745.00,0419.81869,S,05539.81725,E,1,12,1.29,8.2,M,-47.6,M,,*74
$GNGSA,A,3,24,05,20,15,12,29,25,23,,,,,3.71,1.29,3.48*17
$GNGSA,A,3,80,84,69,73,85,,,,,,,,3.71,1.29,3.48*1E
$GPGSV,5,1,17,05,44,039,20,10,02,213,,12,72,066,14,13,14,111,09*79
$GPGSV,5,2,17,15,38,142,15,18,33,286,,20,11,033,11,23,42,209,14*7A
$GPGSV,5,3,17,24,35,180,14,25,54,342,23,28,03,295,,29,13,343,10*7C
$GPGSV,5,4,17,36,52,277,,40,86,351,30,41,58,082,,49,32,274,*7F
$GPGSV,5,5,17,50,10,089,*4A
$GLGSV,3,1,10,68,13,066,,69,35,114,13,70,19,186,,73,63,308,26*6B
$GLGSV,3,2,10,74,18,328,,79,01,155,11,80,52,167,19,83,01,017,*63
$GLGSV,3,3,10,84,15,329,09,85,09,280,12*60
$GNGLL,0419.81869,S,05539.81725,E,061745.00,A,A*6A
$GNGRS,061745.00,1,-37.5,-6.3,30.6,-16.4,-3.6,171,-3.8,4.9,,,,*54
$GNGRS,061745.00,1,3.6,-111,-5.5,4.2,23.9,,,,,,,*5B
$GNGST,061745.00,60,,,,8.4,8.6,27*67
$GNZDA,061745.00,28,05,2025,00,00*73
$GNGBS,061745.00,8.4,8.6,27.0,,,,*69
$GNTXT,01,01,01,More than 100 frame errors, UART RX was disabled*70
b0X`5,'
HB_o.&!D!

*q#66VX'W{4V_:R 
YvDBE#rlFI?3KJH
OSP4zSTIUb`5U
o$GNRMC,061746.00,A,0419.81879,S,05539.81719,E,0.430,,280525,,,A*71
$GNVTG,,T,,M,0.430,N,0.796,K,A*32
$GNGNS,061746.00,0419.81879,S,05539.81719,E,AA,13,1.02,8.5,-47.6,,*5C
$GNGGA,061746.00,0419.81879,S,05539.81719,E,1,12,1.02,8.5,M,-47.6,M,,*77
$GNGSA,A,3,24,05,20,15,12,29,25,23,,,,,1.98,1.02,1.70*12
$GNGSA,A,3,80,84,69,73,85,,,,,,,,1.98,1.02,1.70*1B
$GPGSV,5,1,17,05,44,039,20,10,02,213,,12,72,066,13,13,14,111,09*7E
$GPGSV,5,2,17,15,38,142,11,18,33,286,21,20,11,033,09,23,42,209,10*70
$GPGSV,5,3,17,24,35,180,15,25,54,342,23,28,03,295,,29,13,343,08*74
$GPGSV,5,4,17,36,52,277,,40,86,351,31,41,58,082,28,49,32,274,*74
$GPGSV,5,5,17,50,10,089,*4A
$GLGSV,3,1,10,68,13,066,,69,35,114,11,70,19,186,,73,63,307,26*66
$GLGSV,3,2,10,74,18,328,,79,01,155,09,80,52,167,21,83,01,017,*61
$GLGSV,3,3,10,84,15,329,09,85,09,280,09*6A
$GNGLL,0419.81879,S,05539.81719,E,061746.00,A,A*67
$GNGRS,061746.00,1,10.8,-7.5,27.4,9.9,-4.2,23.2,-1.7,3.7,,,,*42
$GNGRS,061746.00,1,3.8,14.8,-4.0,3.3,21.9,,,,,,,*59
$GNGST,061746.00,6516268,,,,8.7,9.0,27*5E
$GNZDA,061746.00,28,05,2025,00,00*70
$GNGBS,061746.00,8.7,9.0,27.4,,,,*6A
$GNTXT,01,01,01,More than 100 frame errors, UART RX was disabled*70
b0XH9,'w
HBo5&~!
!i
*#6Vy'W{4V_:R 
YvDBE
#rWFI?3JH
OP4TSTIU.bH9U
oX$GNRMC,061747.00,A,0419.81887,S,05539.81747,E,0.160,,280525,,,A*7A
$GNVTG,,T,,M,0.160,N,0.296,K,A*37
$GNGNS,061747.00,0419.81887,S,05539.81747,E,AA,13,1.02,8.7,-47.6,,*55
$GNGGA,061747.00,0419.81887,S,05539.81747,E,1,12,1.02,8.7,M,-47.6,M,,*7E
$GNGSA,A,3,24,05,20,15,12,29,25,23,,,,,1.98,1.02,1.70*12
$GNGSA,A,3,80,84,69,73,85,,,,,,,,1.98,1.02,1.70*1B
$GPGSV,5,1,17,05,44,039,20,10,02,213,,12,72,066,09,13,14,111,09*75
$GPGSV,5,2,17,15,38,142,11,18,33,286,18,20,11,033,10,23,42,209,08*7B
$GPGSV,5,3,17,24,35,180,11,25,54,342,22,28,03,295,,29,13,343,08*71
$GPGSV,5,4,17,36,52,277,,40,86,351,30,41,58,082,27,49,32,274,*7A
$GPGSV,5,5,17,50,10,089,*4A
$GLGSV,3,1,10,68,13,066,,69,35,114,10,70,19,186,,73,63,307,26*67
$GLGSV,3,2,10,74,19,328,,79,01,155,09,80,52,167,20,83,01,017,*61
$GLGSV,3,3,10,84,15,329,09,85,09,280,14*66
$GNGLL,0419.81887,S,05539.81747,E,061747.00,A,A*6C
$GNGRS,061747.00,1,10.4,-3.9,26.7,8.9,-5.0,23.0,-1.4,1.3,,,,*40
$GNGRS,061747.00,1,3.4,15.1,-4.2,2.2,22.7,,,,,,,*53
$GNGST,061747.00,6516268,,,,9.0,9.4,28*52
$GNZDA,061747.00,28,05,2025,00,00*71
$GNGBS,061747.00,9.0,9.4,27.9,,,,*64
$GNTXT,01,01,01,More than 100 frame errors, UART RX was disabled*70
b0X0=,'
HBo&M!t!*#6V+'Wu&{4V_:R 
YvDBE#rFI?3JH
O(CP4hSTIuUGb0=U
o0h$GNRMC,061748.00,A,0419.81888,S,05539.81755,E,0.218,,280525,,,A*75
$GNVTG,,T,,M,0.218,N,0.403,K,A*31
$GNGNS,061748.00,0419.81888,S,05539.81755,E,AA,12,1.32,9.4,-47.6,,*56
$GNGGA,061748.00,0419.81888,S,05539.81755,E,1,12,1.32,9.4,M,-47.6,M,,*7C
$GNGSA,A,3,24,05,20,15,12,29,25,,,,,,2.30,1.32,1.89*17
$GNGSA,A,3,80,84,69,73,85,,,,,,,,2.30,1.32,1.89*1F
$GPGSV,5,1,17,05,44,039,21,10,02,213,,12,72,066,19,13,14,111,08*74
$GPGSV,5,2,17,15,38,142,13,18,33,286,19,20,11,033,12,23,42,209,08*7A
$GPGSV,5,3,17,24,35,180,16,25,54,342,23,28,03,295,,29,13,343,09*76
$GPGSV,5,4,17,36,52,277,,40,86,351,31,41,58,082,27,49,32,274,*7B
$GPGSV,5,5,17,50,10,089,*4A
$GLGSV,3,1,10,68,13,066,,69,35,114,12,70,19,186,,73,63,307,28*6B
$GLGSV,3,2,10,74,19,328,,79,01,155,08,80,52,167,21,83,01,017,*61
$GLGSV,3,3,10,84,15,329,08,85,09,280,09*6B
$GNGLL,0419.81888,S,05539.81755,E,061748.00,A,A*6F
$GNGRS,061748.00,1,10.2,-4.9,-9.9,-6.9,-1.3,98.4,0.4,,,,,*70
$GNGRS,061748.00,1,3.6,49.8,-1.2,-0.1,-47.9,,,,,,,*57
$GNGST,061748.00,65,,,,9.1,9.6,28*65
$GNZDA,061748.00,28,05,2025,00,00*7E
$GNGBS,061748.00,9.1,9.6,27.8,,,,*69
$GNTXT,01,01,01,More than 100 frame errors, UART RX was disabled*70
b0XA,'
HBJo
&!
!

*#R6V#'W{4V_:R 
YvDBE#rgFI?3JH
OP4ST
IUbAU
o$GNRMC,061749.00,A,0419.81886,S,05539.81788,E,0.544,,280525,,,A*74
$GNVTG,,T,,M,0.544,N,1.007,K,A*3E
$GNGNS,061749.00,0419.81886,S,05539.81788,E,AA,14,0.92,10.3,-47.6,,*6B
$GNGGA,061749.00,0419.81886,S,05539.81788,E,1,12,0.92,10.3,M,-47.6,M,,*47
$GNGSA,A,3,24,05,20,15,12,18,29,25,23,,,,1.92,0.92,1.69*11
$GNGSA,A,3,80,84,69,73,85,,,,,,,,1.92,0.92,1.69*11
$GPGSV,5,1,17,05,44,039,20,10,02,213,,12,72,066,18,13,14,111,*7C
$GPGSV,5,2,17,15,38,142,10,18,33,286,19,20,11,033,10,23,42,209,10*72
$GPGSV,5,3,17,24,35,180,18,25,54,342,21,28,03,295,,29,13,343,11*73
$GPGSV,5,4,17,36,52,277,,40,86,351,31,41,58,082,27,49,32,274,*7B
$GPGSV,5,5,17,50,10,089,*4A
$GLGSV,3,1,10,68,13,066,,69,35,114,15,70,19,186,,73,63,307,28*6C
$GLGSV,3,2,10,74,19,328,,79,01,155,07,80,52,167,23,83,01,017,*6C
$GLGSV,3,3,10,84,15,329,10,85,09,280,09*62
$GNGLL,0419.81886,S,05539.81788,E,061749.00,A,A*60
$GNGRS,061749.00,1,11.1,-3.7,27.4,10.0,8.4,8.0,23.3,0.3,-0.8,,,*7B
$GNGRS,061749.00,1,5.3,14.9,-1.5,-0.1,22.1,,,,,,,*7D
$GNGST,061749.00,3593907,,,,9.2,9.9,28*59
$GNZDA,061749.00,28,05,2025,00,00*7F
$GNGBS,061749.00,9.2,9.9,28.0,,,,*63
$GNTXT,01,01,01,More than 100 frame errors, UART RX was disabled*70
b0XE,'
HBo&!
!

*#]6V'W{4V_:R 
YvDBE#ruFI?3vJH
OP4STIUPbEU
o8$GNRMC,061750.00,A,0419.81882,S,05539.81793,E,0.589,,280525,,,A*73
$GNVTG,,T,,M,0.589,N,1.092,K,A*33
$GNGNS,061750.00,0419.81882,S,05539.81793,E,AA,14,0.92,10.9,-47.6,,*67
$GNGGA,061750.00,0419.81882,S,05539.81793,E,1,12,0.92,10.9,M,-47.6,M,,*4B
$GNGSA,A,3,24,05,20,15,12,18,29,25,23,,,,1.92,0.92,1.69*11
$GNGSA,A,3,80,84,69,73,85,,,,,,,,1.92,0.92,1.69*11
$GPGSV,5,1,17,05,44,039,20,10,02,213,,12,72,066,19,13,14,111,*7D
$GPGSV,5,2,17,15,38,142,15,18,33,286,19,20,11,033,10,23,42,209,10*77
$GPGSV,5,3,17,24,35,180,20,25,54,342,20,28,03,295,,29,13,343,14*7C
$GPGSV,5,4,17,36,52,277,,40,86,351,31,41,58,082,27,49,32,274,*7B
$GPGSV,5,5,17,50,10,089,*4A
$GLGSV,3,1,10,68,13,066,,69,35,114,09,70,19,186,,73,63,307,28*61
$GLGSV,3,2,10,74,19,328,,79,01,155,12,80,52,167,24,83,01,017,*6F
$GLGSV,3,3,10,84,15,329,09,85,09,280,11*63
$GNGLL,0419.81882,S,05539.81793,E,061750.00,A,A*66
$GNGRS,061750.00,1,8.6,-6.2,27.7,10.0,9.0,4.9,23.2,0.2,-1.0,,,*46
$GNGRS,061750.00,1,5.0,14.8,-1.4,1.2,22.0,,,,,,,*58
$GNGST,061750.00,5073981,,,,9.3,10,28*7C
$GNZDA,061750.00,28,05,2025,00,00*77
$GNGBS,061750.00,9.3,10.1,28.1,,,,*5B
$GNTXT,01,01,01,More than 100 frame errors, UART RX was disabled*70
b0XH,'
HBo
&!
!9*#6V'WN{4 V_:R 
YvDBE#rFI?3JH
O
LP4STI$?UbHU
o$GNRMC,061751.00,A,0419.81892,S,05539.81762,E,0.182,,280525,,,A*72
$GNVTG,,T,,M,0.182,N,0.338,K,A*3E
$GNGNS,061751.00,0419.81892,S,05539.81762,E,AA,14,0.95,11.6,-47.6,,*60
$GNGGA,061751.00,0419.81892,S,05539.81762,E,1,12,0.95,11.6,M,-47.6,M,,*4C
$GNGSA,A,3,24,05,20,15,12,18,29,25,23,,,,1.93,0.95,1.68*16
$GNGSA,A,3,80,84,69,73,85,,,,,,,,1.93,0.95,1.68*16
$GPGSV,5,1,17,05,44,039,21,10,02,213,,12,72,066,20,13,14,111,*76
$GPGSV,5,2,17,15,38,142,10,18,33,286,18,20,11,033,10,23,42,209,18*7B
$GPGSV,5,3,17,24,35,180,21,25,54,342,20,28,03,295,,29,13,343,09*71
$GPGSV,5,4,17,36,52,277,,40,86,351,32,41,58,082,27,49,32,274,*78
$GPGSV,5,5,17,50,10,089,*4A
$GLGSV,3,1,10,68,13,066,,69,35,114,17,70,19,186,,73,63,307,29*6F
$GLGSV,3,2,10,74,19,328,,79,01,155,10,80,52,167,25,83,01,017,*6C
$GLGSV,3,3,10,84,15,329,12,85,09,280,12*6A
$GNGLL,0419.81892,S,05539.81762,E,061751.00,A,A*68
$GNGRS,061751.00,1,7.0,-5.3,147,-29.1,9.5,4.6,-35.1,-0.9,-5.0,,,*45
$GNGRS,061751.00,1,4.4,162,1.7,2.2,-10.4,,,,,,,*7F
$GNGST,061751.00,64,,,,9.1,10,28*4C
$GNZDA,061751.00,28,05,2025,00,00*76
$GNGBS,061751.00,9.1,10.1,27.9,,,,*5F
$GNTXT,01,01,01,More than 100 frame errors, UART RX was disabled*70
b0XL,'
HBko
&!!
*{#6V<'W{4 V_:R 
YvDBE#rFI?3JH
OqP4:ST
IUxbLU
o$GNRMC,061752.00,A,0419.81905,S,05539.81766,E,0.151,,280525,,,A*74
$GNVTG,,T,,M,0.151,N,0.280,K,A*32
$GNGNS,061752.00,0419.81905,S,05539.81766,E,AA,14,0.92,12.0,-47.6,,*6A
$GNGGA,061752.00,0419.81905,S,05539.81766,E,1,12,0.92,12.0,M,-47.6,M,,*46
$GNGSA,A,3,24,05,20,15,12,18,29,25,23,,,,1.92,0.92,1.69*11
$GNGSA,A,3,80,84,69,73,85,,,,,,,,1.92,0.92,1.69*11
$GPGSV,5,1,17,05,44,039,21,10,02,213,,12,72,066,21,13,14,111,*77
$GPGSV,5,2,17,15,38,142,10,18,33,286,20,20,11,033,07,23,42,209,15*7B
$GPGSV,5,3,17,24,35,180,22,25,54,342,22,28,03,295,,29,13,343,09*70
$GPGSV,5,4,17,36,52,277,,40,86,351,32,41,58,082,28,49,32,274,*77
$GPGSV,5,5,17,50,10,089,*4A
$GLGSV,3,1,10,68,13,066,,69,35,114,11,70,19,186,,73,63,307,30*61
$GLGSV,3,2,10,74,19,328,,79,01,155,09,80,52,167,23,83,01,017,*62
$GLGSV,3,3,10,84,15,329,10,85,09,280,15*6F
$GNGLL,0419.81905,S,05539.81766,E,061752.00,A,A*60
$GNGRS,061752.00,1,7.4,-3.6,27.6,9.9,8.7,4.2,23.3,-2.0,8.9,,,*74
$GNGRS,061752.00,1,5.7,14.8,2.7,-1.1,21.7,,,,,,,*5A
$GNGST,061752.00,3587062,,,,9.2,10,28*73
$GNZDA,061752.00,28,05,2025,00,00*75
$GNGBS,061752.00,9.2,10.3,28.0,,,,*5B
$GNTXT,01,01,01,More than 100 frame errors, UART RX was disabled*70
b0XP,'j
HBo&!u!
*a#6V'W{4V_:R 
YvDBE#rFI?3mJH
O
GP3STIU
}bPU
ioga$GNRMC,061753.00,A,0419.81908,S,05539.81777,E,0.208,,280525,,,A*77
$GNVTG,,T,,M,0.208,N,0.384,K,A*38
$GNGNS,061753.00,0419.81908,S,05539.81777,E,AA,13,1.00,12.1,-47.6,,*6A
$GNGGA,061753.00,0419.81908,S,05539.81777,E,1,12,1.00,12.1,M,-47.6,M,,*41
$GNGSA,A,3,24,05,20,15,12,18,29,25,23,,,,2.74,1.00,2.56*1F
$GNGSA,A,3,80,69,73,85,,,,,,,,,2.74,1.00,2.56*13
$GPGSV,5,1,17,05,44,039,20,10,02,213,,12,72,066,22,13,14,111,*75
$GPGSV,5,2,17,15,38,142,18,18,33,286,19,20,11,033,09,23,42,209,08*7B
$GPGSV,5,3,17,24,35,180,21,25,54,342,22,28,03,295,,29,13,343,12*79
$GPGSV,5,4,17,36,52,277,,40,86,351,29,41,58,082,27,49,32,274,*72
$GPGSV,5,5,17,50,10,089,*4A
$GLGSV,3,1,10,68,13,066,,69,35,114,15,70,19,186,,73,63,307,29*6D
$GLGSV,3,2,10,74,19,328,,79,01,155,10,80,51,167,19,83,01,017,*60
$GLGSV,3,3,10,84,15,329,06,85,09,280,10*6D
$GNGLL,0419.81908,S,05539.81777,E,061753.00,A,A*6C
$GNGRS,061753.00,1,5.2,-1.5,27.4,9.5,5.3,-1.4,23.3,-0.7,8.7,,,*52
$GNGRS,061753.00,1,5.2,2.2,-1.5,21.9,,,,,,,,*42
$GNGST,061753.00,3762601,,,,9.2,10,28*78
$GNZDA,061753.00,28,05,2025,00,00*74
$GNGBS,061753.00,9.2,10.5,28.1,,,,*5D
$GNTXT,01,01,01,More than 100 frame errors, UART RX was disabled*70
b0XT,'
HB}o
&X!!
*#v6V;'W9{4!V_:R 
YvDBE#rFI ?3JH
OP3rST
IUbTU
Qo?$GNRMC,061754.00,A,0419.81925,S,05539.81790,E,0.068,,280525,,,A*72
$GNVTG,,T,,M,0.068,N,0.126,K,A*36
$GNGNS,061754.00,0419.81925,S,05539.81790,E,AA,13,0.86,11.4,-47.6,,*62
$GNGGA,061754.00,0419.81925,S,05539.81790,E,1,12,0.86,11.4,M,-47.6,M,,*49
$GNGSA,A,3,24,05,15,12,18,29,25,23,,,,,1.64,0.86,1.39*1A
$GNGSA,A,3,80,84,69,73,85,,,,,,,,1.64,0.86,1.39*18
$GPGSV,5,1,17,05,44,039,20,10,02,213,,12,72,066,22,13,14,111,*75
$GPGSV,5,2,17,15,38,142,10,18,33,286,17,20,11,033,05,23,42,209,10*78
$GPGSV,5,3,17,24,35,180,20,25,54,342,24,28,03,295,,29,13,343,08*75
$GPGSV,5,4,17,36,52,277,,40,86,351,33,41,58,082,,49,32,274,*7C
$GPGSV,5,5,17,50,10,089,*4A
$GLGSV,3,1,10,68,13,066,,69,35,114,12,70,19,186,,73,63,307,32*60
$GLGSV,3,2,10,74,19,328,,79,01,155,08,80,51,167,19,83,01,017,*69
$GLGSV,3,3,10,84,15,329,10,85,09,280,11*6B
$GNGLL,0419.81925,S,05539.81790,E,061754.00,A,A*6D
$GNGRS,061754.00,1,3.7,-0.7,39.3,3.8,-2.5,-7.1,0.6,-33.8,,,,*5F
$GNGRS,061754.00,1,6.3,58.5,4.5,-2.9,16.7,,,,,,,*55
$GNGST,061754.00,76,,,,9.2,11,28*48
$GNZDA,061754.00,28,05,2025,00,00*73
$GNGBS,061754.00,9.2,10.5,27.6,,,,*52
$GNTXT,01,01,01,More than 100 frame errors, UART RX was disabled*70
b0XX,'
HBWo&!!
*#6V'W{4V_:R 
YvDBE#rFI?3#JH
O
P3STIU5KbXU
9o1$GNRMC,061755.00,A,0419.81931,S,05539.81809,E,0.158,,280525,,,A*7B
$GNVTG,,T,,M,0.158,N,0.293,K,A*39
$GNGNS,061755.00,0419.81931,S,05539.81809,E,AA,14,0.92,11.6,-47.6,,*69
$GNGGA,061755.00,0419.81931,S,05539.81809,E,1,12,0.92,11.6,M,-47.6,M,,*45
$GNGSA,A,3,24,05,20,15,12,18,29,25,23,,,,1.92,0.92,1.69*11
$GNGSA,A,3,80,84,69,73,85,,,,,,,,1.92,0.92,1.69*11
$GPGSV,5,1,17,05,44,039,20,10,02,213,,12,72,066,20,13,14,111,*77
$GPGSV,5,2,17,15,38,142,09,18,33,286,17,20,11,033,09,23,42,209,09*74
$GPGSV,5,3,17,24,35,180,20,25,54,342,25,28,03,295,,29,13,343,09*75
$GPGSV,5,4,17,36,52,277,,40,86,351,29,41,58,082,,49,32,274,*77
$GPGSV,5,5,17,50,10,089,*4A
$GLGSV,3,1,10,68,13,066,,69,35,114,14,70,19,186,,73,63,307,30*64
$GLGSV,3,2,10,74,19,328,,79,01,155,10,80,51,167,17,83,01,017,*6E
$GLGSV,3,3,10,84,15,329,11,85,09,280,12*69
$GNGLL,0419.81931,S,05539.81809,E,061755.00,A,A*66
$GNGRS,061755.00,1,2.4,-0.1,27.4,9.9,3.4,-5.4,23.3,0.3,9.1,,,*77
$GNGRS,061755.00,1,7.2,14.8,2.6,-4.8,21.8,,,,,,,*58
$GNGST,061755.00,6212466,,,,9.2,11,28*7B
$GNZDA,061755.00,28,05,2025,00,00*72
$GNGBS,061755.00,9.2,10.7,27.7,,,,*50
$GNTXT,01,01,01,More than 100 frame errors, UART RX was disabled*70
b0Xp\,'
HBho&!
!5*\#6V'WR{4V_:R 
YvDBE#r:FI?3nJH
O
P3JSTIU] bp\U
!o$GNRMC,061756.00,A,0419.81959,S,05539.81767,E,0.492,,280525,,,A*72
$GNVTG,,T,,M,0.492,N,0.912,K,A*38
$GNGNS,061756.00,0419.81959,S,05539.81767,E,AA,14,0.92,12.0,-47.6,,*66
$GNGGA,061756.00,0419.81959,S,05539.81767,E,1,12,0.92,12.0,M,-47.6,M,,*4A
$GNGSA,A,3,24,05,20,15,12,18,29,25,23,,,,1.92,0.92,1.68*10
$GNGSA,A,3,80,84,69,73,85,,,,,,,,1.92,0.92,1.68*10
$GPGSV,5,1,17,05,44,039,18,10,02,213,,12,72,066,17,13,14,111,*78
$GPGSV,5,2,17,15,38,142,09,18,33,286,18,20,11,033,10,23,42,209,11*7A
$GPGSV,5,3,17,24,35,180,19,25,54,342,25,28,03,295,,29,13,343,11*76
$GPGSV,5,4,17,36,52,277,,40,86,351,28,41,58,082,,49,32,274,*76
$GPGSV,5,5,17,50,10,089,*4A
$GLGSV,3,1,10,68,13,066,,69,35,114,13,70,19,186,,73,63,307,29*6B
$GLGSV,3,2,10,74,19,328,,79,01,155,10,80,51,167,18,83,01,018,*6E
$GLGSV,3,3,10,84,15,329,11,85,09,280,13*68
$GNGLL,0419.81959,S,05539.81767,E,061756.00,A,A*6C
$GNGRS,061756.00,1,1.8,-0.6,28.7,10.1,3.6,-6.3,23.9,-0.2,8.6,,,*66
$GNGRS,061756.00,1,5.9,15.1,3.1,-6.6,21.4,,,,,,,*5C
$GNGST,061756.00,6212597,,,,9.3,11,28*76
$GNZDA,061756.00,28,05,2025,00,00*71
$GNGBS,061756.00,9.3,10.9,27.9,,,,*52
$GNTXT,01,01,01,More than 100 frame errors, UART RX was disabled*70
b0XX`,'
HBo
&!~
!*#6V'W{4V_:R 
YvDBE#r9FI?3JH
O
!P3ESTIRUbX`U
o$GNRMC,061757.00,A,0419.81980,S,05539.81748,E,0.619,,280525,,,A*7B
$GNVTG,,T,,M,0.619,N,1.147,K,A*30
$GNGNS,061757.00,0419.81980,S,05539.81748,E,AA,14,0.81,12.1,-47.6,,*6D
$GNGGA,061757.00,0419.81980,S,05539.81748,E,1,12,0.81,12.1,M,-47.6,M,,*41
$GNGSA,A,3,24,05,20,15,12,18,29,25,23,,,,1.53,0.81,1.30*12
$GNGSA,A,3,80,84,69,73,85,,,,,,,,1.53,0.81,1.30*12
$GPGSV,5,1,17,05,44,039,17,10,02,213,,12,72,066,13,13,14,111,*73
$GPGSV,5,2,17,15,38,142,10,18,33,286,19,20,11,033,10,23,42,209,12*70
$GPGSV,5,3,17,24,35,180,17,25,54,342,26,28,03,295,,29,13,343,09*72
$GPGSV,5,4,17,36,52,277,,40,86,351,28,41,58,082,27,49,32,274,*73
$GPGSV,5,5,17,50,10,089,*4A
$GLGSV,3,1,10,68,13,066,,69,35,114,12,70,19,186,,73,63,307,28*6B
$GLGSV,3,2,10,74,19,328,,79,01,155,10,80,51,167,18,83,01,018,*6E
$GLGSV,3,3,10,84,15,329,13,85,09,280,09*61
$GNGLL,0419.81980,S,05539.81748,E,061757.00,A,A*64
$GNGRS,061757.00,1,-0.4,1.3,-0.5,-137,1.5,-6.4,-2.5,-0.8,15.3,,,*5A
$GNGRS,061757.00,1,5.8,-17.1,-2.0,-5.4,-90.4,,,,,,,*78
$GNGST,061757.00,86,,,,9.3,11,27*4A
$GNZDA,061757.00,28,05,2025,00,00*70
$GNGBS,061757.00,9.3,10.9,27.2,,,,*58
$GNTXT,01,01,01,More than 100 frame errors, UART RX was disabled*70
b0X@d,'

HBo&!!
*#6V]'W{4V_:R 
YvDBE
#rFI?3GJH
OP3&STIUb@dU
of$GNRMC,061758.00,A,0419.82003,S,05539.81778,E,0.486,,280525,,,A*72
$GNVTG,,T,,M,0.486,N,0.900,K,A*3E
$GNGNS,061758.00,0419.82003,S,05539.81778,E,AA,14,0.92,12.3,-47.6,,*60
$GNGGA,061758.00,0419.82003,S,05539.81778,E,1,12,0.92,12.3,M,-47.6,M,,*4C
$GNGSA,A,3,24,05,20,15,12,18,29,25,23,,,,1.92,0.92,1.68*10
$GNGSA,A,3,80,84,69,73,85,,,,,,,,1.92,0.92,1.68*10
$GPGSV,5,1,17,05,44,039,20,10,02,213,,12,72,066,10,13,14,111,*74
$GPGSV,5,2,17,15,38,142,12,18,33,286,18,20,11,033,08,23,42,209,15*7D
$GPGSV,5,3,17,24,35,180,18,25,54,342,26,28,03,295,,29,13,343,08*7C
$GPGSV,5,4,17,36,52,277,,40,86,351,29,41,58,082,27,49,32,274,*72
$GPGSV,5,5,17,50,10,089,*4A
$GLGSV,3,1,10,68,13,066,,69,35,114,10,70,19,186,,73,63,307,29*68
$GLGSV,3,2,10,74,19,328,,79,01,155,11,80,51,167,21,83,01,018,*65
$GLGSV,3,3,10,84,15,329,08,85,09,281,09*6A
$GNGLL,0419.82003,S,05539.81778,E,061758.00,A,A*69
$GNGRS,061758.00,1,-3.0,1.5,27.1,9.6,5.1,-5.5,23.3,-1.6,9.1,,,*5B
$GNGRS,061758.00,1,8.1,15.2,2.0,-7.0,22.3,,,,,,,*57
$GNGST,061758.00,3618158,,,,9.2,11,27*7A
$GNZDA,061758.00,28,05,2025,00,00*7F
$GNGBS,061758.00,9.2,11.0,27.3,,,,*5F
$GNTXT,01,01,01,More than 100 frame errors, UART RX was disabled*70
b0X(h,'>
HBo&!>!Z
*#46VM'W{4V_:R 
YvDBE#rhFI?3JH
O
^P3ST
IUb(hU
ov$GNRMC,061759.00,A,0419.82011,S,05539.81810,E,0.352,,280525,,,A*7F
$GNVTG,,T,,M,0.352,N,0.652,K,A*38
$GNGNS,061759.00,0419.82011,S,05539.81810,E,AA,14,0.92,12.7,-47.6,,*67
$GNGGA,061759.00,0419.82011,S,05539.81810,E,1,12,0.92,12.7,M,-47.6,M,,*4B
$GNGSA,A,3,24,05,20,15,12,18,29,25,23,,,,1.92,0.92,1.68*10
$GNGSA,A,3,80,84,69,73,85,,,,,,,,1.92,0.92,1.68*10
$GPGSV,5,1,17,05,44,039,21,10,02,213,,12,72,066,11,13,14,111,*74
$GPGSV,5,2,17,15,38,142,09,18,33,286,18,20,11,033,09,23,42,209,16*75
$GPGSV,5,3,17,24,35,180,19,25,54,342,26,28,03,295,,29,13,343,12*76
$GPGSV,5,4,17,36,52,277,,40,86,351,29,41,58,082,27,49,32,274,*72
$GPGSV,5,5,17,50,10,089,*4A
$GLGSV,3,1,10,68,13,066,,69,35,114,11,70,19,186,,73,63,307,28*68
$GLGSV,3,2,10,74,19,328,,79,01,155,10,80,51,167,21,83,01,018,*64
$GLGSV,3,3,10,84,15,329,10,85,09,281,09*63
$GNGLL,0419.82011,S,05539.81810,E,061759.00,A,A*6A
$GNGRS,061759.00,1,-4.6,3.2,26.5,9.0,4.9,-4.5,23.3,-1.8,9.2,,,*58
$GNGRS,061759.00,1,6.7,15.6,1.0,-2.7,23.2,,,,,,,*5B
$GNGST,061759.00,3620101,,,,9.2,11,27*7C
$GNZDA,061759.00,28,05,2025,00,00*7E
$GNGBS,061759.00,9.2,11.1,27.3,,,,*5F
$GNTXT,01,01,01,More than 100 frame errors, UART RX was disabled*70
b0Xl,'
HBo&!!
*@#6V'
W%{4 V_:R 
YvDBE#rWFI?32JH
OP3ST
I6U
JblU
oN6$GNRMC,061800.00,A,0419.82014,S,05539.81846,E,0.269,,280525,,,A*73
$GNVTG,,T,,M,0.269,N,0.498,K,A*35
$GNGNS,061800.00,0419.82014,S,05539.81846,E,AA,14,0.78,14.1,-47.6,,*66
$GNGGA,061800.00,0419.82014,S,05539.81846,E,1,12,0.78,14.1,M,-47.6,M,,*4A
$GNGSA,A,3,24,05,20,15,12,18,29,25,23,,,,1.48,0.78,1.25*1A
$GNGSA,A,3,80,84,69,73,85,,,,,,,,1.48,0.78,1.25*1A
$GPGSV,5,1,17,05,44,039,21,10,02,213,,12,72,066,15,13,14,111,07*77
$GPGSV,5,2,17,15,38,142,14,18,33,286,19,20,11,033,11,23,42,209,10*77
$GPGSV,5,3,17,24,35,180,22,25,54,342,26,28,03,295,,29,13,343,10*7C
$GPGSV,5,4,17,36,52,277,,40,86,351,32,41,58,082,28,49,32,274,*77
$GPGSV,5,5,17,50,10,089,*4A
$GLGSV,3,1,10,68,13,066,,69,35,114,15,70,19,186,,73,63,307,29*6D
$GLGSV,3,2,10,74,19,328,,79,01,155,07,80,51,167,21,83,01,018,*62
$GLGSV,3,3,10,84,15,329,10,85,09,281,10*6B
$GNGLL,0419.82014,S,05539.81846,E,061800.00,A,A*6F
$GNGRS,061800.00,1,-4.8,6.7,-13.0,14.7,5.0,-3.7,-99.5,-2.8,-27.5,,,*72
$GNGRS,061800.00,1,5.3,140,11.1,-2.1,6.8,,,,,,,*7D
$GNGST,061800.00,71,,,,9.1,11,27*4D
$GNZDA,061800.00,28,05,2025,00,00*7D
$GNGBS,061800.00,9.1,11.0,26.8,,,,*54
$GNTXT,01,01,01,More than 100 frame errors, UART RX was disabled*70
b0Xo,'
HBo&!l!K*#x6V'W^{4 V_:R 
YvDBE#rFI?3JH
OAP3}STIU@boU
o%$GNRMC,061801.00,A,0419.82036,S,05539.81825,E,0.597,,280525,,,A*71
$GNVTG,,T,,M,0.597,N,1.105,K,A*33
$GNGNS,061801.00,0419.82036,S,05539.81825,E,AA,13,1.04,15.4,-47.6,,*6B
$GNGGA,061801.00,0419.82036,S,05539.81825,E,1,12,1.04,15.4,M,-47.6,M,,*40
$GNGSA,A,3,24,05,20,15,12,18,29,25,23,,,,2.06,1.04,1.78*11
$GNGSA,A,3,80,84,73,85,,,,,,,,,2.06,1.04,1.78*1E
$GPGSV,5,1,17,05,44,039,20,10,02,213,,12,72,066,15,13,14,111,09*78
$GPGSV,5,2,17,15,38,142,16,18,33,286,18,20,11,033,08,23,42,209,09*74
$GPGSV,5,3,17,24,35,180,22,25,54,342,26,28,03,295,,29,13,343,11*7D
$GPGSV,5,4,17,36,52,277,,40,86,351,32,41,58,082,28,49,32,274,*77
$GPGSV,5,5,17,50,10,089,*4A
$GLGSV,3,1,10,68,13,066,,69,35,114,04,70,19,186,,73,63,307,27*63
$GLGSV,3,2,10,74,19,328,,79,01,155,09,80,51,167,19,83,01,018,*67
$GLGSV,3,3,10,84,15,329,08,85,09,281,07*64
$GNGLL,0419.82036,S,05539.81825,E,061801.00,A,A*6B
$GNGRS,061801.00,1,-3.9,5.0,28.9,10.5,4.6,-6.6,24.0,-4.9,9.0,,,*65
$GNGRS,061801.00,1,6.4,15.2,-0.8,21.9,,,,,,,,*75
$GNGST,061801.00,5320544,,,,9.1,11,27*7B
$GNZDA,061801.00,28,05,2025,00,00*7C
$GNGBS,061801.00,9.1,11.1,26.9,,,,*55
$GNTXT,01,01,01,More than 100 frame errors, UART RX was disabled*70
b0Xs,'*
HBof&!!*
*H#6V'
Wr{4V_:R 
YvDBE
#rFI?36JH
OP3fSTIUbsU
o$GNRMC,061802.00,A,0419.82067,S,05539.81875,E,0.799,,280525,,,A*7F
$GNVTG,,T,,M,0.799,N,1.481,K,A*36
$GNGNS,061802.00,0419.82067,S,05539.81875,E,AA,13,0.92,15.5,-47.6,,*66
$GNGGA,061802.00,0419.82067,S,05539.81875,E,1,12,0.92,15.5,M,-47.6,M,,*4D
$GNGSA,A,3,24,05,20,15,12,18,29,25,23,,,,1.92,0.92,1.68*10
$GNGSA,A,3,80,84,69,73,,,,,,,,,1.92,0.92,1.68*1D
$GPGSV,5,1,17,05,44,039,19,10,02,213,,12,72,066,16,13,14,111,13*7A
$GPGSV,5,2,17,15,38,142,12,18,33,286,18,20,11,033,11,23,42,209,10*70
$GPGSV,5,3,17,24,35,180,21,25,54,342,26,28,03,295,,29,13,343,10*7F
$GPGSV,5,4,17,36,52,277,,40,86,351,27,41,58,082,27,49,32,274,*7C
$GPGSV,5,5,17,50,10,089,*4A
$GLGSV,3,1,10,68,13,066,,69,35,114,10,70,19,186,,73,63,307,26*67
$GLGSV,3,2,10,74,19,328,,79,01,155,14,80,51,167,18,83,01,018,*6A
$GLGSV,3,3,10,84,15,329,12,85,09,281,07*6F
$GNGLL,0419.82067,S,05539.81875,E,061802.00,A,A*69
$GNGRS,061802.00,1,-3.5,8.1,28.6,9.3,2.2,-8.0,24.2,-1.0,8.4,,,*56
$GNGRS,061802.00,1,3.6,15.4,2.7,-2.0,,,,,,,,*42
$GNGST,061802.00,5077365,,,,9.1,11,27*7C
$GNZDA,061802.00,28,05,2025,00,00*7F
$GNGBS,061802.00,9.1,11.2,27.0,,,,*5D
$GNTXT,01,01,01,More than 100 frame errors, UART RX was disabled*70
b0Xw,']
HB/o&!!D*#6V'W{4V_:R 
YvDBE#rFI?3JH
O
P3STIU8HbbwU
yo_$GNRMC,061803.00,A,0419.82044,S,05539.81927,E,0.597,,280525,,,A*75
$GNVTG,,T,,M,0.597,N,1.106,K,A*30
$GNGNS,061803.00,0419.82044,S,05539.81927,E,AA,14,1.00,15.4,-47.6,,*6C
$GNGGA,061803.00,0419.82044,S,05539.81927,E,1,12,1.00,15.4,M,-47.6,M,,*40
$GNGSA,A,3,24,05,20,15,12,18,29,25,23,,,,2.74,1.00,2.55*1C
$GNGSA,A,3,80,84,69,73,85,,,,,,,,2.74,1.00,2.55*1C
$GPGSV,5,1,17,05,44,039,17,10,02,213,,12,72,066,16,13,14,111,12*75
$GPGSV,5,2,17,15,38,142,15,18,33,286,18,20,11,033,07,23,42,209,11*71
$GPGSV,5,3,17,24,35,180,20,25,54,342,26,28,03,295,,29,13,343,09*76
$GPGSV,5,4,17,36,52,277,,40,86,351,28,41,58,082,27,49,32,274,*73
$GPGSV,5,5,17,50,10,089,*4A
$GLGSV,3,1,10,68,13,066,,69,35,114,09,70,19,186,,73,63,307,25*6C
$GLGSV,3,2,10,74,19,328,,79,01,155,09,80,51,167,19,83,01,018,*67
$GLGSV,3,3,10,84,15,329,11,85,09,281,12*68
$GNGLL,0419.82044,S,05539.81927,E,061803.00,A,A*6F
$GNGRS,061803.00,1,-5.7,11.2,174,9.9,-2.1,-8.2,-84.6,-2.9,-13.4,,,*50
$GNGRS,061803.00,1,2.4,21.9,-144,-3.0,146,,,,,,,*4F
$GNGST,061803.00,80,,,,9.0,11,27*41
$GNZDA,061803.00,28,05,2025,00,00*7E
$GNGBS,061803.00,9.0,11.3,27.1,,,,*5D
$GNTXT,01,01,01,More than 100 frame errors, UART RX was disabled*70
b0X{,'
HBo[&!!
*#6V'W0{4V_:R 
YvDBE#r FI?3NJH
O1P3aSTIUb{U
ao$GNRMC,061804.00,A,0419.82043,S,05539.81974,E,0.745,,280525,,,A*7E
$GNVTG,,T,,M,0.745,N,1.381,K,A*30
$GNGNS,061804.00,0419.82043,S,05539.81974,E,AA,15,0.84,16.2,-47.6,,*63
$GNGGA,061804.00,0419.82043,S,05539.81974,E,1,12,0.84,16.2,M,-47.6,M,,*4E
$GNGSA,A,3,24,05,20,15,12,13,18,29,25,23,,,1.60,0.84,1.36*13
$GNGSA,A,3,80,84,69,73,85,,,,,,,,1.60,0.84,1.36*11
$GPGSV,5,1,17,05,44,039,19,10,02,213,,12,72,066,17,13,14,111,16*7E
$GPGSV,5,2,17,15,38,142,18,18,33,286,17,20,11,033,08,23,42,209,15*78
$GPGSV,5,3,17,24,35,180,20,25,54,342,26,28,03,295,,29,13,343,12*7C
$GPGSV,5,4,17,36,52,277,,40,86,351,30,41,58,082,27,49,32,274,*7A
$GPGSV,5,5,17,50,10,089,*4A
$GLGSV,3,1,10,68,13,066,,69,35,114,11,70,19,186,,73,63,307,27*67
$GLGSV,3,2,10,74,19,328,,79,01,155,07,80,51,167,21,83,01,018,*62
$GLGSV,3,3,10,84,15,329,07,85,09,281,09*65
$GNGLL,0419.82043,S,05539.81974,E,061804.00,A,A*69
$GNGRS,061804.00,1,-6.0,10.3,27.5,6.8,-2.7,-17.0,-10.2,23.5,-5.3,9.8,,*4F
$GNGRS,061804.00,1,3.5,15.3,2.9,-4.3,22.6,,,,,,,*53
$GNGST,061804.00,3436108,,,,9.0,11,27*75
$GNZDA,061804.00,28,05,2025,00,00*79
$GNGBS,061804.00,9.0,11.3,27.1,,,,*5A
$GNTXT,01,01,01,More than 100 frame errors, UART RX was disabled*70
b0X,';
HBo,&!!
*#6Vf'WV{4V_:R 
YvDBE#rFI ?3MJH
O

P3STI4U,$bU
Io/$GNRMC,061805.00,A,0419.82061,S,05539.82031,E,0.988,,280525,,,A*7B
$GNVTG,,T,,M,0.988,N,1.830,K,A*3E
$GNGNS,061805.00,0419.82061,S,05539.82031,E,AA,15,0.84,16.5,-47.6,,*6E
$GNGGA,061805.00,0419.82061,S,05539.82031,E,1,12,0.84,16.5,M,-47.6,M,,*43
$GNGSA,A,3,24,05,20,15,12,13,18,29,25,23,,,1.60,0.84,1.36*13
$GNGSA,A,3,80,84,69,73,85,,,,,,,,1.60,0.84,1.36*11
$GPGSV,5,1,17,05,44,039,19,10,02,213,,12,72,066,18,13,14,111,11*76
$GPGSV,5,2,17,15,38,142,20,18,33,286,19,20,11,033,13,23,42,209,12*70
$GPGSV,5,3,17,24,35,180,21,25,54,342,27,28,03,295,,29,13,343,18*76
$GPGSV,5,4,17,36,52,277,,40,86,351,30,41,58,082,27,49,32,274,*7A
$GPGSV,5,5,17,50,10,089,*4A
$GLGSV,3,1,10,68,13,066,,69,35,114,20,70,19,186,,73,63,307,32*61
$GLGSV,3,2,10,74,19,328,,79,01,155,10,80,51,167,21,83,01,018,*64
$GLGSV,3,3,10,84,15,329,09,85,09,281,11*62
$GNGLL,0419.82061,S,05539.82031,E,061805.00,A,A*63
$GNGRS,061805.00,1,-7.8,8.3,27.2,2.2,-3.6,-17.5,-10.4,23.9,-6.7,10.1,,*4E
$GNGRS,061805.00,1,2.1,15.9,2.3,-4.3,23.5,,,,,,,*55
$GNGST,061805.00,3437366,,,,8.9,11,27*77
$GNZDA,061805.00,28,05,2025,00,00*78
$GNGBS,061805.00,8.9,11.3,27.0,,,,*52
$GNTXT,01,01,01,More than 100 frame errors, UART RX was disabled*70
b0X+&
HB
o&G!
!*#6V'W{4V_:R 
YvDBE#rJFI?3mJH
OBP3?STIU
2#ObU
1o]$GNRMC,061806.00,A,0419.82044,S,05539.82095,E,1.065,,280525,,,A*7A
$GNVTG,,T,,M,1.065,N,1.973,K,A*33
$GNGNS,061806.00,0419.82044,S,05539.82095,E,AA,15,0.79,18.1,-47.6,,*6C
$GNGGA,061806.00,0419.82044,S,05539.82095,E,1,12,0.79,18.1,M,-47.6,M,,*41
$GNGSA,A,3,24,05,20,15,12,13,18,29,25,23,,,1.41,0.79,1.17*11
$GNGSA,A,3,80,84,69,73,85,,,,,,,,1.41,0.79,1.17*13
$GPGSV,5,1,17,05,43,038,20,10,02,213,,12,72,066,21,13,14,111,10*71
$GPGSV,5,2,17,15,38,142,22,18,33,286,20,20,11,033,10,23,42,209,08*70
$GPGSV,5,3,17,24,35,180,21,25,54,342,27,28,03,295,,29,13,343,13*7D
$GPGSV,5,4,17,36,52,277,,40,86,351,30,41,58,082,28,49,32,274,*75
$GPGSV,5,5,17,50,10,089,*4A
$GLGSV,3,1,10,68,13,066,,69,35,114,17,70,19,186,,73,63,307,27*61
$GLGSV,3,2,10,74,19,328,,79,01,155,07,80,51,167,20,83,01,018,*63
$GLGSV,3,3,10,84,15,329,13,85,09,281,10*68
$GNGLL,0419.82044,S,05539.82095,E,061806.00,A,A*69
$GNGRS,061806.00,1,-8.6,9.3,-21.7,0.7,-5.8,-7.4,-10.5,-44.1,-6.1,-43.7,,*52
$GNGRS,061806.00,1,0.6,-10.8,3.3,-1.5,-9.7,,,,,,,*6F
$GNGST,061806.00,73,,,,8.8,11,26*40
$GNZDA,061806.00,28,05,2025,00,00*7B
$GNGBS,061806.00,8.8,11.0,26.3,,,,*51
$GNTXT,01,01,01,More than 100 frame errors, UART RX was disabled*70
b0Xh+&
HBP
o&H!2!
*#k 6V'W{4!V_:R 
YvDBE#rFI?3JH
O!P3ST
IU,bhU
o5$GNRMC,061807.00,A,0419.82041,S,05539.82104,E,0.577,,280525,,,A*70
$GNVTG,,T,,M,0.577,N,1.068,K,A*37
$GNGNS,061807.00,0419.82041,S,05539.82104,E,AA,15,0.92,17.6,-47.6,,*6C
$GNGGA,061807.00,0419.82041,S,05539.82104,E,1,12,0.92,17.6,M,-47.6,M,,*41
$GNGSA,A,3,24,05,20,15,12,13,18,29,25,23,,,1.92,0.92,1.68*12
$GNGSA,A,3,80,84,69,73,85,,,,,,,,1.92,0.92,1.68*10
$GPGSV,5,1,17,05,43,038,21,10,02,213,,12,72,066,25,13,14,111,10*74
$GPGSV,5,2,17,15,38,142,22,18,33,286,21,20,11,033,13,23,42,209,15*7E
$GPGSV,5,3,17,24,35,180,22,25,54,342,32,28,03,295,,29,13,343,08*70
$GPGSV,5,4,17,36,52,277,,40,86,351,33,41,58,082,29,49,32,274,*77
$GPGSV,5,5,17,50,10,089,*4A
$GLGSV,3,1,10,68,13,066,,69,35,114,16,70,19,186,,73,63,307,28*6F
$GLGSV,3,2,10,74,19,328,,79,01,155,09,80,51,167,20,83,01,018,*6D
$GLGSV,3,3,10,84,15,329,10,85,09,281,09*63
$GNGLL,0419.82041,S,05539.82104,E,061807.00,A,A*64
$GNGRS,061807.00,1,-11.7,10.0,27.7,-1.8,-6.9,22.2,-9.7,22.7,-8.1,9.3,,*4F
$GNGRS,061807.00,1,0.1,14.4,6.8,-3.0,20.9,,,,,,,*5D
$GNGST,061807.00,5072371,,,,8.7,11,26*7F
$GNZDA,061807.00,28,05,2025,00,00*7A
$GNGBS,061807.00,8.7,10.9,26.2,,,,*56
$GNTXT,01,01,01,More than 100 frame errors, UART RX was disabled*70
b0XP+&
HBo&!j!
*#6V'W{4!V_:R 
YvDBE#rFI?3JH
OCP3STI~UmbPU
og$GNRMC,061808.00,A,0419.82029,S,05539.82121,E,0.429,,280525,,,A*7C
$GNVTG,,T,,M,0.429,N,0.794,K,A*38
$GNGNS,061808.00,0419.82029,S,05539.82121,E,AA,15,0.92,17.5,-47.6,,*69
$GNGGA,061808.00,0419.82029,S,05539.82121,E,1,12,0.92,17.5,M,-47.6,M,,*44
$GNGSA,A,3,24,05,20,15,12,13,18,29,25,23,,,1.92,0.92,1.68*12
$GNGSA,A,3,80,84,69,73,85,,,,,,,,1.92,0.92,1.68*10
$GPGSV,5,1,17,05,43,038,23,10,02,213,,12,72,066,25,13,14,111,08*7F
$GPGSV,5,2,17,15,38,142,23,18,33,286,23,20,11,033,13,23,42,209,18*70
$GPGSV,5,3,17,24,35,180,20,25,54,342,30,28,03,295,,29,13,343,16*7F
$GPGSV,5,4,17,36,52,277,,40,86,351,33,41,58,082,28,49,32,274,*76
$GPGSV,5,5,17,50,10,089,*4A
$GLGSV,3,1,10,68,13,066,,69,35,114,16,70,19,186,,73,63,307,27*60
$GLGSV,3,2,10,74,19,328,,79,01,155,06,80,51,167,20,83,01,018,*62
$GLGSV,3,3,10,84,15,329,09,85,09,281,08*6A
$GNGLL,0419.82029,S,05539.82121,E,061808.00,A,A*62
$GNGRS,061808.00,1,-12.7,12.3,27.7,-3.3,-6.4,22.7,-6.6,22.3,-7.8,9.3,,*4F
$GNGRS,061808.00,1,0.3,14.1,6.9,-0.5,20.4,,,,,,,*5F
$GNGST,061808.00,5072371,,,,8.7,11,26*70
$GNZDA,061808.00,28,05,2025,00,00*75
$GNGBS,061808.00,8.7,10.7,26.1,,,,*54
$GNTXT,01,01,01,More than 100 frame errors, UART RX was disabled*70
b0X8+&/
HBWo&!!V*#6V\'W{4#V_:R 
YvDBE#rFI?3JH
O
RP3STI:UVApb8U
o$GNRMC,061809.00,A,0419.82028,S,05539.82157,E,0.640,,280525,,,A*70
$GNVTG,,T,,M,0.640,N,1.184,K,A*33
$GNGNS,061809.00,0419.82028,S,05539.82157,E,AA,15,0.81,18.3,-47.6,,*63
$GNGGA,061809.00,0419.82028,S,05539.82157,E,1,12,0.81,18.3,M,-47.6,M,,*4E
$GNGSA,A,3,24,05,20,15,12,13,18,29,25,23,,,1.53,0.81,1.30*10
$GNGSA,A,3,80,84,69,73,85,,,,,,,,1.53,0.81,1.30*12
$GPGSV,5,1,17,05,43,038,23,10,02,213,,12,72,066,25,13,14,111,11*77
$GPGSV,5,2,17,15,38,142,21,18,33,286,24,20,11,033,14,23,42,209,18*72
$GPGSV,5,3,17,24,35,180,18,25,54,342,29,28,03,295,,29,13,343,12*78
$GPGSV,5,4,17,36,52,277,31,40,86,351,35,41,58,082,28,49,32,274,*72
$GPGSV,5,5,17,50,10,089,*4A
$GLGSV,3,1,10,68,13,066,,69,35,114,19,70,19,186,,73,63,307,28*60
$GLGSV,3,2,10,74,19,328,,79,01,155,10,80,51,167,20,83,01,018,*65
$GLGSV,3,3,10,84,15,329,11,85,09,281,07*6C
$GNGLL,0419.82028,S,05539.82157,E,061809.00,A,A*63
$GNGRS,061809.00,1,-11.2,10.7,-1.7,-5.8,-9.4,-123,-6.2,-0.2,-6.8,7.6,,*43
$GNGRS,061809.00,1,2.7,-7.1,6.9,2.0,167,,,,,,,*45
$GNGST,061809.00,67,,,,8.5,10,25*45
$GNZDA,061809.00,28,05,2025,00,00*74
$GNGBS,061809.00,8.5,10.5,25.3,,,,*54
$GNTXT,01,01,01,More than 100 frame errors, UART RX was disabled*70
b0X +&
HBIo&!t!
*#S6V'W{4 V_:R 
YvDBE#r6FI ?3JH
O
=P3STIUTM<b U
o4$GNRMC,061810.00,A,0419.82022,S,05539.82171,E,0.439,,280525,,,A*7A
$GNVTG,,T,,M,0.439,N,0.813,K,A*39
$GNGNS,061810.00,0419.82022,S,05539.82171,E,AA,14,0.92,18.3,-47.6,,*66
$GNGGA,061810.00,0419.82022,S,05539.82171,E,1,12,0.92,18.3,M,-47.6,M,,*4A
$GNGSA,A,3,24,05,20,15,12,18,29,25,23,,,,1.92,0.92,1.68*10
$GNGSA,A,3,80,84,69,73,85,,,,,,,,1.92,0.92,1.68*10
$GPGSV,5,1,17,05,43,038,23,10,02,213,,12,72,066,25,13,14,111,*77
$GPGSV,5,2,17,15,38,142,22,18,33,286,26,20,11,033,14,23,42,209,20*78
$GPGSV,5,3,17,24,35,180,21,25,54,342,29,28,03,295,,29,13,343,11*71
$GPGSV,5,4,17,36,52,277,31,40,86,351,32,41,58,082,28,49,32,274,*75
$GPGSV,5,5,17,50,10,089,*4A
$GLGSV,3,1,10,68,13,066,,69,35,114,18,70,19,186,,73,63,307,32*6A
$GLGSV,3,2,10,74,19,328,,79,01,155,10,80,51,167,19,83,01,018,*6F
$GLGSV,3,3,10,84,15,329,11,85,09,281,09*62
$GNGLL,0419.82022,S,05539.82171,E,061810.00,A,A*65
$GNGRS,061810.00,1,-9.4,11.7,27.3,-5.1,-9.5,-4.0,22.6,-7.4,7.2,,,*6D
$GNGRS,061810.00,1,4.3,14.3,5.7,5.0,21.3,,,,,,,*76
$GNGST,061810.00,3586708,,,,8.4,10,25*7A
$GNZDA,061810.00,28,05,2025,00,00*7C
$GNGBS,061810.00,8.4,10.2,25.1,,,,*58
$GNTXT,01,01,01,More than 100 frame errors, UART RX was disabled*70
b0X+&
HBUo&!!u
*#
6V'W{ 4!V_:R 
YvDBE#rFI?3JH
OP3STI[UebU
o$GNRMC,061811.00,A,0419.82037,S,05539.82178,E,0.483,,280525,,,A*77
$GNVTG,,T,,M,0.483,N,0.895,K,A*36
$GNGNS,061811.00,0419.82037,S,05539.82178,E,AA,14,0.92,17.6,-47.6,,*60
$GNGGA,061811.00,0419.82037,S,05539.82178,E,1,12,0.92,17.6,M,-47.6,M,,*4C
$GNGSA,A,3,24,05,20,15,12,18,29,25,23,,,,1.92,0.92,1.68*10
$GNGSA,A,3,80,84,69,73,85,,,,,,,,1.92,0.92,1.68*10
$GPGSV,5,1,17,05,43,038,22,10,02,212,,12,72,066,25,13,14,111,*77
$GPGSV,5,2,17,15,38,142,21,18,33,286,26,20,11,033,09,23,42,209,19*7D
$GPGSV,5,3,17,24,35,180,21,25,54,342,29,28,03,295,,29,13,343,11*71
$GPGSV,5,4,17,36,52,277,32,40,86,351,33,41,58,082,28,49,32,274,*77
$GPGSV,5,5,17,50,10,089,*4A
$GLGSV,3,1,10,68,13,066,,69,35,114,18,70,19,186,,73,63,307,30*68
$GLGSV,3,2,10,74,19,328,,79,01,155,08,80,51,167,19,83,01,018,*66
$GLGSV,3,3,10,84,15,329,09,85,09,281,12*61
$GNGLL,0419.82037,S,05539.82178,E,061811.00,A,A*69
$GNGRS,061811.00,1,-10.1,9.2,26.8,-2.4,-9.4,-4.9,21.8,-5.1,7.6,,,*63
$GNGRS,061811.00,1,4.2,13.7,4.5,2.1,20.5,,,,,,,*77
$GNGST,061811.00,3586708,,,,8.3,10,25*7C
$GNZDA,061811.00,28,05,2025,00,00*7D
$GNGBS,061811.00,8.3,10.0,24.8,,,,*54
$GNTXT,01,01,01,More than 100 frame errors, UART RX was disabled*70
b0X+&P
HBo&!
!*}#6Vh'W{4"V_:R 
YvDBE#rJFI?3HJH
O,P3ST
IU~bU
ok$GNRMC,061812.00,A,0419.82037,S,05539.82184,E,0.359,,280525,,,A*77
$GNVTG,,T,,M,0.359,N,0.665,K,A*37
$GNGNS,061812.00,0419.82037,S,05539.82184,E,AA,14,0.88,16.0,-47.6,,*6C
$GNGGA,061812.00,0419.82037,S,05539.82184,E,1,12,0.88,16.0,M,-47.6,M,,*40
$GNGSA,A,3,24,05,20,15,12,18,29,25,23,,,,1.81,0.88,1.58*1A
$GNGSA,A,3,80,84,69,73,85,,,,,,,,1.81,0.88,1.58*1A
$GPGSV,5,1,17,05,43,038,23,10,02,212,,12,72,066,24,13,14,111,03*74
$GPGSV,5,2,17,15,38,142,22,18,33,286,27,20,11,033,10,23,42,209,19*77
$GPGSV,5,3,17,24,35,180,23,25,54,342,28,28,03,295,,29,13,343,08*7A
$GPGSV,5,4,17,36,52,277,30,40,86,351,34,41,58,082,28,49,32,274,*72
$GPGSV,5,5,17,50,10,089,*4A
$GLGSV,3,1,10,68,13,066,,69,35,114,16,70,19,186,,73,63,307,30*66
$GLGSV,3,2,10,74,19,328,,79,01,155,07,80,51,167,23,83,01,018,*60
$GLGSV,3,3,10,84,15,329,10,85,09,281,11*6A
$GNGLL,0419.82037,S,05539.82184,E,061812.00,A,A*69
$GNGRS,061812.00,1,-8.4,5.9,12.9,-3.1,-8.0,-1.1,-57.4,-9.2,8.9,,,*7E
$GNGRS,061812.00,1,3.9,56.2,3.3,-4.4,-39.0,,,,,,,*73
$GNGST,061812.00,57,,,,8.2,9.7,24*6B
$GNZDA,061812.00,28,05,2025,00,00*7E
$GNGBS,061812.00,8.2,9.7,24.3,,,,*62
$GNTXT,01,01,01,More than 100 frame errors, UART RX was disabled*70
b0X+&K
HDNo&!5
!
*#6V='W{4#V_:R 
YvDBE#rFI?3EJH
OYP3STIUV8ubU
oC]$GNRMC,061813.00,A,0419.82043,S,05539.82181,E,0.291,,280525,,,A*75
$GNVTG,,T,,M,0.291,N,0.539,K,A*38
$GNGNS,061813.00,0419.82043,S,05539.82181,E,AA,13,1.00,15.6,-47.6,,*68
$GNGGA,061813.00,0419.82043,S,05539.82181,E,1,12,1.00,15.6,M,-47.6,M,,*43
$GNGSA,A,3,24,05,20,15,12,18,29,25,23,,,,2.74,1.00,2.55*1C
$GNGSA,A,3,80,69,73,85,,,,,,,,,2.74,1.00,2.55*10
$GPGSV,5,1,17,05,43,038,27,10,02,212,,12,72,068,23,13,14,111,07*7D
$GPGSV,5,2,17,15,38,142,23,18,33,286,26,20,11,033,10,23,42,209,20*7D
$GPGSV,5,3,17,24,35,180,24,25,54,342,27,28,03,295,,29,13,343,14*7F
$GPGSV,5,4,17,36,52,277,30,40,86,351,35,41,58,082,29,49,32,274,*72
$GPGSV,5,5,17,50,10,089,*4A
$GLGSV,3,1,10,68,13,066,,69,35,114,15,70,19,186,,73,63,307,30*65
$GLGSV,3,2,10,74,19,328,,79,01,155,06,80,51,167,25,83,01,018,*67
$GLGSV,3,3,10,84,15,329,07,85,09,281,12*6F
$GNGLL,0419.82043,S,05539.82181,E,061813.00,A,A*6E
$GNGRS,061813.00,1,-5.6,-1.8,27.5,-3.2,-9.5,-2.0,22.9,-9.6,5.1,,,*74
$GNGRS,061813.00,1,4.4,0.0,-4.4,21.3,,,,,,,,*40
$GNGST,061813.00,49,,,,8.1,9.5,24*64
$GNZDA,061813.00,28,05,2025,00,00*7F
$GNGBS,061813.00,8.1,9.5,24.2,,,,*63
$GNTXT,01,01,01,More than 100 frame errors, UART RX was disabled*70
b0X+&
HDo&>!|!"*#6V`'W4{4$V_:R 
YvDBE#rFI?3}JH
OP3STIU
zbU
qp$GNRMC,061814.00,A,0419.82046,S,05539.82158,E,0.196,,280525,,,A*77
$GNVTG,,T,,M,0.196,N,0.363,K,A*35
$GNGNS,061814.00,0419.82046,S,05539.82158,E,AA,14,0.92,16.4,-47.6,,*62
$GNGGA,061814.00,0419.82046,S,05539.82158,E,1,12,0.92,16.4,M,-47.6,M,,*4E
$GNGSA,A,3,24,05,20,15,12,18,29,25,23,,,,1.91,0.92,1.68*13
$GNGSA,A,3,80,84,69,73,85,,,,,,,,1.91,0.92,1.68*13
$GPGSV,5,1,17,05,43,038,31,10,02,212,,12,72,068,25,13,14,111,09*72
$GPGSV,5,2,17,15,38,142,21,18,33,286,30,20,11,033,11,23,42,209,20*79
$GPGSV,5,3,17,24,35,180,25,25,54,342,28,28,03,295,,29,13,343,12*77
$GPGSV,5,4,17,36,52,277,29,40,86,351,36,41,58,082,30,49,32,274,*71
$GPGSV,5,5,17,50,10,089,*4A
$GLGSV,3,1,10,68,13,066,,69,35,114,15,70,19,186,,73,63,307,29*6D
$GLGSV,3,2,10,74,19,328,,79,01,155,11,80,51,167,27,83,01,018,*63
$GLGSV,3,3,10,84,15,329,07,85,09,281,10*6D
$GNGLL,0419.82046,S,05539.82158,E,061814.00,A,A*68
$GNGRS,061814.00,1,-6.4,-8.3,28.5,-1.9,-10.4,-3.9,23.6,-9.3,4.5,,,*49
$GNGRS,061814.00,1,6.5,15.0,0.0,-9.0,21.8,,,,,,,*5C
$GNGST,061814.00,3586708,,,,7.9,9.2,24*59
$GNZDA,061814.00,28,05,2025,00,00*78
$GNGBS,061814.00,7.9,9.2,23.7,,,,*66
$GNTXT,01,01,01,More than 100 frame errors, UART RX was disabled*70
b0X+&9
HDJo&!!*#h6V'W{4$V_:R 
YvDBE#rFI?3JH
OhP3STIU
rbU
Yp/$GNRMC,061815.00,A,0419.82053,S,05539.82152,E,0.108,,280525,,,A*7F
$GNVTG,,T,,M,0.108,N,0.200,K,A*36
$GNGNS,061815.00,0419.82053,S,05539.82152,E,AA,14,0.84,15.2,-47.6,,*6F
$GNGGA,061815.00,0419.82053,S,05539.82152,E,1,12,0.84,15.2,M,-47.6,M,,*43
$GNGSA,A,3,24,05,20,15,12,18,29,25,23,,,,1.61,0.84,1.38*1E
$GNGSA,A,3,80,84,69,73,85,,,,,,,,1.61,0.84,1.38*1E
$GPGSV,5,1,17,05,43,038,30,10,02,212,,12,72,068,25,13,14,111,11*7A
$GPGSV,5,2,17,15,38,142,22,18,33,286,28,20,11,033,07,23,42,209,22*76
$GPGSV,5,3,17,24,35,180,24,25,54,342,28,28,03,295,,29,13,343,12*76
$GPGSV,5,4,17,36,52,277,27,40,86,351,36,41,58,082,28,49,32,274,*76
$GPGSV,5,5,17,50,10,089,*4A
$GLGSV,3,1,10,68,13,066,,69,35,114,15,70,19,186,,73,63,307,29*6D
$GLGSV,3,2,10,74,19,328,,79,01,155,08,80,51,167,27,83,01,018,*6B
$GLGSV,3,3,10,84,15,329,11,85,09,281,10*6A
$GNGLL,0419.82053,S,05539.82152,E,061815.00,A,A*67
$GNGRS,061815.00,1,-9.2,-4.5,6.5,-0.1,-9.5,-2.6,6.6,-5.3,-0.4,,,*5A
$GNGRS,061815.00,1,6.6,-72.3,2.5,-2.7,-75.7,,,,,,,*59
$GNGST,061815.00,63,,,,7.7,8.9,23*69
$GNZDA,061815.00,28,05,2025,00,00*79
$GNGBS,061815.00,7.7,8.9,23.0,,,,*64
$GNTXT,01,01,01,More than 100 frame errors, UART RX was disabled*70
b0X+&
HD^o]'!!
*;#66VS'
W{4#V_:R 
YvDBE#rFI?33JH
ORP3ST
IUQBbU
Ap$GNRMC,061816.00,A,0419.82056,S,05539.82160,E,0.198,,280525,,,A*71
$GNVTG,,T,,M,0.198,N,0.368,K,A*30
$GNGNS,061816.00,0419.82056,S,05539.82160,E,AA,14,0.92,15.0,-47.6,,*6D
$GNGGA,061816.00,0419.82056,S,05539.82160,E,1,12,0.92,15.0,M,-47.6,M,,*41
$GNGSA,A,3,24,05,20,15,12,18,29,25,23,,,,1.91,0.92,1.68*13
$GNGSA,A,3,80,84,69,73,85,,,,,,,,1.91,0.92,1.68*13
$GPGSV,5,1,17,05,43,038,29,10,02,212,,12,72,068,23,13,14,111,11*74
$GPGSV,5,2,17,15,39,142,20,18,33,286,30,20,11,033,07,23,42,209,26*78
$GPGSV,5,3,17,24,35,180,24,25,54,342,27,28,03,295,,29,13,343,10*7B
$GPGSV,5,4,17,36,52,277,26,40,86,351,35,41,58,082,28,49,32,274,*74
$GPGSV,5,5,17,50,10,089,*4A
$GLGSV,3,1,10,68,13,066,,69,35,114,13,70,19,186,,73,63,307,29*6B
$GLGSV,3,2,10,74,19,328,,79,01,155,08,80,51,167,26,83,01,018,*6A
$GLGSV,3,3,10,84,15,329,10,85,09,281,08*62
$GNGLL,0419.82056,S,05539.82160,E,061816.00,A,A*60
$GNGRS,061816.00,1,-9.7,2.5,27.2,2.4,-9.3,-0.8,22.7,-1.7,-2.0,,,*52
$GNGRS,061816.00,1,6.5,14.6,4.8,3.1,21.3,,,,,,,*78
$GNGST,061816.00,166319,,,,7.5,8.7,23*69
$GNZDA,061816.00,28,05,2025,00,00*7A
$GNGBS,061816.00,7.5,8.7,22.7,,,,*6D
$GNTXT,01,01,01,More than 100 frame errors, UART RX was disabled*70
b0Xx+&
HDof'!E!
*E#6V'W{4#V_:R 
YvDBE#rFI?3JH
O
cP3&STIUL/bxU
)p$GNRMC,061817.00,A,0419.82063,S,05539.82156,E,0.255,,280525,,,A*71
$GNVTG,,T,,M,0.255,N,0.472,K,A*3E
$GNGNS,061817.00,0419.82063,S,05539.82156,E,AA,15,0.84,15.3,-47.6,,*6A
$GNGGA,061817.00,0419.82063,S,05539.82156,E,1,12,0.84,15.3,M,-47.6,M,,*47
$GNGSA,A,3,24,05,20,15,12,13,18,29,25,23,,,1.60,0.84,1.36*13
$GNGSA,A,3,80,84,69,73,85,,,,,,,,1.60,0.84,1.36*11
$GPGSV,5,1,17,05,43,038,28,10,02,212,,12,72,068,23,13,14,111,12*76
$GPGSV,5,2,17,15,39,142,19,18,33,286,31,20,11,033,12,23,42,209,27*76
$GPGSV,5,3,17,24,35,180,24,25,54,342,26,28,03,295,,29,13,343,12*78
$GPGSV,5,4,17,36,52,277,,40,86,351,35,41,58,082,29,49,32,274,*71
$GPGSV,5,5,17,50,10,089,*4A
$GLGSV,3,1,10,68,13,066,,69,35,114,15,70,19,186,,73,63,307,29*6D
$GLGSV,3,2,10,74,19,328,,79,01,155,10,80,51,167,25,83,01,018,*60
$GLGSV,3,3,10,84,15,329,09,85,09,281,09*6B
$GNGLL,0419.82063,S,05539.82156,E,061817.00,A,A*62
$GNGRS,061817.00,1,-10.4,-5.7,27.3,4.2,-5.6,-19.5,-1.9,22.6,-2.4,-1.9,,*7D
$GNGRS,061817.00,1,5.5,14.7,6.4,3.8,21.2,,,,,,,*7D
$GNGST,061817.00,3434011,,,,7.4,8.4,22*51
$GNZDA,061817.00,28,05,2025,00,00*7B
$GNGBS,061817.00,7.4,8.4,22.2,,,,*6B
