$GNRMC,064600.00,A,0419.86725,S,05539.60807,E,0.388,,270525,,,A*72
$GNVTG,,T,,M,0.388,N,0.718,K,A*30
$GNGGA,064600.00,0419.86725,S,05539.60807,E,1,12,0.89,26.5,M,-47.6,M,,*41
$GNGSA,A,3,12,25,23,15,05,18,24,,,,,,1.64,0.89,1.38*1F
$GNGSA,A,3,80,68,79,69,83,,,,,,,,1.64,0.89,1.38*18
$GPGSV,5,1,17,05,33,032,22,10,11,213,22,12,72,109,29,13,13,100,04*7E
$GPGSV,5,2,17,15,41,128,20,18,30,299,19,20,02,032,,23,53,215,26*74
$GPGSV,5,3,17,24,29,171,12,25,66,337,29,28,07,286,12,29,16,352,21*72
$GPGSV,5,4,17,36,52,277,27,40,86,351,27,41,58,082,,49,32,274,*7C
$GPGSV,5,5,17,50,10,089,*4A
$GLGSV,2,1,08,67,11,056,,68,39,101,21,69,33,166,19,73,22,321,21*6A
$GLGSV,2,2,08,79,38,168,20,80,71,269,27,83,11,342,22,84,08,290,*62
$GNGLL,0419.86725,S,05539.60807,E,064600.00,A,A*6F
$GNRMC,064601.00,A,0419.86721,S,05539.60790,E,0.401,,270525,,,A*70
$GNVTG,,T,,M,0.401,N,0.743,K,A*38
$GNGGA,064601.00,0419.86721,S,05539.60790,E,1,12,0.89,26.8,M,-47.6,M,,*48
$GNGSA,A,3,12,25,23,15,05,18,24,,,,,,1.64,0.89,1.38*1F
$GNGSA,A,3,80,68,79,69,83,,,,,,,,1.64,0.89,1.38*18
$GPGSV,5,1,17,05,33,032,20,10,11,213,21,12,72,109,33,13,13,100,07*77
$GPGSV,5,2,17,15,41,128,16,18,30,299,17,20,02,032,,23,53,215,25*7C
$GPGSV,5,3,17,24,29,171,12,25,66,337,31,28,07,286,11,29,16,352,23*7A
$GPGSV,5,4,17,36,52,277,29,40,86,351,35,41,58,082,,49,32,274,*71
$GPGSV,5,5,17,50,10,089,*4A
$GLGSV,2,1,08,67,11,056,,68,39,101,18,69,33,166,16,73,22,321,18*65
$GLGSV,2,2,08,79,38,168,20,80,71,269,25,83,11,342,20,84,08,290,*62
$GNGLL,0419.86721,S,05539.60790,E,064601.00,A,A*6B
$GNRMC,064602.00,A,0419.86718,S,05539.60782,E,0.219,,270525,,,A*75
$GNVTG,,T,,M,0.219,N,0.406,K,A*35
$GNGGA,064602.00,0419.86718,S,05539.60782,E,1,11,0.93,26.9,M,-47.6,M,,*4B
$GNGSA,A,3,12,25,23,05,18,24,,,,,,,1.66,0.93,1.38*12
$GNGSA,A,3,80,68,79,69,83,,,,,,,,1.66,0.93,1.38*11
$GPGSV,5,1,17,05,33,032,18,10,11,213,22,12,72,109,33,13,13,100,10*79
$GPGSV,5,2,17,15,41,128,,18,30,299,20,20,02,032,,23,53,215,26*7C
$GPGSV,5,3,17,24,29,171,10,25,66,337,33,28,07,286,12,29,16,352,29*73
$GPGSV,5,4,17,36,52,277,33,40,86,351,38,41,58,082,,49,32,274,*77
$GPGSV,5,5,17,50,10,089,*4A
$GLGSV,2,1,08,67,11,056,,68,39,101,15,69,33,166,17,73,22,321,18*69
$GLGSV,2,2,08,79,38,168,20,80,71,269,28,83,11,342,21,84,08,290,*6E
$GNGLL,0419.86718,S,05539.60782,E,064602.00,A,A*61
$GNRMC,064603.00,A,0419.86713,S,05539.60785,E,0.401,,270525,,,A*77
$GNVTG,,T,,M,0.401,N,0.742,K,A*39
$GNGGA,064603.00,0419.86713,S,05539.60785,E,1,11,0.93,27.4,M,-47.6,M,,*4A
$GNGSA,A,3,12,25,23,05,18,24,,,,,,,1.66,0.93,1.38*12
$GNGSA,A,3,80,68,79,69,83,,,,,,,,1.66,0.93,1.38*11
$GPGSV,5,1,17,05,33,032,27,10,11,213,22,12,72,109,31,13,13,100,11*76
$GPGSV,5,2,17,15,41,128,26,18,30,299,24,20,02,032,,23,53,215,25*7F
$GPGSV,5,3,17,24,29,171,10,25,66,337,35,28,07,286,12,29,16,352,29*75
$GPGSV,5,4,17,36,52,277,32,40,86,351,38,41,58,082,,49,32,274,*76
$GPGSV,5,5,17,50,10,089,*4A
$GLGSV,2,1,08,67,11,056,,68,39,101,14,69,33,166,19,73,22,321,19*67
$GLGSV,2,2,08,79,38,168,20,80,71,269,26,83,11,342,20,84,08,290,*61
$GNGLL,0419.86713,S,05539.60785,E,064603.00,A,A*6C
$GNRMC,064604.00,A,0419.86704,S,05539.60801,E,0.266,,270525,,,A*72
$GNVTG,,T,,M,0.266,N,0.492,K,A*30
$GNGGA,064604.00,0419.86704,S,05539.60801,E,1,12,0.89,26.9,M,-47.6,M,,*4C
$GNGSA,A,3,12,25,23,15,05,18,24,,,,,,1.64,0.89,1.38*1F
$GNGSA,A,3,80,68,79,69,83,,,,,,,,1.64,0.89,1.38*18
$GPGSV,5,1,17,05,33,032,29,10,11,213,20,12,72,109,25,13,13,100,11*7F
$GPGSV,5,2,17,15,41,128,29,18,30,299,30,20,02,032,,23,53,215,23*73
$GPGSV,5,3,17,24,29,171,10,25,66,337,34,28,07,286,09,29,16,352,21*76
$GPGSV,5,4,17,36,52,277,33,40,86,351,35,41,58,082,,49,32,274,*7A
$GPGSV,5,5,17,50,10,089,*4A
$GLGSV,2,1,08,67,11,056,,68,39,101,14,69,33,166,22,73,22,321,22*67
$GLGSV,2,2,08,79,38,168,20,80,71,269,25,83,11,342,18,84,08,290,*69
$GNGLL,0419.86704,S,05539.60801,E,064604.00,A,A*6E
$GNRMC,064605.00,A,0419.86702,S,05539.60798,E,0.255,,270525,,,A*7A
$GNVTG,,T,,M,0.255,N,0.473,K,A*3F
$GNGGA,064605.00,0419.86702,S,05539.60798,E,1,12,0.83,27.2,M,-47.6,M,,*44
$GNGSA,A,3,12,25,23,15,05,18,24,13,,,,,1.50,0.83,1.24*1D
$GNGSA,A,3,80,68,79,69,83,,,,,,,,1.50,0.83,1.24*18
$GPGSV,5,1,17,05,33,032,27,10,11,213,18,12,72,109,27,13,13,100,13*7A
$GPGSV,5,2,17,15,41,128,29,18,30,299,28,20,02,032,,23,53,215,19*73
$GPGSV,5,3,17,24,29,171,10,25,66,337,34,28,07,286,08,29,16,352,24*72
$GPGSV,5,4,17,36,52,277,32,40,86,351,36,41,58,082,,49,32,274,*78
$GPGSV,5,5,17,50,10,089,*4A
$GLGSV,2,1,08,67,11,056,,68,39,101,17,69,33,166,21,73,22,321,23*66
$GLGSV,2,2,08,79,38,168,19,80,71,269,24,83,11,342,16,84,08,290,*6C
$GNGLL,0419.86702,S,05539.60798,E,064605.00,A,A*66
$GNRMC,064606.00,A,0419.86703,S,05539.60777,E,0.741,,270525,,,A*79
$GNVTG,,T,,M,0.741,N,1.373,K,A*39
$GNGGA,064606.00,0419.86703,S,05539.60777,E,1,12,0.83,27.5,M,-47.6,M,,*40
$GNGSA,A,3,12,25,23,15,05,18,24,13,,,,,1.50,0.83,1.24*1D
$GNGSA,A,3,80,68,79,69,83,,,,,,,,1.50,0.83,1.24*18
$GPGSV,5,1,17,05,33,032,27,10,11,213,18,12,72,109,28,13,13,100,13*75
$GPGSV,5,2,17,15,41,128,29,18,30,299,26,20,02,032,,23,53,215,18*7C
$GPGSV,5,3,17,24,29,171,10,25,66,337,33,28,07,286,09,29,16,352,26*76
$GPGSV,5,4,17,36,52,277,33,40,86,351,37,41,58,082,,49,32,274,*78
$GPGSV,5,5,17,50,10,089,*4A
$GLGSV,2,1,08,67,11,056,,68,39,101,19,69,33,166,20,73,22,321,24*6E
$GLGSV,2,2,08,79,37,168,19,80,71,269,22,83,11,342,12,84,08,290,*61
$GNGLL,0419.86703,S,05539.60777,E,064606.00,A,A*65
$GNRMC,064607.00,A,0419.86701,S,05539.60769,E,0.052,,270525,,,A*70
$GNVTG,,T,,M,0.052,N,0.097,K,A*34
$GNGGA,064607.00,0419.86701,S,05539.60769,E,1,12,0.83,27.6,M,-47.6,M,,*4F
$GNGSA,A,3,12,25,23,15,05,18,24,13,,,,,1.50,0.83,1.24*1D
$GNGSA,A,3,80,68,79,69,83,,,,,,,,1.50,0.83,1.24*18
$GPGSV,5,1,17,05,33,032,25,10,11,213,17,12,72,109,27,13,13,100,11*75
$GPGSV,5,2,17,15,41,128,27,18,30,299,26,20,02,032,,23,53,215,17*7D
$GPGSV,5,3,17,24,29,171,10,25,66,337,32,28,07,286,,29,16,352,25*7D
$GPGSV,5,4,17,36,52,277,31,40,86,351,33,41,58,082,,49,32,274,*7E
$GPGSV,5,5,17,50,10,089,*4A
$GLGSV,2,1,08,67,11,056,,68,39,101,18,69,33,166,20,73,22,321,22*69
$GLGSV,2,2,08,79,37,168,20,80,71,268,20,83,11,342,13,84,08,290,*69
$GNGLL,0419.86701,S,05539.60769,E,064607.00,A,A*69
$GNRMC,064608.00,A,0419.86691,S,05539.60754,E,0.173,,270525,,,A*7B
$GNVTG,,T,,M,0.173,N,0.321,K,A*38
$GNGGA,064608.00,0419.86691,S,05539.60754,E,1,12,0.83,28.0,M,-47.6,M,,*4F
$GNGSA,A,3,12,25,23,15,05,18,24,13,,,,,1.50,0.83,1.24*1D
$GNGSA,A,3,80,68,79,69,83,,,,,,,,1.50,0.83,1.24*18
$GPGSV,5,1,17,05,33,032,26,10,11,213,15,12,72,109,26,13,13,100,12*76
$GPGSV,5,2,17,15,41,128,26,18,30,299,25,20,02,032,,23,53,215,16*7E
$GPGSV,5,3,17,24,29,171,18,25,66,337,28,28,07,286,,29,16,352,25*7E
$GPGSV,5,4,17,36,52,277,31,40,86,351,33,41,58,082,,49,32,274,*7E
$GPGSV,5,5,17,50,10,089,*4A
$GLGSV,2,1,08,67,11,056,,68,39,101,17,69,33,166,20,73,22,321,20*64
$GLGSV,2,2,08,79,37,168,20,80,71,268,19,83,11,342,15,84,08,290,*65
$GNGLL,0419.86691,S,05539.60754,E,064608.00,A,A*60
$GNRMC,064609.00,A,0419.86678,S,05539.60754,E,0.838,,270525,,,A*7B
$GNVTG,,T,,M,0.838,N,1.551,K,A*3E
$GNGGA,064609.00,0419.86678,S,05539.60754,E,1,12,0.89,27.7,M,-47.6,M,,*4B
$GNGSA,A,3,12,25,23,15,05,18,24,,,,,,1.64,0.89,1.38*1F
$GNGSA,A,3,80,68,79,69,83,,,,,,,,1.64,0.89,1.38*18
$GPGSV,5,1,17,05,33,032,25,10,11,213,13,12,72,109,27,13,13,100,09*78
$GPGSV,5,2,17,15,41,128,26,18,30,299,25,20,02,032,,23,53,215,15*7D
$GPGSV,5,3,17,24,29,171,18,25,66,337,30,28,07,286,,29,16,352,26*74
$GPGSV,5,4,17,36,52,277,31,40,86,351,35,41,58,082,,49,32,274,*78
$GPGSV,5,5,17,50,10,089,*4A
$GLGSV,2,1,08,67,11,056,,68,39,101,19,69,33,166,18,73,22,321,20*61
$GLGSV,2,2,08,79,37,168,19,80,71,268,20,83,11,342,13,84,08,290,*63
$GNGLL,0419.86678,S,05539.60754,E,064609.00,A,A*66
$GNRMC,064610.00,A,0419.86671,S,05539.60744,E,0.350,,270525,,,A*7E
$GNVTG,,T,,M,0.350,N,0.648,K,A*31
$GNGGA,064610.00,0419.86671,S,05539.60744,E,1,11,0.95,27.5,M,-47.6,M,,*47
$GNGSA,A,3,12,25,23,15,05,18,24,,,,,,2.04,0.95,1.80*14
$GNGSA,A,3,80,68,79,69,,,,,,,,,2.04,0.95,1.80*18
$GPGSV,5,1,17,05,33,032,26,10,11,213,13,12,72,109,29,13,13,100,08*74
$GPGSV,5,2,17,15,41,128,27,18,30,299,25,20,02,032,,23,53,215,16*7F
$GPGSV,5,3,17,24,29,171,18,25,66,337,33,28,07,286,,29,16,352,27*76
$GPGSV,5,4,17,36,52,277,32,40,86,351,36,41,58,082,,49,32,274,*78
$GPGSV,5,5,17,50,10,089,*4A
$GLGSV,2,1,08,67,11,056,,68,39,101,21,69,33,166,19,73,22,321,20*6B
$GLGSV,2,2,08,79,37,168,20,80,71,268,22,83,11,342,12,84,08,290,*6A
$GNGLL,0419.86671,S,05539.60744,E,064610.00,A,A*66
$GNRMC,064611.00,A,0419.86642,S,05539.60755,E,1.146,,270525,,,A*7B
$GNVTG,,T,,M,1.146,N,2.122,K,A*3C
$GNGGA,064611.00,0419.86642,S,05539.60755,E,1,11,0.95,27.2,M,-47.6,M,,*41
$GNGSA,A,3,12,25,23,15,05,18,24,,,,,,2.04,0.95,1.80*14
$GNGSA,A,3,80,68,79,69,,,,,,,,,2.04,0.95,1.80*18
$GPGSV,5,1,17,05,33,032,25,10,11,213,15,12,72,109,27,13,13,100,07*70
$GPGSV,5,2,17,15,41,128,26,18,30,299,24,20,02,032,,23,53,215,15*7C
$GPGSV,5,3,17,24,29,171,18,25,66,337,32,28,07,286,,29,16,352,26*76
$GPGSV,5,4,17,36,52,277,31,40,86,351,32,41,58,082,,49,32,274,*7F
$GPGSV,5,5,17,50,10,089,*4A
$GLGSV,2,1,08,67,11,056,,68,39,101,20,69,33,166,18,73,22,321,20*6B
$GLGSV,2,2,08,79,37,168,19,80,71,268,22,83,11,342,09,84,08,291,*6B
$GNGLL,0419.86642,S,05539.60755,E,064611.00,A,A*67
$GNRMC,064612.00,A,0419.86618,S,05539.60685,E,2.904,,270525,,,A*76
$GNVTG,,T,,M,2.904,N,5.379,K,A*3A
$GNGGA,064612.00,0419.86618,S,05539.60685,E,1,11,0.95,26.5,M,-47.6,M,,*47
$GNGSA,A,3,12,25,23,15,05,18,24,,,,,,2.04,0.95,1.80*14
$GNGSA,A,3,80,68,79,69,,,,,,,,,2.04,0.95,1.80*18
$GPGSV,5,1,17,05,33,032,23,10,11,213,15,12,72,109,26,13,13,100,07*77
$GPGSV,5,2,17,15,41,128,24,18,30,299,22,20,02,032,,23,53,215,14*79
$GPGSV,5,3,17,24,29,171,18,25,66,337,32,28,07,286,,29,16,352,25*75
$GPGSV,5,4,17,36,52,277,,40,86,351,,41,58,082,,49,32,274,*7C
$GPGSV,5,5,17,50,10,089,*4A
$GLGSV,2,1,08,67,11,056,,68,39,101,20,69,33,166,16,73,22,321,19*6F
$GLGSV,2,2,08,79,37,168,17,80,71,268,21,83,11,342,09,84,08,291,*66
$GNGLL,0419.86618,S,05539.60685,E,064612.00,A,A*67
$GNRMC,064613.00,A,0419.86607,S,05539.60651,E,0.825,,270525,,,A*70
$GNVTG,,T,,M,0.825,N,1.528,K,A*3C
$GNGGA,064613.00,0419.86607,S,05539.60651,E,1,11,0.95,26.1,M,-47.6,M,,*45
$GNGSA,A,3,12,25,23,15,05,18,24,,,,,,2.04,0.95,1.80*14
$GNGSA,A,3,80,68,79,69,,,,,,,,,2.04,0.95,1.80*18
$GPGSV,5,1,17,05,33,032,20,10,11,213,17,12,72,109,27,13,13,100,07*77
$GPGSV,5,2,17,15,41,128,24,18,30,299,21,20,02,032,,23,53,215,11*7F
$GPGSV,5,3,17,24,29,171,18,25,66,337,32,28,07,286,,29,16,352,26*76
$GPGSV,5,4,17,36,52,277,,40,86,351,,41,58,082,,49,32,274,*7C
$GPGSV,5,5,17,50,10,089,*4A
$GLGSV,2,1,08,67,11,056,,68,39,101,20,69,33,166,12,73,22,321,19*6B
$GLGSV,2,2,08,79,37,168,17,80,71,268,21,83,11,342,10,84,08,291,*6E
$GNGLL,0419.86607,S,05539.60651,E,064613.00,A,A*61
$GNRMC,064614.00,A,0419.86639,S,05539.60610,E,1.063,,270525,,,A*74
$GNVTG,,T,,M,1.063,N,1.969,K,A*3E
$GNGGA,064614.00,0419.86639,S,05539.60610,E,1,10,0.99,26.2,M,-47.6,M,,*44
$GNGSA,A,3,12,25,15,05,18,24,,,,,,,1.74,0.99,1.43*12
$GNGSA,A,3,80,68,79,83,,,,,,,,,1.74,0.99,1.43*1B
$GPGSV,5,1,17,05,33,032,17,10,11,213,18,12,72,109,26,13,13,100,08*72
$GPGSV,5,2,17,15,41,128,24,18,30,299,21,20,02,032,,23,53,215,09*76
$GPGSV,5,3,17,24,29,171,14,25,66,337,33,28,07,286,,29,16,352,26*7B
$GPGSV,5,4,17,36,52,277,,40,86,351,,41,58,082,,49,32,274,*7C
$GPGSV,5,5,17,50,10,089,*4A
$GLGSV,2,1,08,67,11,056,,68,39,101,20,69,33,166,09,73,22,321,18*60
$GLGSV,2,2,08,79,37,168,17,80,71,268,21,83,11,342,08,84,08,291,*67
$GNGLL,0419.86639,S,05539.60610,E,064614.00,A,A*6E
$GNRMC,064615.00,A,0419.86667,S,05539.60584,E,0.907,,270525,,,A*7A
$GNVTG,,T,,M,0.907,N,1.681,K,A*3D
$GNGGA,064615.00,0419.86667,S,05539.60584,E,1,10,1.01,25.8,M,-47.6,M,,*49
$GNGSA,A,3,12,25,15,05,18,,,,,,,,1.79,1.01,1.48*12
$GNGSA,A,3,80,68,79,69,83,,,,,,,,1.79,1.01,1.48*12
$GPGSV,5,1,17,05,33,032,18,10,11,213,19,12,72,109,27,13,13,100,08*7D
$GPGSV,5,2,17,15,41,128,22,18,30,299,23,20,02,032,,23,53,215,08*73
$GPGSV,5,3,17,24,29,171,,25,66,337,32,28,07,286,,29,16,352,25*7C
$GPGSV,5,4,17,36,52,277,,40,86,351,,41,58,082,,49,32,274,*7C
$GPGSV,5,5,17,50,10,089,*4A
$GLGSV,2,1,08,67,11,056,,68,39,101,20,69,33,166,11,73,22,321,18*69
$GLGSV,2,2,08,79,37,168,18,80,71,268,21,83,11,342,08,84,08,291,*68
$GNGLL,0419.86667,S,05539.60584,E,064615.00,A,A*6A
$GNRMC,064616.00,A,0419.86659,S,05539.60581,E,0.039,,270525,,,A*75
$GNVTG,,T,,M,0.039,N,0.073,K,A*33
$GNGGA,064616.00,0419.86659,S,05539.60581,E,1,09,1.06,25.5,M,-47.6,M,,*40
$GNGSA,A,3,12,25,15,05,18,,,,,,,,2.21,1.06,1.94*1A
$GNGSA,A,3,80,68,79,69,,,,,,,,,2.21,1.06,1.94*11
$GPGSV,5,1,17,05,33,032,20,10,11,213,19,12,72,109,28,13,13,100,08*79
$GPGSV,5,2,17,15,41,128,21,18,30,299,22,20,02,032,,23,53,215,08*71
$GPGSV,5,3,17,24,29,171,18,25,66,337,32,28,07,286,,29,16,352,24*74
$GPGSV,5,4,17,36,52,277,,40,86,351,,41,58,082,,49,32,274,*7C
$GPGSV,5,5,17,50,10,089,*4A
$GLGSV,2,1,08,67,11,056,,68,39,101,19,69,33,166,13,73,22,321,19*60
$GLGSV,2,2,08,79,37,168,19,80,71,268,21,83,11,342,07,84,08,291,*66
$GNGLL,0419.86659,S,05539.60581,E,064616.00,A,A*61
$GNRMC,064617.00,A,0419.86669,S,05539.60571,E,0.169,,270525,,,A*7C
$GNVTG,,T,,M,0.169,N,0.313,K,A*32
$GNGGA,064617.00,0419.86669,S,05539.60571,E,1,10,1.01,25.3,M,-47.6,M,,*44
$GNGSA,A,3,12,25,15,05,18,,,,,,,,1.79,1.01,1.48*12
$GNGSA,A,3,80,68,79,69,83,,,,,,,,1.79,1.01,1.48*12
$GPGSV,5,1,17,05,33,032,19,10,11,213,19,12,72,109,28,13,13,100,08*73
$GPGSV,5,2,17,15,41,128,20,18,30,299,21,20,02,032,,23,53,215,08*73
$GPGSV,5,3,17,24,29,171,17,25,66,337,31,28,07,286,,29,16,352,22*7E
$GPGSV,5,4,17,36,52,277,,40,86,351,,41,58,082,,49,32,274,*7C
$GPGSV,5,5,17,50,10,089,*4A
$GLGSV,2,1,08,67,11,056,,68,39,101,18,69,33,166,13,73,22,321,19*61
$GLGSV,2,2,08,79,37,168,20,80,71,268,22,83,11,342,08,84,08,291,*60
$GNGLL,0419.86669,S,05539.60571,E,064617.00,A,A*6C
$GNRMC,064618.00,A,0419.86696,S,05539.60532,E,1.054,,270525,,,A*7A
$GNVTG,,T,,M,1.054,N,1.951,K,A*31
$GNGGA,064618.00,0419.86696,S,05539.60532,E,1,09,1.06,25.1,M,-47.6,M,,*41
$GNGSA,A,3,12,25,15,05,18,,,,,,,,2.21,1.06,1.94*1A
$GNGSA,A,3,80,68,79,69,,,,,,,,,2.21,1.06,1.94*11
$GPGSV,5,1,17,05,33,032,18,10,11,213,19,12,72,109,28,13,13,100,08*72
$GPGSV,5,2,17,15,41,128,19,18,30,299,21,20,02,032,,23,53,215,08*79
$GPGSV,5,3,17,24,29,171,16,25,66,337,31,28,07,286,,29,16,352,22*7F
$GPGSV,5,4,17,36,52,277,,40,86,351,,41,58,082,,49,32,274,*7C
$GPGSV,5,5,17,50,10,089,*4A
$GLGSV,2,1,08,67,11,056,,68,39,101,18,69,33,166,13,73,22,321,19*61
$GLGSV,2,2,08,79,37,168,20,80,71,268,22,83,11,342,09,84,08,291,*61
$GNGLL,0419.86696,S,05539.60532,E,064618.00,A,A*64
$GNRMC,064619.00,A,0419.86689,S,05539.60532,E,0.159,,270525,,,A*78
$GNVTG,,T,,M,0.159,N,0.294,K,A*3F
$GNGGA,064619.00,0419.86689,S,05539.60532,E,1,09,1.06,25.0,M,-47.6,M,,*4F
$GNGSA,A,3,12,25,15,05,18,,,,,,,,2.21,1.06,1.94*1A
$GNGSA,A,3,80,68,79,69,,,,,,,,,2.21,1.06,1.94*11
$GPGSV,5,1,17,05,33,032,18,10,11,213,18,12,72,109,29,13,13,100,08*72
$GPGSV,5,2,17,15,41,128,19,18,30,299,22,20,02,032,,23,53,215,08*7A
$GPGSV,5,3,17,24,29,171,16,25,66,337,31,28,07,286,,29,16,352,21*7C
$GPGSV,5,4,17,36,52,277,,40,86,351,,41,58,082,,49,32,274,*7C
$GPGSV,5,5,17,50,10,089,*4A
$GLGSV,2,1,08,67,11,056,,68,39,101,19,69,33,166,13,73,22,321,20*6A
$GLGSV,2,2,08,79,37,168,20,80,71,268,21,83,11,342,09,84,08,291,*62
$GNGLL,0419.86689,S,05539.60532,E,064619.00,A,A*6B
$GNRMC,064620.00,A,0419.86669,S,05539.60558,E,0.959,,270525,,,A*78
$GNVTG,,T,,M,0.959,N,1.776,K,A*3F
$GNGGA,064620.00,0419.86669,S,05539.60558,E,1,11,0.95,24.2,M,-47.6,M,,*46
$GNGSA,A,3,12,25,23,15,05,18,24,,,,,,2.03,0.95,1.80*13
$GNGSA,A,3,80,68,79,69,,,,,,,,,2.03,0.95,1.80*1F
$GPGSV,5,1,17,05,33,032,20,10,11,213,18,12,72,109,30,13,13,100,09*70
$GPGSV,5,2,17,15,41,128,20,18,30,299,23,20,02,032,,23,53,215,16*7E
$GPGSV,5,3,17,24,29,171,16,25,66,337,31,28,07,286,,29,16,352,22*7F
$GPGSV,5,4,17,36,52,277,,40,86,351,,41,58,082,,49,32,274,*7C
$GPGSV,5,5,17,50,10,089,*4A
$GLGSV,2,1,08,67,11,056,,68,39,101,19,69,33,166,14,73,22,321,19*67
$GLGSV,2,2,08,79,37,168,21,80,71,268,22,83,11,342,09,84,08,291,*60
$GNGLL,0419.86669,S,05539.60558,E,064620.00,A,A*63
$GNRMC,064621.00,A,0419.86660,S,05539.60559,E,0.749,,270525,,,A*7E
$GNVTG,,T,,M,0.749,N,1.388,K,A*35
$GNGGA,064621.00,0419.86660,S,05539.60559,E,1,12,0.90,24.7,M,-47.6,M,,*4C
$GNGSA,A,3,12,25,23,15,05,18,24,13,,,,,1.77,0.90,1.53*1A
$GNGSA,A,3,80,68,79,69,,,,,,,,,1.77,0.90,1.53*14
$GPGSV,5,1,17,05,33,032,22,10,11,213,17,12,72,109,30,13,13,100,09*7D
$GPGSV,5,2,17,15,41,128,21,18,30,299,23,20,02,032,,23,53,215,16*7F
$GPGSV,5,3,17,24,29,171,16,25,66,337,32,28,07,286,,29,16,352,23*7D
$GPGSV,5,4,17,36,52,277,,40,86,351,,41,58,082,,49,32,274,*7C
$GPGSV,5,5,17,50,10,089,*4A
$GLGSV,2,1,08,67,11,056,,68,39,101,20,69,33,166,17,73,22,321,20*64
$GLGSV,2,2,08,79,37,168,22,80,71,268,23,83,11,342,10,84,08,291,*6A
$GNGLL,0419.86660,S,05539.60559,E,064621.00,A,A*6A
$GNRMC,064622.00,A,0419.86673,S,05539.60550,E,0.165,,270525,,,A*7E
$GNVTG,,T,,M,0.165,N,0.305,K,A*39
$GNGGA,064622.00,0419.86673,S,05539.60550,E,1,12,0.90,24.1,M,-47.6,M,,*42
$GNGSA,A,3,12,25,23,15,05,18,24,13,,,,,1.77,0.90,1.52*1B
$GNGSA,A,3,80,68,79,69,,,,,,,,,1.77,0.90,1.52*15
$GPGSV,5,1,17,05,33,032,22,10,11,213,18,12,72,109,31,13,13,100,10*7B
$GPGSV,5,2,17,15,41,128,23,18,30,299,24,20,02,032,,23,53,215,16*7A
$GPGSV,5,3,17,24,29,171,17,25,66,337,35,28,07,286,,29,16,352,23*7B
$GPGSV,5,4,17,36,52,277,,40,86,351,,41,58,082,,49,32,274,*7C
$GPGSV,5,5,17,50,10,089,*4A
$GLGSV,2,1,08,67,11,056,,68,39,101,21,69,33,166,17,73,22,321,20*65
$GLGSV,2,2,08,79,37,168,24,80,71,268,23,83,11,342,10,84,08,291,*6C
$GNGLL,0419.86673,S,05539.60550,E,064622.00,A,A*62
$GNRMC,064623.00,A,0419.86693,S,05539.60547,E,0.525,,270525,,,A*77
$GNVTG,,T,,M,0.525,N,0.972,K,A*33
$GNGGA,064623.00,0419.86693,S,05539.60547,E,1,12,0.90,24.0,M,-47.6,M,,*4A
$GNGSA,A,3,12,25,23,15,05,18,24,13,,,,,1.77,0.90,1.52*1B
$GNGSA,A,3,80,68,79,69,,,,,,,,,1.77,0.90,1.52*15
$GPGSV,5,1,17,05,33,032,23,10,11,213,17,12,72,109,27,13,13,100,10*72
$GPGSV,5,2,17,15,41,128,23,18,30,299,23,20,02,032,,23,53,215,16*7D
$GPGSV,5,3,17,24,29,171,17,25,66,337,33,28,07,286,,29,16,352,25*7B
$GPGSV,5,4,17,36,52,277,,40,86,351,,41,58,082,,49,32,274,*7C
$GPGSV,5,5,17,50,10,089,*4A
$GLGSV,2,1,08,67,11,056,,68,39,101,20,69,33,166,14,73,22,321,19*6D
$GLGSV,2,2,08,79,37,168,24,80,71,268,23,83,11,342,11,84,08,291,*6D
$GNGLL,0419.86693,S,05539.60547,E,064623.00,A,A*6B
$GNRMC,064624.00,A,0419.86706,S,05539.60539,E,0.525,,270525,,,A*74
$GNVTG,,T,,M,0.525,N,0.973,K,A*32
$GNGGA,064624.00,0419.86706,S,05539.60539,E,1,11,0.92,23.6,M,-47.6,M,,*49
$GNGSA,A,3,12,25,23,15,05,18,24,,,,,,1.69,0.92,1.42*15
$GNGSA,A,3,80,68,79,83,,,,,,,,,1.69,0.92,1.42*1D
$GPGSV,5,1,17,05,33,032,22,10,11,213,15,12,72,109,29,13,13,100,10*7F
$GPGSV,5,2,17,15,41,128,25,18,30,299,22,20,02,032,,23,53,215,16*7A
$GPGSV,5,3,17,24,29,171,15,25,66,337,33,28,07,286,,29,16,352,23*7F
$GPGSV,5,4,17,36,52,277,,40,86,351,,41,58,082,,49,32,274,*7C
$GPGSV,5,5,17,50,10,089,*4A
$GLGSV,2,1,08,67,11,056,,68,39,101,19,69,33,166,,73,22,321,16*6D
$GLGSV,2,2,08,79,37,168,23,80,71,268,25,83,11,342,11,84,08,291,*6C
$GNGLL,0419.86706,S,05539.60539,E,064624.00,A,A*68
$GNRMC,064625.00,A,0419.86722,S,05539.60509,E,1.180,,270525,,,A*7A
$GNVTG,,T,,M,1.180,N,2.185,K,A*3B
$GNGGA,064625.00,0419.86722,S,05539.60509,E,1,11,0.92,22.7,M,-47.6,M,,*4D
$GNGSA,A,3,12,25,23,15,05,18,24,,,,,,1.69,0.92,1.42*15
$GNGSA,A,3,80,68,79,83,,,,,,,,,1.69,0.92,1.42*1D
$GPGSV,5,1,17,05,33,032,24,10,11,213,,12,72,109,30,13,13,100,10*75
$GPGSV,5,2,17,15,41,128,25,18,30,299,21,20,02,032,,23,53,215,16*79
$GPGSV,5,3,17,24,29,171,15,25,66,337,34,28,07,286,,29,16,352,24*7F
$GPGSV,5,4,17,36,52,277,,40,86,351,,41,58,082,,49,32,274,*7C
$GPGSV,5,5,17,50,10,089,*4A
$GLGSV,2,1,08,67,11,056,,68,39,101,20,69,33,166,18,73,22,321,14*6C
$GLGSV,2,2,08,79,37,168,23,80,71,268,25,83,11,342,11,84,08,291,*6C
$GNGLL,0419.86722,S,05539.60509,E,064625.00,A,A*6C
$GNRMC,064626.00,A,0419.86714,S,05539.60480,E,1.263,,270525,,,A*72
$GNVTG,,T,,M,1.263,N,2.340,K,A*3E
$GNGGA,064626.00,0419.86714,S,05539.60480,E,1,11,0.92,22.4,M,-47.6,M,,*48
$GNGSA,A,3,12,25,23,15,05,18,24,,,,,,1.69,0.92,1.42*15
$GNGSA,A,3,80,68,79,83,,,,,,,,,1.69,0.92,1.42*1D
$GPGSV,5,1,17,05,33,032,24,10,11,213,,12,72,109,31,13,13,100,13*77
$GPGSV,5,2,17,15,41,128,25,18,30,299,21,20,02,032,,23,53,215,18*77
$GPGSV,5,3,17,24,29,171,16,25,66,337,34,28,07,286,,29,16,352,24*7C
$GPGSV,5,4,17,36,52,277,,40,86,351,,41,58,082,,49,32,274,*7C
$GPGSV,5,5,17,50,10,089,*4A
$GLGSV,2,1,08,67,11,056,,68,39,101,20,69,33,166,,73,22,321,10*61
$GLGSV,2,2,08,79,37,168,23,80,71,268,25,83,11,342,11,84,08,291,*6C
$GNGLL,0419.86714,S,05539.60480,E,064626.00,A,A*6A
$GNRMC,064627.00,A,0419.86704,S,05539.60494,E,0.222,,270525,,,A*73
$GNVTG,,T,,M,0.222,N,0.412,K,A*38
$GNGGA,064627.00,0419.86704,S,05539.60494,E,1,11,0.92,22.4,M,-47.6,M,,*4D
$GNGSA,A,3,12,25,23,15,05,18,24,,,,,,1.69,0.92,1.42*15
$GNGSA,A,3,80,68,79,83,,,,,,,,,1.69,0.92,1.42*1D
$GPGSV,5,1,17,05,33,032,23,10,11,213,,12,72,110,32,13,13,100,*79
$GPGSV,5,2,17,15,41,128,25,18,30,299,21,20,02,032,,23,53,215,18*77
$GPGSV,5,3,17,24,29,171,15,25,66,337,32,28,07,286,,29,16,352,24*79
$GPGSV,5,4,17,36,52,277,,40,86,351,34,41,58,082,,49,32,274,*7B
$GPGSV,5,5,17,50,10,089,*4A
$GLGSV,2,1,08,67,11,056,,68,39,101,18,69,33,166,,73,22,321,08*63
$GLGSV,2,2,08,79,37,168,21,80,71,268,24,83,11,342,13,84,08,291,*6D
$GNGLL,0419.86704,S,05539.60494,E,064627.00,A,A*6F
$GNRMC,064628.00,A,0419.86724,S,05539.60471,E,1.324,,270525,,,A*73
$GNVTG,,T,,M,1.324,N,2.453,K,A*39
$GNGGA,064628.00,0419.86724,S,05539.60471,E,1,11,0.92,20.7,M,-47.6,M,,*4A
$GNGSA,A,3,12,25,23,15,05,18,24,,,,,,1.69,0.92,1.42*15
$GNGSA,A,3,80,68,79,83,,,,,,,,,1.69,0.92,1.42*1D
$GPGSV,5,1,17,05,33,032,26,10,11,213,,12,72,110,32,13,13,100,*7C
$GPGSV,5,2,17,15,41,128,28,18,30,299,23,20,02,032,,23,53,215,18*78
$GPGSV,5,3,17,24,29,171,15,25,66,337,36,28,07,286,,29,16,352,25*7C
$GPGSV,5,4,17,36,52,277,,40,86,351,37,41,58,082,,49,32,274,*78
$GPGSV,5,5,17,50,10,089,*4A
$GLGSV,2,1,08,67,11,056,,68,39,101,18,69,33,166,21,73,22,321,08*60
$GLGSV,2,2,08,79,37,168,23,80,71,268,25,83,11,342,13,84,08,291,*6E
$GNGLL,0419.86724,S,05539.60471,E,064628.00,A,A*69
$GNRMC,064629.00,A,0419.86726,S,05539.60465,E,0.598,,270525,,,A*75
$GNVTG,,T,,M,0.598,N,1.107,K,A*3E
$GNGGA,064629.00,0419.86726,S,05539.60465,E,1,10,0.99,20.1,M,-47.6,M,,*40
$GNGSA,A,3,12,25,15,05,18,24,,,,,,,1.74,0.99,1.43*12
$GNGSA,A,3,80,68,79,83,,,,,,,,,1.74,0.99,1.43*1B
$GPGSV,5,1,17,05,33,032,27,10,11,213,,12,72,110,32,13,13,100,*7D
$GPGSV,5,2,17,15,41,128,27,18,30,299,24,20,02,032,,23,53,215,26*7D
$GPGSV,5,3,17,24,29,171,16,25,66,337,34,28,07,286,,29,16,352,26*7E
$GPGSV,5,4,17,36,52,277,,40,86,351,39,41,58,082,,49,32,274,*76
$GPGSV,5,5,17,50,10,089,*4A
$GLGSV,2,1,08,67,11,056,,68,39,101,20,69,33,166,21,73,22,321,08*6B
$GLGSV,2,2,08,79,37,168,24,80,71,268,26,83,11,342,17,84,08,291,*6E
$GNGLL,0419.86726,S,05539.60465,E,064629.00,A,A*6F
$GNRMC,064630.00,A,0419.86724,S,05539.60475,E,0.025,,270525,,,A*7D
$GNVTG,,T,,M,0.025,N,0.046,K,A*38
$GNGGA,064630.00,0419.86724,S,05539.60475,E,1,10,0.99,20.9,M,-47.6,M,,*43
$GNGSA,A,3,12,25,15,05,18,24,,,,,,,1.74,0.99,1.43*12
$GNGSA,A,3,80,68,79,83,,,,,,,,,1.74,0.99,1.43*1B
$GPGSV,5,1,17,05,33,032,27,10,11,213,20,12,72,110,33,13,13,100,*7E
$GPGSV,5,2,17,15,42,128,28,18,30,299,24,20,02,032,,23,53,215,25*72
$GPGSV,5,3,17,24,29,171,15,25,66,337,34,28,07,286,,29,16,352,27*7C
$GPGSV,5,4,17,36,52,277,,40,86,351,35,41,58,082,,49,32,274,*7A
$GPGSV,5,5,17,50,10,089,*4A
$GLGSV,2,1,08,67,11,056,,68,39,101,22,69,33,166,21,73,22,321,11*61
$GLGSV,2,2,08,79,37,168,25,80,71,268,26,83,11,342,17,84,08,291,*6F
$GNGLL,0419.86724,S,05539.60475,E,064630.00,A,A*64
$GNRMC,064631.00,A,0419.86729,S,05539.60477,E,0.992,,270525,,,A*76
$GNVTG,,T,,M,0.992,N,1.837,K,A*32
$GNGGA,064631.00,0419.86729,S,05539.60477,E,1,12,0.89,21.4,M,-47.6,M,,*42
$GNGSA,A,3,12,25,23,15,05,18,24,,,,,,1.64,0.89,1.37*10
$GNGSA,A,3,80,68,79,69,83,,,,,,,,1.64,0.89,1.37*17
$GPGSV,5,1,17,05,33,032,26,10,11,213,19,12,72,110,29,13,13,100,*7E
$GPGSV,5,2,17,15,42,128,27,18,30,299,24,20,02,032,,23,53,215,25*7D
$GPGSV,5,3,17,24,29,171,13,25,66,337,28,28,07,286,,29,16,352,26*76
$GPGSV,5,4,17,36,52,277,,40,86,351,31,41,58,082,,49,32,274,*7E
$GPGSV,5,5,17,50,10,089,*4A
$GLGSV,2,1,08,67,11,056,,68,39,101,20,69,33,166,20,73,22,321,13*60
$GLGSV,2,2,08,79,37,168,25,80,71,268,25,83,11,342,17,84,08,291,*6C
$GNGLL,0419.86729,S,05539.60477,E,064631.00,A,A*6A
$GNRMC,064632.00,A,0419.86740,S,05539.60458,E,1.027,,270525,,,A*71
$GNVTG,,T,,M,1.027,N,1.901,K,A*30
$GNGGA,064632.00,0419.86740,S,05539.60458,E,1,12,0.89,20.4,M,-47.6,M,,*42
$GNGSA,A,3,12,25,23,15,05,18,24,,,,,,1.64,0.89,1.37*10
$GNGSA,A,3,80,68,79,69,83,,,,,,,,1.64,0.89,1.37*17
$GPGSV,5,1,17,05,33,032,26,10,11,213,18,12,72,110,26,13,13,100,*70
$GPGSV,5,2,17,15,42,128,26,18,30,299,24,20,02,032,,23,53,215,23*7A
$GPGSV,5,3,17,24,29,171,13,25,66,337,28,28,07,286,,29,16,352,26*76
$GPGSV,5,4,17,36,52,277,,40,86,351,31,41,58,082,,49,32,274,*7E
$GPGSV,5,5,17,50,10,089,*4A
$GLGSV,2,1,08,67,11,056,,68,39,101,16,69,33,166,18,73,22,321,13*6E
$GLGSV,2,2,08,79,37,168,23,80,71,268,23,83,11,342,17,84,08,291,*6C
$GNGLL,0419.86740,S,05539.60458,E,064632.00,A,A*6B
$GNRMC,064633.00,A,0419.86732,S,05539.60469,E,0.144,,270525,,,A*72
$GNVTG,,T,,M,0.144,N,0.267,K,A*3F
$GNGGA,064633.00,0419.86732,S,05539.60469,E,1,11,0.95,20.1,M,-47.6,M,,*4F
$GNGSA,A,3,12,25,23,15,05,18,24,,,,,,2.03,0.95,1.80*13
$GNGSA,A,3,80,68,79,69,,,,,,,,,2.03,0.95,1.80*1F
$GPGSV,5,1,17,05,33,032,25,10,11,213,18,12,72,110,27,13,13,100,*72
$GPGSV,5,2,17,15,42,128,26,18,30,300,22,20,02,032,,23,53,215,22*7C
$GPGSV,5,3,17,24,29,171,13,25,66,337,28,28,07,286,,29,16,352,25*75
$GPGSV,5,4,17,36,52,277,,40,86,351,33,41,58,082,,49,32,274,*7C
$GPGSV,5,5,17,50,10,089,*4A
$GLGSV,2,1,08,67,11,056,,68,39,101,17,69,33,166,18,73,22,321,11*6D
$GLGSV,2,2,08,79,37,168,23,80,71,268,22,83,11,342,,84,08,291,*6B
$GNGLL,0419.86732,S,05539.60469,E,064633.00,A,A*6D
$GNRMC,064634.00,A,0419.86746,S,05539.60464,E,0.749,,270525,,,A*70
$GNVTG,,T,,M,0.749,N,1.387,K,A*3A
$GNGGA,064634.00,0419.86746,S,05539.60464,E,1,11,0.95,20.0,M,-47.6,M,,*47
$GNGSA,A,3,12,25,23,15,05,18,24,,,,,,2.03,0.95,1.79*15
$GNGSA,A,3,80,68,79,69,,,,,,,,,2.03,0.95,1.79*19
$GPGSV,5,1,17,05,33,032,24,10,11,213,18,12,72,110,32,13,13,100,*77
$GPGSV,5,2,17,15,42,128,25,18,30,300,22,20,02,032,,23,53,215,22*7F
$GPGSV,5,3,17,24,29,171,16,25,66,337,32,28,07,286,,29,16,352,24*7A
$GPGSV,5,4,17,36,52,277,,40,86,351,33,41,58,082,,49,32,274,*7C
$GPGSV,5,5,17,50,10,089,*4A
$GLGSV,2,1,08,67,11,056,,68,39,101,19,69,33,166,18,73,22,321,*63
$GLGSV,2,2,08,79,37,168,23,80,71,268,22,83,11,342,,84,08,291,*6B
$GNGLL,0419.86746,S,05539.60464,E,064634.00,A,A*64
$GNRMC,064635.00,A,0419.86757,S,05539.60450,E,0.746,,270525,,,A*79
$GNVTG,,T,,M,0.746,N,1.381,K,A*33
$GNGGA,064635.00,0419.86757,S,05539.60450,E,1,11,0.95,19.6,M,-47.6,M,,*4D
$GNGSA,A,3,12,25,23,15,05,18,24,,,,,,2.03,0.95,1.79*15
$GNGSA,A,3,80,68,79,69,,,,,,,,,2.03,0.95,1.79*19
$GPGSV,5,1,17,05,33,032,23,10,11,213,18,12,72,110,31,13,13,100,*73
$GPGSV,5,2,17,15,42,128,25,18,30,300,22,20,01,032,,23,53,215,23*7D
$GPGSV,5,3,17,24,29,171,14,25,66,337,32,28,07,286,,29,16,352,23*7F
$GPGSV,5,4,17,36,52,277,,40,86,351,35,41,58,082,,49,32,274,*7A
$GPGSV,5,5,17,50,10,089,*4A
$GLGSV,2,1,08,67,11,056,,68,39,101,20,69,33,166,17,73,22,321,*66
$GLGSV,2,2,08,79,37,168,23,80,71,268,24,83,11,342,,84,08,291,*6D
$GNGLL,0419.86757,S,05539.60450,E,064635.00,A,A*62
$GNRMC,064636.00,A,0419.86761,S,05539.60458,E,0.263,,270525,,,A*75
$GNVTG,,T,,M,0.263,N,0.487,K,A*31
$GNGGA,064636.00,0419.86761,S,05539.60458,E,1,11,0.95,19.0,M,-47.6,M,,*45
$GNGSA,A,3,12,25,23,15,05,18,24,,,,,,2.03,0.95,1.79*15
$GNGSA,A,3,80,68,79,69,,,,,,,,,2.03,0.95,1.79*19
$GPGSV,5,1,17,05,33,032,26,10,11,213,16,12,72,110,31,13,13,100,*78
$GPGSV,5,2,17,15,42,128,24,18,30,300,22,20,01,032,,23,53,215,22*7D
$GPGSV,5,3,17,24,29,171,13,25,66,337,31,28,07,286,,29,16,352,23*7B
$GPGSV,5,4,17,36,52,277,,40,86,351,35,41,58,082,,49,32,274,*7A
$GPGSV,5,5,17,50,10,089,*4A
$GLGSV,2,1,08,67,11,056,,68,39,101,20,69,33,166,16,73,22,321,*67
$GLGSV,2,2,08,79,37,168,24,80,71,268,24,83,11,342,,84,08,291,*6A
$GNGLL,0419.86761,S,05539.60458,E,064636.00,A,A*6C
$GNRMC,064637.00,A,0419.86767,S,05539.60452,E,0.505,,270525,,,A*7F
$GNVTG,,T,,M,0.505,N,0.935,K,A*32
$GNGGA,064637.00,0419.86767,S,05539.60452,E,1,11,0.95,18.1,M,-47.6,M,,*48
$GNGSA,A,3,12,25,23,15,05,18,24,,,,,,2.03,0.95,1.79*15
$GNGSA,A,3,80,68,79,69,,,,,,,,,2.03,0.95,1.79*19
$GPGSV,5,1,17,05,33,032,28,10,11,213,17,12,72,110,32,13,13,100,*74
$GPGSV,5,2,17,15,42,128,25,18,30,300,21,20,01,032,,23,53,216,22*7C
$GPGSV,5,3,17,24,29,171,16,25,66,337,33,28,07,286,,29,16,352,25*7A
$GPGSV,5,4,17,36,52,277,,40,86,351,36,41,58,082,,49,32,274,*79
$GPGSV,5,5,17,50,10,089,*4A
$GLGSV,2,1,08,67,11,056,,68,39,101,21,69,33,166,16,73,22,321,*66
$GLGSV,2,2,08,79,37,168,26,80,71,268,24,83,11,342,17,84,08,291,*6E
$GNGLL,0419.86767,S,05539.60452,E,064637.00,A,A*61
$GNRMC,064638.00,A,0419.86764,S,05539.60431,E,1.013,,270525,,,A*75
$GNVTG,,T,,M,1.013,N,1.877,K,A*37
$GNGGA,064638.00,0419.86764,S,05539.60431,E,1,11,0.95,17.7,M,-47.6,M,,*48
$GNGSA,A,3,12,25,23,15,05,18,24,,,,,,2.03,0.95,1.79*15
$GNGSA,A,3,80,68,79,69,,,,,,,,,2.03,0.95,1.79*19
$GPGSV,5,1,17,05,33,032,27,10,11,213,18,12,72,110,28,13,13,100,*7F
$GPGSV,5,2,17,15,42,128,25,18,30,300,21,20,01,032,,23,53,216,22*7C
$GPGSV,5,3,17,24,29,171,16,25,66,337,28,28,07,286,,29,16,352,25*70
$GPGSV,5,4,17,36,52,277,,40,86,351,33,41,58,082,,49,32,274,*7C
$GPGSV,5,5,17,50,10,089,*4A
$GLGSV,2,1,08,67,11,056,,68,39,101,22,69,33,166,15,73,22,321,*66
$GLGSV,2,2,08,79,37,168,26,80,71,268,24,83,11,342,,84,08,291,*68
$GNGLL,0419.86764,S,05539.60431,E,064638.00,A,A*68
$GNRMC,064639.00,A,0419.86767,S,05539.60428,E,0.460,,270525,,,A*7E
$GNVTG,,T,,M,0.460,N,0.853,K,A*31
$GNGGA,064639.00,0419.86767,S,05539.60428,E,1,11,0.95,17.5,M,-47.6,M,,*40
$GNGSA,A,3,12,25,23,15,05,18,24,,,,,,2.03,0.95,1.79*15
$GNGSA,A,3,80,68,79,69,,,,,,,,,2.03,0.95,1.79*19
$GPGSV,5,1,17,05,33,032,27,10,11,213,18,12,72,110,31,13,13,100,*77
$GPGSV,5,2,17,15,42,128,24,18,30,300,21,20,01,032,,23,53,216,21*7E
$GPGSV,5,3,17,24,29,171,15,25,67,337,33,28,07,286,,29,16,352,24*79
$GPGSV,5,4,17,36,52,277,,40,86,351,33,41,58,082,,49,32,274,*7C
$GPGSV,5,5,17,50,10,089,*4A
$GLGSV,2,1,08,67,11,056,,68,39,101,20,69,33,166,16,73,22,321,*67
$GLGSV,2,2,08,79,37,168,27,80,71,268,25,83,11,342,,84,08,291,*68
$GNGLL,0419.86767,S,05539.60428,E,064639.00,A,A*62
$GNRMC,064640.00,A,0419.86767,S,05539.60421,E,0.408,,270525,,,A*77
$GNVTG,,T,,M,0.408,N,0.756,K,A*35
$GNGGA,064640.00,0419.86767,S,05539.60421,E,1,11,0.95,17.9,M,-47.6,M,,*4B
$GNGSA,A,3,12,25,23,15,05,18,24,,,,,,2.03,0.95,1.79*15
$GNGSA,A,3,80,68,79,69,,,,,,,,,2.03,0.95,1.79*19
$GPGSV,5,1,17,05,33,032,32,10,11,213,19,12,72,110,35,13,13,100,*76
$GPGSV,5,2,17,15,42,128,26,18,30,300,22,20,01,032,,23,53,216,22*7C
$GPGSV,5,3,17,24,29,171,15,25,67,337,38,28,07,286,,29,16,352,25*73
$GPGSV,5,4,17,36,52,277,35,40,86,351,38,41,58,082,,49,32,274,*71
$GPGSV,5,5,17,50,10,089,*4A
$GLGSV,2,1,08,67,11,056,,68,39,101,18,69,33,166,16,73,22,321,*6C
$GLGSV,2,2,08,79,37,168,27,80,71,268,26,83,11,342,,84,08,291,*6B
$GNGLL,0419.86767,S,05539.60421,E,064640.00,A,A*65
$GNRMC,064641.00,A,0419.86764,S,05539.60430,E,0.266,,270525,,,A*7B
$GNVTG,,T,,M,0.266,N,0.492,K,A*30
$GNGGA,064641.00,0419.86764,S,05539.60430,E,1,11,0.95,18.3,M,-47.6,M,,*4C
$GNGSA,A,3,12,25,23,15,05,18,24,,,,,,2.03,0.95,1.79*15
$GNGSA,A,3,80,68,79,69,,,,,,,,,2.03,0.95,1.79*19
$GPGSV,5,1,17,05,33,032,31,10,11,213,19,12,72,110,35,13,13,100,15*71
$GPGSV,5,2,17,15,42,128,28,18,30,300,22,20,01,032,,23,53,216,22*72
$GPGSV,5,3,17,24,29,171,15,25,67,337,36,28,07,286,,29,16,352,26*7E
$GPGSV,5,4,17,36,52,277,34,40,86,351,38,41,58,082,,49,32,274,*70
$GPGSV,5,5,17,50,10,089,*4A
$GLGSV,2,1,08,67,11,056,,68,39,101,19,69,33,166,16,73,22,321,*6D
$GLGSV,2,2,08,79,37,168,27,80,71,268,27,83,11,342,,84,08,291,*6A
$GNGLL,0419.86764,S,05539.60430,E,064641.00,A,A*67
$GNRMC,064642.00,A,0419.86768,S,05539.60429,E,0.156,,270525,,,A*7C
$GNVTG,,T,,M,0.156,N,0.289,K,A*3C
$GNGGA,064642.00,0419.86768,S,05539.60429,E,1,11,0.95,18.2,M,-47.6,M,,*4A
$GNGSA,A,3,12,25,23,15,05,18,24,,,,,,2.03,0.95,1.79*15
$GNGSA,A,3,80,68,79,69,,,,,,,,,2.03,0.95,1.79*19
$GPGSV,5,1,17,05,33,032,29,10,11,213,20,12,72,110,34,13,13,100,13*75
$GPGSV,5,2,17,15,42,128,27,18,30,300,22,20,01,032,,23,53,216,23*7C
$GPGSV,5,3,17,24,29,171,16,25,67,337,35,28,07,285,,29,16,352,26*7D
$GPGSV,5,4,17,36,52,277,34,40,86,351,37,41,58,082,,49,32,274,*7F
$GPGSV,5,5,17,50,10,089,*4A
$GLGSV,2,1,08,67,11,056,,68,39,101,20,69,33,166,18,73,22,321,*69
$GLGSV,2,2,08,79,37,168,31,80,71,268,30,83,11,342,,84,08,291,*6B
$GNGLL,0419.86768,S,05539.60429,E,064642.00,A,A*60
$GNRMC,064643.00,A,0419.86771,S,05539.60437,E,0.126,,270525,,,A*7D
$GNVTG,,T,,M,0.126,N,0.234,K,A*3D
$GNGGA,064643.00,0419.86771,S,05539.60437,E,1,11,0.95,17.8,M,-47.6,M,,*49
$GNGSA,A,3,12,25,23,15,05,18,24,,,,,,2.03,0.95,1.79*15
$GNGSA,A,3,80,68,79,69,,,,,,,,,2.03,0.95,1.79*19
$GPGSV,5,1,17,05,33,032,27,10,11,213,20,12,72,110,32,13,13,100,09*76
$GPGSV,5,2,17,15,42,128,27,18,30,300,22,20,01,032,,23,53,216,24*7B
$GPGSV,5,3,17,24,29,171,17,25,67,337,34,28,07,285,18,29,17,352,25*76
$GPGSV,5,4,17,36,52,277,33,40,86,351,35,41,58,082,,49,32,274,*7A
$GPGSV,5,5,17,50,10,089,*4A
$GLGSV,2,1,08,67,11,056,,68,39,101,21,69,33,166,18,73,22,321,*68
$GLGSV,2,2,08,79,37,168,30,80,71,268,32,83,11,342,,84,08,291,*68
$GNGLL,0419.86771,S,05539.60437,E,064643.00,A,A*66
$GNRMC,064644.00,A,0419.86767,S,05539.60440,E,0.256,,270525,,,A*79
$GNVTG,,T,,M,0.256,N,0.473,K,A*3C
$GNGGA,064644.00,0419.86767,S,05539.60440,E,1,11,0.95,17.5,M,-47.6,M,,*44
$GNGSA,A,3,12,25,23,15,05,18,24,,,,,,2.03,0.95,1.79*15
$GNGSA,A,3,80,68,79,69,,,,,,,,,2.03,0.95,1.79*19
$GPGSV,5,1,17,05,33,032,27,10,11,213,21,12,72,110,32,13,13,100,08*76
$GPGSV,5,2,17,15,42,128,27,18,30,300,20,20,01,032,,23,53,216,24*79
$GPGSV,5,3,17,24,29,171,17,25,67,337,34,28,07,285,18,29,17,352,25*76
$GPGSV,5,4,17,36,52,277,33,40,86,351,35,41,58,082,,49,32,274,*7A
$GPGSV,5,5,17,50,10,089,*4A
$GLGSV,2,1,08,67,11,056,,68,39,101,21,69,33,166,18,73,22,321,*68
$GLGSV,2,2,08,79,37,168,30,80,71,268,33,83,11,342,20,84,08,291,*6B
$GNGLL,0419.86767,S,05539.60440,E,064644.00,A,A*66
$GNRMC,064645.00,A,0419.86770,S,05539.60426,E,0.451,,270525,,,A*7F
$GNVTG,,T,,M,0.451,N,0.835,K,A*33
$GNGGA,064645.00,0419.86770,S,05539.60426,E,1,11,0.95,16.9,M,-47.6,M,,*4E
$GNGSA,A,3,12,25,23,15,05,18,24,,,,,,2.03,0.95,1.79*15
$GNGSA,A,3,80,68,79,69,,,,,,,,,2.03,0.95,1.79*19
$GPGSV,5,1,17,05,33,032,28,10,11,213,22,12,72,110,32,13,13,100,08*7A
$GPGSV,5,2,17,15,42,128,28,18,30,300,17,20,01,032,,23,53,216,23*75
$GPGSV,5,3,17,24,29,171,16,25,67,337,35,28,07,285,18,29,17,352,24*77
$GPGSV,5,4,17,36,52,277,34,40,86,351,35,41,58,082,,49,32,274,*7D
$GPGSV,5,5,17,50,10,089,*4A
$GLGSV,2,1,08,67,11,056,,68,39,101,20,69,33,166,18,73,22,321,*69
$GLGSV,2,2,08,79,37,168,30,80,71,268,33,83,11,342,19,84,08,291,*61
$GNGLL,0419.86770,S,05539.60426,E,064645.00,A,A*61
$GNRMC,064646.00,A,0419.86763,S,05539.60435,E,0.093,,270525,,,A*76
$GNVTG,,T,,M,0.093,N,0.173,K,A*32
$GNGGA,064646.00,0419.86763,S,05539.60435,E,1,11,0.95,16.7,M,-47.6,M,,*43
$GNGSA,A,3,12,25,23,15,05,18,24,,,,,,2.03,0.95,1.79*15
$GNGSA,A,3,80,68,79,69,,,,,,,,,2.03,0.95,1.79*19
$GPGSV,5,1,17,05,33,032,29,10,11,213,23,12,72,110,33,13,13,100,09*7A
$GPGSV,5,2,17,15,42,128,28,18,30,300,14,20,01,032,,23,53,216,23*76
$GPGSV,5,3,17,24,29,171,16,25,67,337,35,28,07,285,18,29,17,352,24*77
$GPGSV,5,4,17,36,52,277,34,40,86,351,36,41,58,082,,49,32,274,*7E
$GPGSV,5,5,17,50,10,089,*4A
$GLGSV,2,1,08,67,11,056,,68,39,101,20,69,33,166,18,73,22,321,*69
$GLGSV,2,2,08,79,37,168,28,80,71,268,32,83,11,342,17,84,08,291,*67
$GNGLL,0419.86763,S,05539.60435,E,064646.00,A,A*62
$GNRMC,064647.00,A,0419.86763,S,05539.60441,E,0.209,,270525,,,A*75
$GNVTG,,T,,M,0.209,N,0.388,K,A*35
$GNGGA,064647.00,0419.86763,S,05539.60441,E,1,11,0.95,16.5,M,-47.6,M,,*43
$GNGSA,A,3,12,25,23,15,05,18,24,,,,,,2.03,0.95,1.79*15
$GNGSA,A,3,80,68,79,69,,,,,,,,,2.03,0.95,1.79*19
$GPGSV,5,1,17,05,33,032,29,10,11,213,22,12,72,110,33,13,13,100,09*7B
$GPGSV,5,2,17,15,42,128,27,18,30,300,15,20,01,032,,23,53,216,21*7A
$GPGSV,5,3,17,24,29,171,16,25,67,337,34,28,07,285,17,29,17,352,26*7B
$GPGSV,5,4,17,36,52,277,34,40,86,351,36,41,58,082,,49,32,274,*7E
$GPGSV,5,5,17,50,10,089,*4A
$GLGSV,2,1,08,67,11,056,,68,39,101,19,69,33,166,17,73,22,321,*6C
$GLGSV,2,2,08,79,37,168,28,80,71,268,31,83,11,342,15,84,08,291,*66
$GNGLL,0419.86763,S,05539.60441,E,064647.00,A,A*60
$GNRMC,064648.00,A,0419.86774,S,05539.60460,E,0.309,,270525,,,A*7E
$GNVTG,,T,,M,0.309,N,0.572,K,A*37
$GNGGA,064648.00,0419.86774,S,05539.60460,E,1,12,0.89,17.4,M,-47.6,M,,*47
$GNGSA,A,3,12,25,23,15,05,18,24,,,,,,1.64,0.89,1.37*10
$GNGSA,A,3,80,68,79,69,83,,,,,,,,1.64,0.89,1.37*17
$GPGSV,5,1,17,05,33,032,27,10,11,213,22,12,72,110,32,13,13,100,09*74
$GPGSV,5,2,17,15,42,128,25,18,30,300,17,20,01,032,,23,53,216,21*7A
$GPGSV,5,3,17,24,29,171,15,25,67,337,34,28,07,285,16,29,17,352,26*79
$GPGSV,5,4,17,36,52,277,34,40,86,351,36,41,58,082,,49,32,274,*7E
$GPGSV,5,5,17,50,10,089,*4A
$GLGSV,2,1,08,67,11,056,,68,39,101,20,69,33,166,15,73,22,321,*64
$GLGSV,2,2,08,79,37,168,28,80,71,268,31,83,11,342,14,84,08,291,*67
$GNGLL,0419.86774,S,05539.60460,E,064648.00,A,A*6A
$GNRMC,064649.00,A,0419.86773,S,05539.60486,E,0.137,,270525,,,A*7F
$GNVTG,,T,,M,0.137,N,0.254,K,A*3B
$GNGGA,064649.00,0419.86773,S,05539.60486,E,1,12,0.89,17.8,M,-47.6,M,,*45
$GNGSA,A,3,12,25,23,15,05,18,24,,,,,,1.64,0.89,1.37*10
$GNGSA,A,3,80,68,79,69,83,,,,,,,,1.64,0.89,1.37*17
$GPGSV,5,1,17,05,33,032,27,10,11,213,22,12,72,110,32,13,13,100,09*74
$GPGSV,5,2,17,15,42,128,23,18,30,300,18,20,01,032,,23,53,216,21*73
$GPGSV,5,3,17,24,29,171,12,25,67,337,37,28,07,285,17,29,17,352,25*7F
$GPGSV,5,4,17,36,52,277,34,40,86,351,36,41,58,082,,49,32,274,*7E
$GPGSV,5,5,17,50,10,089,*4A
$GLGSV,2,1,08,67,11,056,,68,39,101,22,69,33,166,15,73,22,321,*66
$GLGSV,2,2,08,79,37,168,27,80,71,268,30,83,11,342,12,84,08,291,*6F
$GNGLL,0419.86773,S,05539.60486,E,064649.00,A,A*64
$GNRMC,064650.00,A,0419.86774,S,05539.60512,E,0.188,,270525,,,A*78
$GNVTG,,T,,M,0.188,N,0.349,K,A*32
$GNGGA,064650.00,0419.86774,S,05539.60512,E,1,11,0.94,18.2,M,-47.6,M,,*4C
$GNGSA,A,3,12,25,23,15,05,18,,,,,,,1.75,0.94,1.47*1D
$GNGSA,A,3,80,68,79,69,83,,,,,,,,1.75,0.94,1.47*1C
$GPGSV,5,1,17,05,33,032,27,10,11,213,22,12,72,110,32,13,13,100,08*75
$GPGSV,5,2,17,15,42,128,21,18,30,300,18,20,01,032,,23,53,216,21*71
$GPGSV,5,3,17,24,29,171,08,25,67,337,36,28,07,285,18,29,17,352,24*7B
$GPGSV,5,4,17,36,52,277,34,40,86,351,36,41,58,082,,49,32,274,*7E
$GPGSV,5,5,17,50,10,089,*4A
$GLGSV,2,1,08,67,11,056,,68,39,101,22,69,33,166,17,73,22,321,*64
$GLGSV,2,2,08,79,37,168,27,80,71,268,30,83,11,342,11,84,08,291,*6C
$GNGLL,0419.86774,S,05539.60512,E,064650.00,A,A*67
$GNRMC,064651.00,A,0419.86775,S,05539.60539,E,0.201,,270525,,,A*73
$GNVTG,,T,,M,0.201,N,0.372,K,A*38
$GNGGA,064651.00,0419.86775,S,05539.60539,E,1,11,0.94,18.8,M,-47.6,M,,*4F
$GNGSA,A,3,12,25,23,15,05,18,,,,,,,1.75,0.94,1.47*1D
$GNGSA,A,3,80,68,79,69,83,,,,,,,,1.75,0.94,1.47*1C
$GPGSV,5,1,17,05,33,032,27,10,11,213,22,12,72,110,33,13,13,100,08*74
$GPGSV,5,2,17,15,42,128,22,18,30,300,19,20,01,032,,23,53,216,21*73
$GPGSV,5,3,17,24,29,171,06,25,67,337,35,28,07,285,18,29,17,352,22*70
$GPGSV,5,4,17,36,52,277,34,40,86,351,36,41,58,082,,49,32,274,*7E
$GPGSV,5,5,17,50,10,089,*4A
$GLGSV,2,1,08,67,11,056,,68,39,101,22,69,33,166,17,73,22,321,*64
$GLGSV,2,2,08,79,37,168,28,80,71,268,31,83,11,342,12,84,08,291,*61
$GNGLL,0419.86775,S,05539.60539,E,064651.00,A,A*6E
$GNRMC,064652.00,A,0419.86779,S,05539.60550,E,0.024,,270525,,,A*76
$GNVTG,,T,,M,0.024,N,0.045,K,A*3A
$GNGGA,064652.00,0419.86779,S,05539.60550,E,1,11,0.94,19.1,M,-47.6,M,,*47
$GNGSA,A,3,12,25,23,15,05,18,,,,,,,1.75,0.94,1.47*1D
$GNGSA,A,3,80,68,79,69,83,,,,,,,,1.75,0.94,1.47*1C
$GPGSV,5,1,17,05,33,032,29,10,11,213,21,12,72,110,33,13,13,100,17*77
$GPGSV,5,2,17,15,42,128,25,18,30,300,17,20,01,032,,23,53,216,19*71
$GPGSV,5,3,17,24,29,171,06,25,67,337,37,28,07,285,18,29,17,352,22*72
$GPGSV,5,4,17,36,52,277,35,40,86,351,38,41,58,082,,49,32,274,*71
$GPGSV,5,5,17,50,10,089,*4A
$GLGSV,2,1,08,67,11,056,,68,39,101,22,69,33,166,17,73,22,321,*64
$GLGSV,2,2,08,79,37,168,28,80,71,268,30,83,11,342,13,84,08,291,*61
$GNGLL,0419.86779,S,05539.60550,E,064652.00,A,A*6E
$GNRMC,064653.00,A,0419.86779,S,05539.60554,E,0.053,,270525,,,A*73
$GNVTG,,T,,M,0.053,N,0.097,K,A*35
$GNGGA,064653.00,0419.86779,S,05539.60554,E,1,09,1.06,19.0,M,-47.6,M,,*40
$GNGSA,A,3,12,25,15,05,18,,,,,,,,2.20,1.06,1.93*1C
$GNGSA,A,3,80,68,79,69,,,,,,,,,2.20,1.06,1.93*17
$GPGSV,5,1,17,05,33,032,28,10,11,213,20,12,72,110,32,13,13,100,15*74
$GPGSV,5,2,17,15,42,128,25,18,30,300,17,20,01,032,,23,53,216,18*70
$GPGSV,5,3,17,24,29,171,05,25,67,337,35,28,07,285,18,29,17,352,22*73
$GPGSV,5,4,17,36,52,277,35,40,86,351,35,41,58,082,,49,32,274,*7C
$GPGSV,5,5,17,50,10,089,*4A
$GLGSV,2,1,08,67,11,056,,68,39,101,21,69,33,166,18,73,22,321,*68
$GLGSV,2,2,08,79,37,168,28,80,71,268,30,83,11,342,10,84,08,291,*62
$GNGLL,0419.86779,S,05539.60554,E,064653.00,A,A*6B
$GNRMC,064654.00,A,0419.86776,S,05539.60574,E,0.107,,270525,,,A*79
$GNVTG,,T,,M,0.107,N,0.198,K,A*3B
$GNGGA,064654.00,0419.86776,S,05539.60574,E,1,10,0.99,19.1,M,-47.6,M,,*44
$GNGSA,A,3,12,25,23,15,05,18,,,,,,,2.15,0.99,1.91*1E
$GNGSA,A,3,80,68,79,69,,,,,,,,,2.15,0.99,1.91*14
$GPGSV,5,1,17,05,33,032,28,10,11,213,21,12,72,110,31,13,13,100,13*70
$GPGSV,5,2,17,15,42,128,26,18,30,300,16,20,01,032,,23,53,216,20*79
$GPGSV,5,3,17,24,29,171,05,25,67,337,33,28,07,285,18,29,17,352,21*76
$GPGSV,5,4,17,36,52,277,34,40,86,351,35,41,58,082,,49,32,274,*7D
$GPGSV,5,5,17,50,10,089,*4A
$GLGSV,2,1,08,67,11,056,,68,39,101,21,69,33,166,17,73,22,321,*67
$GLGSV,2,2,08,79,37,168,28,80,71,268,30,83,11,342,09,84,08,291,*6A
$GNGLL,0419.86776,S,05539.60574,E,064654.00,A,A*61
$GNRMC,064655.00,A,0419.86768,S,05539.60585,E,0.175,,270525,,,A*7C
$GNVTG,,T,,M,0.175,N,0.325,K,A*3A
$GNGGA,064655.00,0419.86768,S,05539.60585,E,1,10,0.99,19.0,M,-47.6,M,,*45
$GNGSA,A,3,12,25,23,15,05,18,,,,,,,2.15,0.99,1.91*1E
$GNGSA,A,3,80,68,79,69,,,,,,,,,2.15,0.99,1.91*14
$GPGSV,5,1,17,05,33,032,29,10,11,213,21,12,72,110,31,13,13,100,12*70
$GPGSV,5,2,17,15,42,128,26,18,30,300,18,20,01,032,,23,53,216,21*76
$GPGSV,5,3,17,24,29,171,05,25,67,337,33,28,07,285,19,29,17,352,22*74
$GPGSV,5,4,17,36,52,277,33,40,86,351,36,41,58,082,,49,32,274,*79
$GPGSV,5,5,17,50,10,089,*4A
$GLGSV,2,1,08,67,11,056,,68,39,101,22,69,33,166,18,73,22,321,*6B
$GLGSV,2,2,08,79,37,168,28,80,71,268,30,83,11,342,09,84,08,291,*6A
$GNGLL,0419.86768,S,05539.60585,E,064655.00,A,A*61
$GNRMC,064656.00,A,0419.86762,S,05539.60590,E,0.072,,270525,,,A*77
$GNVTG,,T,,M,0.072,N,0.133,K,A*39
$GNGGA,064656.00,0419.86762,S,05539.60590,E,1,10,0.99,19.1,M,-47.6,M,,*49
$GNGSA,A,3,12,25,23,15,05,18,,,,,,,2.15,0.99,1.91*1E
$GNGSA,A,3,80,68,79,69,,,,,,,,,2.15,0.99,1.91*14
$GPGSV,5,1,17,05,33,032,30,10,11,213,21,12,72,110,30,13,13,100,10*7B
$GPGSV,5,2,17,15,42,128,26,18,30,300,16,20,01,032,,23,53,216,20*79
$GPGSV,5,3,17,24,29,171,05,25,67,337,33,28,07,285,20,29,17,352,22*7E
$GPGSV,5,4,17,36,52,277,33,40,86,351,36,41,58,082,,49,32,274,*79
$GPGSV,5,5,17,50,10,089,*4A
$GLGSV,2,1,08,67,11,056,,68,39,101,22,69,33,166,18,73,22,321,*6B
$GLGSV,2,2,08,79,37,168,28,80,71,268,29,83,11,342,09,84,08,291,*62
$GNGLL,0419.86762,S,05539.60590,E,064656.00,A,A*6C
$GNRMC,064657.00,A,0419.86758,S,05539.60593,E,0.073,,270525,,,A*7D
$GNVTG,,T,,M,0.073,N,0.135,K,A*3E
$GNGGA,064657.00,0419.86758,S,05539.60593,E,1,11,0.99,19.1,M,-47.6,M,,*43
$GNGSA,A,3,12,25,23,15,05,18,,,,,,,2.15,0.99,1.91*1E
$GNGSA,A,3,80,68,79,69,83,,,,,,,,2.15,0.99,1.91*1F
$GPGSV,5,1,17,05,33,032,29,10,11,213,20,12,72,110,30,13,13,100,08*7B
$GPGSV,5,2,17,15,42,128,27,18,30,300,19,20,01,032,,23,53,216,22*75
$GPGSV,5,3,17,24,29,171,05,25,67,337,32,28,07,285,21,29,17,352,21*7D
$GPGSV,5,4,17,36,52,277,34,40,86,351,36,41,58,082,,49,32,274,*7E
$GPGSV,5,5,17,50,10,089,*4A
$GLGSV,2,1,08,67,11,056,,68,39,101,22,69,33,166,16,73,22,321,*65
$GLGSV,2,2,08,79,37,168,27,80,71,268,28,83,11,342,10,84,08,291,*64
$GNGLL,0419.86758,S,05539.60593,E,064657.00,A,A*67
$GNRMC,064658.00,A,0419.86758,S,05539.60589,E,0.141,,270525,,,A*79
$GNVTG,,T,,M,0.141,N,0.261,K,A*3C
$GNGGA,064658.00,0419.86758,S,05539.60589,E,1,11,0.99,19.0,M,-47.6,M,,*46
$GNGSA,A,3,12,25,23,15,05,18,,,,,,,2.15,0.99,1.91*1E
$GNGSA,A,3,80,68,79,69,83,,,,,,,,2.15,0.99,1.91*1F
$GPGSV,5,1,17,05,33,032,29,10,11,213,20,12,72,110,29,13,13,100,07*7C
$GPGSV,5,2,17,15,42,128,27,18,30,300,19,20,01,032,,23,53,216,25*72
$GPGSV,5,3,17,24,29,171,05,25,67,337,32,28,07,285,20,29,17,352,24*79
$GPGSV,5,4,17,36,52,277,33,40,86,351,35,41,58,082,,49,32,274,*7A
$GPGSV,5,5,17,50,10,089,*4A
$GLGSV,2,1,08,67,11,056,,68,39,101,21,69,33,166,17,73,22,321,*67
$GLGSV,2,2,08,79,37,168,27,80,71,268,28,83,11,342,13,84,08,291,*67
$GNGLL,0419.86758,S,05539.60589,E,064658.00,A,A*63
$GNRMC,064659.00,A,0419.86764,S,05539.60600,E,0.073,,270525,,,A*75
$GNVTG,,T,,M,0.073,N,0.134,K,A*3F
$GNGGA,064659.00,0419.86764,S,05539.60600,E,1,11,0.94,20.0,M,-47.6,M,,*4D
$GNGSA,A,3,12,25,23,15,05,18,,,,,,,1.75,0.94,1.47*1D
$GNGSA,A,3,80,68,79,69,83,,,,,,,,1.75,0.94,1.47*1C
$GPGSV,5,1,17,05,33,032,29,10,11,213,20,12,72,110,30,13,13,100,07*74
$GPGSV,5,2,17,15,42,128,27,18,30,300,19,20,01,032,,23,53,216,24*73
$GPGSV,5,3,17,24,29,171,05,25,67,337,33,28,07,285,20,29,17,352,26*7A
$GPGSV,5,4,17,36,52,277,33,40,86,351,36,41,58,082,,49,32,274,*79
$GPGSV,5,5,17,50,10,089,*4A
$GLGSV,2,1,08,67,11,056,,68,39,101,20,69,33,166,16,73,22,321,*67
$GLGSV,2,2,08,79,37,168,28,80,71,268,27,83,11,342,14,84,08,291,*60
$GNGLL,0419.86764,S,05539.60600,E,064659.00,A,A*6F
$GNRMC,064700.00,A,0419.86766,S,05539.60611,E,0.048,,270525,,,A*72
$GNVTG,,T,,M,0.048,N,0.090,K,A*38
$GNGGA,064700.00,0419.86766,S,05539.60611,E,1,11,0.94,20.9,M,-47.6,M,,*4B
$GNGSA,A,3,12,25,23,15,05,18,,,,,,,1.75,0.94,1.47*1D
$GNGSA,A,3,80,68,79,69,83,,,,,,,,1.75,0.94,1.47*1C
$GPGSV,5,1,17,05,33,032,28,10,11,213,20,12,72,110,30,13,13,100,07*75
$GPGSV,5,2,17,15,42,128,27,18,30,300,17,20,01,032,,23,53,216,21*78
$GPGSV,5,3,17,24,29,171,05,25,67,337,33,28,07,285,20,29,17,352,26*7A
$GPGSV,5,4,17,36,52,277,33,40,86,351,36,41,58,082,,49,32,274,*79
$GPGSV,5,5,17,50,10,089,*4A
$GLGSV,2,1,08,67,11,056,,68,39,101,21,69,33,166,16,73,22,321,*66
$GLGSV,2,2,08,79,37,168,28,80,71,268,28,83,11,342,13,84,08,291,*68
$GNGLL,0419.86766,S,05539.60611,E,064700.00,A,A*60
$GNRMC,064701.00,A,0419.86769,S,05539.60621,E,0.044,,270525,,,A*73
$GNVTG,,T,,M,0.044,N,0.081,K,A*34
$GNGGA,064701.00,0419.86769,S,05539.60621,E,1,11,0.94,21.6,M,-47.6,M,,*48
$GNGSA,A,3,12,25,23,15,05,18,,,,,,,1.75,0.94,1.47*1D
$GNGSA,A,3,80,68,79,69,83,,,,,,,,1.75,0.94,1.47*1C
$GPGSV,5,1,17,05,33,032,27,10,11,213,20,12,72,110,29,13,13,100,07*72
$GPGSV,5,2,17,15,42,128,26,18,30,300,17,20,01,032,,23,53,216,21*79
$GPGSV,5,3,17,24,29,171,05,25,67,337,33,28,07,285,19,29,17,352,26*70
$GPGSV,5,4,17,36,52,277,33,40,86,351,35,41,58,082,,49,32,274,*7A
$GPGSV,5,5,17,50,10,089,*4A
$GLGSV,2,1,08,67,11,056,,68,39,101,20,69,33,166,14,73,22,321,*65
$GLGSV,2,2,08,79,37,168,28,80,71,268,27,83,11,342,12,84,08,291,*66
$GNGLL,0419.86769,S,05539.60621,E,064701.00,A,A*6D
$GNRMC,064702.00,A,0419.86764,S,05539.60621,E,0.109,,270525,,,A*75
$GNVTG,,T,,M,0.109,N,0.201,K,A*36
$GNGGA,064702.00,0419.86764,S,05539.60621,E,1,11,0.94,21.6,M,-47.6,M,,*46
$GNGSA,A,3,12,25,23,15,05,18,,,,,,,1.75,0.94,1.47*1D
$GNGSA,A,3,80,68,79,69,83,,,,,,,,1.75,0.94,1.47*1C
$GPGSV,5,1,17,05,33,032,27,10,11,213,21,12,72,110,30,13,13,100,07*7B
$GPGSV,5,2,17,15,42,128,26,18,30,300,17,20,01,032,,23,53,216,22*7A
$GPGSV,5,3,17,24,29,171,06,25,67,337,34,28,07,285,19,29,17,352,27*75
$GPGSV,5,4,17,36,52,277,33,40,86,351,35,41,58,082,,49,32,274,*7A
$GPGSV,5,5,17,50,10,089,*4A
$GLGSV,2,1,08,67,11,056,,68,39,101,19,69,33,166,14,73,22,321,*6F
$GLGSV,2,2,08,79,37,168,29,80,71,268,27,83,11,342,13,84,08,291,*66
$GNGLL,0419.86764,S,05539.60621,E,064702.00,A,A*63
$GNRMC,064703.00,A,0419.86759,S,05539.60612,E,0.252,,270525,,,A*77
$GNVTG,,T,,M,0.252,N,0.466,K,A*3C
$GNGGA,064703.00,0419.86759,S,05539.60612,E,1,11,0.94,21.3,M,-47.6,M,,*4C
$GNGSA,A,3,12,25,23,15,05,18,,,,,,,1.75,0.94,1.47*1D
$GNGSA,A,3,80,68,79,69,83,,,,,,,,1.75,0.94,1.47*1C
$GPGSV,5,1,17,05,33,032,28,10,11,213,21,12,72,110,31,13,13,100,07*75
$GPGSV,5,2,17,15,42,128,27,18,30,300,16,20,01,032,,23,53,216,23*7B
$GPGSV,5,3,17,24,29,171,06,25,67,337,34,28,07,285,18,29,17,352,27*74
$GPGSV,5,4,17,36,52,277,32,40,86,351,36,41,58,082,,49,32,274,*78
$GPGSV,5,5,17,50,10,089,*4A
$GLGSV,2,1,08,67,11,056,,68,39,101,20,69,33,166,16,73,22,321,*67
$GLGSV,2,2,08,79,37,168,29,80,71,268,27,83,11,342,12,84,08,291,*67
$GNGLL,0419.86759,S,05539.60612,E,064703.00,A,A*6C
$GNRMC,064704.00,A,0419.86752,S,05539.60607,E,0.174,,270525,,,A*78
$GNVTG,,T,,M,0.174,N,0.322,K,A*3C
$GNGGA,064704.00,0419.86752,S,05539.60607,E,1,10,0.99,21.2,M,-47.6,M,,*49
$GNGSA,A,3,12,25,23,15,05,18,,,,,,,2.15,0.99,1.91*1E
$GNGSA,A,3,80,68,79,69,,,,,,,,,2.15,0.99,1.91*14
$GPGSV,5,1,17,05,33,032,26,10,11,213,20,12,72,110,30,13,13,100,*7C
$GPGSV,5,2,17,15,42,128,27,18,30,300,16,20,01,032,,23,53,216,22*7A
$GPGSV,5,3,17,24,29,171,06,25,67,337,33,28,07,285,19,29,17,352,26*73
$GPGSV,5,4,17,36,52,277,32,40,86,351,35,41,58,082,,49,32,274,*7B
$GPGSV,5,5,17,50,10,089,*4A
$GLGSV,2,1,08,67,11,056,,68,39,101,20,69,33,166,16,73,22,321,*67
$GLGSV,2,2,08,79,37,168,28,80,71,268,27,83,11,342,12,84,08,291,*66
$GNGLL,0419.86752,S,05539.60607,E,064704.00,A,A*64
$GNRMC,064705.00,A,0419.86745,S,05539.60614,E,0.194,,270525,,,A*73
$GNVTG,,T,,M,0.194,N,0.360,K,A*34
$GNGGA,064705.00,0419.86745,S,05539.60614,E,1,10,0.99,21.6,M,-47.6,M,,*48
$GNGSA,A,3,12,25,23,15,05,18,,,,,,,2.15,0.99,1.91*1E
$GNGSA,A,3,80,68,79,69,,,,,,,,,2.15,0.99,1.91*14
$GPGSV,5,1,17,05,33,032,27,10,11,213,20,12,72,110,31,13,13,100,*7C
$GPGSV,5,2,17,15,42,128,27,18,30,300,17,20,01,032,,23,53,216,23*7A
$GPGSV,5,3,17,24,29,171,06,25,67,337,33,28,07,285,19,29,17,352,26*73
$GPGSV,5,4,17,36,52,277,33,40,86,351,36,41,58,082,,49,32,274,*79
$GPGSV,5,5,17,50,10,089,*4A
$GLGSV,2,1,08,67,11,056,,68,39,101,19,69,33,166,16,73,22,321,*6D
$GLGSV,2,2,08,79,37,168,28,80,71,268,26,83,11,342,12,84,08,291,*67
$GNGLL,0419.86745,S,05539.60614,E,064705.00,A,A*61
$GNRMC,064706.00,A,0419.86737,S,05539.60621,E,0.050,,270525,,,A*7A
$GNVTG,,T,,M,0.050,N,0.093,K,A*32
$GNGGA,064706.00,0419.86737,S,05539.60621,E,1,10,0.99,21.8,M,-47.6,M,,*46
$GNGSA,A,3,12,25,23,15,05,18,,,,,,,2.15,0.99,1.91*1E
$GNGSA,A,3,80,68,79,69,,,,,,,,,2.15,0.99,1.91*14
$GPGSV,5,1,17,05,33,032,27,10,11,213,21,12,72,110,30,13,13,100,*7C
$GPGSV,5,2,17,15,42,128,27,18,30,300,17,20,01,032,,23,53,216,25*7C
$GPGSV,5,3,17,24,29,171,06,25,67,337,33,28,07,285,19,29,17,352,27*72
$GPGSV,5,4,17,36,52,277,33,40,86,351,36,41,58,082,,49,32,274,*79
$GPGSV,5,5,17,50,10,089,*4A
$GLGSV,2,1,08,67,11,056,,68,39,101,19,69,33,166,17,73,22,321,*6C
$GLGSV,2,2,08,79,37,168,28,80,71,268,26,83,11,342,12,84,08,291,*67
$GNGLL,0419.86737,S,05539.60621,E,064706.00,A,A*61
$GNRMC,064707.00,A,0419.86727,S,05539.60628,E,0.096,,270525,,,A*79
$GNVTG,,T,,M,0.096,N,0.178,K,A*3C
$GNGGA,064707.00,0419.86727,S,05539.60628,E,1,11,0.99,22.1,M,-47.6,M,,*44
$GNGSA,A,3,12,25,23,15,05,18,,,,,,,2.15,0.99,1.91*1E
$GNGSA,A,3,80,68,79,69,83,,,,,,,,2.15,0.99,1.91*1F
$GPGSV,5,1,17,05,33,032,27,10,11,213,21,12,72,110,31,13,13,100,*7D
$GPGSV,5,2,17,15,42,128,28,18,30,300,17,20,01,032,,23,53,216,25*73
$GPGSV,5,3,17,24,29,171,,25,67,337,34,28,07,285,19,29,17,352,27*73
$GPGSV,5,4,17,36,52,277,34,40,86,351,37,41,58,082,,49,32,274,*7F
$GPGSV,5,5,17,50,10,089,*4A
$GLGSV,2,1,08,67,11,056,,68,39,101,19,69,33,166,16,73,22,321,*6D
$GLGSV,2,2,08,79,37,168,28,80,71,268,25,83,11,342,15,84,08,291,*63
$GNGLL,0419.86727,S,05539.60628,E,064707.00,A,A*68
$GNRMC,064708.00,A,0419.86717,S,05539.60638,E,0.023,,270525,,,A*7A
$GNVTG,,T,,M,0.023,N,0.042,K,A*3A
$GNGGA,064708.00,0419.86717,S,05539.60638,E,1,11,0.99,22.3,M,-47.6,M,,*4B
$GNGSA,A,3,12,25,23,15,05,18,,,,,,,2.15,0.99,1.91*1E
$GNGSA,A,3,80,68,79,69,83,,,,,,,,2.15,0.99,1.91*1F
$GPGSV,5,1,17,05,33,032,27,10,11,213,21,12,72,110,31,13,13,100,*7D
$GPGSV,5,2,17,15,42,128,27,18,30,300,15,20,01,032,,23,53,216,26*7D
$GPGSV,5,3,17,24,29,171,21,25,67,337,34,28,07,285,18,29,17,352,28*7E
$GPGSV,5,4,17,36,52,277,34,40,86,351,37,41,58,082,,49,32,274,*7F
$GPGSV,5,5,17,50,10,089,*4A
$GLGSV,2,1,08,67,11,056,,68,39,101,19,69,33,166,14,73,22,321,*6F
$GLGSV,2,2,08,79,37,168,28,80,71,268,26,83,11,342,15,84,08,291,*60
$GNGLL,0419.86717,S,05539.60638,E,064708.00,A,A*65
$GNRMC,064709.00,A,0419.86709,S,05539.60642,E,0.118,,270525,,,A*70
$GNVTG,,T,,M,0.118,N,0.219,K,A*3F
$GNGGA,064709.00,0419.86709,S,05539.60642,E,1,11,0.99,22.2,M,-47.6,M,,*49
$GNGSA,A,3,12,25,23,15,05,18,,,,,,,2.15,0.99,1.91*1E
$GNGSA,A,3,80,68,79,69,83,,,,,,,,2.15,0.99,1.91*1F
$GPGSV,5,1,17,05,33,032,27,10,11,213,21,12,72,110,30,13,13,100,*7C
$GPGSV,5,2,17,15,42,128,27,18,30,300,14,20,01,032,,23,53,216,25*7F
$GPGSV,5,3,17,24,29,171,20,25,67,337,33,28,07,285,18,29,17,352,28*78
$GPGSV,5,4,17,36,52,277,34,40,86,351,36,41,58,082,,49,32,274,*7E
$GPGSV,5,5,17,50,10,089,*4A
$GLGSV,2,1,08,67,11,055,,68,39,101,20,69,33,166,12,73,22,321,*60
$GLGSV,2,2,08,79,37,168,28,80,71,268,26,83,11,342,12,84,08,291,*67
$GNGLL,0419.86709,S,05539.60642,E,064709.00,A,A*66
$GNRMC,064710.00,A,0419.86703,S,05539.60643,E,0.093,,270525,,,A*71
$GNVTG,,T,,M,0.093,N,0.172,K,A*33
$GNGGA,064710.00,0419.86703,S,05539.60643,E,1,11,0.99,22.2,M,-47.6,M,,*4A
$GNGSA,A,3,12,25,23,15,05,18,,,,,,,2.15,0.99,1.91*1E
$GNGSA,A,3,80,68,79,69,83,,,,,,,,2.15,0.99,1.91*1F
$GPGSV,5,1,17,05,33,032,27,10,11,213,21,12,72,110,30,13,13,100,*7C
$GPGSV,5,2,17,15,42,128,26,18,30,300,13,20,01,032,,23,53,216,24*78
$GPGSV,5,3,17,24,29,171,19,25,67,337,34,28,07,285,16,29,17,352,28*7B
$GPGSV,5,4,17,36,52,277,33,40,86,351,36,41,58,082,,49,32,274,*79
$GPGSV,5,5,17,50,10,089,*4A
$GLGSV,2,1,08,67,11,055,,68,39,100,19,69,33,166,10,73,22,321,*69
$GLGSV,2,2,08,79,37,168,28,80,71,268,26,83,11,342,12,84,08,291,*67
$GNGLL,0419.86703,S,05539.60643,E,064710.00,A,A*65
$GNRMC,064711.00,A,0419.86700,S,05539.60645,E,0.070,,270525,,,A*78
$GNVTG,,T,,M,0.070,N,0.130,K,A*38
$GNGGA,064711.00,0419.86700,S,05539.60645,E,1,11,0.97,22.3,M,-47.6,M,,*41
$GNGSA,A,3,12,25,23,15,05,18,24,,,,,,2.06,0.97,1.82*16
$GNGSA,A,3,80,68,79,83,,,,,,,,,2.06,0.97,1.82*1E
$GPGSV,5,1,17,05,33,032,28,10,11,213,22,12,72,110,31,13,13,100,*71
$GPGSV,5,2,17,15,42,128,26,18,30,300,14,20,01,032,,23,53,216,24*7F
$GPGSV,5,3,17,24,29,171,19,25,67,337,34,28,07,285,15,29,17,352,28*78
$GPGSV,5,4,17,36,52,277,34,40,86,351,37,41,58,082,,49,32,274,*7F
$GPGSV,5,5,17,50,10,089,*4A
$GLGSV,2,1,08,67,11,055,,68,39,100,17,69,34,165,10,73,22,321,*63
$GLGSV,2,2,08,79,37,168,28,80,71,268,25,83,11,342,13,84,08,291,*65
$GNGLL,0419.86700,S,05539.60645,E,064711.00,A,A*61
$GNRMC,064712.00,A,0419.86701,S,05539.60648,E,0.074,,270525,,,A*73
$GNVTG,,T,,M,0.074,N,0.137,K,A*3B
$GNGGA,064712.00,0419.86701,S,05539.60648,E,1,11,1.04,22.5,M,-47.6,M,,*43
$GNGSA,A,3,12,25,23,15,05,18,24,,,,,,2.12,1.04,1.85*1F
$GNGSA,A,3,80,68,79,83,,,,,,,,,2.12,1.04,1.85*17
$GPGSV,5,1,17,05,33,032,28,10,11,213,22,12,72,110,31,13,13,100,*71
$GPGSV,5,2,17,15,42,128,26,18,30,300,15,20,01,032,14,23,53,216,23*7C
$GPGSV,5,3,17,24,29,171,19,25,67,337,34,28,07,285,14,29,17,352,29*78
$GPGSV,5,4,17,36,52,277,34,40,86,351,37,41,58,082,,49,32,274,*7F
$GPGSV,5,5,17,50,10,089,*4A
$GLGSV,2,1,08,67,11,055,,68,39,100,18,69,34,165,09,73,22,321,*64
$GLGSV,2,2,08,79,37,168,28,80,71,268,25,83,11,342,13,84,08,291,*65
$GNGLL,0419.86701,S,05539.60648,E,064712.00,A,A*6E
$GNRMC,064713.00,A,0419.86701,S,05539.60644,E,0.187,,270525,,,A*73
$GNVTG,,T,,M,0.187,N,0.346,K,A*32
$GNGGA,064713.00,0419.86701,S,05539.60644,E,1,12,1.01,22.5,M,-47.6,M,,*48
$GNGSA,A,3,12,25,23,15,05,18,24,,,,,,2.08,1.01,1.82*16
$GNGSA,A,3,80,68,79,69,83,,,,,,,,2.08,1.01,1.82*11
$GPGSV,5,1,17,05,33,032,28,10,11,213,23,12,72,110,32,13,13,100,*73
$GPGSV,5,2,17,15,42,128,26,18,30,300,16,20,01,032,11,23,53,216,22*7B
$GPGSV,5,3,17,24,29,171,19,25,67,337,34,28,07,285,12,29,17,352,30*76
$GPGSV,5,4,17,36,52,277,34,40,86,351,37,41,58,082,,49,32,274,*7F
$GPGSV,5,5,17,50,10,089,*4A
$GLGSV,2,1,08,67,11,055,,68,39,100,18,69,34,165,16,73,22,321,*6A
$GLGSV,2,2,08,79,37,168,28,80,71,268,25,83,11,342,13,84,08,291,*65
$GNGLL,0419.86701,S,05539.60644,E,064713.00,A,A*63
$GNRMC,064714.00,A,0419.86700,S,05539.60638,E,0.160,,270525,,,A*77
$GNVTG,,T,,M,0.160,N,0.296,K,A*37
$GNGGA,064714.00,0419.86700,S,05539.60638,E,1,12,0.95,22.3,M,-47.6,M,,*4F
$GNGSA,A,3,12,25,23,15,05,18,24,,,,,,2.02,0.95,1.78*15
$GNGSA,A,3,80,68,79,69,83,,,,,,,,2.02,0.95,1.78*12
$GPGSV,5,1,17,05,33,032,27,10,11,213,23,12,72,110,31,13,13,100,*7F
$GPGSV,5,2,17,15,42,128,26,18,30,300,15,20,01,032,11,23,53,216,21*7B
$GPGSV,5,3,17,24,29,171,19,25,67,337,33,28,07,285,13,29,17,352,30*70
$GPGSV,5,4,17,36,52,277,34,40,86,351,38,41,58,082,,49,32,274,*70
$GPGSV,5,5,17,50,10,089,*4A
$GLGSV,2,1,08,67,11,055,,68,39,100,18,69,34,165,16,73,22,321,*6A
$GLGSV,2,2,08,79,37,168,28,80,71,268,25,83,11,342,13,84,08,291,*65
$GNGLL,0419.86700,S,05539.60638,E,064714.00,A,A*6E
$GNRMC,064715.00,A,0419.86693,S,05539.60627,E,0.622,,270525,,,A*72
$GNVTG,,T,,M,0.622,N,1.151,K,A*3F
$GNGGA,064715.00,0419.86693,S,05539.60627,E,1,12,0.95,22.2,M,-47.6,M,,*4A
$GNGSA,A,3,12,25,23,15,05,18,24,,,,,,2.02,0.95,1.78*15
$GNGSA,A,3,80,68,79,69,83,,,,,,,,2.02,0.95,1.78*12
$GPGSV,5,1,17,05,33,032,27,10,11,213,23,12,72,110,29,13,13,100,*76
$GPGSV,5,2,17,15,42,128,26,18,30,300,13,20,01,032,11,23,53,216,22*7E
$GPGSV,5,3,17,24,29,171,19,25,67,337,34,28,07,285,17,29,17,352,31*72
$GPGSV,5,4,17,36,52,277,34,40,86,351,37,41,58,082,,49,32,274,*7F
$GPGSV,5,5,17,50,10,089,*4A
$GLGSV,2,1,08,67,11,055,,68,39,100,18,69,34,165,12,73,22,320,*6F
$GLGSV,2,2,08,79,37,168,27,80,71,268,24,83,11,342,17,84,08,291,*6F
$GNGLL,0419.86693,S,05539.60627,E,064715.00,A,A*6A
$GNRMC,064716.00,A,0419.86686,S,05539.60629,E,0.189,,270525,,,A*7D
$GNVTG,,T,,M,0.189,N,0.350,K,A*3B
$GNGGA,064716.00,0419.86686,S,05539.60629,E,1,11,1.01,22.4,M,-47.6,M,,*4A
$GNGSA,A,3,12,25,23,15,05,24,,,,,,,1.73,1.01,1.40*1E
$GNGSA,A,3,80,68,79,69,83,,,,,,,,1.73,1.01,1.40*10
$GPGSV,5,1,17,05,33,032,27,10,11,213,23,12,72,110,29,13,13,100,*76
$GPGSV,5,2,17,15,42,128,27,18,30,300,,20,01,032,,23,53,216,21*7E
$GPGSV,5,3,17,24,29,171,20,25,67,337,33,28,07,285,17,29,17,352,31*7F
$GPGSV,5,4,17,36,52,277,34,40,86,351,37,41,58,082,,49,32,274,*7F
$GPGSV,5,5,17,50,10,089,*4A
$GLGSV,2,1,08,67,11,055,,68,39,100,18,69,34,165,12,73,22,320,*6F
$GLGSV,2,2,08,79,37,168,27,80,71,268,25,83,11,342,17,84,08,291,*6E
$GNGLL,0419.86686,S,05539.60629,E,064716.00,A,A*63
$GNRMC,064717.00,A,0419.86684,S,05539.60621,E,0.458,,270525,,,A*7F
$GNVTG,,T,,M,0.458,N,0.848,K,A*30
$GNGGA,064717.00,0419.86684,S,05539.60621,E,1,11,1.31,22.4,M,-47.6,M,,*42
$GNGSA,A,3,12,25,23,15,05,24,,,,,,,2.77,1.31,2.44*1D
$GNGSA,A,3,80,68,79,69,83,,,,,,,,2.77,1.31,2.44*13
$GPGSV,5,1,17,05,33,032,26,10,11,213,22,12,72,110,29,13,13,100,*76
$GPGSV,5,2,17,15,42,128,27,18,30,300,,20,01,032,,23,53,216,19*75
$GPGSV,5,3,17,24,29,171,21,25,67,337,33,28,07,285,16,29,17,352,31*7F
$GPGSV,5,4,17,36,52,277,34,40,86,351,38,41,58,082,,49,32,274,*70
$GPGSV,5,5,17,50,10,089,*4A
$GLGSV,2,1,08,67,11,055,,68,39,100,18,69,34,165,12,73,22,320,*6F
