$GNRMC,065002.00,A,0419.86311,S,05539.60999,E,0.169,,270525,,,A*7F
$GNVTG,,T,,M,0.169,N,0.312,K,A*33
$GNGGA,065002.00,0419.86311,S,05539.60999,E,1,12,0.99,15.1,M,-47.6,M,,*44
$GNGSA,A,3,12,25,23,15,05,24,29,,,,,,1.65,0.99,1.32*17
$GNGSA,A,3,80,68,79,69,83,,,,,,,,1.65,0.99,1.32*12
$GPGSV,5,1,17,05,32,031,12,10,12,213,26,12,71,114,31,13,13,098,*7A
$GPGSV,5,2,17,15,42,126,25,18,30,301,,20,00,033,,23,54,217,23*77
$GPGSV,5,3,17,24,28,170,20,25,68,336,24,28,07,284,18,29,17,353,28*70
$GPGSV,5,4,17,36,52,277,,40,86,351,,41,58,082,,49,32,274,*7C
$GPGSV,5,5,17,50,10,089,*4A
$GLGSV,2,1,08,67,10,054,,68,39,098,23,69,35,164,23,73,23,319,22*6E
$GLGSV,2,2,08,79,35,168,09,80,71,261,31,83,10,344,10,84,07,293,*61
$GNGLL,0419.86311,S,05539.60999,E,065002.00,A,A*6F
$GNRMC,065003.00,A,0419.86301,S,05539.61000,E,0.035,,270525,,,A*7F
$GNVTG,,T,,M,0.035,N,0.066,K,A*3B
$GNGGA,065003.00,0419.86301,S,05539.61000,E,1,12,0.99,15.2,M,-47.6,M,,*4F
$GNGSA,A,3,12,25,23,15,05,24,29,,,,,,1.65,0.99,1.32*17
$GNGSA,A,3,80,68,79,69,83,,,,,,,,1.65,0.99,1.32*12
$GPGSV,5,1,17,05,32,031,15,10,12,213,24,12,71,114,27,13,13,098,*78
$GPGSV,5,2,17,15,42,126,23,18,30,301,,20,00,033,,23,54,217,21*73
$GPGSV,5,3,17,24,28,170,19,25,68,336,21,28,07,284,18,29,17,353,26*71
$GPGSV,5,4,17,36,52,277,,40,86,351,,41,58,082,,49,32,274,*7C
$GPGSV,5,5,17,50,10,089,*4A
$GLGSV,2,1,08,67,10,054,,68,39,098,22,69,35,164,22,73,23,319,21*6D
$GLGSV,2,2,08,79,35,168,11,80,71,261,25,83,10,344,12,84,07,293,*6F
$GNGLL,0419.86301,S,05539.61000,E,065003.00,A,A*67
$GNRMC,065004.00,A,0419.86317,S,05539.61010,E,0.786,,270525,,,A*71
$GNVTG,,T,,M,0.786,N,1.455,K,A*31
$GNGGA,065004.00,0419.86317,S,05539.61010,E,1,12,0.99,14.5,M,-47.6,M,,*48
$GNGSA,A,3,12,25,23,15,05,24,29,,,,,,1.65,0.99,1.32*17
$GNGSA,A,3,80,68,79,69,83,,,,,,,,1.65,0.99,1.32*12
$GPGSV,5,1,17,05,32,031,15,10,12,213,24,12,71,114,30,13,13,098,*7E
$GPGSV,5,2,17,15,42,126,21,18,30,301,14,20,00,033,,23,54,217,22*77
$GPGSV,5,3,17,24,28,170,19,25,68,336,23,28,07,284,18,29,17,353,26*73
$GPGSV,5,4,17,36,52,277,,40,86,351,,41,58,082,,49,32,274,*7C
$GPGSV,5,5,17,50,10,089,*4A
$GLGSV,2,1,08,67,10,054,,68,39,098,21,69,35,164,22,73,23,319,22*6D
$GLGSV,2,2,08,79,35,168,12,80,71,261,33,83,10,344,13,84,07,293,*6A
$GNGLL,0419.86317,S,05539.61010,E,065004.00,A,A*66
$GNRMC,065005.00,A,0419.86299,S,05539.61025,E,0.091,,270525,,,A*70
$GNVTG,,T,,M,0.091,N,0.168,K,A*3A
$GNGGA,065005.00,0419.86299,S,05539.61025,E,1,12,0.99,14.4,M,-47.6,M,,*49
$GNGSA,A,3,12,25,23,15,05,24,29,,,,,,1.65,0.99,1.32*17
$GNGSA,A,3,80,68,79,69,83,,,,,,,,1.65,0.99,1.32*12
$GPGSV,5,1,17,05,31,031,15,10,12,213,24,12,71,114,31,13,13,098,*7C
$GPGSV,5,2,17,15,42,126,18,18,30,301,18,20,00,033,,23,54,217,23*70
$GPGSV,5,3,17,24,28,170,19,25,68,336,24,28,07,284,17,29,17,353,27*7A
$GPGSV,5,4,17,36,52,277,,40,86,351,,41,58,082,,49,32,274,*7C
$GPGSV,5,5,17,50,10,089,*4A
$GLGSV,2,1,08,67,10,054,,68,39,098,20,69,35,164,25,73,23,319,24*6D
$GLGSV,2,2,08,79,35,168,15,80,71,261,34,83,10,344,15,84,07,293,*6C
$GNGLL,0419.86299,S,05539.61025,E,065005.00,A,A*66
$GNRMC,065006.00,A,0419.86290,S,05539.61040,E,0.242,,270525,,,A*75
$GNVTG,,T,,M,0.242,N,0.449,K,A*30
$GNGGA,065006.00,0419.86290,S,05539.61040,E,1,12,0.99,14.0,M,-47.6,M,,*44
$GNGSA,A,3,12,25,23,15,05,24,29,,,,,,1.65,0.99,1.32*17
$GNGSA,A,3,80,68,79,69,83,,,,,,,,1.65,0.99,1.32*12
$GPGSV,5,1,17,05,31,031,12,10,12,213,24,12,71,114,31,13,13,098,*7B
$GPGSV,5,2,17,15,42,126,16,18,30,301,20,20,00,033,,23,54,217,24*72
$GPGSV,5,3,17,24,28,170,19,25,68,336,24,28,07,284,16,29,17,353,27*7B
$GPGSV,5,4,17,36,52,277,,40,86,351,,41,58,082,,49,32,274,*7C
$GPGSV,5,5,17,50,10,089,*4A
$GLGSV,2,1,08,67,10,054,,68,39,098,20,69,35,164,26,73,23,319,26*6C
$GLGSV,2,2,08,79,35,168,17,80,71,261,35,83,10,344,17,84,07,293,*6D
$GNGLL,0419.86290,S,05539.61040,E,065006.00,A,A*6F
$GNRMC,065007.00,A,0419.86279,S,05539.61069,E,0.623,,270525,,,A*7B
$GNVTG,,T,,M,0.623,N,1.154,K,A*3B
$GNGGA,065007.00,0419.86279,S,05539.61069,E,1,12,0.88,13.9,M,-47.6,M,,*47
$GNGSA,A,3,12,25,23,15,05,18,24,29,,,,,1.57,0.88,1.30*1D
$GNGSA,A,3,80,68,79,69,83,,,,,,,,1.57,0.88,1.30*11
$GPGSV,5,1,17,05,31,031,11,10,12,213,24,12,71,114,26,13,13,098,*7E
$GPGSV,5,2,17,15,42,126,13,18,30,301,20,20,00,033,,23,54,217,23*70
$GPGSV,5,3,17,24,28,170,18,25,68,336,25,28,07,284,15,29,17,353,27*78
$GPGSV,5,4,17,36,52,277,,40,86,351,,41,58,082,,49,32,274,*7C
$GPGSV,5,5,17,50,10,089,*4A
$GLGSV,2,1,08,67,10,054,,68,39,098,18,69,35,164,26,73,23,319,26*67
$GLGSV,2,2,08,79,35,168,15,80,71,261,35,83,10,344,17,84,07,293,*6F
$GNGLL,0419.86279,S,05539.61069,E,065007.00,A,A*62
$GNRMC,065008.00,A,0419.86266,S,05539.61075,E,0.061,,270525,,,A*77
$GNVTG,,T,,M,0.061,N,0.112,K,A*38
$GNGGA,065008.00,0419.86266,S,05539.61075,E,1,12,0.88,14.2,M,-47.6,M,,*47
$GNGSA,A,3,12,25,23,15,05,18,24,29,,,,,1.57,0.88,1.30*1D
$GNGSA,A,3,80,68,79,69,83,,,,,,,,1.57,0.88,1.30*11
$GPGSV,5,1,17,05,31,031,11,10,12,213,25,12,71,114,31,13,13,098,*79
$GPGSV,5,2,17,15,42,126,15,18,30,301,20,20,00,033,,23,54,217,23*76
$GPGSV,5,3,17,24,28,170,18,25,68,336,25,28,07,284,16,29,17,353,28*74
$GPGSV,5,4,17,36,52,277,,40,86,351,,41,58,082,,49,32,274,*7C
$GPGSV,5,5,17,50,10,089,*4A
$GLGSV,2,1,08,67,10,054,,68,39,098,20,69,35,164,26,73,23,319,26*6C
$GLGSV,2,2,08,79,35,168,18,80,71,261,35,83,10,344,15,84,07,293,*60
$GNGLL,0419.86266,S,05539.61075,E,065008.00,A,A*6E
$GNRMC,065009.00,A,0419.86247,S,05539.61077,E,0.070,,270525,,,A*77
$GNVTG,,T,,M,0.070,N,0.129,K,A*30
$GNGGA,065009.00,0419.86247,S,05539.61077,E,1,12,0.88,14.4,M,-47.6,M,,*41
$GNGSA,A,3,12,25,23,15,05,18,24,29,,,,,1.57,0.88,1.30*1D
$GNGSA,A,3,80,68,79,69,83,,,,,,,,1.57,0.88,1.30*11
$GPGSV,5,1,17,05,31,031,11,10,12,213,25,12,71,114,35,13,13,098,*7D
$GPGSV,5,2,17,15,42,126,20,18,30,301,21,20,00,033,,23,54,217,21*73
$GPGSV,5,3,17,24,28,170,19,25,68,336,25,28,07,284,18,29,17,353,29*7A
$GPGSV,5,4,17,36,52,277,,40,86,351,,41,58,082,,49,32,274,*7C
$GPGSV,5,5,17,50,10,089,*4A
$GLGSV,2,1,08,67,10,054,,68,39,098,24,69,35,164,27,73,23,319,26*69
$GLGSV,2,2,08,79,35,168,20,80,71,261,34,83,10,344,14,84,07,293,*6B
$GNGLL,0419.86247,S,05539.61077,E,065009.00,A,A*6E
$GNRMC,065010.00,A,0419.86225,S,05539.61074,E,0.024,,270525,,,A*79
$GNVTG,,T,,M,0.024,N,0.044,K,A*3B
$GNGGA,065010.00,0419.86225,S,05539.61074,E,1,12,0.98,14.7,M,-47.6,M,,*4C
$GNGSA,A,3,12,25,23,15,18,24,29,,,,,,1.63,0.98,1.30*1E
$GNGSA,A,3,80,68,79,69,83,,,,,,,,1.63,0.98,1.30*17
$GPGSV,5,1,17,05,31,031,10,10,13,214,25,12,71,114,34,13,13,098,*7B
$GPGSV,5,2,17,15,42,126,23,18,30,301,22,20,00,033,,23,54,217,20*72
$GPGSV,5,3,17,24,28,170,20,25,68,336,25,28,07,284,19,29,17,353,30*79
$GPGSV,5,4,17,36,52,277,,40,86,351,,41,58,082,,49,32,274,*7C
$GPGSV,5,5,17,50,10,089,*4A
$GLGSV,2,1,08,67,10,054,,68,39,098,26,69,35,164,28,73,23,319,26*64
$GLGSV,2,2,08,79,35,168,21,80,71,261,34,83,10,344,14,84,07,293,*6A
$GNGLL,0419.86225,S,05539.61074,E,065010.00,A,A*61
$GNRMC,065011.00,A,0419.86213,S,05539.61062,E,0.156,,270525,,,A*7E
$GNVTG,,T,,M,0.156,N,0.288,K,A*3D
$GNGGA,065011.00,0419.86213,S,05539.61062,E,1,12,0.98,14.7,M,-47.6,M,,*4F
$GNGSA,A,3,12,25,23,15,05,18,24,29,,,,,1.63,0.98,1.30*1B
$GNGSA,A,3,80,68,79,69,83,,,,,,,,1.63,0.98,1.30*17
$GPGSV,5,1,17,05,31,031,12,10,13,214,25,12,71,114,34,13,13,098,*79
$GPGSV,5,2,17,15,42,126,25,18,30,301,22,20,00,033,,23,54,217,19*7E
$GPGSV,5,3,17,24,28,170,21,25,68,336,25,28,07,284,20,29,17,353,30*72
$GPGSV,5,4,17,36,52,277,,40,86,351,,41,58,082,,49,32,274,*7C
$GPGSV,5,5,17,50,10,089,*4A
$GLGSV,2,1,08,67,10,054,,68,39,098,27,69,35,164,28,73,23,319,26*65
$GLGSV,2,2,08,79,35,168,21,80,71,261,34,83,10,344,16,84,07,293,*68
$GNGLL,0419.86213,S,05539.61062,E,065011.00,A,A*62
$GNRMC,065012.00,A,0419.86195,S,05539.61049,E,0.111,,270525,,,A*7A
$GNVTG,,T,,M,0.111,N,0.206,K,A*38
$GNGGA,065012.00,0419.86195,S,05539.61049,E,1,12,0.98,14.7,M,-47.6,M,,*48
$GNGSA,A,3,12,25,23,15,05,18,24,29,,,,,1.63,0.98,1.30*1B
$GNGSA,A,3,80,68,79,69,83,,,,,,,,1.63,0.98,1.30*17
$GPGSV,5,1,17,05,31,031,15,10,13,214,26,12,71,116,34,13,13,098,*7F
$GPGSV,5,2,17,15,42,126,25,18,30,301,21,20,00,033,,23,54,217,20*77
$GPGSV,5,3,17,24,28,170,21,25,68,336,26,28,07,284,20,29,17,353,30*71
$GPGSV,5,4,17,36,52,277,,40,86,351,,41,58,082,,49,32,274,*7C
$GPGSV,5,5,17,50,10,089,*4A
$GLGSV,2,1,08,67,10,054,,68,39,098,26,69,35,164,29,73,23,319,26*65
$GLGSV,2,2,08,79,35,168,20,80,71,261,34,83,10,344,17,84,07,293,*68
$GNGLL,0419.86195,S,05539.61049,E,065012.00,A,A*65
$GNRMC,065013.00,A,0419.86184,S,05539.61039,E,0.217,,270525,,,A*79
$GNVTG,,T,,M,0.217,N,0.403,K,A*3E
$GNGGA,065013.00,0419.86184,S,05539.61039,E,1,12,0.98,14.8,M,-47.6,M,,*41
$GNGSA,A,3,12,25,23,15,05,18,24,29,,,,,1.63,0.98,1.30*1B
$GNGSA,A,3,80,68,79,69,83,,,,,,,,1.63,0.98,1.30*17
$GPGSV,5,1,17,05,31,031,12,10,13,214,26,12,71,116,33,13,13,098,*7F
$GPGSV,5,2,17,15,42,126,23,18,30,301,22,20,00,033,,23,54,217,21*73
$GPGSV,5,3,17,24,28,170,22,25,68,336,26,28,07,284,19,29,17,353,30*78
$GPGSV,5,4,17,36,52,277,,40,86,351,,41,58,082,,49,32,274,*7C
$GPGSV,5,5,17,50,10,089,*4A
$GLGSV,2,1,08,67,10,054,,68,39,098,26,69,35,164,29,73,23,319,26*65
$GLGSV,2,2,08,79,35,168,18,80,71,261,34,83,10,344,18,84,07,293,*6C
$GNGLL,0419.86184,S,05539.61039,E,065013.00,A,A*63
$GNRMC,065014.00,A,0419.86168,S,05539.61030,E,0.074,,270525,,,A*72
$GNVTG,,T,,M,0.074,N,0.138,K,A*34
$GNGGA,065014.00,0419.86168,S,05539.61030,E,1,12,0.98,14.7,M,-47.6,M,,*42
$GNGSA,A,3,12,25,23,15,05,18,24,29,,,,,1.63,0.98,1.30*1B
$GNGSA,A,3,80,68,79,69,83,,,,,,,,1.63,0.98,1.30*17
$GPGSV,5,1,17,05,31,031,10,10,13,214,26,12,71,116,32,13,13,098,*7C
$GPGSV,5,2,17,15,42,126,21,18,30,301,22,20,00,033,,23,54,217,21*71
$GPGSV,5,3,17,24,28,170,22,25,68,336,25,28,07,284,20,29,17,353,30*71
$GPGSV,5,4,17,36,52,277,,40,86,351,,41,58,082,,49,32,274,*7C
$GPGSV,5,5,17,50,10,089,*4A
$GLGSV,2,1,08,67,10,054,,68,39,098,26,69,35,164,29,73,23,319,26*65
$GLGSV,2,2,08,79,35,168,18,80,71,261,34,83,10,344,18,84,07,293,*6C
$GNGLL,0419.86168,S,05539.61030,E,065014.00,A,A*6F
$GNRMC,065015.00,A,0419.86153,S,05539.61028,E,0.111,,270525,,,A*70
$GNVTG,,T,,M,0.111,N,0.206,K,A*38
$GNGGA,065015.00,0419.86153,S,05539.61028,E,1,12,0.98,15.0,M,-47.6,M,,*44
$GNGSA,A,3,12,25,23,15,18,24,29,,,,,,1.63,0.98,1.30*1E
$GNGSA,A,3,80,68,79,69,83,,,,,,,,1.63,0.98,1.30*17
$GPGSV,5,1,17,05,31,031,08,10,13,214,26,12,71,116,31,13,13,098,*76
$GPGSV,5,2,17,15,42,125,17,18,30,301,23,20,00,033,,23,54,217,21*76
$GPGSV,5,3,17,24,28,170,21,25,68,336,25,28,07,284,20,29,17,353,30*72
$GPGSV,5,4,17,36,52,277,,40,86,351,,41,58,082,,49,32,274,*7C
$GPGSV,5,5,17,50,10,089,*4A
$GLGSV,2,1,08,67,10,054,,68,39,098,25,69,35,164,29,73,23,319,27*67
$GLGSV,2,2,08,79,35,168,16,80,71,261,34,83,10,344,17,84,07,293,*6D
$GNGLL,0419.86153,S,05539.61028,E,065015.00,A,A*6F
$GNRMC,065016.00,A,0419.86144,S,05539.61026,E,0.045,,270525,,,A*7B
$GNVTG,,T,,M,0.045,N,0.083,K,A*37
$GNGGA,065016.00,0419.86144,S,05539.61026,E,1,12,0.98,15.1,M,-47.6,M,,*4E
$GNGSA,A,3,12,25,23,15,05,18,24,29,,,,,1.63,0.98,1.30*1B
$GNGSA,A,3,80,68,79,69,83,,,,,,,,1.63,0.98,1.30*17
$GPGSV,5,1,17,05,31,031,07,10,13,214,26,12,71,116,31,13,13,098,*79
$GPGSV,5,2,17,15,42,125,18,18,30,301,23,20,00,033,,23,54,217,20*78
$GPGSV,5,3,17,24,28,170,21,25,68,336,24,28,07,284,20,29,17,353,31*72
$GPGSV,5,4,17,36,52,277,,40,86,351,,41,58,082,,49,32,274,*7C
$GPGSV,5,5,17,50,10,089,*4A
$GLGSV,2,1,08,67,10,054,,68,39,098,25,69,35,164,28,73,23,319,27*66
$GLGSV,2,2,08,79,35,168,16,80,71,261,35,83,10,344,16,84,07,293,*6D
$GNGLL,0419.86144,S,05539.61026,E,065016.00,A,A*64
$GNRMC,065017.00,A,0419.86131,S,05539.61026,E,0.180,,270525,,,A*70
$GNVTG,,T,,M,0.180,N,0.334,K,A*30
$GNGGA,065017.00,0419.86131,S,05539.61026,E,1,12,0.88,15.1,M,-47.6,M,,*4C
$GNGSA,A,3,12,25,23,15,05,18,24,29,,,,,1.57,0.88,1.30*1D
$GNGSA,A,3,80,68,79,69,83,,,,,,,,1.57,0.88,1.30*11
$GPGSV,5,1,17,05,31,031,09,10,13,214,26,12,71,116,32,13,13,098,*74
$GPGSV,5,2,17,15,42,125,20,18,30,301,22,20,00,033,,23,54,217,20*72
$GPGSV,5,3,17,24,28,170,21,25,68,336,23,28,07,284,21,29,17,353,29*7D
$GPGSV,5,4,17,36,52,277,,40,86,351,,41,58,082,,49,32,274,*7C
$GPGSV,5,5,17,50,10,089,*4A
$GLGSV,2,1,08,67,10,054,,68,39,098,26,69,35,164,28,73,23,319,27*65
$GLGSV,2,2,08,79,35,168,19,80,71,261,35,83,10,344,17,84,07,293,*63
$GNGLL,0419.86131,S,05539.61026,E,065017.00,A,A*67
$GNRMC,065018.00,A,0419.86126,S,05539.61020,E,0.133,,270525,,,A*77
$GNVTG,,T,,M,0.133,N,0.246,K,A*3C
$GNGGA,065018.00,0419.86126,S,05539.61020,E,1,12,0.88,15.2,M,-47.6,M,,*40
$GNGSA,A,3,12,25,23,15,05,18,24,29,,,,,1.57,0.88,1.30*1D
$GNGSA,A,3,80,68,79,69,83,,,,,,,,1.57,0.88,1.30*11
$GPGSV,5,1,17,05,31,031,10,10,13,214,27,12,71,116,31,13,13,098,*7E
$GPGSV,5,2,17,15,42,125,19,18,30,302,23,20,00,033,,23,54,217,21*7B
$GPGSV,5,3,17,24,28,170,22,25,68,336,24,28,07,284,20,29,17,353,29*78
$GPGSV,5,4,17,36,52,277,,40,86,351,,41,58,082,,49,32,274,*7C
$GPGSV,5,5,17,50,10,089,*4A
$GLGSV,2,1,08,67,10,054,,68,39,098,26,69,35,164,28,73,23,319,27*65
$GLGSV,2,2,08,79,35,168,20,80,71,261,34,83,10,344,16,84,07,293,*69
$GNGLL,0419.86126,S,05539.61020,E,065018.00,A,A*68
$GNRMC,065019.00,A,0419.86116,S,05539.61021,E,0.022,,270525,,,A*75
$GNVTG,,T,,M,0.022,N,0.041,K,A*38
$GNGGA,065019.00,0419.86116,S,05539.61021,E,1,12,0.88,15.5,M,-47.6,M,,*44
$GNGSA,A,3,12,25,23,15,05,18,24,29,,,,,1.57,0.88,1.30*1D
$GNGSA,A,3,80,68,79,69,83,,,,,,,,1.57,0.88,1.30*11
$GPGSV,5,1,17,05,31,031,09,10,13,214,26,12,71,116,31,13,13,098,*77
$GPGSV,5,2,17,15,42,125,20,18,30,302,23,20,00,033,,23,54,217,21*71
$GPGSV,5,3,17,24,28,170,22,25,68,336,24,28,07,284,20,29,17,353,29*78
$GPGSV,5,4,17,36,52,277,,40,86,351,,41,58,082,,49,32,274,*7C
$GPGSV,5,5,17,50,10,089,*4A
$GLGSV,2,1,08,67,10,054,,68,39,098,26,69,35,164,28,73,23,319,27*65
$GLGSV,2,2,08,79,35,168,20,80,71,261,34,83,10,344,16,84,07,293,*69
$GNGLL,0419.86116,S,05539.61021,E,065019.00,A,A*6B
$GNRMC,065020.00,A,0419.86110,S,05539.61023,E,0.054,,270525,,,A*7A
$GNVTG,,T,,M,0.054,N,0.101,K,A*3C
$GNGGA,065020.00,0419.86110,S,05539.61023,E,1,12,0.88,15.6,M,-47.6,M,,*49
$GNGSA,A,3,12,25,23,15,05,18,24,29,,,,,1.57,0.88,1.30*1D
$GNGSA,A,3,80,68,79,69,83,,,,,,,,1.57,0.88,1.30*11
$GPGSV,5,1,17,05,31,031,08,10,13,214,26,12,71,116,32,13,13,098,*75
$GPGSV,5,2,17,15,42,125,19,18,30,302,23,20,00,033,,23,54,217,22*78
$GPGSV,5,3,17,24,28,170,22,25,68,336,24,28,07,284,18,29,17,353,29*73
$GPGSV,5,4,17,36,52,277,,40,86,351,,41,58,082,,49,32,274,*7C
$GPGSV,5,5,17,50,10,089,*4A
$GLGSV,2,1,08,67,10,054,,68,39,098,26,69,35,164,28,73,23,319,28*6A
$GLGSV,2,2,08,79,35,168,20,80,71,261,35,83,10,344,17,84,07,293,*69
$GNGLL,0419.86110,S,05539.61023,E,065020.00,A,A*65
$GNRMC,065021.00,A,0419.86100,S,05539.61020,E,0.173,,270525,,,A*7D
$GNVTG,,T,,M,0.173,N,0.320,K,A*39
$GNGGA,065021.00,0419.86100,S,05539.61020,E,1,12,0.88,15.4,M,-47.6,M,,*48
$GNGSA,A,3,12,25,23,15,05,18,24,29,,,,,1.57,0.88,1.30*1D
$GNGSA,A,3,80,68,79,69,83,,,,,,,,1.57,0.88,1.30*11
$GPGSV,5,1,17,05,31,031,12,10,13,214,26,12,71,116,32,13,13,098,*7E
$GPGSV,5,2,17,15,42,125,20,18,30,302,24,20,00,033,,23,54,217,22*75
$GPGSV,5,3,17,24,28,170,23,25,68,336,24,28,07,284,18,29,17,353,28*73
$GPGSV,5,4,17,36,52,277,32,40,86,351,,41,58,082,,49,32,274,*7D
$GPGSV,5,5,17,50,10,089,*4A
$GLGSV,2,1,08,67,10,054,,68,39,098,25,69,35,164,28,73,23,319,27*66
$GLGSV,2,2,08,79,35,168,19,80,71,261,35,83,10,344,17,84,07,293,*63
$GNGLL,0419.86100,S,05539.61020,E,065021.00,A,A*66
$GNRMC,065022.00,A,0419.86090,S,05539.61019,E,0.032,,270525,,,A*78
$GNVTG,,T,,M,0.032,N,0.058,K,A*31
$GNGGA,065022.00,0419.86090,S,05539.61019,E,1,12,0.88,15.4,M,-47.6,M,,*49
$GNGSA,A,3,12,25,23,15,05,18,24,29,,,,,1.57,0.88,1.30*1D
$GNGSA,A,3,80,68,79,69,83,,,,,,,,1.57,0.88,1.30*11
$GPGSV,5,1,17,05,31,031,12,10,13,214,26,12,71,116,32,13,13,098,*7E
$GPGSV,5,2,17,15,42,125,21,18,30,302,24,20,00,033,,23,55,217,22*75
$GPGSV,5,3,17,24,28,170,23,25,68,336,25,28,07,284,18,29,17,353,28*72
$GPGSV,5,4,17,36,52,277,31,40,86,351,,41,58,082,,49,32,274,*7E
$GPGSV,5,5,17,50,10,089,*4A
$GLGSV,2,1,08,67,10,054,,68,39,098,25,69,35,164,28,73,23,319,27*66
$GLGSV,2,2,08,79,35,168,20,80,71,261,34,83,10,344,17,84,07,293,*68
$GNGLL,0419.86090,S,05539.61019,E,065022.00,A,A*67
$GNRMC,065023.00,A,0419.86085,S,05539.61016,E,0.061,,270525,,,A*74
$GNVTG,,T,,M,0.061,N,0.114,K,A*3E
$GNGGA,065023.00,0419.86085,S,05539.61016,E,1,12,0.88,15.4,M,-47.6,M,,*43
$GNGSA,A,3,12,25,23,15,05,18,24,29,,,,,1.57,0.88,1.30*1D
$GNGSA,A,3,80,68,79,69,83,,,,,,,,1.57,0.88,1.30*11
$GPGSV,5,1,17,05,31,031,12,10,13,214,27,12,71,116,32,13,13,098,*7F
$GPGSV,5,2,17,15,42,125,20,18,30,302,24,20,00,033,,23,55,217,21*77
$GPGSV,5,3,17,24,28,169,23,25,68,336,25,28,07,284,17,29,17,353,28*75
$GPGSV,5,4,17,36,52,277,32,40,86,351,,41,58,082,,49,32,274,*7D
$GPGSV,5,5,17,50,10,089,*4A
$GLGSV,2,1,08,67,10,054,,68,39,098,25,69,35,164,28,73,23,319,27*66
$GLGSV,2,2,08,79,35,168,20,80,71,261,35,83,10,344,17,84,07,293,*69
$GNGLL,0419.86085,S,05539.61016,E,065023.00,A,A*6D
$GNRMC,065024.00,A,0419.86074,S,05539.61021,E,0.084,,270525,,,A*72
$GNVTG,,T,,M,0.084,N,0.156,K,A*33
$GNGGA,065024.00,0419.86074,S,05539.61021,E,1,12,0.88,15.5,M,-47.6,M,,*4F
$GNGSA,A,3,12,25,23,15,05,18,24,29,,,,,1.57,0.88,1.30*1D
$GNGSA,A,3,80,68,79,69,83,,,,,,,,1.57,0.88,1.30*11
$GPGSV,5,1,17,05,31,031,13,10,13,214,26,12,71,116,32,13,13,098,*7F
$GPGSV,5,2,17,15,42,125,21,18,30,302,23,20,00,033,,23,55,217,21*71
$GPGSV,5,3,17,24,28,169,24,25,69,335,25,28,07,284,18,29,17,353,28*7F
$GPGSV,5,4,17,36,52,277,31,40,86,351,,41,58,082,,49,32,274,*7E
$GPGSV,5,5,17,50,10,089,*4A
$GLGSV,2,1,08,67,10,054,,68,39,098,25,69,35,164,28,73,23,319,27*66
$GLGSV,2,2,08,79,35,168,19,80,71,261,35,83,10,344,16,84,07,293,*62
$GNGLL,0419.86074,S,05539.61021,E,065024.00,A,A*60
$GNRMC,065025.00,A,0419.86066,S,05539.61026,E,0.121,,270525,,,A*79
$GNVTG,,T,,M,0.121,N,0.223,K,A*3C
$GNGGA,065025.00,0419.86066,S,05539.61026,E,1,12,0.88,15.5,M,-47.6,M,,*4A
$GNGSA,A,3,12,25,23,15,05,18,24,29,,,,,1.57,0.88,1.30*1D
$GNGSA,A,3,80,68,79,69,83,,,,,,,,1.57,0.88,1.30*11
$GPGSV,5,1,17,05,31,031,11,10,13,214,26,12,71,116,32,13,13,098,*7D
$GPGSV,5,2,17,15,42,125,21,18,30,302,22,20,00,033,,23,55,217,21*70
$GPGSV,5,3,17,24,28,169,25,25,69,335,25,28,07,284,18,29,17,353,28*7E
$GPGSV,5,4,17,36,52,277,31,40,86,351,,41,58,082,,49,32,274,*7E
$GPGSV,5,5,17,50,10,089,*4A
$GLGSV,2,1,08,67,10,054,,68,39,098,23,69,35,164,28,73,23,319,27*60
$GLGSV,2,2,08,79,35,168,19,80,71,261,35,83,10,344,15,84,07,293,*61
$GNGLL,0419.86066,S,05539.61026,E,065025.00,A,A*65
$GNRMC,065026.00,A,0419.86058,S,05539.61031,E,0.088,,270525,,,A*73
$GNVTG,,T,,M,0.088,N,0.162,K,A*38
$GNGGA,065026.00,0419.86058,S,05539.61031,E,1,12,0.88,15.5,M,-47.6,M,,*42
$GNGSA,A,3,12,25,23,15,05,18,24,29,,,,,1.57,0.88,1.30*1D
$GNGSA,A,3,80,68,79,69,83,,,,,,,,1.57,0.88,1.30*11
$GPGSV,5,1,17,05,31,031,09,10,13,214,26,12,71,116,31,13,13,098,*77
$GPGSV,5,2,17,15,42,125,21,18,30,302,23,20,00,033,,23,55,217,20*70
$GPGSV,5,3,17,24,28,169,25,25,69,335,26,28,07,284,17,29,17,353,29*73
$GPGSV,5,4,17,36,52,277,31,40,86,351,,41,58,082,,49,32,274,*7E
$GPGSV,5,5,17,50,10,089,*4A
$GLGSV,2,1,08,67,10,054,,68,39,098,23,69,35,164,28,73,23,319,26*61
$GLGSV,2,2,08,79,35,168,20,80,71,261,35,83,10,344,15,84,07,293,*6B
$GNGLL,0419.86058,S,05539.61031,E,065026.00,A,A*6D
$GNRMC,065027.00,A,0419.86046,S,05539.61038,E,0.200,,270525,,,A*76
$GNVTG,,T,,M,0.200,N,0.370,K,A*3B
$GNGGA,065027.00,0419.86046,S,05539.61038,E,1,12,0.88,15.7,M,-47.6,M,,*47
$GNGSA,A,3,12,25,23,15,05,18,24,29,,,,,1.57,0.88,1.30*1D
$GNGSA,A,3,80,68,79,69,83,,,,,,,,1.57,0.88,1.30*11
$GPGSV,5,1,17,05,31,031,15,10,13,214,26,12,71,116,31,13,13,098,*7A
$GPGSV,5,2,17,15,42,125,22,18,30,302,23,20,00,033,,23,55,217,20*73
$GPGSV,5,3,17,24,28,169,25,25,69,335,26,28,07,284,16,29,17,353,28*73
$GPGSV,5,4,17,36,52,277,31,40,86,351,,41,58,082,,49,32,274,*7E
$GPGSV,5,5,17,50,10,089,*4A
$GLGSV,2,1,08,67,10,054,,68,39,098,24,69,35,164,28,73,23,319,26*66
$GLGSV,2,2,08,79,35,168,19,80,71,261,35,83,10,344,15,84,07,293,*61
$GNGLL,0419.86046,S,05539.61038,E,065027.00,A,A*6A
$GNRMC,065028.00,A,0419.86034,S,05539.61041,E,0.063,,270525,,,A*75
$GNVTG,,T,,M,0.063,N,0.117,K,A*3F
$GNGGA,065028.00,0419.86034,S,05539.61041,E,1,12,0.88,15.8,M,-47.6,M,,*4C
$GNGSA,A,3,12,25,23,15,05,18,24,29,,,,,1.57,0.88,1.30*1D
$GNGSA,A,3,80,68,79,69,83,,,,,,,,1.57,0.88,1.30*11
$GPGSV,5,1,17,05,31,031,14,10,13,214,26,12,71,116,30,13,13,098,*7A
$GPGSV,5,2,17,15,42,125,21,18,30,302,23,20,00,033,,23,55,217,20*70
$GPGSV,5,3,17,24,28,169,24,25,69,335,26,28,07,284,16,29,17,354,29*74
$GPGSV,5,4,17,36,52,277,32,40,86,351,,41,58,082,,49,32,274,*7D
$GPGSV,5,5,17,50,10,089,*4A
$GLGSV,2,1,08,67,10,054,,68,39,098,23,69,35,164,28,73,23,319,26*61
$GLGSV,2,2,08,79,35,168,20,80,71,261,35,83,10,344,16,84,07,293,*68
$GNGLL,0419.86034,S,05539.61041,E,065028.00,A,A*6E
$GNRMC,065029.00,A,0419.86022,S,05539.61049,E,0.208,,270525,,,A*74
$GNVTG,,T,,M,0.208,N,0.385,K,A*39
$GNGGA,065029.00,0419.86022,S,05539.61049,E,1,12,0.88,16.1,M,-47.6,M,,*48
$GNGSA,A,3,12,25,23,15,05,18,24,29,,,,,1.57,0.88,1.30*1D
$GNGSA,A,3,80,68,79,69,83,,,,,,,,1.57,0.88,1.30*11
$GPGSV,5,1,17,05,31,031,09,10,13,214,26,12,71,116,29,13,13,098,*7E
$GPGSV,5,2,17,15,42,125,20,18,30,302,23,20,00,033,,23,55,217,21*70
$GPGSV,5,3,17,24,28,169,23,25,69,335,25,28,07,284,16,29,17,354,29*70
$GPGSV,5,4,17,36,52,277,32,40,86,351,,41,58,082,,49,32,274,*7D
$GPGSV,5,5,17,50,10,089,*4A
$GLGSV,2,1,08,67,10,054,,68,39,098,22,69,35,164,28,73,23,319,26*60
$GLGSV,2,2,08,79,35,168,19,80,71,261,34,83,10,344,17,84,07,293,*62
$GNGLL,0419.86022,S,05539.61049,E,065029.00,A,A*60
$GNRMC,065030.00,A,0419.86012,S,05539.61054,E,0.124,,270525,,,A*7E
$GNVTG,,T,,M,0.124,N,0.229,K,A*33
$GNGGA,065030.00,0419.86012,S,05539.61054,E,1,12,0.88,16.0,M,-47.6,M,,*4E
$GNGSA,A,3,12,25,23,15,05,18,24,29,,,,,1.57,0.88,1.30*1D
$GNGSA,A,3,80,68,79,69,83,,,,,,,,1.57,0.88,1.30*11
$GPGSV,5,1,17,05,31,031,15,10,13,214,26,12,71,116,29,13,13,098,*73
$GPGSV,5,2,17,15,42,125,21,18,30,302,25,20,00,033,,23,55,217,22*74
$GPGSV,5,3,17,24,28,169,24,25,69,335,26,28,07,284,15,29,17,354,30*7F
$GPGSV,5,4,17,36,52,277,32,40,86,351,,41,58,082,,49,32,274,*7D
$GPGSV,5,5,17,50,10,089,*4A
$GLGSV,2,1,08,67,10,054,,68,39,098,23,69,35,164,27,73,23,319,26*6E
$GLGSV,2,2,08,79,35,168,19,80,71,261,35,83,10,344,17,84,07,293,*63
$GNGLL,0419.86012,S,05539.61054,E,065030.00,A,A*67
$GNRMC,065031.00,A,0419.86005,S,05539.61045,E,0.477,,270525,,,A*7A
$GNVTG,,T,,M,0.477,N,0.884,K,A*3D
$GNGGA,065031.00,0419.86005,S,05539.61045,E,1,12,0.78,16.0,M,-47.6,M,,*46
$GNGSA,A,3,12,25,23,15,05,18,24,29,10,,,,1.37,0.78,1.13*14
$GNGSA,A,3,80,68,79,69,83,,,,,,,,1.37,0.78,1.13*19
$GPGSV,5,1,17,05,31,031,12,10,13,214,26,12,71,116,31,13,13,098,*7D
$GPGSV,5,2,17,15,42,125,19,18,30,302,23,20,00,033,,23,55,217,21*7A
$GPGSV,5,3,17,24,28,169,25,25,69,335,27,28,07,284,14,29,17,354,29*76
$GPGSV,5,4,17,36,52,277,31,40,86,351,,41,58,082,,49,32,274,*7E
$GPGSV,5,5,17,50,10,089,*4A
$GLGSV,2,1,08,67,10,054,,68,39,098,22,69,35,164,27,73,23,319,25*6C
$GLGSV,2,2,08,79,35,168,19,80,71,261,36,83,10,344,18,84,07,293,*6F
$GNGLL,0419.86005,S,05539.61045,E,065031.00,A,A*60
$GNRMC,065032.00,A,0419.85999,S,05539.61042,E,0.081,,270525,,,A*7C
$GNVTG,,T,,M,0.081,N,0.151,K,A*31
$GNGGA,065032.00,0419.85999,S,05539.61042,E,1,12,0.78,16.0,M,-47.6,M,,*4D
$GNGSA,A,3,12,25,23,15,05,18,24,29,10,,,,1.37,0.78,1.13*14
$GNGSA,A,3,80,68,79,69,83,,,,,,,,1.37,0.78,1.13*19
$GPGSV,5,1,17,05,31,031,10,10,13,214,27,12,71,116,34,13,13,098,*7B
$GPGSV,5,2,17,15,42,125,16,18,30,302,23,20,00,033,,23,55,217,21*75
$GPGSV,5,3,17,24,28,169,25,25,69,335,27,28,07,284,14,29,17,354,29*76
$GPGSV,5,4,17,36,52,277,31,40,86,351,,41,58,082,,49,32,274,*7E
$GPGSV,5,5,17,50,10,089,*4A
$GLGSV,2,1,08,67,10,054,,68,39,098,20,69,35,164,27,73,23,319,25*6E
$GLGSV,2,2,08,79,35,168,19,80,71,261,35,83,10,344,18,84,07,293,*6C
$GNGLL,0419.85999,S,05539.61042,E,065032.00,A,A*6B
$GNRMC,065033.00,A,0419.85988,S,05539.61044,E,0.181,,270525,,,A*7A
$GNVTG,,T,,M,0.181,N,0.335,K,A*30
$GNGGA,065033.00,0419.85988,S,05539.61044,E,1,12,0.82,16.1,M,-47.6,M,,*4E
$GNGSA,A,3,12,25,23,05,18,24,29,10,,,,,1.40,0.82,1.13*15
$GNGSA,A,3,80,68,79,69,83,,,,,,,,1.40,0.82,1.13*1C
$GPGSV,5,1,17,05,31,031,10,10,13,214,27,12,71,116,33,13,13,098,*7C
$GPGSV,5,2,17,15,42,125,10,18,30,302,23,20,00,033,,23,55,217,20*72
$GPGSV,5,3,17,24,28,169,25,25,69,335,27,28,07,284,13,29,17,354,30*79
$GPGSV,5,4,17,36,52,277,31,40,86,351,,41,58,082,,49,32,274,*7E
$GPGSV,5,5,17,50,10,089,*4A
$GLGSV,2,1,08,67,10,054,,68,39,098,19,69,35,164,26,73,23,319,24*64
$GLGSV,2,2,08,79,35,168,19,80,71,261,35,83,10,344,18,84,07,293,*6C
$GNGLL,0419.85988,S,05539.61044,E,065033.00,A,A*6C
$GNRMC,065034.00,A,0419.85980,S,05539.61047,E,0.063,,270525,,,A*7B
$GNVTG,,T,,M,0.063,N,0.116,K,A*3E
$GNGGA,065034.00,0419.85980,S,05539.61047,E,1,12,0.82,16.1,M,-47.6,M,,*42
$GNGSA,A,3,12,25,23,05,18,24,29,10,,,,,1.40,0.82,1.13*15
$GNGSA,A,3,80,68,79,69,83,,,,,,,,1.40,0.82,1.13*1C
$GPGSV,5,1,17,05,31,031,10,10,13,214,27,12,71,116,34,13,13,098,*7B
$GPGSV,5,2,17,15,42,125,07,18,30,302,22,20,00,033,,23,55,217,22*77
$GPGSV,5,3,17,24,28,169,25,25,69,335,27,28,07,284,13,29,17,354,29*71
$GPGSV,5,4,17,36,52,277,30,40,86,351,,41,58,082,,49,32,274,*7F
$GPGSV,5,5,17,50,10,089,*4A
$GLGSV,2,1,08,67,10,054,,68,39,098,17,69,35,164,27,73,23,319,25*6A
$GLGSV,2,2,08,79,35,168,18,80,71,261,34,83,10,344,16,84,07,293,*62
$GNGLL,0419.85980,S,05539.61047,E,065034.00,A,A*60
$GNRMC,065035.00,A,0419.85970,S,05539.61046,E,0.222,,270525,,,A*73
$GNVTG,,T,,M,0.222,N,0.412,K,A*38
$GNGGA,065035.00,0419.85970,S,05539.61046,E,1,12,0.82,16.3,M,-47.6,M,,*4F
$GNGSA,A,3,12,25,23,05,18,24,29,10,,,,,1.40,0.82,1.13*15
$GNGSA,A,3,80,68,79,69,83,,,,,,,,1.40,0.82,1.13*1C
$GPGSV,5,1,17,05,31,031,10,10,13,214,27,12,71,116,30,13,13,098,*7F
$GPGSV,5,2,17,15,42,125,07,18,30,302,24,20,00,033,,23,55,217,23*70
$GPGSV,5,3,17,24,28,169,25,25,69,335,27,28,07,284,11,29,17,354,29*73
$GPGSV,5,4,17,36,52,277,30,40,86,351,,41,58,082,,49,32,274,*7F
$GPGSV,5,5,17,50,10,089,*4A
$GLGSV,2,1,08,67,10,054,,68,39,098,18,69,35,164,27,73,23,319,25*65
$GLGSV,2,2,08,79,35,168,18,80,71,261,34,83,10,344,16,84,07,293,*62
$GNGLL,0419.85970,S,05539.61046,E,065035.00,A,A*6F
$GNRMC,065036.00,A,0419.85960,S,05539.61046,E,0.169,,270525,,,A*7D
$GNVTG,,T,,M,0.169,N,0.313,K,A*32
$GNGGA,065036.00,0419.85960,S,05539.61046,E,1,12,0.82,16.4,M,-47.6,M,,*4A
$GNGSA,A,3,12,25,23,05,18,24,29,10,,,,,1.40,0.82,1.13*15
$GNGSA,A,3,80,68,79,69,83,,,,,,,,1.40,0.82,1.13*1C
$GPGSV,5,1,17,05,31,031,10,10,13,214,26,12,71,116,33,13,13,098,*7D
$GPGSV,5,2,17,15,42,125,07,18,30,302,24,20,00,033,,23,55,217,23*70
$GPGSV,5,3,17,24,28,169,25,25,69,335,27,28,07,284,,29,17,354,30*7B
$GPGSV,5,4,17,36,52,277,29,40,86,351,,41,58,082,,49,32,274,*77
$GPGSV,5,5,17,50,10,089,*4A
$GLGSV,2,1,08,67,10,054,,68,39,098,18,69,35,164,27,73,23,319,26*66
$GLGSV,2,2,08,79,35,168,17,80,71,261,34,83,10,344,15,84,07,293,*6E
$GNGLL,0419.85960,S,05539.61046,E,065036.00,A,A*6D
$GNRMC,065037.00,A,0419.85956,S,05539.61048,E,0.124,,270525,,,A*7E
$GNVTG,,T,,M,0.124,N,0.230,K,A*3B
$GNGGA,065037.00,0419.85956,S,05539.61048,E,1,12,0.82,16.5,M,-47.6,M,,*41
$GNGSA,A,3,12,25,23,05,18,24,29,10,,,,,1.40,0.82,1.13*15
$GNGSA,A,3,80,68,79,69,83,,,,,,,,1.40,0.82,1.13*1C
$GPGSV,5,1,17,05,31,031,12,10,13,214,26,12,71,116,31,13,13,098,*7D
$GPGSV,5,2,17,15,42,125,15,18,30,302,25,20,00,033,,23,55,217,24*75
$GPGSV,5,3,17,24,28,169,24,25,69,335,27,28,07,284,,29,17,354,29*72
$GPGSV,5,4,17,36,52,277,29,40,86,351,,41,58,082,,49,32,274,*77
$GPGSV,5,5,17,50,10,089,*4A
$GLGSV,2,1,08,67,10,054,,68,39,098,19,69,35,164,28,73,23,319,26*68
$GLGSV,2,2,08,79,35,168,16,80,71,261,35,83,10,344,14,84,07,293,*6F
$GNGLL,0419.85956,S,05539.61048,E,065037.00,A,A*67
$GNRMC,065038.00,A,0419.85952,S,05539.61050,E,0.087,,270525,,,A*74
$GNVTG,,T,,M,0.087,N,0.162,K,A*37
$GNGGA,065038.00,0419.85952,S,05539.61050,E,1,12,0.84,16.6,M,-47.6,M,,*46
$GNGSA,A,3,12,25,23,15,05,18,24,29,10,,,,1.41,0.84,1.13*16
$GNGSA,A,3,80,68,79,69,83,,,,,,,,1.41,0.84,1.13*1B
$GPGSV,5,1,17,05,31,031,18,10,13,214,27,12,71,116,31,13,13,098,*76
$GPGSV,5,2,17,15,42,125,10,18,30,302,23,20,00,033,,23,55,217,26*74
$GPGSV,5,3,17,24,28,169,24,25,69,335,28,28,07,284,,29,17,354,29*7D
$GPGSV,5,4,17,36,52,277,30,40,86,351,,41,58,082,,49,32,274,*7F
$GPGSV,5,5,17,50,10,089,*4A
$GLGSV,2,1,08,67,10,054,,68,39,098,19,69,35,164,29,73,23,319,26*69
$GLGSV,2,2,08,79,35,168,16,80,71,261,34,83,10,344,12,84,07,293,*68
$GNGLL,0419.85952,S,05539.61050,E,065038.00,A,A*65
$GNRMC,065039.00,A,0419.85951,S,05539.61050,E,0.155,,270525,,,A*78
$GNVTG,,T,,M,0.155,N,0.286,K,A*30
$GNGGA,065039.00,0419.85951,S,05539.61050,E,1,12,0.78,16.5,M,-47.6,M,,*44
$GNGSA,A,3,12,25,23,15,05,18,24,29,10,,,,1.37,0.78,1.13*14
$GNGSA,A,3,80,68,79,69,83,,,,,,,,1.37,0.78,1.13*19
$GPGSV,5,1,17,05,31,031,18,10,13,214,27,12,71,116,30,13,13,098,*77
$GPGSV,5,2,17,15,42,125,10,18,30,302,21,20,00,033,,23,55,217,26*76
$GPGSV,5,3,17,24,28,169,22,25,69,335,28,28,07,284,,29,17,354,30*73
$GPGSV,5,4,17,36,52,277,30,40,86,351,,41,58,082,,49,32,274,*7F
$GPGSV,5,5,17,50,10,089,*4A
$GLGSV,2,1,08,67,10,054,,68,39,098,18,69,35,164,28,73,23,319,24*6B
$GLGSV,2,2,08,79,35,168,16,80,71,261,33,83,10,344,10,84,07,293,*6D
$GNGLL,0419.85951,S,05539.61050,E,065039.00,A,A*67
$GNRMC,065040.00,A,0419.85951,S,05539.61051,E,0.058,,270525,,,A*7B
$GNVTG,,T,,M,0.058,N,0.107,K,A*36
$GNGGA,065040.00,0419.85951,S,05539.61051,E,1,12,0.78,16.5,M,-47.6,M,,*4B
$GNGSA,A,3,12,25,23,15,05,18,24,29,10,,,,1.37,0.78,1.13*14
$GNGSA,A,3,80,68,79,69,83,,,,,,,,1.37,0.78,1.13*19
$GPGSV,5,1,17,05,31,031,18,10,13,214,25,12,71,116,29,13,13,098,*7D
$GPGSV,5,2,17,15,42,125,10,18,30,302,19,20,00,033,,23,55,217,26*7D
$GPGSV,5,3,17,24,28,169,21,25,69,335,28,28,07,284,,29,17,354,30*70
$GPGSV,5,4,17,36,52,277,29,40,86,351,,41,58,082,,49,32,274,*77
$GPGSV,5,5,17,50,10,089,*4A
$GLGSV,2,1,08,67,10,054,,68,39,098,16,69,35,164,28,73,23,319,23*62
$GLGSV,2,2,08,79,35,168,17,80,71,261,35,83,10,344,08,84,07,293,*63
$GNGLL,0419.85951,S,05539.61051,E,065040.00,A,A*68
$GNRMC,065041.00,A,0419.85951,S,05539.61046,E,0.012,,270525,,,A*72
$GNVTG,,T,,M,0.012,N,0.022,K,A*3E
$GNGGA,065041.00,0419.85951,S,05539.61046,E,1,12,0.80,16.5,M,-47.6,M,,*4B
$GNGSA,A,3,12,25,23,15,05,18,24,29,10,,,,1.48,0.80,1.24*1F
$GNGSA,A,3,80,68,79,69,,,,,,,,,1.48,0.80,1.24*19
$GPGSV,5,1,17,05,31,031,18,10,13,214,25,12,71,116,27,13,13,098,*73
$GPGSV,5,2,17,15,42,125,10,18,30,302,19,20,00,033,,23,55,217,26*7D
$GPGSV,5,3,17,24,28,169,19,25,69,335,27,28,07,284,,29,17,354,30*74
$GPGSV,5,4,17,36,52,277,28,40,86,351,,41,58,082,,49,32,274,*76
$GPGSV,5,5,17,50,10,089,*4A
$GLGSV,2,1,08,67,10,054,,68,39,098,13,69,35,164,28,73,23,319,20*64
$GLGSV,2,2,08,79,35,168,15,80,71,261,32,83,10,344,07,84,07,293,*69
$GNGLL,0419.85951,S,05539.61046,E,065041.00,A,A*6F
$GNRMC,065042.00,A,0419.85952,S,05539.61044,E,0.228,,270525,,,A*7B
$GNVTG,,T,,M,0.228,N,0.422,K,A*31
$GNGGA,065042.00,0419.85952,S,05539.61044,E,1,12,0.88,16.4,M,-47.6,M,,*40
$GNGSA,A,3,12,25,23,15,05,18,24,29,10,,,,1.52,0.88,1.24*1C
$GNGSA,A,3,80,79,69,,,,,,,,,,1.52,0.88,1.24*14
$GPGSV,5,1,17,05,31,031,18,10,13,214,24,12,71,116,27,13,13,098,*72
$GPGSV,5,2,17,15,42,125,10,18,30,302,19,20,00,033,,23,55,217,25*7E
$GPGSV,5,3,17,24,28,169,18,25,69,335,26,28,07,284,,29,17,354,29*7C
$GPGSV,5,4,17,36,52,277,28,40,86,351,,41,58,082,,49,32,274,*76
$GPGSV,5,5,17,50,10,089,*4A
$GLGSV,2,1,08,67,10,054,,68,39,098,10,69,35,164,27,73,23,319,20*68
$GLGSV,2,2,08,79,35,168,14,80,71,261,31,83,10,344,05,84,07,293,*69
$GNGLL,0419.85952,S,05539.61044,E,065042.00,A,A*6D
$GNRMC,065043.00,A,0419.85951,S,05539.61044,E,0.060,,270525,,,A*77
$GNVTG,,T,,M,0.060,N,0.110,K,A*3B
$GNGGA,065043.00,0419.85951,S,05539.61044,E,1,12,0.78,16.5,M,-47.6,M,,*4C
$GNGSA,A,3,12,25,23,15,05,18,24,29,10,,,,1.37,0.78,1.13*14
$GNGSA,A,3,80,68,79,69,83,,,,,,,,1.37,0.78,1.13*19
$GPGSV,5,1,17,05,31,031,15,10,13,214,22,12,71,116,26,13,13,098,*78
$GPGSV,5,2,17,15,42,125,11,18,30,302,17,20,00,033,,23,55,217,24*70
$GPGSV,5,3,17,24,28,169,18,25,69,335,25,28,07,284,,29,17,354,28*7E
$GPGSV,5,4,17,36,52,277,28,40,86,351,,41,58,082,,49,32,274,*76
$GPGSV,5,5,17,50,10,089,*4A
$GLGSV,2,1,08,67,10,054,,68,39,098,12,69,35,164,27,73,23,319,20*6A
$GLGSV,2,2,08,79,35,168,11,80,71,261,31,83,10,344,10,84,07,293,*68
$GNGLL,0419.85951,S,05539.61044,E,065043.00,A,A*6F
$GNRMC,065044.00,A,0419.85950,S,05539.61040,E,0.059,,270525,,,A*7F
$GNVTG,,T,,M,0.059,N,0.109,K,A*39
$GNGGA,065044.00,0419.85950,S,05539.61040,E,1,12,0.86,16.7,M,-47.6,M,,*4D
$GNGSA,A,3,12,25,23,15,05,18,24,29,10,,,,1.52,0.86,1.24*12
$GNGSA,A,3,80,68,69,83,,,,,,,,,1.52,0.86,1.24*11
$GPGSV,5,1,17,05,31,031,13,10,13,214,23,12,71,116,26,13,13,098,*7F
$GPGSV,5,2,17,15,42,125,14,18,30,302,17,20,00,033,,23,55,217,25*74
$GPGSV,5,3,17,24,28,169,18,25,69,335,26,28,07,284,,29,17,354,28*7D
$GPGSV,5,4,17,36,52,277,31,40,86,351,,41,58,082,,49,32,274,*7E
$GPGSV,5,5,17,50,10,089,*4A
$GLGSV,2,1,08,67,10,054,,68,39,098,14,69,35,164,27,73,23,319,22*6E
$GLGSV,2,2,08,79,35,168,10,80,71,261,31,83,10,344,10,84,07,293,*69
$GNGLL,0419.85950,S,05539.61040,E,065044.00,A,A*6D
$GNRMC,065045.00,A,0419.85950,S,05539.61041,E,0.253,,270525,,,A*77
$GNVTG,,T,,M,0.253,N,0.469,K,A*32
$GNGGA,065045.00,0419.85950,S,05539.61041,E,1,12,0.80,16.8,M,-47.6,M,,*44
$GNGSA,A,3,12,25,23,15,05,18,24,29,10,,,,1.48,0.80,1.24*1F
$GNGSA,A,3,80,68,79,69,83,,,,,,,,1.48,0.80,1.24*12
$GPGSV,5,1,17,05,31,031,23,10,13,214,25,12,71,116,25,13,13,098,*79
$GPGSV,5,2,17,15,42,125,18,18,30,302,19,20,00,033,,23,55,217,27*74
$GPGSV,5,3,17,24,28,169,20,25,69,335,32,28,07,284,,29,17,354,28*73
$GPGSV,5,4,17,36,52,277,31,40,86,351,,41,58,082,,49,32,274,*7E
$GPGSV,5,5,17,50,10,089,*4A
$GLGSV,2,1,08,67,10,054,,68,39,098,22,69,35,164,28,73,23,319,22*64
$GLGSV,2,2,08,79,35,168,11,80,71,261,32,83,10,344,09,84,07,293,*63
$GNGLL,0419.85950,S,05539.61041,E,065045.00,A,A*6D
$GNRMC,065046.00,A,0419.85948,S,05539.61039,E,0.163,,270525,,,A*72
$GNVTG,,T,,M,0.163,N,0.302,K,A*38
$GNGGA,065046.00,0419.85948,S,05539.61039,E,1,12,0.80,16.7,M,-47.6,M,,*4E
$GNGSA,A,3,12,25,23,15,05,18,24,29,10,,,,1.48,0.80,1.24*1F
$GNGSA,A,3,80,68,79,69,83,,,,,,,,1.48,0.80,1.24*12
$GPGSV,5,1,17,05,31,031,19,10,13,214,26,12,71,116,23,13,13,098,*75
$GPGSV,5,2,17,15,42,125,17,18,30,302,21,20,00,033,,23,55,217,30*76
$GPGSV,5,3,17,24,28,169,20,25,69,335,31,28,07,284,,29,17,354,30*79
$GPGSV,5,4,17,36,52,277,31,40,86,351,,41,58,082,34,49,32,274,*79
$GPGSV,5,5,17,50,10,089,*4A
$GLGSV,2,1,08,67,10,054,,68,39,098,18,69,35,164,28,73,23,319,20*6F
$GLGSV,2,2,08,79,35,168,12,80,71,261,31,83,10,344,07,84,07,293,*6D
$GNGLL,0419.85948,S,05539.61039,E,065046.00,A,A*68
$GNRMC,065047.00,A,0419.85944,S,05539.61046,E,0.048,,270525,,,A*7F
$GNVTG,,T,,M,0.048,N,0.089,K,A*30
$GNGGA,065047.00,0419.85944,S,05539.61046,E,1,12,0.84,16.7,M,-47.6,M,,*4F
$GNGSA,A,3,12,25,23,05,18,24,29,10,,,,,1.50,0.84,1.24*16
$GNGSA,A,3,80,68,79,69,83,,,,,,,,1.50,0.84,1.24*1F
$GPGSV,5,1,17,05,31,031,19,10,13,214,26,12,71,116,21,13,13,098,*77
$GPGSV,5,2,17,15,42,125,04,18,30,302,22,20,00,033,,23,55,217,31*76
$GPGSV,5,3,17,24,28,169,20,25,69,335,30,28,07,284,,29,17,354,31*79
$GPGSV,5,4,17,36,52,277,31,40,86,351,,41,58,082,34,49,32,274,*79
$GPGSV,5,5,17,50,10,089,*4A
$GLGSV,2,1,08,67,10,054,,68,39,098,19,69,35,164,28,73,23,319,18*65
$GLGSV,2,2,08,79,35,168,12,80,71,261,32,83,10,344,08,84,07,293,*61
$GNGLL,0419.85944,S,05539.61046,E,065047.00,A,A*6D
$GNRMC,065048.00,A,0419.85938,S,05539.61052,E,0.133,,270525,,,A*73
$GNVTG,,T,,M,0.133,N,0.246,K,A*3C
$GNGGA,065048.00,0419.85938,S,05539.61052,E,1,12,0.84,16.8,M,-47.6,M,,*41
$GNGSA,A,3,12,25,23,05,18,24,29,10,,,,,1.50,0.84,1.24*16
$GNGSA,A,3,80,68,79,69,83,,,,,,,,1.50,0.84,1.24*1F
$GPGSV,5,1,17,05,31,031,19,10,13,214,27,12,71,116,17,13,13,098,*73
$GPGSV,5,2,17,15,42,125,09,18,30,302,23,20,00,033,,23,55,217,31*7A
$GPGSV,5,3,17,24,28,169,20,25,69,335,29,28,07,284,,29,17,354,32*72
$GPGSV,5,4,17,36,52,277,31,40,86,351,,41,58,082,34,49,32,274,*79
$GPGSV,5,5,17,50,10,089,*4A
$GLGSV,2,1,08,67,10,054,,68,39,098,16,69,35,164,28,73,23,319,16*64
$GLGSV,2,2,08,79,35,168,12,80,71,261,32,83,10,344,13,84,07,293,*6B
$GNGLL,0419.85938,S,05539.61052,E,065048.00,A,A*6C
$GNRMC,065049.00,A,0419.85941,S,05539.61059,E,0.177,,270525,,,A*77
$GNVTG,,T,,M,0.177,N,0.328,K,A*35
$GNGGA,065049.00,0419.85941,S,05539.61059,E,1,12,0.80,16.8,M,-47.6,M,,*41
$GNGSA,A,3,12,25,23,15,05,18,24,29,10,,,,1.48,0.80,1.24*1F
$GNGSA,A,3,80,68,79,69,83,,,,,,,,1.48,0.80,1.24*12
$GPGSV,5,1,17,05,31,031,20,10,13,214,27,12,71,116,15,13,13,098,*7B
$GPGSV,5,2,17,15,42,125,17,18,30,302,23,20,00,033,,23,55,217,30*74
$GPGSV,5,3,17,24,28,169,19,25,69,335,29,28,07,284,,29,17,354,32*78
$GPGSV,5,4,17,36,52,277,30,40,86,351,,41,58,082,33,49,32,274,*7F
$GPGSV,5,5,17,50,10,089,*4A
$GLGSV,2,1,08,67,10,054,,68,39,098,17,69,35,164,28,73,23,319,15*66
$GLGSV,2,2,08,79,35,168,12,80,71,261,33,83,10,344,09,84,07,293,*61
$GNGLL,0419.85941,S,05539.61059,E,065049.00,A,A*68
$GNRMC,065050.00,A,0419.85944,S,05539.61073,E,0.260,,270525,,,A*77
$GNVTG,,T,,M,0.260,N,0.481,K,A*34
$GNGGA,065050.00,0419.85944,S,05539.61073,E,1,12,0.78,16.7,M,-47.6,M,,*4C
$GNGSA,A,3,12,25,23,15,05,18,24,29,10,,,,1.37,0.78,1.13*14
$GNGSA,A,3,80,68,79,69,83,,,,,,,,1.37,0.78,1.13*19
$GPGSV,5,1,17,05,31,031,20,10,13,214,27,12,71,116,15,13,13,098,*7B
$GPGSV,5,2,17,15,42,125,19,18,30,302,22,20,00,033,,23,55,217,29*73
$GPGSV,5,3,17,24,28,169,19,25,69,335,30,28,07,284,,29,17,354,32*70
$GPGSV,5,4,17,36,52,277,30,40,86,351,,41,58,082,32,49,32,274,*7E
$GPGSV,5,5,17,50,10,089,*4A
$GLGSV,2,1,08,67,10,054,,68,39,098,17,69,35,164,28,73,23,319,13*60
$GLGSV,2,2,08,79,35,168,10,80,71,261,34,83,10,344,11,84,07,293,*6D
$GNGLL,0419.85944,S,05539.61073,E,065050.00,A,A*6D
$GNRMC,065051.00,A,0419.85948,S,05539.61085,E,0.088,,270525,,,A*77
$GNVTG,,T,,M,0.088,N,0.164,K,A*3E
$GNGGA,065051.00,0419.85948,S,05539.61085,E,1,12,0.80,16.7,M,-47.6,M,,*4F
$GNGSA,A,3,12,25,23,15,05,18,24,29,10,,,,1.48,0.80,1.24*1F
$GNGSA,A,3,80,68,79,69,83,,,,,,,,1.48,0.80,1.24*12
$GPGSV,5,1,17,05,31,031,20,10,13,214,27,12,71,116,16,13,13,098,*78
$GPGSV,5,2,17,15,42,125,20,18,30,302,21,20,00,033,,23,55,217,29*7A
$GPGSV,5,3,17,24,28,169,20,25,69,335,30,28,07,284,,29,17,354,32*7A
$GPGSV,5,4,17,36,52,277,30,40,86,351,,41,58,082,32,49,32,274,*7E
$GPGSV,5,5,17,50,10,089,*4A
$GLGSV,2,1,08,67,10,054,,68,39,098,18,69,35,164,28,73,23,319,12*6E
$GLGSV,2,2,08,79,35,168,14,80,71,261,34,83,10,344,08,84,07,293,*61
$GNGLL,0419.85948,S,05539.61085,E,065051.00,A,A*69
$GNRMC,065052.00,A,0419.85948,S,05539.61087,E,0.101,,270525,,,A*76
$GNVTG,,T,,M,0.101,N,0.187,K,A*33
$GNGGA,065052.00,0419.85948,S,05539.61087,E,1,12,0.80,16.6,M,-47.6,M,,*4F
$GNGSA,A,3,12,25,23,15,05,18,24,29,10,,,,1.48,0.80,1.24*1F
$GNGSA,A,3,80,68,79,69,83,,,,,,,,1.48,0.80,1.24*12
$GPGSV,5,1,17,05,31,031,19,10,13,214,26,12,71,116,15,13,13,098,*70
$GPGSV,5,2,17,15,42,125,19,18,30,302,21,20,00,033,,23,55,217,29*70
$GPGSV,5,3,17,24,28,169,19,25,69,335,30,28,07,284,,29,17,354,32*70
$GPGSV,5,4,17,36,52,277,30,40,86,351,,41,58,082,32,49,32,274,*7E
$GPGSV,5,5,17,50,10,089,*4A
$GLGSV,2,1,08,67,10,054,,68,39,098,18,69,35,164,28,73,23,319,12*6E
$GLGSV,2,2,08,79,35,168,16,80,71,261,34,83,10,344,07,84,07,293,*6C
$GNGLL,0419.85948,S,05539.61087,E,065052.00,A,A*68
$GNRMC,065053.00,A,0419.85949,S,05539.61101,E,0.405,,270525,,,A*78
$GNVTG,,T,,M,0.405,N,0.750,K,A*3E
$GNGGA,065053.00,0419.85949,S,05539.61101,E,1,12,0.78,16.6,M,-47.6,M,,*47
$GNGSA,A,3,12,25,23,15,05,18,24,29,10,,,,1.37,0.78,1.13*14
$GNGSA,A,3,80,68,79,69,83,,,,,,,,1.37,0.78,1.13*19
$GPGSV,5,1,17,05,31,031,21,10,13,214,25,12,71,116,15,13,13,098,*78
$GPGSV,5,2,17,15,42,125,17,18,30,302,22,20,00,033,,23,55,217,29*7D
$GPGSV,5,3,17,24,28,169,19,25,69,335,29,28,07,284,,29,17,354,32*78
$GPGSV,5,4,17,36,52,277,30,40,86,351,,41,58,082,32,49,32,274,*7E
$GPGSV,5,5,17,50,10,089,*4A
$GLGSV,2,1,08,67,10,054,,68,39,098,18,69,35,164,27,73,23,319,13*60
$GLGSV,2,2,08,79,35,168,18,80,71,261,34,83,10,344,10,84,07,293,*64
$GNGLL,0419.85949,S,05539.61101,E,065053.00,A,A*67
$GNRMC,065054.00,A,0419.85955,S,05539.61105,E,0.127,,270525,,,A*73
$GNVTG,,T,,M,0.127,N,0.234,K,A*3C
$GNGGA,065054.00,0419.85955,S,05539.61105,E,1,12,0.80,16.4,M,-47.6,M,,*4C
$GNGSA,A,3,12,25,23,15,05,18,24,29,10,,,,1.48,0.80,1.24*1F
$GNGSA,A,3,80,68,79,69,83,,,,,,,,1.48,0.80,1.24*12
$GPGSV,5,1,17,05,31,031,21,10,13,214,26,12,71,116,15,13,13,098,*7B
$GPGSV,5,2,17,15,42,125,19,18,30,302,22,20,00,033,,23,55,217,29*73
$GPGSV,5,3,17,24,28,169,18,25,69,335,29,28,07,284,,29,17,354,32*79
$GPGSV,5,4,17,36,52,277,30,40,86,351,,41,58,082,32,49,32,274,*7E
$GPGSV,5,5,17,50,10,089,*4A
$GLGSV,2,1,08,67,10,054,,68,39,098,17,69,35,164,28,73,23,319,15*66
$GLGSV,2,2,08,79,35,168,19,80,71,261,34,83,10,344,09,84,07,293,*6D
$GNGLL,0419.85955,S,05539.61105,E,065054.00,A,A*69
$GNRMC,065055.00,A,0419.85961,S,05539.61104,E,0.114,,270525,,,A*74
$GNVTG,,T,,M,0.114,N,0.212,K,A*38
$GNGGA,065055.00,0419.85961,S,05539.61104,E,1,12,0.80,16.2,M,-47.6,M,,*4D
$GNGSA,A,3,12,25,23,15,05,18,24,29,10,,,,1.48,0.80,1.24*1F
$GNGSA,A,3,80,68,79,69,,,,,,,,,1.48,0.80,1.24*19
$GPGSV,5,1,17,05,31,031,21,10,13,214,26,12,71,116,17,13,13,098,*79
$GPGSV,5,2,17,15,42,125,18,18,30,302,21,20,00,033,,23,55,217,28*70
$GPGSV,5,3,17,24,28,169,19,25,69,335,30,28,07,284,20,29,17,354,31*71
$GPGSV,5,4,17,36,52,277,30,40,86,351,,41,58,082,32,49,32,274,*7E
$GPGSV,5,5,17,50,10,089,*4A
$GLGSV,2,1,08,67,10,054,,68,39,097,15,69,35,164,28,73,23,319,15*6B
$GLGSV,2,2,08,79,35,168,17,80,71,261,33,83,10,344,07,84,07,293,*6A
$GNGLL,0419.85961,S,05539.61104,E,065055.00,A,A*6E
$GNRMC,065056.00,A,0419.85968,S,05539.61097,E,0.277,,270525,,,A*73
$GNVTG,,T,,M,0.277,N,0.513,K,A*38
$GNGGA,065056.00,0419.85968,S,05539.61097,E,1,12,0.80,16.0,M,-47.6,M,,*4E
$GNGSA,A,3,12,25,23,15,05,18,24,29,10,,,,1.48,0.80,1.24*1F
$GNGSA,A,3,80,68,79,69,83,,,,,,,,1.48,0.80,1.24*12
$GPGSV,5,1,17,05,31,031,20,10,13,214,26,12,71,116,18,13,13,098,*77
$GPGSV,5,2,17,15,42,125,16,18,30,302,21,20,00,033,,23,55,217,29*7F
$GPGSV,5,3,17,24,28,169,17,25,69,335,30,28,07,284,19,29,17,354,31*75
$GPGSV,5,4,17,36,52,277,30,40,86,351,,41,58,082,32,49,32,274,*7E
$GPGSV,5,5,17,50,10,089,*4A
$GLGSV,2,1,08,67,10,054,,68,39,097,14,69,35,163,28,73,23,319,14*6C
$GLGSV,2,2,08,79,35,168,17,80,71,261,33,83,10,344,14,84,07,293,*68
$GNGLL,0419.85968,S,05539.61097,E,065056.00,A,A*6F
$GNRMC,065057.00,A,0419.85973,S,05539.61103,E,0.167,,270525,,,A*76
$GNVTG,,T,,M,0.167,N,0.309,K,A*37
$GNGGA,065057.00,0419.85973,S,05539.61103,E,1,12,0.80,15.9,M,-47.6,M,,*43
$GNGSA,A,3,12,25,23,15,05,18,24,29,10,,,,1.48,0.80,1.24*1F
$GNGSA,A,3,80,68,79,69,83,,,,,,,,1.48,0.80,1.24*12
$GPGSV,5,1,17,05,31,031,20,10,13,214,26,12,71,116,21,13,13,098,*7D
$GPGSV,5,2,17,15,42,125,14,18,30,302,21,20,00,033,,23,55,217,29*7D
$GPGSV,5,3,17,24,28,169,15,25,69,335,30,28,07,284,19,29,17,354,31*77
$GPGSV,5,4,17,36,52,277,30,40,86,351,,41,58,082,32,49,32,274,*7E
$GPGSV,5,5,17,50,10,089,*4A
$GLGSV,2,1,08,67,10,054,,68,39,097,15,69,35,163,28,73,23,319,14*6D
$GLGSV,2,2,08,79,35,168,16,80,71,261,33,83,10,344,10,84,07,293,*6D
$GNGLL,0419.85973,S,05539.61103,E,065057.00,A,A*68
$GNRMC,065058.00,A,0419.85975,S,05539.61115,E,0.385,,270525,,,A*76
$GNVTG,,T,,M,0.385,N,0.714,K,A*31
$GNGGA,065058.00,0419.85975,S,05539.61115,E,1,12,0.84,15.9,M,-47.6,M,,*49
$GNGSA,A,3,12,25,23,05,18,24,29,10,,,,,1.50,0.84,1.24*16
$GNGSA,A,3,80,68,79,69,83,,,,,,,,1.50,0.84,1.24*1F
$GPGSV,5,1,17,05,31,031,20,10,13,214,26,12,71,116,23,13,13,098,*7F
$GPGSV,5,2,17,15,42,125,10,18,30,302,22,20,00,033,,23,55,217,28*7B
$GPGSV,5,3,17,24,28,169,16,25,69,335,31,28,07,284,20,29,17,354,31*7F
$GPGSV,5,4,17,36,52,277,29,40,86,351,,41,58,082,32,49,32,274,*76
$GPGSV,5,5,17,50,10,089,*4A
$GLGSV,2,1,08,67,10,054,,68,39,097,16,69,35,163,27,73,23,319,17*62
$GLGSV,2,2,08,79,35,168,16,80,71,261,32,83,10,344,10,84,07,293,*6C
$GNGLL,0419.85975,S,05539.61115,E,065058.00,A,A*66
$GNRMC,065059.00,A,0419.85980,S,05539.61121,E,0.256,,270525,,,A*75
$GNVTG,,T,,M,0.256,N,0.474,K,A*3B
$GNGGA,065059.00,0419.85980,S,05539.61121,E,1,12,0.84,15.7,M,-47.6,M,,*4B
$GNGSA,A,3,12,25,23,05,18,24,29,10,,,,,1.50,0.84,1.24*16
$GNGSA,A,3,80,68,79,69,83,,,,,,,,1.50,0.84,1.24*1F
$GPGSV,5,1,17,05,31,031,20,10,13,214,26,12,71,116,22,13,13,098,05*7B
$GPGSV,5,2,17,15,42,125,10,18,30,302,22,20,00,033,,23,55,217,28*7B
$GPGSV,5,3,17,24,28,169,17,25,69,335,30,28,07,284,20,29,17,354,32*7C
$GPGSV,5,4,17,36,52,277,30,40,86,351,,41,58,082,32,49,32,274,*7E
$GPGSV,5,5,17,50,10,089,*4A
$GLGSV,2,1,08,67,10,054,,68,39,097,14,69,35,163,26,73,23,319,17*61
$GLGSV,2,2,08,79,35,168,17,80,71,261,32,83,10,344,09,84,07,293,*65
$GNGLL,0419.85980,S,05539.61121,E,065059.00,A,A*6A
$GNRMC,065100.00,A,0419.85982,S,05539.61113,E,0.151,,270525,,,A*7F
$GNVTG,,T,,M,0.151,N,0.280,K,A*32
$GNGGA,065100.00,0419.85982,S,05539.61113,E,1,12,0.84,15.5,M,-47.6,M,,*47
$GNGSA,A,3,12,25,23,05,18,24,29,10,,,,,1.50,0.84,1.24*16
$GNGSA,A,3,80,68,79,69,83,,,,,,,,1.50,0.84,1.24*1F
$GPGSV,5,1,17,05,31,031,20,10,13,214,26,12,71,116,18,13,13,098,07*70
$GPGSV,5,2,17,15,42,125,09,18,30,302,23,20,00,033,,23,55,217,27*7D
$GPGSV,5,3,17,24,28,169,16,25,69,335,31,28,07,284,19,29,17,354,32*76
$GPGSV,5,4,17,36,52,277,30,40,86,351,,41,58,082,33,49,32,274,*7F
$GPGSV,5,5,17,50,10,089,*4A
$GLGSV,2,1,08,67,10,054,,68,39,097,14,69,35,163,26,73,24,319,17*66
$GLGSV,2,2,08,79,35,168,17,80,71,261,32,83,10,344,11,84,07,293,*6C
$GNGLL,0419.85982,S,05539.61113,E,065100.00,A,A*64
$GNRMC,065101.00,A,0419.85988,S,05539.61109,E,0.127,,270525,,,A*7E
$GNVTG,,T,,M,0.127,N,0.235,K,A*3D
$GNGGA,065101.00,0419.85988,S,05539.61109,E,1,12,0.84,15.2,M,-47.6,M,,*40
$GNGSA,A,3,12,25,23,05,18,24,29,10,,,,,1.50,0.84,1.24*16
$GNGSA,A,3,80,68,79,69,83,,,,,,,,1.50,0.84,1.24*1F
$GPGSV,5,1,17,05,31,031,21,10,13,214,26,12,71,116,15,13,13,098,08*73
$GPGSV,5,2,17,15,42,125,10,18,30,302,22,20,00,033,,23,55,217,26*75
$GPGSV,5,3,17,24,28,169,14,25,69,335,31,28,07,284,18,29,17,354,31*76
$GPGSV,5,4,17,36,52,277,31,40,86,351,,41,58,082,33,49,32,274,*7E
$GPGSV,5,5,17,50,10,089,*4A
$GLGSV,2,1,08,67,10,054,,68,39,097,14,69,35,163,27,73,24,319,19*69
$GLGSV,2,2,08,79,35,168,19,80,71,261,31,83,10,344,11,84,07,293,*61
$GNGLL,0419.85988,S,05539.61109,E,065101.00,A,A*64
$GNRMC,065102.00,A,0419.85996,S,05539.61100,E,0.124,,270525,,,A*78
$GNVTG,,T,,M,0.124,N,0.230,K,A*3B
$GNGGA,065102.00,0419.85996,S,05539.61100,E,1,12,0.80,14.8,M,-47.6,M,,*4A
$GNGSA,A,3,12,25,23,15,05,18,24,29,10,,,,1.48,0.80,1.24*1F
$GNGSA,A,3,80,68,79,69,,,,,,,,,1.48,0.80,1.24*19
$GPGSV,5,1,17,05,31,031,19,10,13,214,26,12,71,116,15,13,13,098,08*78
$GPGSV,5,2,17,15,42,125,10,18,30,302,20,20,00,033,,23,55,217,27*76
$GPGSV,5,3,17,24,28,169,13,25,69,335,31,28,07,284,16,29,17,354,31*7F
$GPGSV,5,4,17,36,52,277,32,40,86,351,,41,58,082,33,49,32,274,*7D
$GPGSV,5,5,17,50,10,089,*4A
$GLGSV,2,1,08,67,10,054,,68,39,097,13,69,35,163,26,73,24,319,19*6F
$GLGSV,2,2,08,79,35,168,19,80,71,261,31,83,10,344,11,84,07,293,*61
$GNGLL,0419.85996,S,05539.61100,E,065102.00,A,A*61
$GNRMC,065103.00,A,0419.86003,S,05539.61080,E,0.457,,270525,,,A*77
$GNVTG,,T,,M,0.457,N,0.847,K,A*30
$GNGGA,065103.00,0419.86003,S,05539.61080,E,1,12,0.80,14.5,M,-47.6,M,,*49
$GNGSA,A,3,12,25,23,15,05,18,24,29,10,,,,1.48,0.80,1.24*1F
$GNGSA,A,3,80,68,79,69,,,,,,,,,1.48,0.80,1.24*19
$GPGSV,5,1,17,05,31,031,19,10,13,214,26,12,71,116,13,13,13,098,08*7E
$GPGSV,5,2,17,15,42,125,11,18,30,302,20,20,00,033,,23,55,217,27*77
$GPGSV,5,3,17,24,28,169,13,25,69,335,32,28,07,284,17,29,17,354,31*7D
$GPGSV,5,4,17,36,52,277,31,40,86,351,,41,58,082,33,49,32,274,*7E
$GPGSV,5,5,17,50,10,089,*4A
$GLGSV,2,1,08,67,10,054,,68,39,097,10,69,35,163,26,73,24,319,20*66
$GLGSV,2,2,08,79,35,168,18,80,71,261,32,83,10,344,11,84,07,293,*63
$GNGLL,0419.86003,S,05539.61080,E,065103.00,A,A*6F
$GNRMC,065104.00,A,0419.86007,S,05539.61066,E,0.171,,270525,,,A*7D
$GNVTG,,T,,M,0.171,N,0.317,K,A*3F
$GNGGA,065104.00,0419.86007,S,05539.61066,E,1,12,0.88,14.4,M,-47.6,M,,*4B
$GNGSA,A,3,12,25,23,15,05,18,24,29,10,,,,1.52,0.88,1.24*1C
$GNGSA,A,3,80,79,69,,,,,,,,,,1.52,0.88,1.24*14
$GPGSV,5,1,17,05,31,031,19,10,13,214,26,12,71,116,11,13,13,098,08*7C
$GPGSV,5,2,17,15,42,125,13,18,30,302,18,20,00,033,,23,55,217,27*7E
$GPGSV,5,3,17,24,28,169,14,25,69,335,32,28,07,284,19,29,17,354,32*77
$GPGSV,5,4,17,36,52,277,30,40,86,351,,41,58,082,34,49,32,274,*78
$GPGSV,5,5,17,50,10,089,*4A
$GLGSV,2,1,08,67,10,054,,68,39,097,08,69,35,163,26,73,24,319,20*6F
$GLGSV,2,2,08,79,35,168,16,80,71,261,33,83,10,344,11,84,07,293,*6C
$GNGLL,0419.86007,S,05539.61066,E,065104.00,A,A*64
$GNRMC,065105.00,A,0419.86014,S,05539.61064,E,0.283,,270525,,,A*72
$GNVTG,,T,,M,0.283,N,0.525,K,A*36
$GNGGA,065105.00,0419.86014,S,05539.61064,E,1,12,0.88,14.2,M,-47.6,M,,*4C
$GNGSA,A,3,12,25,23,15,05,18,24,29,10,,,,1.52,0.88,1.24*1C
$GNGSA,A,3,80,79,69,,,,,,,,,,1.52,0.88,1.24*14
$GPGSV,5,1,17,05,31,031,19,10,13,214,25,12,71,116,11,13,13,098,08*7F
$GPGSV,5,2,17,15,42,125,14,18,30,302,17,20,00,033,,23,55,217,28*79
$GPGSV,5,3,17,24,28,169,12,25,69,335,31,28,07,284,19,29,17,354,32*72
$GPGSV,5,4,17,36,52,277,30,40,86,351,,41,58,082,33,49,32,274,*7F
$GPGSV,5,5,17,50,10,089,*4A
$GLGSV,2,1,08,67,10,054,,68,39,097,09,69,35,163,26,73,24,319,20*6E
$GLGSV,2,2,08,79,35,168,14,80,71,261,33,83,10,344,08,84,07,293,*66
$GNGLL,0419.86014,S,05539.61064,E,065105.00,A,A*65
$GNRMC,065106.00,A,0419.86021,S,05539.61041,E,0.505,,270525,,,A*79
$GNVTG,,T,,M,0.505,N,0.935,K,A*32
$GNGGA,065106.00,0419.86021,S,05539.61041,E,1,12,0.80,13.9,M,-47.6,M,,*4A
$GNGSA,A,3,12,25,23,15,05,18,24,29,10,,,,1.48,0.80,1.24*1F
$GNGSA,A,3,80,68,79,69,,,,,,,,,1.48,0.80,1.24*19
$GPGSV,5,1,17,05,31,031,19,10,13,214,25,12,71,116,13,13,13,098,08*7D
$GPGSV,5,2,17,15,42,125,16,18,30,302,17,20,00,033,,23,55,217,27*74
$GPGSV,5,3,17,24,28,169,14,25,69,335,31,28,07,284,19,29,17,354,31*77
$GPGSV,5,4,17,36,52,277,30,40,86,351,,41,58,082,33,49,32,274,*7F
$GPGSV,5,5,17,50,10,089,*4A
$GLGSV,2,1,08,67,10,054,,68,39,097,10,69,35,163,26,73,24,319,20*66
$GLGSV,2,2,08,79,35,167,13,80,71,261,33,83,10,344,08,84,07,293,*6E
$GNGLL,0419.86021,S,05539.61041,E,065106.00,A,A*67
$GNRMC,065107.00,A,0419.86026,S,05539.61016,E,0.632,,270525,,,A*7A
$GNVTG,,T,,M,0.632,N,1.170,K,A*3D
$GNGGA,065107.00,0419.86026,S,05539.61016,E,1,12,0.80,13.6,M,-47.6,M,,*41
$GNGSA,A,3,12,25,23,15,05,18,24,29,10,,,,1.48,0.80,1.24*1F
$GNGSA,A,3,80,68,79,69,,,,,,,,,1.48,0.80,1.24*19
$GPGSV,5,1,17,05,31,031,20,10,13,214,25,12,71,116,12,13,13,098,08*76
$GPGSV,5,2,17,15,42,125,16,18,30,302,17,20,00,033,,23,55,217,27*74
$GPGSV,5,3,17,24,28,169,14,25,69,335,32,28,07,284,20,29,17,354,31*7E
$GPGSV,5,4,17,36,52,277,31,40,86,351,,41,58,082,34,49,32,274,*79
$GPGSV,5,5,17,50,10,089,*4A
$GLGSV,2,1,08,67,10,054,,68,39,097,11,69,35,163,27,73,24,319,21*67
$GLGSV,2,2,08,79,35,167,14,80,70,258,35,83,10,344,09,84,07,293,*65
$GNGLL,0419.86026,S,05539.61016,E,065107.00,A,A*63
$GNRMC,065108.00,A,0419.86030,S,05539.60995,E,0.391,,270525,,,A*7D
$GNVTG,,T,,M,0.391,N,0.724,K,A*37
$GNGGA,065108.00,0419.86030,S,05539.60995,E,1,12,0.80,13.4,M,-47.6,M,,*48
$GNGSA,A,3,12,25,23,15,05,18,24,13,29,10,,,1.48,0.80,1.24*1D
$GNGSA,A,3,80,68,79,69,83,,,,,,,,1.48,0.80,1.24*12
$GPGSV,5,1,17,05,31,031,19,10,13,214,26,12,71,116,13,13,13,098,10*77
$GPGSV,5,2,17,15,42,125,18,18,30,302,18,20,00,033,,23,55,217,27*75
$GPGSV,5,3,17,24,28,169,14,25,69,335,32,28,07,284,20,29,17,354,32*7D
$GPGSV,5,4,17,36,52,277,31,40,86,351,,41,58,082,33,49,32,274,*7E
$GPGSV,5,5,17,50,10,089,*4A
$GLGSV,2,1,08,67,10,054,,68,39,097,09,69,35,163,27,73,24,319,22*6D
$GLGSV,2,2,08,79,35,167,12,80,70,258,35,83,10,344,09,84,07,293,*63
$GNGLL,0419.86030,S,05539.60995,E,065108.00,A,A*68
$GNRMC,065109.00,A,0419.86033,S,05539.60989,E,0.050,,270525,,,A*7C
$GNVTG,,T,,M,0.050,N,0.092,K,A*33
$GNGGA,065109.00,0419.86033,S,05539.60989,E,1,12,0.80,13.2,M,-47.6,M,,*41
$GNGSA,A,3,12,25,23,15,05,18,24,13,29,10,,,1.48,0.80,1.24*1D
$GNGSA,A,3,80,68,79,69,83,,,,,,,,1.48,0.80,1.24*12
$GPGSV,5,1,17,05,31,031,19,10,13,214,26,12,71,116,13,13,13,098,10*77
$GPGSV,5,2,17,15,42,125,18,18,30,302,17,20,00,033,,23,55,217,28*75
$GPGSV,5,3,17,24,28,169,14,25,69,335,32,28,07,284,21,29,17,354,32*7C
$GPGSV,5,4,17,36,52,277,30,40,86,351,,41,58,082,34,49,32,274,*78
$GPGSV,5,5,17,50,10,089,*4A
$GLGSV,2,1,08,67,10,054,,68,39,097,11,69,35,163,27,73,24,319,22*64
$GLGSV,2,2,08,79,35,167,13,80,70,258,35,83,10,344,09,84,07,293,*62
$GNGLL,0419.86033,S,05539.60989,E,065109.00,A,A*67
$GNRMC,065110.00,A,0419.86038,S,05539.60991,E,0.316,,270525,,,A*77
$GNVTG,,T,,M,0.316,N,0.586,K,A*32
$GNGGA,065110.00,0419.86038,S,05539.60991,E,1,12,0.88,13.0,M,-47.6,M,,*41
$GNGSA,A,3,12,25,23,15,05,18,24,13,29,10,,,1.52,0.88,1.24*1E
$GNGSA,A,3,80,79,69,83,,,,,,,,,1.52,0.88,1.24*1F
$GPGSV,5,1,17,05,31,031,20,10,13,214,26,12,71,116,13,13,13,098,10*7D
$GPGSV,5,2,17,15,42,125,20,18,30,302,17,20,00,033,,23,55,217,28*7E
$GPGSV,5,3,17,24,28,169,13,25,69,335,32,28,07,284,22,29,17,354,32*78
$GPGSV,5,4,17,36,52,277,31,40,86,351,,41,58,082,33,49,32,274,*7E
$GPGSV,5,5,17,50,10,089,*4A
$GLGSV,2,1,08,67,10,054,,68,39,097,10,69,35,163,27,73,24,319,22*65
$GLGSV,2,2,08,79,35,167,17,80,70,258,35,83,10,344,09,84,07,293,*66
$GNGLL,0419.86038,S,05539.60991,E,065110.00,A,A*6D
$GNRMC,065111.00,A,0419.86041,S,05539.60986,E,0.157,,270525,,,A*79
$GNVTG,,T,,M,0.157,N,0.291,K,A*34
$GNGGA,065111.00,0419.86041,S,05539.60986,E,1,12,0.88,12.8,M,-47.6,M,,*41
$GNGSA,A,3,12,25,23,15,05,18,24,29,10,,,,1.52,0.88,1.24*1C
$GNGSA,A,3,80,79,69,,,,,,,,,,1.52,0.88,1.24*14
$GPGSV,5,1,17,05,31,031,21,10,13,214,26,12,71,116,13,13,13,098,10*7C
$GPGSV,5,2,17,15,42,125,19,18,30,302,18,20,00,033,,23,55,217,28*7B
$GPGSV,5,3,17,24,28,169,12,25,69,335,32,28,07,284,23,29,17,354,31*7B
$GPGSV,5,4,17,36,52,277,29,40,86,351,,41,58,082,33,49,32,274,*77
$GPGSV,5,5,17,50,10,089,*4A
$GLGSV,2,1,08,67,10,054,,68,39,097,09,69,35,163,28,73,24,319,22*62
$GLGSV,2,2,08,79,35,167,19,80,70,258,35,83,10,344,11,84,07,293,*61
$GNGLL,0419.86041,S,05539.60986,E,065111.00,A,A*64
$GNRMC,065112.00,A,0419.86044,S,05539.60979,E,0.131,,270525,,,A*7F
$GNVTG,,T,,M,0.131,N,0.242,K,A*3A
$GNGGA,065112.00,0419.86044,S,05539.60979,E,1,11,0.91,12.6,M,-47.6,M,,*42
$GNGSA,A,3,12,25,23,15,05,18,29,10,,,,,1.57,0.91,1.28*1B
$GNGSA,A,3,80,79,69,,,,,,,,,,1.57,0.91,1.28*15
$GPGSV,5,1,17,05,31,031,20,10,13,214,26,12,71,116,13,13,13,098,10*7D
$GPGSV,5,2,17,15,42,125,19,18,30,302,16,20,00,033,,23,55,217,29*74
$GPGSV,5,3,17,24,28,169,,25,69,335,32,28,07,284,23,29,17,354,31*78
$GPGSV,5,4,17,36,52,277,29,40,86,351,,41,58,082,33,49,32,274,*77
$GPGSV,5,5,17,50,10,089,*4A
$GLGSV,2,1,08,67,10,054,,68,39,097,08,69,35,163,28,73,24,319,23*62
$GLGSV,2,2,08,79,35,167,17,80,70,258,34,83,10,344,16,84,07,293,*69
$GNGLL,0419.86044,S,05539.60979,E,065112.00,A,A*62
$GNRMC,065113.00,A,0419.86048,S,05539.60976,E,0.065,,270525,,,A*7D
$GNVTG,,T,,M,0.065,N,0.120,K,A*3D
$GNGGA,065113.00,0419.86048,S,05539.60976,E,1,11,0.91,12.3,M,-47.6,M,,*45
$GNGSA,A,3,12,25,23,15,05,18,29,10,,,,,1.57,0.91,1.28*1B
$GNGSA,A,3,80,79,69,,,,,,,,,,1.57,0.91,1.28*15
$GPGSV,5,1,17,05,31,031,19,10,13,214,27,12,71,116,14,13,13,098,10*71
$GPGSV,5,2,17,15,42,125,19,18,30,302,14,20,00,033,,23,55,217,29*76
$GPGSV,5,3,17,24,28,169,,25,69,335,32,28,07,284,22,29,17,354,31*79
$GPGSV,5,4,17,36,52,277,29,40,86,351,,41,58,082,32,49,32,274,*76
$GPGSV,5,5,17,50,10,089,*4A
$GLGSV,2,1,08,67,10,054,,68,39,097,08,69,35,163,28,73,24,319,23*62
$GLGSV,2,2,08,79,35,167,18,80,70,258,35,83,10,344,13,84,07,293,*62
$GNGLL,0419.86048,S,05539.60976,E,065113.00,A,A*60
$GNRMC,065114.00,A,0419.86052,S,05539.60971,E,0.046,,270525,,,A*77
$GNVTG,,T,,M,0.046,N,0.086,K,A*31
$GNGGA,065114.00,0419.86052,S,05539.60971,E,1,12,0.91,12.1,M,-47.6,M,,*4F
$GNGSA,A,3,12,25,23,15,05,18,13,29,10,,,,1.57,0.91,1.28*19
$GNGSA,A,3,80,79,69,83,,,,,,,,,1.57,0.91,1.28*1E
$GPGSV,5,1,17,05,31,031,18,10,13,214,27,12,71,116,11,13,13,098,11*74
$GPGSV,5,2,17,15,42,125,20,18,30,302,12,20,00,033,,23,55,217,28*7B
$GPGSV,5,3,17,24,28,169,05,25,69,335,32,28,07,284,21,29,17,354,31*7F
$GPGSV,5,4,17,36,52,277,29,40,86,351,,41,58,082,33,49,32,274,*77
$GPGSV,5,5,17,50,10,089,*4A
$GLGSV,2,1,08,67,10,054,,68,39,097,08,69,35,163,28,73,24,319,23*62
$GLGSV,2,2,08,79,35,167,20,80,70,258,36,83,10,344,14,84,07,293,*6D
$GNGLL,0419.86052,S,05539.60971,E,065114.00,A,A*6B
$GNRMC,065115.00,A,0419.86053,S,05539.60972,E,0.050,,270525,,,A*73
$GNVTG,,T,,M,0.050,N,0.093,K,A*32
$GNGGA,065115.00,0419.86053,S,05539.60972,E,1,12,0.91,11.9,M,-47.6,M,,*47
$GNGSA,A,3,12,25,23,15,05,18,13,29,10,,,,1.57,0.91,1.28*19
$GNGSA,A,3,80,79,69,83,,,,,,,,,1.57,0.91,1.28*1E
$GPGSV,5,1,17,05,31,031,19,10,13,214,27,12,71,116,13,13,13,098,11*77
$GPGSV,5,2,17,15,42,125,21,18,30,302,13,20,00,033,,23,55,217,27*74
$GPGSV,5,3,17,24,28,169,08,25,69,335,32,28,07,284,21,29,17,354,31*72
$GPGSV,5,4,17,36,52,277,28,40,86,351,,41,58,082,33,49,32,274,*76
$GPGSV,5,5,17,50,10,089,*4A
$GLGSV,2,1,08,67,10,054,,68,39,097,08,69,35,163,28,73,24,319,23*62
$GLGSV,2,2,08,79,35,167,20,80,70,258,36,83,10,344,08,84,07,293,*60
$GNGLL,0419.86053,S,05539.60972,E,065115.00,A,A*68
$GNRMC,065116.00,A,0419.86054,S,05539.60974,E,0.091,,270525,,,A*7C
$GNVTG,,T,,M,0.091,N,0.168,K,A*3A
$GNGGA,065116.00,0419.86054,S,05539.60974,E,1,12,0.91,11.8,M,-47.6,M,,*44
$GNGSA,A,3,12,25,23,15,05,18,13,29,10,,,,1.57,0.91,1.28*19
$GNGSA,A,3,80,68,79,69,83,,,,,,,,1.57,0.91,1.28*10
$GPGSV,5,1,17,05,31,031,19,10,13,214,27,12,71,116,14,13,13,098,11*70
$GPGSV,5,2,17,15,42,125,21,18,30,302,13,20,00,033,,23,55,217,27*74
$GPGSV,5,3,17,24,28,169,13,25,69,335,32,28,07,284,21,29,17,354,31*78
$GPGSV,5,4,17,36,52,277,28,40,86,351,,41,58,082,33,49,32,274,*76
$GPGSV,5,5,17,50,10,089,*4A
$GLGSV,2,1,08,67,10,054,,68,39,097,15,69,35,163,28,73,24,319,22*6F
$GLGSV,2,2,08,79,35,167,21,80,70,258,36,83,10,344,09,84,07,293,*60
$GNGLL,0419.86054,S,05539.60974,E,065116.00,A,A*6A
$GNRMC,065117.00,A,0419.86056,S,05539.60973,E,0.141,,270525,,,A*74
$GNVTG,,T,,M,0.141,N,0.260,K,A*3D
$GNGGA,065117.00,0419.86056,S,05539.60973,E,1,12,0.89,11.6,M,-47.6,M,,*47
$GNGSA,A,3,12,25,23,15,05,18,13,29,10,,,,1.46,0.89,1.17*1C
$GNGSA,A,3,80,68,79,69,83,,,,,,,,1.46,0.89,1.17*15
$GPGSV,5,1,17,05,31,031,21,10,13,214,27,12,71,116,16,13,13,098,11*79
$GPGSV,5,2,17,15,42,125,20,18,30,302,12,20,00,033,,23,55,217,27*74
$GPGSV,5,3,17,24,28,169,15,25,69,335,32,28,07,284,21,29,17,354,31*7E
$GPGSV,5,4,17,36,52,277,27,40,86,351,,41,58,082,33,49,32,274,*79
$GPGSV,5,5,17,50,10,089,*4A
$GLGSV,2,1,08,67,10,054,,68,39,097,09,69,35,163,28,73,24,319,23*63
$GLGSV,2,2,08,79,35,167,20,80,70,258,36,83,10,344,11,84,07,293,*68
$GNGLL,0419.86056,S,05539.60973,E,065117.00,A,A*6E
$GNRMC,065118.00,A,0419.86059,S,05539.60981,E,0.268,,270525,,,A*71
$GNVTG,,T,,M,0.268,N,0.496,K,A*3A
$GNGGA,065118.00,0419.86059,S,05539.60981,E,1,12,0.82,11.5,M,-47.6,M,,*42
$GNGSA,A,3,12,25,23,15,05,18,24,13,29,10,,,1.52,0.82,1.27*17
$GNGSA,A,3,80,68,79,69,83,,,,,,,,1.52,0.82,1.27*18
$GPGSV,5,1,17,05,31,031,22,10,13,214,26,12,71,116,17,13,13,098,11*7A
$GPGSV,5,2,17,15,42,125,21,18,30,302,12,20,00,033,,23,55,217,28*7A
$GPGSV,5,3,17,24,28,169,15,25,69,335,32,28,07,284,21,29,17,354,31*7E
$GPGSV,5,4,17,36,52,277,27,40,86,351,,41,58,082,33,49,32,274,*79
$GPGSV,5,5,17,50,10,089,*4A
$GLGSV,2,1,08,67,10,054,,68,39,097,12,69,35,163,28,73,24,319,23*69
$GLGSV,2,2,08,79,35,167,19,80,70,258,36,83,10,344,11,84,07,293,*62
$GNGLL,0419.86059,S,05539.60981,E,065118.00,A,A*63
$GNRMC,065119.00,A,0419.86062,S,05539.60992,E,0.243,,270525,,,A*73
$GNVTG,,T,,M,0.243,N,0.450,K,A*39
$GNGGA,065119.00,0419.86062,S,05539.60992,E,1,12,0.80,11.2,M,-47.6,M,,*4C
$GNGSA,A,3,12,25,23,15,05,18,24,13,29,10,,,1.48,0.80,1.24*1D
