$GNRMC,104725.00,A,0420.02300,S,05540.05127,E,3.881,46.69,220525,,,D*52
$GNVTG,46.69,T,,M,3.881,N,7.187,K,D*10
$GNGGA,104725.00,0420.02300,S,05540.05127,E,2,12,0.54,11.1,M,-47.6,M,,0000*40
$GNGSA,A,3,29,10,32,26,23,25,18,24,28,16,31,41,1.06,0.54,0.91*1E
$GNGSA,A,3,65,86,87,72,66,76,77,,,,,,1.06,0.54,0.91*14
$GPGSV,5,1,17,10,34,326,39,16,20,286,30,18,23,036,46,23,18,008,31*77
$GPGSV,5,2,17,24,07,080,23,25,16,153,37,26,31,256,30,27,08,328,41*76
$GPGSV,5,3,17,28,25,191,41,29,48,125,42,31,12,216,38,32,73,200,44*77
$GPGSV,5,4,17,36,52,277,,40,85,352,46,41,58,082,42,49,32,274,*78
$GPGSV,5,5,17,50,10,089,*4A
$GLGSV,3,1,10,65,66,336,38,66,48,224,34,72,16,017,35,76,18,185,31*63
$GLGSV,3,2,10,77,18,232,21,85,-1,134,11,86,26,086,26,87,28,034,34*7E
$GLGSV,3,3,10,88,00,343,23,,,,31*53
$GNGLL,0420.02300,S,05540.05127,E,104725.00,A,D*68
$GNRMC,104726.00,A,0420.02224,S,05540.05206,E,4.007,46.00,220525,,,D*58
$GNVTG,46.00,T,,M,4.007,N,7.420,K,D*16
$GNGGA,104726.00,0420.02224,S,05540.05206,E,2,12,0.57,11.1,M,-47.6,M,,0000*47
$GNGSA,A,3,29,10,32,26,23,25,18,28,16,31,41,27,1.13,0.57,0.98*13
$GNGSA,A,3,65,86,87,72,66,76,77,,,,,,1.13,0.57,0.98*1A
$GPGSV,5,1,17,10,34,326,39,16,20,286,27,18,23,036,36,23,18,008,35*72
$GPGSV,5,2,17,24,07,080,20,25,16,153,35,26,31,256,29,27,08,328,32*7B
$GPGSV,5,3,17,28,25,191,33,29,48,125,34,31,12,216,31,32,73,200,40*7E
$GPGSV,5,4,17,36,52,277,31,40,85,352,39,41,58,082,33,49,32,274,*74
$GPGSV,5,5,17,50,10,089,*4A
$GLGSV,3,1,10,65,66,336,35,66,48,224,29,72,16,017,25,76,18,185,30*62
$GLGSV,3,2,10,77,18,232,21,85,-1,134,13,86,27,086,26,87,28,034,30*79
$GLGSV,3,3,10,88,00,343,23,,,,30*52
$GNGLL,0420.02224,S,05540.05206,E,104726.00,A,D*6C
$GNRMC,104727.00,A,0420.02148,S,05540.05284,E,3.843,46.11,220525,,,D*55
$GNVTG,46.11,T,,M,3.843,N,7.117,K,D*18
$GNGGA,104727.00,0420.02148,S,05540.05284,E,2,12,0.57,11.2,M,-47.6,M,,0000*46
$GNGSA,A,3,29,10,32,26,23,25,18,28,16,31,41,27,1.13,0.57,0.98*13
$GNGSA,A,3,65,86,87,72,66,76,77,,,,,,1.13,0.57,0.98*1A
$GPGSV,5,1,17,10,34,326,39,16,20,286,25,18,23,036,35,23,18,008,28*7F
$GPGSV,5,2,17,24,07,080,17,25,16,153,33,26,31,256,27,27,08,328,27*73
$GPGSV,5,3,17,28,25,191,34,29,48,125,37,31,12,216,30,32,73,200,40*7B
$GPGSV,5,4,17,36,52,277,31,40,85,352,41,41,58,082,35,49,32,274,*7D
$GPGSV,5,5,17,50,10,089,*4A
$GLGSV,3,1,10,65,66,336,36,66,48,224,30,72,16,017,32,76,18,185,29*67
$GLGSV,3,2,10,77,18,232,22,85,-1,134,11,86,27,086,28,87,28,035,33*74
$GLGSV,3,3,10,88,00,343,24,,,,35*50
$GNGLL,0420.02148,S,05540.05284,E,104727.00,A,D*6E
$GNRMC,104728.00,A,0420.02074,S,05540.05350,E,3.397,44.31,220525,,,D*5E
$GNVTG,44.31,T,,M,3.397,N,6.292,K,D*15
$GNGGA,104728.00,0420.02074,S,05540.05350,E,2,12,0.57,11.3,M,-47.6,M,,0000*4E
$GNGSA,A,3,29,10,32,26,23,25,18,28,16,31,41,27,1.13,0.57,0.98*13
$GNGSA,A,3,65,86,87,72,66,76,77,,,,,,1.13,0.57,0.98*1A
$GPGSV,5,1,17,10,34,326,44,16,20,286,31,18,23,036,41,23,18,008,35*7F
$GPGSV,5,2,17,24,07,080,20,25,16,153,35,26,31,256,30,27,08,328,33*72
$GPGSV,5,3,17,28,25,191,40,29,48,125,39,31,12,216,28,32,73,200,42*7D
$GPGSV,5,4,17,36,52,277,38,40,85,352,44,41,58,082,36,49,32,274,*72
$GPGSV,5,5,17,50,10,089,*4A
$GLGSV,3,1,10,65,66,336,39,66,48,224,31,72,16,017,33,76,18,185,35*65
$GLGSV,3,2,10,77,18,232,22,85,-1,134,07,86,27,086,32,87,28,035,33*78
$GLGSV,3,3,10,88,01,343,30,,,,32*53
$GNGLL,0420.02074,S,05540.05350,E,104728.00,A,D*67
$GNRMC,104729.00,A,0420.02012,S,05540.05403,E,2.826,43.32,220525,,,D*5A
$GNVTG,43.32,T,,M,2.826,N,5.234,K,D*1E
$GNGGA,104729.00,0420.02012,S,05540.05403,E,2,12,0.57,11.2,M,-47.6,M,,0000*4F
$GNGSA,A,3,29,10,32,26,23,25,18,24,28,16,31,41,1.13,0.57,0.98*10
$GNGSA,A,3,65,86,87,72,66,76,77,,,,,,1.13,0.57,0.98*1A
$GPGSV,5,1,17,10,34,326,45,16,20,286,31,18,23,036,38,23,18,008,31*74
$GPGSV,5,2,17,24,07,080,22,25,16,153,36,26,31,256,31,27,08,328,40*76
$GPGSV,5,3,17,28,25,191,38,29,48,125,35,31,12,216,36,32,73,200,43*70
$GPGSV,5,4,17,36,52,277,28,40,85,352,41,41,58,082,36,49,32,274,*76
$GPGSV,5,5,17,50,10,089,*4A
$GLGSV,3,1,09,65,66,336,37,66,48,224,22,72,16,017,31,76,18,185,32*64
$GLGSV,3,2,09,77,18,232,23,86,27,086,36,87,28,035,33,88,01,343,33*60
$GLGSV,3,3,09,,,,30*6F
$GNGLL,0420.02012,S,05540.05403,E,104729.00,A,D*67
$GNRMC,104730.00,A,0420.01950,S,05540.05450,E,2.825,39.85,220525,,,D*5A
$GNVTG,39.85,T,,M,2.825,N,5.232,K,D*1A
$GNGGA,104730.00,0420.01950,S,05540.05450,E,2,12,0.52,11.4,M,-47.6,M,,0000*4E
$GNGSA,A,3,29,10,32,26,23,25,18,24,28,16,31,41,1.02,0.52,0.88*14
$GNGSA,A,3,65,86,87,72,66,76,77,,,,,,1.02,0.52,0.88*1E
$GPGSV,5,1,17,10,34,326,40,16,20,286,26,18,23,036,32,23,18,008,40*7B
$GPGSV,5,2,17,24,07,080,25,25,16,153,39,26,31,256,27,27,08,328,36*78
$GPGSV,5,3,17,28,25,191,36,29,48,125,35,31,12,216,28,32,73,200,39*7C
$GPGSV,5,4,17,36,52,277,34,40,85,352,41,41,58,082,37,49,32,274,*7A
$GPGSV,5,5,17,50,10,089,*4A
$GLGSV,3,1,09,65,66,336,35,66,48,224,30,72,16,017,35,76,18,185,28*6A
$GLGSV,3,2,09,77,18,232,21,86,27,086,30,87,28,035,27,88,01,343,34*66
$GLGSV,3,3,09,,,,38*67
$GNGLL,0420.01950,S,05540.05450,E,104730.00,A,D*65
$GNRMC,104731.00,A,0420.01874,S,05540.05482,E,2.926,28.06,220525,,,D*5A
$GNVTG,28.06,T,,M,2.926,N,5.420,K,D*16
$GNGGA,104731.00,0420.01874,S,05540.05482,E,2,12,0.52,11.6,M,-47.6,M,,0000*45
$GNGSA,A,3,29,10,32,26,23,25,18,24,28,16,31,41,1.02,0.52,0.88*14
$GNGSA,A,3,65,86,87,72,66,76,77,,,,,,1.02,0.52,0.88*1E
$GPGSV,5,1,17,10,34,326,41,16,20,286,24,18,23,036,32,23,18,008,42*7A
$GPGSV,5,2,17,24,07,080,25,25,16,153,36,26,31,256,31,27,08,328,41*70
$GPGSV,5,3,17,28,25,191,36,29,48,125,39,31,12,216,33,32,73,200,40*74
$GPGSV,5,4,17,36,52,277,36,40,85,352,40,41,58,082,39,49,32,274,*77
$GPGSV,5,5,17,50,10,089,*4A
$GLGSV,3,1,09,65,66,336,37,66,48,224,33,72,16,017,32,76,18,185,25*61
$GLGSV,3,2,09,77,18,232,19,86,27,086,29,87,28,035,25,88,01,343,31*62
$GLGSV,3,3,09,,,,30*6F
$GNGLL,0420.01874,S,05540.05482,E,104731.00,A,D*6C
$GNRMC,104732.00,A,0420.01815,S,05540.05501,E,1.927,24.40,220525,,,D*58
$GNVTG,24.40,T,,M,1.927,N,3.569,K,D*10
$GNGGA,104732.00,0420.01815,S,05540.05501,E,2,12,0.52,11.5,M,-47.6,M,,0000*48
$GNGSA,A,3,29,10,32,26,23,25,18,24,28,16,31,41,1.02,0.52,0.88*14
$GNGSA,A,3,65,86,87,72,66,76,77,,,,,,1.02,0.52,0.88*1E
$GPGSV,5,1,17,10,34,326,43,16,20,286,34,18,23,036,30,23,18,008,38*76
$GPGSV,5,2,17,24,07,080,25,25,16,153,38,26,31,256,37,27,08,328,35*7B
$GPGSV,5,3,17,28,25,191,36,29,48,125,39,31,12,216,29,32,73,200,40*7F
$GPGSV,5,4,17,36,52,277,36,40,85,352,42,41,58,082,39,49,32,274,*75
$GPGSV,5,5,17,50,10,089,*4A
$GLGSV,3,1,09,65,66,336,33,66,48,224,30,72,16,017,28,76,18,185,26*6E
$GLGSV,3,2,09,77,18,232,16,86,27,086,34,87,28,035,25,88,01,343,34*64
$GLGSV,3,3,09,,,,22*6C
$GNGLL,0420.01815,S,05540.05501,E,104732.00,A,D*62
$GNRMC,104733.00,A,0420.01763,S,05540.05514,E,1.823,18.05,220525,,,D*58
$GNVTG,18.05,T,,M,1.823,N,3.376,K,D*13
$GNGGA,104733.00,0420.01763,S,05540.05514,E,2,12,0.52,11.6,M,-47.6,M,,0000*40
$GNGSA,A,3,29,10,32,26,23,25,18,24,28,16,31,41,1.02,0.52,0.88*14
$GNGSA,A,3,65,86,87,72,66,76,77,,,,,,1.02,0.52,0.88*1E
$GPGSV,5,1,17,10,34,326,41,16,20,286,40,18,23,036,33,23,18,008,34*78
$GPGSV,5,2,17,24,07,080,25,25,16,153,33,26,31,256,39,27,08,328,35*7E
$GPGSV,5,3,17,28,25,191,33,29,48,125,38,31,12,216,31,32,73,200,42*70
$GPGSV,5,4,17,36,52,277,38,40,85,352,43,41,58,082,41,49,32,274,*75
$GPGSV,5,5,17,50,10,089,*4A
$GLGSV,3,1,09,65,66,336,36,66,48,224,31,72,16,017,27,76,18,185,32*60
$GLGSV,3,2,09,77,18,232,16,86,27,086,30,87,28,035,24,88,01,343,36*63
$GLGSV,3,3,09,,,,22*6C
$GNGLL,0420.01763,S,05540.05514,E,104733.00,A,D*69
$GNRMC,104734.00,A,0420.01719,S,05540.05524,E,1.499,15.85,220525,,,D*59
$GNVTG,15.85,T,,M,1.499,N,2.776,K,D*1E
$GNGGA,104734.00,0420.01719,S,05540.05524,E,2,12,0.53,11.6,M,-47.6,M,,0000*48
$GNGSA,A,3,29,10,32,26,23,25,18,24,28,16,31,41,1.04,0.53,0.89*12
$GNGSA,A,3,65,86,87,72,66,76,77,,,,,,1.04,0.53,0.89*18
$GPGSV,5,1,17,10,34,326,40,16,20,286,38,18,23,036,34,23,18,008,30*75
$GPGSV,5,2,17,24,07,080,31,25,16,153,32,26,31,256,39,27,08,328,25*7B
$GPGSV,5,3,17,28,25,191,28,29,48,125,39,31,12,216,25,32,73,200,39*72
$GPGSV,5,4,17,36,52,277,36,40,85,352,43,41,58,082,41,49,32,274,*7B
$GPGSV,5,5,17,50,10,089,*4A
$GLGSV,3,1,09,65,66,336,35,66,48,224,32,72,16,017,25,76,18,185,32*62
$GLGSV,3,2,09,77,18,232,17,86,27,086,31,87,28,035,26,88,01,343,33*64
$GLGSV,3,3,09,,,,21*6F
$GNGLL,0420.01719,S,05540.05524,E,104734.00,A,D*60
$GNRMC,104735.00,A,0420.01670,S,05540.05531,E,1.787,10.61,220525,,,D*51
$GNVTG,10.61,T,,M,1.787,N,3.309,K,D*10
$GNGGA,104735.00,0420.01670,S,05540.05531,E,2,12,0.53,11.8,M,-47.6,M,,0000*4D
$GNGSA,A,3,29,10,32,26,23,25,18,24,28,16,31,41,1.04,0.53,0.89*12
$GNGSA,A,3,65,86,87,72,66,76,77,,,,,,1.04,0.53,0.89*18
$GPGSV,5,1,17,10,34,326,36,16,20,286,40,18,23,036,38,23,18,008,32*75
$GPGSV,5,2,17,24,07,080,31,25,16,153,34,26,31,256,39,27,08,328,31*78
$GPGSV,5,3,17,28,25,191,27,29,48,125,40,31,12,216,27,32,73,200,40*7F
$GPGSV,5,4,17,36,52,277,38,40,85,352,43,41,58,082,38,49,32,274,*7B
$GPGSV,5,5,17,50,10,089,*4A
$GLGSV,3,1,09,65,66,336,35,66,48,224,32,72,16,017,31,76,18,185,23*67
$GLGSV,3,2,09,77,18,232,17,86,27,086,31,87,28,035,31,88,01,343,31*60
$GLGSV,3,3,09,,,,21*6F
$GNGLL,0420.01670,S,05540.05531,E,104735.00,A,D*6B
$GNRMC,104736.00,A,0420.01624,S,05540.05539,E,1.615,8.76,220525,,,D*6E
$GNVTG,8.76,T,,M,1.615,N,2.991,K,D*2F
$GNGGA,104736.00,0420.01624,S,05540.05539,E,2,12,0.52,11.9,M,-47.6,M,,0000*47
$GNGSA,A,3,29,10,32,26,23,25,18,24,28,16,31,41,1.02,0.52,0.88*14
$GNGSA,A,3,65,86,87,72,66,76,77,,,,,,1.02,0.52,0.88*1E
$GPGSV,5,1,17,10,34,326,39,16,20,286,41,18,23,036,38,23,18,008,37*7E
$GPGSV,5,2,17,24,07,080,31,25,16,153,34,26,31,256,39,27,08,328,23*7B
$GPGSV,5,3,17,28,25,191,25,29,48,125,39,31,12,216,27,32,73,200,37*73
$GPGSV,5,4,17,36,52,277,40,40,85,352,41,41,58,082,38,49,32,274,*76
$GPGSV,5,5,17,50,10,089,*4A
$GLGSV,3,1,09,65,66,336,33,66,48,224,32,72,16,017,34,76,18,185,25*62
$GLGSV,3,2,09,77,18,232,20,86,27,086,29,87,28,035,36,88,01,343,30*6B
$GLGSV,3,3,09,,,,23*6D
$GNGLL,0420.01624,S,05540.05539,E,104736.00,A,D*61
$GNRMC,104737.00,A,0420.01578,S,05540.05540,E,1.632,4.73,220525,,,D*67
$GNVTG,4.73,T,,M,1.632,N,3.022,K,D*23
$GNGGA,104737.00,0420.01578,S,05540.05540,E,2,12,0.52,11.8,M,-47.6,M,,0000*43
$GNGSA,A,3,29,10,32,26,23,25,18,24,28,16,31,41,1.02,0.52,0.88*14
$GNGSA,A,3,65,86,87,72,66,76,77,,,,,,1.02,0.52,0.88*1E
$GPGSV,5,1,17,10,34,326,40,16,20,286,42,18,23,036,38,23,18,008,35*71
$GPGSV,5,2,17,24,07,080,34,25,16,153,34,26,31,256,39,27,08,328,20*7D
$GPGSV,5,3,17,28,25,191,24,29,48,125,40,31,12,216,30,32,73,200,41*7B
$GPGSV,5,4,17,36,52,277,40,40,85,352,43,41,58,082,38,49,32,274,*74
$GPGSV,5,5,17,50,10,089,*4A
$GLGSV,3,1,09,65,66,336,33,66,48,224,27,72,16,017,32,76,18,185,25*60
$GLGSV,3,2,09,77,18,232,23,86,27,086,32,87,28,035,35,88,01,343,29*69
$GLGSV,3,3,09,,,,34*6B
$GNGLL,0420.01578,S,05540.05540,E,104737.00,A,D*64
$GNRMC,104738.00,A,0420.01537,S,05540.05546,E,1.336,7.45,220525,,,D*62
$GNVTG,7.45,T,,M,1.336,N,2.474,K,D*22
$GNGGA,104738.00,0420.01537,S,05540.05546,E,2,12,0.52,11.6,M,-47.6,M,,0000*4F
$GNGSA,A,3,29,10,32,26,23,25,18,24,28,16,31,41,1.02,0.52,0.88*14
$GNGSA,A,3,65,86,87,72,66,76,77,,,,,,1.02,0.52,0.88*1E
$GPGSV,5,1,17,10,34,326,40,16,20,286,40,18,23,036,36,23,18,008,31*79
$GPGSV,5,2,17,24,07,080,29,25,16,153,35,26,31,256,41,27,08,328,21*7E
$GPGSV,5,3,17,28,25,191,22,29,48,125,39,31,12,216,30,32,73,200,41*73
$GPGSV,5,4,17,36,52,277,40,40,85,352,42,41,58,082,38,49,32,274,*75
$GPGSV,5,5,17,50,10,089,*4A
$GLGSV,3,1,09,65,66,336,36,66,48,224,29,72,16,017,25,76,18,185,25*6D
$GLGSV,3,2,09,77,18,232,24,86,27,086,31,87,28,035,36,88,01,343,24*63
$GLGSV,3,3,09,,,,30*6F
$GNGLL,0420.01537,S,05540.05546,E,104738.00,A,D*66
$GNRMC,104739.00,A,0420.01510,S,05540.05556,E,0.884,12.88,220525,,,D*51
$GNVTG,12.88,T,,M,0.884,N,1.638,K,D*1D
$GNGGA,104739.00,0420.01510,S,05540.05556,E,2,12,0.52,11.6,M,-47.6,M,,0000*4A
$GNGSA,A,3,29,10,32,26,23,25,18,24,28,16,31,41,1.02,0.52,0.88*14
$GNGSA,A,3,65,86,87,72,66,76,77,,,,,,1.02,0.52,0.88*1E
$GPGSV,5,1,17,10,34,326,36,16,20,286,41,18,23,036,38,23,18,008,30*76
$GPGSV,5,2,17,24,07,080,34,25,16,153,32,26,31,256,43,27,08,328,19*7C
$GPGSV,5,3,17,28,25,191,29,29,48,125,40,31,12,216,31,32,73,200,39*78
$GPGSV,5,4,17,36,52,277,42,40,85,352,41,41,58,082,37,49,32,274,*7B
$GPGSV,5,5,17,50,10,089,*4A
$GLGSV,3,1,09,65,66,336,36,66,48,224,32,72,16,017,30,76,18,185,22*64
$GLGSV,3,2,09,77,18,232,25,86,27,086,30,87,28,035,36,88,01,343,28*6F
$GLGSV,3,3,09,,,,28*66
$GNGLL,0420.01510,S,05540.05556,E,104739.00,A,D*63
$GNRMC,104740.00,A,0420.01481,S,05540.05569,E,1.070,18.94,220525,,,D*5F
$GNVTG,18.94,T,,M,1.070,N,1.982,K,D*16
$GNGGA,104740.00,0420.01481,S,05540.05569,E,2,12,0.52,11.8,M,-47.6,M,,0000*4F
$GNGSA,A,3,29,10,32,26,23,25,18,24,28,16,31,41,1.02,0.52,0.88*14
$GNGSA,A,3,65,86,87,72,66,76,77,,,,,,1.02,0.52,0.88*1E
$GPGSV,5,1,17,10,34,326,41,16,20,286,38,18,23,036,39,23,18,008,30*79
$GPGSV,5,2,17,24,07,080,30,25,16,153,26,26,31,256,39,27,08,328,36*7D
$GPGSV,5,3,17,28,25,191,28,29,48,125,41,31,12,216,31,32,73,200,42*74
$GPGSV,5,4,17,36,52,277,38,40,85,352,40,41,58,082,39,49,32,274,*79
$GPGSV,5,5,17,50,10,089,*4A
$GLGSV,3,1,09,65,66,336,36,66,48,224,33,72,16,017,29,76,18,185,22*6D
$GLGSV,3,2,09,77,18,232,25,86,27,086,31,87,28,035,32,88,01,343,27*65
$GLGSV,3,3,09,,,,34*6B
$GNGLL,0420.01481,S,05540.05569,E,104740.00,A,D*68
$GNRMC,104741.00,A,0420.01448,S,05540.05567,E,1.296,356.53,220525,,,D*6D
$GNVTG,356.53,T,,M,1.296,N,2.400,K,D*2A
$GNGGA,104741.00,0420.01448,S,05540.05567,E,2,12,0.52,12.0,M,-47.6,M,,0000*4E
$GNGSA,A,3,29,10,32,26,23,25,18,24,28,16,31,41,1.02,0.52,0.88*14
$GNGSA,A,3,65,86,87,72,66,76,77,,,,,,1.02,0.52,0.88*1E
$GPGSV,5,1,17,10,34,326,42,16,20,286,41,18,23,036,40,23,18,008,36*7C
$GPGSV,5,2,17,24,07,080,31,25,16,153,32,26,31,256,45,27,08,328,31*75
$GPGSV,5,3,17,28,25,191,25,29,48,125,44,31,12,216,26,32,73,200,44*7C
$GPGSV,5,4,17,36,52,277,43,40,85,352,45,41,58,082,43,49,32,274,*7D
$GPGSV,5,5,17,50,10,089,*4A
$GLGSV,3,1,09,65,66,336,35,66,48,224,30,72,16,017,29,76,18,185,23*6C
$GLGSV,3,2,09,77,18,232,26,86,27,086,28,87,28,035,29,88,01,343,27*64
$GLGSV,3,3,09,,,,34*6B
$GNGLL,0420.01448,S,05540.05567,E,104741.00,A,D*62
$GNRMC,104742.00,A,0420.01413,S,05540.05564,E,1.182,357.24,220525,,,D*64
$GNVTG,357.24,T,,M,1.182,N,2.189,K,D*29
$GNGGA,104742.00,0420.01413,S,05540.05564,E,2,12,0.52,12.0,M,-47.6,M,,0000*40
$GNGSA,A,3,29,10,32,26,23,25,18,24,28,16,31,41,1.02,0.52,0.88*14
$GNGSA,A,3,65,86,87,72,66,76,77,,,,,,1.02,0.52,0.88*1E
$GPGSV,5,1,17,10,34,326,42,16,20,286,44,18,23,036,37,23,18,008,33*7C
$GPGSV,5,2,17,24,07,080,32,25,16,153,32,26,31,256,44,27,08,328,28*7F
$GPGSV,5,3,17,28,25,191,25,29,48,125,41,31,12,216,33,32,73,200,45*7C
$GPGSV,5,4,17,36,52,277,43,40,85,352,47,41,58,082,45,49,32,274,*79
$GPGSV,5,5,17,50,10,089,*4A
$GLGSV,3,1,09,65,66,336,34,66,48,224,36,72,16,017,29,76,18,185,26*6E
$GLGSV,3,2,09,77,18,232,33,86,27,086,30,87,28,035,29,88,01,343,25*6B
$GLGSV,3,3,09,,,,34*6B
$GNGLL,0420.01413,S,05540.05564,E,104742.00,A,D*6C
$GNRMC,104743.00,A,0420.01380,S,05540.05567,E,1.016,7.41,220525,,,D*62
$GNVTG,7.41,T,,M,1.016,N,1.881,K,D*22
$GNGGA,104743.00,0420.01380,S,05540.05567,E,2,12,0.52,12.1,M,-47.6,M,,0000*4E
$GNGSA,A,3,29,10,32,26,23,25,18,24,28,16,31,41,1.02,0.52,0.88*14
$GNGSA,A,3,65,86,87,72,66,76,77,,,,,,1.02,0.52,0.88*1E
$GPGSV,5,1,17,10,34,326,42,16,20,286,47,18,23,036,37,23,18,008,42*79
$GPGSV,5,2,17,24,07,080,37,25,16,153,33,26,31,256,47,27,08,328,33*72
$GPGSV,5,3,17,28,25,191,25,29,48,125,46,31,12,216,36,32,73,200,46*7D
$GPGSV,5,4,17,36,52,277,45,40,85,352,50,41,58,082,46,49,32,274,*7A
$GPGSV,5,5,17,50,10,089,*4A
$GLGSV,3,1,09,65,66,336,35,66,48,224,32,72,16,017,28,76,18,185,26*6A
$GLGSV,3,2,09,77,18,232,27,86,27,086,31,87,28,035,30,88,01,343,22*60
$GLGSV,3,3,09,,,,26*68
$GNGLL,0420.01380,S,05540.05567,E,104743.00,A,D*63
$GNRMC,104744.00,A,0420.01346,S,05540.05564,E,1.255,356.90,220525,,,D*62
$GNVTG,356.90,T,,M,1.255,N,2.324,K,D*2B
$GNGGA,104744.00,0420.01346,S,05540.05564,E,2,12,0.52,12.3,M,-47.6,M,,0000*42
$GNGSA,A,3,29,10,32,26,23,25,18,24,28,16,31,41,1.02,0.52,0.88*14
$GNGSA,A,3,65,86,87,72,66,76,77,,,,,,1.02,0.52,0.88*1E
$GPGSV,5,1,17,10,34,326,43,16,21,285,42,18,23,036,40,23,18,008,32*78
$GPGSV,5,2,17,24,07,080,35,25,16,153,33,26,31,256,39,27,08,328,39*73
$GPGSV,5,3,17,28,25,191,23,29,48,125,40,31,12,216,36,32,73,200,45*7E
$GPGSV,5,4,17,36,52,277,40,40,85,352,45,41,58,082,44,49,32,274,*79
$GPGSV,5,5,17,50,10,089,*4A
$GLGSV,3,1,09,65,66,336,35,66,48,224,37,72,16,017,28,76,18,185,27*6E
$GLGSV,3,2,09,77,18,232,29,86,27,086,32,87,28,035,31,88,01,343,21*6F
$GLGSV,3,3,09,,,,33*6C
$GNGLL,0420.01346,S,05540.05564,E,104744.00,A,D*6D
$GNRMC,104745.00,A,0420.01293,S,05540.05548,E,2.201,347.38,220525,,,D*64
$GNVTG,347.38,T,,M,2.201,N,4.076,K,D*29
$GNGGA,104745.00,0420.01293,S,05540.05548,E,2,12,0.52,12.5,M,-47.6,M,,0000*42
$GNGSA,A,3,29,10,32,26,23,25,18,24,28,16,31,41,1.02,0.52,0.88*14
$GNGSA,A,3,65,86,87,72,66,76,77,,,,,,1.02,0.52,0.88*1E
$GPGSV,5,1,17,10,34,326,42,16,21,285,34,18,23,036,39,23,18,008,32*76
$GPGSV,5,2,17,24,07,080,34,25,16,153,33,26,31,256,43,27,08,328,35*73
$GPGSV,5,3,17,28,25,191,25,29,48,125,42,31,12,216,31,32,73,200,45*7D
$GPGSV,5,4,17,36,52,277,42,40,85,352,46,41,58,082,43,49,32,274,*7F
$GPGSV,5,5,17,50,10,089,*4A
$GLGSV,3,1,09,65,66,336,36,66,48,224,38,72,16,017,27,76,18,185,25*6F
$GLGSV,3,2,09,77,18,232,28,86,27,086,32,87,28,035,32,88,01,343,21*6D
$GLGSV,3,3,09,,,,37*68
$GNGLL,0420.01293,S,05540.05548,E,104745.00,A,D*6B
$GNRMC,104746.00,A,0420.01245,S,05540.05530,E,1.706,344.55,220525,,,D*6A
$GNVTG,344.55,T,,M,1.706,N,3.159,K,D*2B
$GNGGA,104746.00,0420.01245,S,05540.05530,E,2,12,0.52,12.3,M,-47.6,M,,0000*43
$GNGSA,A,3,29,10,32,26,23,25,18,24,28,16,31,41,1.02,0.52,0.88*14
$GNGSA,A,3,65,86,87,72,66,76,77,,,,,,1.02,0.52,0.88*1E
$GPGSV,5,1,17,10,34,326,44,16,21,285,37,18,23,037,36,23,18,008,41*79
$GPGSV,5,2,17,24,07,080,35,25,16,153,33,26,31,256,43,27,08,328,35*72
$GPGSV,5,3,17,28,25,191,25,29,48,125,41,31,12,216,37,32,73,200,42*7F
$GPGSV,5,4,17,36,52,277,38,40,85,352,46,41,58,082,44,49,32,274,*75
$GPGSV,5,5,17,50,10,089,*4A
$GLGSV,3,1,09,65,66,336,35,66,48,224,37,72,16,017,29,76,18,185,25*6D
$GLGSV,3,2,09,77,18,232,27,86,27,086,34,87,28,035,33,88,01,343,21*65
$GLGSV,3,3,09,,,,26*68
$GNGLL,0420.01245,S,05540.05530,E,104746.00,A,D*6C
$GNRMC,104747.00,A,0420.01216,S,05540.05523,E,0.754,346.60,220525,,,D*6D
$GNVTG,346.60,T,,M,0.754,N,1.396,K,D*2A
$GNGGA,104747.00,0420.01216,S,05540.05523,E,2,12,0.52,12.1,M,-47.6,M,,0000*44
$GNGSA,A,3,29,10,32,26,23,25,18,24,28,16,31,41,1.02,0.52,0.88*14
$GNGSA,A,3,65,86,87,72,66,76,77,,,,,,1.02,0.52,0.88*1E
$GPGSV,5,1,17,10,34,326,43,16,21,285,42,18,23,037,35,23,18,008,35*7C
$GPGSV,5,2,17,24,07,080,34,25,16,153,32,26,31,256,42,27,08,328,33*75
$GPGSV,5,3,17,28,25,191,26,29,48,125,41,31,12,216,37,32,73,200,43*7D
$GPGSV,5,4,17,36,52,277,42,40,85,352,45,41,58,082,42,49,32,274,*7D
$GPGSV,5,5,17,50,10,089,*4A
$GLGSV,3,1,09,65,66,336,34,66,48,224,40,72,16,017,30,76,18,185,23*62
$GLGSV,3,2,09,77,18,232,28,86,27,086,34,87,28,035,32,88,01,343,19*60
$GLGSV,3,3,09,,,,33*6C
$GNGLL,0420.01216,S,05540.05523,E,104747.00,A,D*69
$GNRMC,104748.00,A,0420.01188,S,05540.05520,E,1.052,354.17,220525,,,D*66
$GNVTG,354.17,T,,M,1.052,N,1.949,K,D*21
$GNGGA,104748.00,0420.01188,S,05540.05520,E,2,12,0.52,12.2,M,-47.6,M,,0000*4F
$GNGSA,A,3,29,10,32,26,23,25,18,24,28,16,31,41,1.02,0.52,0.88*14
$GNGSA,A,3,65,86,87,72,66,76,77,,,,,,1.02,0.52,0.88*1E
$GPGSV,5,1,17,10,34,326,43,16,21,285,40,18,23,037,39,23,18,008,34*73
$GPGSV,5,2,17,24,07,080,34,25,16,153,30,26,31,256,39,27,08,328,32*7A
$GPGSV,5,3,17,28,25,191,32,29,48,125,41,31,12,216,33,32,73,200,43*7C
$GPGSV,5,4,17,36,52,277,41,40,85,352,46,41,58,082,44,49,32,274,*7B
$GPGSV,5,5,17,50,10,089,*4A
$GLGSV,3,1,09,65,66,336,35,66,48,224,40,72,16,017,29,76,18,185,24*6C
$GLGSV,3,2,09,77,18,232,29,86,27,086,33,87,28,035,32,88,01,343,19*66
$GLGSV,3,3,09,,,,37*68
$GNGLL,0420.01188,S,05540.05520,E,104748.00,A,D*61
$GNRMC,104749.00,A,0420.01158,S,05540.05525,E,1.054,4.00,220525,,,D*69
$GNVTG,4.00,T,,M,1.054,N,1.952,K,D*2D
$GNGGA,104749.00,0420.01158,S,05540.05525,E,2,12,0.52,12.3,M,-47.6,M,,0000*47
$GNGSA,A,3,29,10,32,26,23,25,18,24,28,16,31,41,1.02,0.52,0.88*14
$GNGSA,A,3,65,86,87,72,66,76,77,,,,,,1.02,0.52,0.88*1E
$GPGSV,5,1,17,10,34,326,41,16,21,285,41,18,23,037,37,23,18,008,37*7D
$GPGSV,5,2,17,24,07,080,33,25,16,153,32,26,31,256,42,27,08,328,32*73
$GPGSV,5,3,17,28,25,191,30,29,48,125,40,31,12,216,38,32,73,200,43*74
$GPGSV,5,4,17,36,52,277,41,40,85,352,46,41,58,082,43,49,32,274,*7C
$GPGSV,5,5,17,50,10,089,*4A
$GLGSV,3,1,09,65,66,336,35,66,48,224,39,72,16,017,28,76,18,185,25*62
$GLGSV,3,2,09,77,18,232,29,86,27,086,33,87,28,035,32,88,01,343,19*66
$GLGSV,3,3,09,,,,34*6B
$GNGLL,0420.01158,S,05540.05525,E,104749.00,A,D*68
$GNRMC,104750.00,A,0420.01132,S,05540.05528,E,0.828,0.73,220525,,,D*62
$GNVTG,0.73,T,,M,0.828,N,1.534,K,D*23
$GNGGA,104750.00,0420.01132,S,05540.05528,E,2,12,0.52,12.3,M,-47.6,M,,0000*4E
$GNGSA,A,3,29,10,32,26,23,25,18,24,28,16,31,41,1.02,0.52,0.88*14
$GNGSA,A,3,65,86,87,72,66,76,77,,,,,,1.02,0.52,0.88*1E
$GPGSV,5,1,17,10,34,326,43,16,21,285,41,18,23,037,38,23,17,009,33*7A
$GPGSV,5,2,17,24,07,080,33,25,16,153,32,26,31,256,45,27,08,328,31*77
$GPGSV,5,3,17,28,25,191,30,29,48,125,40,31,12,216,31,32,73,200,43*7D
$GPGSV,5,4,17,36,52,277,41,40,85,352,46,41,58,082,43,49,32,274,*7C
$GPGSV,5,5,17,50,10,089,*4A
$GLGSV,3,1,09,65,66,336,35,66,48,224,39,72,16,017,29,76,18,185,24*62
$GLGSV,3,2,09,77,18,232,30,86,27,086,33,87,28,035,32,88,01,343,20*64
$GLGSV,3,3,09,,,,32*6D
$GNGLL,0420.01132,S,05540.05528,E,104750.00,A,D*61
$GNRMC,104751.00,A,0420.01100,S,05540.05523,E,1.225,353.16,220525,,,D*69
$GNVTG,353.16,T,,M,1.225,N,2.268,K,D*2E
$GNGGA,104751.00,0420.01100,S,05540.05523,E,2,12,0.52,12.4,M,-47.6,M,,0000*42
$GNGSA,A,3,29,10,32,26,23,25,18,24,28,16,31,41,1.02,0.52,0.88*14
$GNGSA,A,3,65,86,87,72,66,76,77,,,,,,1.02,0.52,0.88*1E
$GPGSV,5,1,17,10,34,326,44,16,21,285,41,18,23,037,37,23,17,009,40*76
$GPGSV,5,2,17,24,07,079,37,25,16,153,34,26,31,256,42,27,08,328,32*77
$GPGSV,5,3,17,28,25,191,27,29,48,125,37,31,12,216,31,32,73,200,44*7C
$GPGSV,5,4,17,36,52,277,42,40,85,352,44,41,58,082,43,49,32,274,*7D
$GPGSV,5,5,17,50,10,089,*4A
$GLGSV,3,1,09,65,66,336,36,66,48,224,34,72,16,017,27,76,18,185,23*65
$GLGSV,3,2,09,77,18,232,28,86,27,086,32,87,28,035,33,88,01,343,21*6C
$GLGSV,3,3,09,,,,36*69
$GNGLL,0420.01100,S,05540.05523,E,104751.00,A,D*6A
$GNRMC,104752.00,A,0420.01068,S,05540.05525,E,1.159,2.70,220525,,,D*6C
$GNVTG,2.70,T,,M,1.159,N,2.146,K,D*2E
$GNGGA,104752.00,0420.01068,S,05540.05525,E,2,12,0.52,12.4,M,-47.6,M,,0000*48
$GNGSA,A,3,29,10,32,26,23,25,18,24,28,16,31,41,1.02,0.52,0.88*14
$GNGSA,A,3,65,86,87,72,66,76,77,,,,,,1.02,0.52,0.88*1E
$GPGSV,5,1,17,10,34,326,37,16,21,285,39,18,23,037,34,23,17,009,33*7A
$GPGSV,5,2,17,24,07,079,35,25,16,153,32,26,31,256,43,27,08,328,23*72
$GPGSV,5,3,17,28,25,191,28,29,48,125,40,31,12,216,33,32,73,200,41*74
$GPGSV,5,4,17,36,52,277,42,40,85,352,44,41,58,082,40,49,32,274,*7E
$GPGSV,5,5,17,50,10,089,*4A
$GLGSV,3,1,09,65,66,336,35,66,48,224,37,72,16,017,27,76,18,185,22*64
$GLGSV,3,2,09,77,18,232,26,86,27,086,32,87,28,035,31,88,01,343,19*6B
$GLGSV,3,3,09,,,,31*6E
$GNGLL,0420.01068,S,05540.05525,E,104752.00,A,D*60
$GNRMC,104753.00,A,0420.01046,S,05540.05535,E,0.583,10.39,220525,,,D*5C
$GNVTG,10.39,T,,M,0.583,N,1.080,K,D*1A
$GNGGA,104753.00,0420.01046,S,05540.05535,E,2,12,0.52,12.4,M,-47.6,M,,0000*44
$GNGSA,A,3,29,10,32,26,23,25,18,24,28,16,31,41,1.02,0.52,0.88*14
$GNGSA,A,3,65,86,87,72,66,76,77,,,,,,1.02,0.52,0.88*1E
$GPGSV,5,1,17,10,34,326,39,16,21,285,40,18,23,037,35,23,17,009,32*7A
$GPGSV,5,2,17,24,07,079,33,25,16,153,31,26,31,255,41,27,08,328,28*7D
$GPGSV,5,3,17,28,25,191,31,29,48,125,34,31,12,216,34,32,73,200,41*78
$GPGSV,5,4,17,36,52,277,38,40,85,352,41,41,58,082,40,49,32,274,*76
$GPGSV,5,5,17,50,10,089,*4A
$GLGSV,3,1,09,65,66,336,37,66,48,224,42,72,16,017,31,76,18,185,20*61
$GLGSV,3,2,09,77,18,232,21,86,27,086,33,87,28,035,29,88,01,343,16*6B
$GLGSV,3,3,09,,,,28*66
$GNGLL,0420.01046,S,05540.05535,E,104753.00,A,D*6C
$GNRMC,104754.00,A,0420.01027,S,05540.05541,E,0.695,14.76,220525,,,D*54
$GNVTG,14.76,T,,M,0.695,N,1.287,K,D*14
$GNGGA,104754.00,0420.01027,S,05540.05541,E,2,12,0.52,12.5,M,-47.6,M,,0000*46
$GNGSA,A,3,29,10,32,26,23,25,18,24,28,16,31,41,1.02,0.52,0.88*14
$GNGSA,A,3,65,86,87,72,66,76,77,,,,,,1.02,0.52,0.88*1E
$GPGSV,5,1,17,10,34,326,37,16,21,285,40,18,23,037,26,23,17,009,32*76
$GPGSV,5,2,17,24,07,079,33,25,16,153,32,26,31,255,41,27,08,328,26*70
$GPGSV,5,3,17,28,25,191,24,29,48,125,33,31,12,216,21,32,73,200,41*7F
$GPGSV,5,4,17,36,52,277,39,40,85,352,41,41,58,082,38,49,32,274,*78
$GPGSV,5,5,17,50,10,089,*4A
$GLGSV,3,1,09,65,66,336,35,66,48,224,37,72,16,017,24,76,18,185,21*64
$GLGSV,3,2,09,77,18,232,20,86,27,086,36,87,28,035,29,88,01,343,13*6A
$GLGSV,3,3,09,,,,36*69
$GNGLL,0420.01027,S,05540.05541,E,104754.00,A,D*6F
$GNRMC,104755.00,A,0420.01005,S,05540.05538,E,0.756,358.11,220525,,,D*6F
$GNVTG,358.11,T,,M,0.756,N,1.400,K,D*29
$GNGGA,104755.00,0420.01005,S,05540.05538,E,2,12,0.52,12.6,M,-47.6,M,,0000*4A
$GNGSA,A,3,29,10,32,26,23,25,18,24,28,16,31,41,1.02,0.52,0.88*14
$GNGSA,A,3,65,86,87,72,66,76,77,,,,,,1.02,0.52,0.88*1E
$GPGSV,5,1,17,10,34,326,40,16,21,285,36,18,23,037,27,23,17,009,35*71
$GPGSV,5,2,17,24,07,079,33,25,16,153,31,26,31,255,39,27,08,328,25*7F
$GPGSV,5,3,17,28,26,191,25,29,48,125,36,31,12,216,31,32,73,200,39*76
$GPGSV,5,4,17,36,52,277,39,40,85,352,41,41,58,082,39,49,32,274,*79
$GPGSV,5,5,17,50,10,089,*4A
$GLGSV,3,1,09,65,66,336,36,66,48,224,39,72,16,017,29,76,18,185,23*66
$GLGSV,3,2,09,77,18,232,23,86,27,086,36,87,28,035,29,88,01,343,*6B
$GLGSV,3,3,09,,,,33*6C
$GNGLL,0420.01005,S,05540.05538,E,104755.00,A,D*60
$GNRMC,104756.00,A,0420.00982,S,05540.05533,E,0.743,353.56,220525,,,D*6C
$GNVTG,353.56,T,,M,0.743,N,1.377,K,D*22
$GNGGA,104756.00,0420.00982,S,05540.05533,E,2,12,0.52,13.0,M,-47.6,M,,0000*42
$GNGSA,A,3,29,10,32,26,23,25,18,24,28,16,31,41,1.02,0.52,0.88*14
$GNGSA,A,3,65,86,87,72,66,76,77,,,,,,1.02,0.52,0.88*1E
$GPGSV,5,1,17,10,34,326,38,16,21,285,36,18,23,037,28,23,17,009,33*77
$GPGSV,5,2,17,24,07,079,32,25,16,153,32,26,31,255,38,27,08,328,25*7C
$GPGSV,5,3,17,28,26,191,25,29,48,126,34,31,12,216,23,32,73,200,37*7A
$GPGSV,5,4,17,36,52,277,39,40,85,352,40,41,58,082,37,49,32,274,*76
$GPGSV,5,5,17,50,10,089,*4A
$GLGSV,3,1,09,65,66,336,37,66,48,224,31,72,16,017,28,76,18,185,26*6B
$GLGSV,3,2,09,77,18,232,24,86,27,086,34,87,28,035,29,88,01,343,*6E
$GLGSV,3,3,09,,,,33*6C
$GNGLL,0420.00982,S,05540.05533,E,104756.00,A,D*6F
$GNRMC,104757.00,A,0420.00950,S,05540.05528,E,1.114,349.83,220525,,,D*6E
$GNVTG,349.83,T,,M,1.114,N,2.062,K,D*20
$GNGGA,104757.00,0420.00950,S,05540.05528,E,2,12,0.52,13.2,M,-47.6,M,,0000*44
$GNGSA,A,3,29,10,32,26,23,25,18,24,28,16,31,41,1.02,0.52,0.88*14
$GNGSA,A,3,65,86,87,72,66,76,77,,,,,,1.02,0.52,0.88*1E
$GPGSV,5,1,17,10,34,326,39,16,21,285,38,18,23,037,32,23,17,009,34*74
$GPGSV,5,2,17,24,07,079,31,25,16,153,30,26,31,255,41,27,08,328,25*73
$GPGSV,5,3,17,28,26,191,25,29,48,126,34,31,12,216,34,32,73,200,39*72
$GPGSV,5,4,17,36,52,277,40,40,85,352,40,41,58,082,37,49,32,274,*78
$GPGSV,5,5,17,50,10,089,*4A
$GLGSV,3,1,09,65,66,336,38,66,48,224,41,72,16,017,31,76,18,185,26*6B
$GLGSV,3,2,09,77,18,232,24,86,27,086,35,87,28,035,29,88,01,343,*6F
$GLGSV,3,3,09,,,,36*69
$GNGLL,0420.00950,S,05540.05528,E,104757.00,A,D*6B
$GNRMC,104758.00,A,0420.00912,S,05540.05523,E,1.338,348.63,220525,,,D*6F
$GNVTG,348.63,T,,M,1.338,N,2.477,K,D*23
$GNGGA,104758.00,0420.00912,S,05540.05523,E,2,12,0.52,13.5,M,-47.6,M,,0000*41
$GNGSA,A,3,29,10,32,26,23,25,18,24,28,16,31,41,1.02,0.52,0.88*14
$GNGSA,A,3,65,86,87,72,66,76,77,,,,,,1.02,0.52,0.88*1E
$GPGSV,5,1,17,10,34,326,38,16,21,285,37,18,23,037,26,23,17,009,37*7C
$GPGSV,5,2,17,24,07,079,31,25,16,153,32,26,31,255,43,27,08,328,27*71
$GPGSV,5,3,17,28,26,191,23,29,48,126,39,31,12,216,34,32,73,200,41*76
$GPGSV,5,4,17,36,52,277,40,40,85,352,43,41,58,082,41,49,32,274,*7A
$GPGSV,5,5,17,50,10,089,*4A
$GLGSV,3,1,09,65,66,336,36,66,48,224,39,72,16,017,30,76,18,185,26*6B
$GLGSV,3,2,09,77,18,232,30,86,27,086,35,87,28,035,29,88,01,343,*6A
$GLGSV,3,3,09,,,,35*6A
$GNGLL,0420.00912,S,05540.05523,E,104758.00,A,D*69
$GNRMC,104759.00,A,0420.00882,S,05540.05516,E,0.894,349.27,220525,,,D*6D
$GNVTG,349.27,T,,M,0.894,N,1.655,K,D*2F
$GNGGA,104759.00,0420.00882,S,05540.05516,E,2,12,0.52,13.5,M,-47.6,M,,0000*4E
$GNGSA,A,3,29,10,32,26,23,25,18,24,28,16,31,41,1.02,0.52,0.88*14
$GNGSA,A,3,65,86,87,72,66,76,77,,,,,,1.02,0.52,0.88*1E
$GPGSV,5,1,17,10,34,326,39,16,21,285,35,18,23,037,26,23,17,009,33*7B
$GPGSV,5,2,17,24,07,079,34,25,16,153,33,26,31,255,44,27,08,328,26*73
$GPGSV,5,3,17,28,26,191,24,29,48,126,35,31,12,216,29,32,74,200,38*78
$GPGSV,5,4,17,36,52,277,41,40,85,352,42,41,58,082,40,49,32,274,*7B
$GPGSV,5,5,17,50,10,089,*4A
$GLGSV,3,1,09,65,66,336,38,66,48,224,33,72,16,017,29,76,18,185,26*67
$GLGSV,3,2,09,77,18,232,21,86,27,086,36,87,28,035,27,88,01,343,*67
$GLGSV,3,3,09,,,,30*6F
$GNGLL,0420.00882,S,05540.05516,E,104759.00,A,D*66
$GNRMC,104800.00,A,0420.00854,S,05540.05507,E,1.021,344.58,220525,,,D*67
$GNVTG,344.58,T,,M,1.021,N,1.891,K,D*2B
$GNGGA,104800.00,0420.00854,S,05540.05507,E,2,12,0.52,13.7,M,-47.6,M,,0000*44
$GNGSA,A,3,29,10,32,26,23,25,18,24,28,16,31,41,1.02,0.52,0.88*14
$GNGSA,A,3,65,86,87,72,66,76,77,,,,,,1.02,0.52,0.88*1E
$GPGSV,5,1,17,10,34,326,42,16,21,285,36,18,23,037,31,23,17,009,36*77
$GPGSV,5,2,17,24,07,079,36,25,16,153,32,26,31,255,44,27,08,328,27*71
$GPGSV,5,3,17,28,26,191,25,29,48,126,37,31,12,216,36,32,74,200,39*74
$GPGSV,5,4,17,36,52,277,42,40,85,352,42,41,58,082,39,49,32,274,*76
$GPGSV,5,5,17,50,10,089,*4A
$GLGSV,3,1,09,65,66,336,38,66,48,224,36,72,16,017,31,76,18,185,26*6B
$GLGSV,3,2,09,77,18,232,30,86,27,086,35,87,28,035,28,88,01,343,*6B
$GLGSV,3,3,09,,,,35*6A
$GNGLL,0420.00854,S,05540.05507,E,104800.00,A,D*6E
$GNRMC,104801.00,A,0420.00844,S,05540.05505,E,0.078,,220525,,,D*78
$GNVTG,,T,,M,0.078,N,0.144,K,D*36
$GNGGA,104801.00,0420.00844,S,05540.05505,E,2,12,0.52,13.6,M,-47.6,M,,0000*47
$GNGSA,A,3,29,10,32,26,23,25,18,24,28,16,31,41,1.02,0.52,0.88*14
$GNGSA,A,3,65,86,87,72,66,76,77,,,,,,1.02,0.52,0.88*1E
$GPGSV,5,1,17,10,34,326,40,16,21,285,35,18,23,037,35,23,17,009,32*76
$GPGSV,5,2,17,24,07,079,36,25,16,153,32,26,31,255,43,27,08,328,33*73
$GPGSV,5,3,17,28,26,191,26,29,48,126,39,31,12,216,23,32,74,200,40*73
$GPGSV,5,4,17,36,52,277,40,40,85,352,43,41,58,082,39,49,32,274,*75
$GPGSV,5,5,17,50,10,089,*4A
$GLGSV,3,1,09,65,66,336,35,66,48,224,38,72,16,017,26,76,18,185,26*6E
$GLGSV,3,2,09,77,18,232,20,86,27,086,35,87,28,035,26,88,01,343,*64
$GLGSV,3,3,09,,,,25*6B
$GNGLL,0420.00844,S,05540.05505,E,104801.00,A,D*6C
$GNRMC,104802.00,A,0420.00828,S,05540.05503,E,0.756,345.77,220525,,,D*60
$GNVTG,345.77,T,,M,0.756,N,1.401,K,D*24
$GNGGA,104802.00,0420.00828,S,05540.05503,E,2,12,0.52,13.9,M,-47.6,M,,0000*47
$GNGSA,A,3,29,10,32,26,23,25,18,24,28,16,31,41,1.02,0.52,0.88*14
$GNGSA,A,3,65,86,87,72,66,76,77,,,,,,1.02,0.52,0.88*1E
$GPGSV,5,1,17,10,34,326,43,16,21,285,36,18,23,037,34,23,17,009,38*7D
$GPGSV,5,2,17,24,07,079,33,25,16,153,31,26,31,255,42,27,08,328,38*7F
$GPGSV,5,3,17,28,26,191,27,29,48,126,39,31,12,216,31,32,74,200,41*70
$GPGSV,5,4,17,36,52,277,43,40,85,352,43,41,58,082,40,49,32,274,*78
$GPGSV,5,5,17,50,10,089,*4A
$GLGSV,3,1,09,65,66,336,38,66,48,224,36,72,16,017,37,76,18,185,24*6F
$GLGSV,3,2,09,77,18,232,21,86,27,086,32,87,28,035,29,88,01,343,*6D
$GLGSV,3,3,09,,,,37*68
$GNGLL,0420.00828,S,05540.05503,E,104802.00,A,D*63
$GNRMC,104803.00,A,0420.00808,S,05540.05508,E,0.852,9.20,220525,,,D*6A
$GNVTG,9.20,T,,M,0.852,N,1.578,K,D*29
$GNGGA,104803.00,0420.00808,S,05540.05508,E,2,12,0.52,13.8,M,-47.6,M,,0000*4E
$GNGSA,A,3,29,10,32,26,23,25,18,24,28,16,31,41,1.02,0.52,0.88*14
$GNGSA,A,3,65,86,87,72,66,76,77,,,,,,1.02,0.52,0.88*1E
$GPGSV,5,1,17,10,34,326,39,16,21,285,33,18,23,037,38,23,17,009,21*71
$GPGSV,5,2,17,24,07,079,37,25,16,153,32,26,31,255,43,27,08,328,34*75
$GPGSV,5,3,17,28,26,191,26,29,48,126,37,31,12,216,31,32,74,200,41*7F
$GPGSV,5,4,17,36,52,277,40,40,85,352,43,41,58,082,39,49,32,274,*75
$GPGSV,5,5,17,50,10,089,*4A
$GLGSV,3,1,09,65,66,336,34,66,48,224,35,72,16,017,25,76,18,185,22*65
$GLGSV,3,2,09,77,18,232,21,86,27,086,35,87,28,035,33,88,01,343,*61
$GLGSV,3,3,09,,,,27*69
$GNGLL,0420.00808,S,05540.05508,E,104803.00,A,D*6B
$GNRMC,104804.00,A,0420.00794,S,05540.05508,E,0.431,1.28,220525,,,D*6E
$GNVTG,1.28,T,,M,0.431,N,0.799,K,D*2C
$GNGGA,104804.00,0420.00794,S,05540.05508,E,2,12,0.52,13.8,M,-47.6,M,,0000*43
$GNGSA,A,3,29,10,32,26,23,25,18,24,28,16,31,41,1.02,0.52,0.88*14
$GNGSA,A,3,65,86,87,72,66,76,77,,,,,,1.02,0.52,0.88*1E
$GPGSV,5,1,17,10,34,326,44,16,21,285,38,18,23,037,39,23,17,009,31*70
$GPGSV,5,2,17,24,07,079,33,25,16,153,31,26,31,255,40,27,08,328,34*71
$GPGSV,5,3,17,28,26,191,26,29,48,126,41,31,12,216,32,32,74,200,39*72
$GPGSV,5,4,17,36,52,277,39,40,85,352,43,41,58,082,38,49,32,274,*7A
$GPGSV,5,5,17,50,10,089,*4A
$GLGSV,3,1,09,65,66,336,37,66,48,224,32,72,16,017,32,76,18,185,21*64
$GLGSV,3,2,09,77,18,232,21,86,27,086,27,87,28,035,28,88,01,343,23*69
$GLGSV,3,3,09,,,,29*67
$GNGLL,0420.00794,S,05540.05508,E,104804.00,A,D*66
$GNRMC,104805.00,A,0420.00790,S,05540.05506,E,0.079,,220525,,,D*78
$GNVTG,,T,,M,0.079,N,0.147,K,D*34
$GNGGA,104805.00,0420.00790,S,05540.05506,E,2,12,0.52,13.8,M,-47.6,M,,0000*48
$GNGSA,A,3,29,10,32,26,23,25,18,24,28,16,31,41,1.02,0.52,0.88*14
$GNGSA,A,3,65,86,87,72,66,76,77,,,,,,1.02,0.52,0.88*1E
$GPGSV,5,1,17,10,34,326,42,16,21,285,34,18,23,037,34,23,17,009,35*73
$GPGSV,5,2,17,24,07,079,32,25,16,153,33,26,31,255,36,27,08,328,28*7E
$GPGSV,5,3,17,28,26,191,26,29,48,126,42,31,12,216,16,32,74,200,41*78
$GPGSV,5,4,17,36,52,277,41,40,85,352,43,41,58,082,40,49,32,274,*7A
$GPGSV,5,5,17,50,10,089,*4A
$GLGSV,3,1,09,65,66,336,35,66,48,224,26,72,16,017,31,76,18,185,24*65
$GLGSV,3,2,09,77,18,232,23,86,27,086,27,87,28,035,32,88,01,343,20*63
$GLGSV,3,3,09,,,,33*6C
$GNGLL,0420.00790,S,05540.05506,E,104805.00,A,D*6D
$GNRMC,104806.00,A,0420.00786,S,05540.05513,E,0.317,,220525,,,D*73
$GNVTG,,T,,M,0.317,N,0.587,K,D*37
$GNGGA,104806.00,0420.00786,S,05540.05513,E,2,12,0.52,13.8,M,-47.6,M,,0000*48
$GNGSA,A,3,29,10,32,26,23,25,18,24,28,16,31,41,1.02,0.52,0.88*14
$GNGSA,A,3,65,86,87,72,66,76,77,,,,,,1.02,0.52,0.88*1E
$GPGSV,5,1,17,10,34,326,41,16,21,285,40,18,23,037,35,23,17,009,35*72
$GPGSV,5,2,17,24,07,079,32,25,16,153,32,26,31,255,41,27,08,328,28*7F
$GPGSV,5,3,17,28,26,191,25,29,48,126,41,31,12,216,19,32,74,200,39*78
$GPGSV,5,4,17,36,52,277,40,40,85,352,42,41,58,082,39,49,32,274,*74
$GPGSV,5,5,17,50,10,089,*4A
$GLGSV,3,1,09,65,66,336,34,66,48,224,25,72,16,017,24,76,18,185,26*61
$GLGSV,3,2,09,77,18,232,24,86,27,086,32,87,28,035,32,88,01,343,18*6B
$GLGSV,3,3,09,,,,28*66
$GNGLL,0420.00786,S,05540.05513,E,104806.00,A,D*6D
$GNRMC,104807.00,A,0420.00782,S,05540.05521,E,0.229,,220525,,,D*7B
$GNVTG,,T,,M,0.229,N,0.424,K,D*33
$GNGGA,104807.00,0420.00782,S,05540.05521,E,2,12,0.52,13.8,M,-47.6,M,,0000*4C
$GNGSA,A,3,29,10,32,26,23,25,18,24,28,16,31,41,1.02,0.52,0.88*14
$GNGSA,A,3,65,86,87,72,66,76,77,,,,,,1.02,0.52,0.88*1E
$GPGSV,5,1,17,10,34,326,39,16,21,285,38,18,23,037,32,23,17,009,36*76
$GPGSV,5,2,17,24,07,079,32,25,16,153,33,26,31,255,39,27,08,328,29*70
$GPGSV,5,3,17,28,26,191,24,29,48,126,42,31,12,216,20,32,74,200,41*7F
$GPGSV,5,4,17,36,52,277,42,40,85,352,43,41,58,082,40,49,32,274,*79
$GPGSV,5,5,17,50,10,089,*4A
$GLGSV,3,1,09,65,66,336,35,66,48,224,31,72,16,017,26,76,18,185,26*67
$GLGSV,3,2,09,77,18,232,23,86,27,086,31,87,28,035,31,88,01,343,18*6C
$GLGSV,3,3,09,,,,27*69
$GNGLL,0420.00782,S,05540.05521,E,104807.00,A,D*69
$GNRMC,104808.00,A,0420.00775,S,05540.05528,E,0.400,15.58,220525,,,D*5F
$GNVTG,15.58,T,,M,0.400,N,0.740,K,D*18
$GNGGA,104808.00,0420.00775,S,05540.05528,E,2,12,0.52,14.0,M,-47.6,M,,0000*4D
$GNGSA,A,3,29,10,32,26,23,25,18,24,28,16,31,41,1.02,0.52,0.88*14
$GNGSA,A,3,65,86,87,72,66,76,77,,,,,,1.02,0.52,0.88*1E
$GPGSV,5,1,17,10,34,326,42,16,21,285,38,18,23,037,35,23,17,009,36*7D
$GPGSV,5,2,17,24,07,079,28,25,16,153,33,26,31,255,42,27,08,328,28*76
$GPGSV,5,3,17,28,26,191,23,29,48,126,41,31,12,216,23,32,74,200,41*78
$GPGSV,5,4,17,36,52,277,40,40,85,352,42,41,58,082,40,49,32,274,*7A
$GPGSV,5,5,17,50,10,089,*4A
$GLGSV,3,1,09,65,66,336,31,66,48,224,26,72,16,017,26,76,18,185,26*65
$GLGSV,3,2,09,77,18,232,22,86,27,086,27,87,28,035,32,88,01,343,15*64
$GLGSV,3,3,09,,,,29*67
$GNGLL,0420.00775,S,05540.05528,E,104808.00,A,D*67
$GNRMC,104809.00,A,0420.00776,S,05540.05531,E,0.234,,220525,,,D*73
$GNVTG,,T,,M,0.234,N,0.433,K,D*39
$GNGGA,104809.00,0420.00776,S,05540.05531,E,2,12,0.52,13.9,M,-47.6,M,,0000*49
$GNGSA,A,3,29,10,32,26,23,25,18,24,28,16,31,41,1.02,0.52,0.88*14
$GNGSA,A,3,65,86,87,72,66,76,77,,,,,,1.02,0.52,0.88*1E
$GPGSV,5,1,17,10,34,326,41,16,21,285,40,18,23,037,35,23,17,009,36*71
$GPGSV,5,2,17,24,07,079,31,25,16,153,33,26,31,255,39,27,08,328,31*7A
$GPGSV,5,3,17,28,26,191,24,29,48,126,43,31,12,216,23,32,74,200,40*7C
$GPGSV,5,4,17,36,52,277,42,40,85,352,41,41,58,082,40,49,32,274,*7B
$GPGSV,5,5,17,50,10,089,*4A
$GLGSV,3,1,09,65,66,336,36,66,48,224,27,72,16,017,28,76,18,185,26*6D
$GLGSV,3,2,09,77,18,232,23,86,27,086,27,87,28,035,32,88,01,343,13*63
$GLGSV,3,3,09,,,,19*64
$GNGLL,0420.00776,S,05540.05531,E,104809.00,A,D*6D
$GNRMC,104810.00,A,0420.00781,S,05540.05540,E,0.385,60.78,220525,,,D*59
$GNVTG,60.78,T,,M,0.385,N,0.714,K,D*13
$GNGGA,104810.00,0420.00781,S,05540.05540,E,2,12,0.52,13.9,M,-47.6,M,,0000*4F
$GNGSA,A,3,29,10,32,26,23,25,18,24,28,16,31,41,1.02,0.52,0.88*14
$GNGSA,A,3,65,86,87,72,66,76,77,,,,,,1.02,0.52,0.88*1E
$GPGSV,5,1,17,10,34,326,42,16,21,285,40,18,23,037,37,23,17,009,36*70
$GPGSV,5,2,17,24,07,079,32,25,16,153,32,26,31,255,41,27,08,328,27*70
$GPGSV,5,3,17,28,26,191,23,29,48,126,39,31,12,216,20,32,74,200,42*77
$GPGSV,5,4,17,36,52,277,40,40,85,352,41,41,58,082,40,49,32,274,*79
$GPGSV,5,5,17,50,10,089,*4A
$GLGSV,3,1,09,65,66,336,36,66,48,224,32,72,16,017,28,76,18,185,25*6A
$GLGSV,3,2,09,77,18,232,22,86,27,086,28,87,28,035,33,88,01,343,15*6A
$GLGSV,3,3,09,,,,30*6F
$GNGLL,0420.00781,S,05540.05540,E,104810.00,A,D*6B
$GNRMC,104811.00,A,0420.00794,S,05540.05553,E,0.743,122.66,220525,,,D*68
$GNVTG,122.66,T,,M,0.743,N,1.375,K,D*27
$GNGGA,104811.00,0420.00794,S,05540.05553,E,2,12,0.52,13.8,M,-47.6,M,,0000*49
$GNGSA,A,3,29,10,32,26,23,25,18,24,28,16,31,41,1.02,0.52,0.88*14
$GNGSA,A,3,65,86,87,72,66,76,77,,,,,,1.02,0.52,0.88*1E
$GPGSV,5,1,17,10,34,326,41,16,21,285,40,18,23,037,37,23,17,009,33*76
$GPGSV,5,2,17,24,07,079,31,25,16,153,33,26,31,255,41,27,08,328,25*70
$GPGSV,5,3,17,28,26,191,23,29,48,126,41,31,12,216,21,32,74,200,40*7B
$GPGSV,5,4,17,36,52,277,41,40,85,352,41,41,58,082,39,49,32,274,*76
$GPGSV,5,5,17,50,10,089,*4A
$GLGSV,3,1,09,65,66,336,33,66,48,224,27,72,16,017,30,76,18,185,25*62
$GLGSV,3,2,09,77,18,232,23,86,27,086,27,87,28,035,33,88,01,343,15*64
$GLGSV,3,3,09,,,,22*6C
$GNGLL,0420.00794,S,05540.05553,E,104811.00,A,D*6C
$GNRMC,104812.00,A,0420.00795,S,05540.05561,E,0.210,,220525,,,D*77
$GNVTG,,T,,M,0.210,N,0.390,K,D*31
$GNGGA,104812.00,0420.00795,S,05540.05561,E,2,12,0.52,14.2,M,-47.6,M,,0000*47
$GNGSA,A,3,29,10,32,26,23,25,18,24,28,16,31,41,1.02,0.52,0.88*14
$GNGSA,A,3,65,86,87,72,66,76,77,,,,,,1.02,0.52,0.88*1E
$GPGSV,5,1,17,10,34,326,45,16,21,285,33,18,23,037,37,23,17,009,32*77
$GPGSV,5,2,17,24,07,079,33,25,16,153,33,26,31,255,38,27,08,328,39*71
$GPGSV,5,3,17,28,26,191,23,29,48,126,38,31,12,216,21,32,74,200,41*74
$GPGSV,5,4,17,36,52,277,43,40,85,352,41,41,58,082,39,49,32,274,*74
$GPGSV,5,5,17,50,10,089,*4A
$GLGSV,3,1,09,65,66,336,36,66,48,224,31,72,16,017,34,76,18,185,23*62
$GLGSV,3,2,09,77,18,232,25,86,27,086,28,87,28,035,32,88,01,343,18*61
$GLGSV,3,3,09,,,,36*69
$GNGLL,0420.00795,S,05540.05561,E,104812.00,A,D*6F
$GNRMC,104813.00,A,0420.00789,S,05540.05565,E,0.298,,220525,,,D*7F
$GNVTG,,T,,M,0.298,N,0.551,K,D*3A
$GNGGA,104813.00,0420.00789,S,05540.05565,E,2,12,0.52,14.4,M,-47.6,M,,0000*49
$GNGSA,A,3,29,10,32,26,23,25,18,24,28,16,31,41,1.02,0.52,0.88*14
$GNGSA,A,3,65,86,87,72,66,76,77,,,,,,1.02,0.52,0.88*1E
$GPGSV,5,1,17,10,34,326,40,16,21,285,38,18,23,037,40,23,17,009,31*7A
$GPGSV,5,2,17,24,07,079,33,25,16,153,34,26,31,255,38,27,08,328,30*7F
$GPGSV,5,3,17,28,26,191,22,29,48,126,38,31,12,216,22,32,74,200,39*79
$GPGSV,5,4,17,36,52,277,40,40,85,352,41,41,58,082,38,49,32,274,*76
$GPGSV,5,5,17,50,10,089,*4A
$GLGSV,3,1,09,65,66,336,34,66,48,224,35,72,16,017,31,76,18,185,28*6A
$GLGSV,3,2,09,77,18,232,25,86,27,086,28,87,28,035,35,88,01,343,21*6C
$GLGSV,3,3,09,,,,32*6D
$GNGLL,0420.00789,S,05540.05565,E,104813.00,A,D*67
$GNRMC,104814.00,A,0420.00777,S,05540.05562,E,0.476,79.41,220525,,,D*5D
$GNVTG,79.41,T,,M,0.476,N,0.882,K,D*1A
$GNGGA,104814.00,0420.00777,S,05540.05562,E,2,12,0.52,14.5,M,-47.6,M,,0000*49
$GNGSA,A,3,29,10,32,26,23,25,18,24,28,16,31,41,1.02,0.52,0.88*14
$GNGSA,A,3,65,86,87,72,66,76,77,,,,,,1.02,0.52,0.88*1E
$GPGSV,5,1,17,10,34,326,41,16,21,285,36,18,23,037,35,23,17,009,37*71
$GPGSV,5,2,17,24,07,079,32,25,16,153,34,26,31,255,40,27,08,328,30*71
$GPGSV,5,3,17,28,26,191,21,29,48,126,36,31,12,216,26,32,74,200,37*7E
$GPGSV,5,4,17,36,52,277,41,40,85,352,42,41,58,082,40,49,32,274,*7B
$GPGSV,5,5,17,50,10,089,*4A
$GLGSV,3,1,09,65,66,336,35,66,48,224,32,72,16,017,32,76,18,185,26*61
$GLGSV,3,2,09,77,18,232,25,86,27,086,32,87,28,035,34,88,01,343,19*6D
$GLGSV,3,3,09,,,,33*6C
$GNGLL,0420.00777,S,05540.05562,E,104814.00,A,D*66
$GNRMC,104815.00,A,0420.00773,S,05540.05564,E,0.212,,220525,,,D*7F
$GNVTG,,T,,M,0.212,N,0.392,K,D*31
$GNGGA,104815.00,0420.00773,S,05540.05564,E,2,12,0.52,14.5,M,-47.6,M,,0000*4A
$GNGSA,A,3,29,10,32,26,23,25,18,24,28,16,31,41,1.02,0.52,0.88*14
$GNGSA,A,3,65,86,87,72,66,76,77,,,,,,1.02,0.52,0.88*1E
$GPGSV,5,1,17,10,34,326,40,16,21,285,38,18,23,037,32,23,17,009,36*78
$GPGSV,5,2,17,24,07,079,35,25,16,153,30,26,31,255,42,27,08,328,30*70
$GPGSV,5,3,17,28,26,191,22,29,48,126,38,31,12,216,23,32,74,200,37*76
$GPGSV,5,4,17,36,52,277,41,40,85,352,42,41,58,082,40,49,32,274,*7B
$GPGSV,5,5,17,50,10,089,*4A
$GLGSV,3,1,09,65,66,336,35,66,48,224,31,72,16,017,33,76,18,185,27*62
$GLGSV,3,2,09,77,18,232,24,86,27,086,32,87,28,035,32,88,01,343,17*64
$GLGSV,3,3,09,,,,26*68
$GNGLL,0420.00773,S,05540.05564,E,104815.00,A,D*65
$GNRMC,104816.00,A,0420.00774,S,05540.05567,E,0.224,,220525,,,D*7D
$GNVTG,,T,,M,0.224,N,0.415,K,D*3C
$GNGGA,104816.00,0420.00774,S,05540.05567,E,2,12,0.52,14.6,M,-47.6,M,,0000*4E
$GNGSA,A,3,29,10,32,26,23,25,18,24,28,16,31,41,1.02,0.52,0.88*14
$GNGSA,A,3,65,86,87,72,66,76,77,,,,,,1.02,0.52,0.88*1E
$GPGSV,5,1,17,10,34,326,42,16,21,285,39,18,23,037,31,23,17,009,38*76
$GPGSV,5,2,17,24,07,079,34,25,16,153,30,26,31,255,35,27,08,328,25*75
$GPGSV,5,3,17,28,26,191,22,29,48,126,36,31,12,216,30,32,74,200,37*7A
$GPGSV,5,4,17,36,52,277,37,40,85,352,42,41,58,082,40,49,32,274,*7A
$GPGSV,5,5,17,50,10,089,*4A
$GLGSV,3,1,09,65,66,336,35,66,48,224,35,72,16,017,29,76,18,185,28*62
$GLGSV,3,2,09,77,18,232,24,86,27,086,36,87,28,035,31,88,01,343,15*61
$GLGSV,3,3,09,,,,33*6C
$GNGLL,0420.00774,S,05540.05567,E,104816.00,A,D*62
$GNRMC,104817.00,A,0420.00769,S,05540.05572,E,0.345,,220525,,,D*72
$GNVTG,,T,,M,0.345,N,0.638,K,D*37
$GNGGA,104817.00,0420.00769,S,05540.05572,E,2,12,0.52,14.7,M,-47.6,M,,0000*46
$GNGSA,A,3,29,10,32,26,23,25,18,24,28,16,31,41,1.02,0.52,0.88*14
$GNGSA,A,3,65,86,87,72,66,76,77,,,,,,1.02,0.52,0.88*1E
$GPGSV,5,1,17,10,34,326,41,16,21,285,37,18,23,037,34,23,17,009,37*71
$GPGSV,5,2,17,24,07,079,32,25,16,153,32,26,31,255,41,27,08,328,31*77
$GPGSV,5,3,17,28,26,191,24,29,48,126,37,31,12,216,28,32,74,200,40*74
$GPGSV,5,4,17,36,52,277,38,40,85,352,43,41,58,082,40,49,32,274,*74
$GPGSV,5,5,17,50,10,089,*4A
$GLGSV,3,1,09,65,66,336,35,66,48,224,35,72,16,017,28,76,18,185,25*6E
$GLGSV,3,2,09,77,18,232,22,86,27,086,31,87,28,035,31,88,01,343,15*60
$GLGSV,3,3,09,,,,31*6E
$GNGLL,0420.00769,S,05540.05572,E,104817.00,A,D*6B
$GNRMC,104818.00,A,0420.00776,S,05540.05585,E,0.766,110.97,220525,,,D*6E
$GNVTG,110.97,T,,M,0.766,N,1.419,K,D*22
$GNGGA,104818.00,0420.00776,S,05540.05585,E,2,12,0.52,14.4,M,-47.6,M,,0000*4C
$GNGSA,A,3,29,10,32,26,23,25,18,24,28,16,31,41,1.02,0.52,0.88*14
$GNGSA,A,3,65,86,87,72,66,76,77,,,,,,1.02,0.52,0.88*1E
$GPGSV,5,1,17,10,34,326,41,16,21,285,36,18,23,037,34,23,17,009,34*73
$GPGSV,5,2,17,24,07,079,36,25,16,153,34,26,31,255,40,27,08,328,30*75
$GPGSV,5,3,17,28,26,191,26,29,48,126,37,31,12,216,29,32,74,200,39*79
$GPGSV,5,4,17,36,52,277,40,40,85,352,41,41,58,082,40,49,32,274,*79
$GPGSV,5,5,17,50,10,089,*4A
$GLGSV,3,1,09,65,66,336,34,66,48,224,39,72,16,017,30,76,18,185,25*6A
$GLGSV,3,2,09,77,18,232,24,86,27,086,35,87,28,035,30,88,01,343,14*62
$GLGSV,3,3,09,,,,25*6B
$GNGLL,0420.00776,S,05540.05585,E,104818.00,A,D*62
$GNRMC,104819.00,A,0420.00792,S,05540.05607,E,1.105,127.20,220525,,,D*66
$GNVTG,127.20,T,,M,1.105,N,2.047,K,D*24
$GNGGA,104819.00,0420.00792,S,05540.05607,E,2,12,0.52,14.4,M,-47.6,M,,0000*4E
$GNGSA,A,3,29,10,32,26,23,25,18,24,28,16,31,41,1.02,0.52,0.88*14
$GNGSA,A,3,65,86,87,72,66,76,77,,,,,,1.02,0.52,0.88*1E
$GPGSV,5,1,17,10,34,326,44,16,21,285,40,18,23,037,30,23,17,009,38*7F
$GPGSV,5,2,17,24,07,079,36,25,16,153,33,26,31,255,40,27,08,328,28*7B
$GPGSV,5,3,17,28,26,191,26,29,48,126,35,31,12,216,28,32,74,200,39*7A
$GPGSV,5,4,17,36,52,277,39,40,85,352,42,41,58,082,40,49,32,274,*74
$GPGSV,5,5,17,50,10,089,*4A
$GLGSV,3,1,09,65,66,336,35,66,48,224,37,72,16,017,29,76,18,185,24*6C
$GLGSV,3,2,09,77,18,232,25,86,27,086,37,87,28,035,31,88,01,343,13*67
$GLGSV,3,3,09,,,,31*6E
$GNGLL,0420.00792,S,05540.05607,E,104819.00,A,D*60
$GNRMC,104820.00,A,0420.00813,S,05540.05629,E,1.173,130.56,220525,,,D*60
$GNVTG,130.56,T,,M,1.173,N,2.173,K,D*24
$GNGGA,104820.00,0420.00813,S,05540.05629,E,2,12,0.52,14.4,M,-47.6,M,,0000*4E
$GNGSA,A,3,29,10,32,26,23,25,18,24,28,16,31,41,1.02,0.52,0.88*14
$GNGSA,A,3,65,86,87,72,66,76,77,,,,,,1.02,0.52,0.88*1E
$GPGSV,5,1,17,10,34,326,39,16,21,285,41,18,23,037,34,23,17,009,38*70
$GPGSV,5,2,17,24,07,079,36,25,16,153,34,26,31,255,42,27,08,328,23*75
$GPGSV,5,3,17,28,26,191,28,29,48,126,38,31,12,216,26,32,74,200,38*76
$GPGSV,5,4,17,36,52,277,41,40,85,352,42,41,58,082,40,49,32,274,*7B
$GPGSV,5,5,17,50,10,089,*4A
$GLGSV,3,1,09,65,65,337,33,66,48,224,32,72,16,017,29,76,18,185,24*6D
$GLGSV,3,2,09,77,18,232,25,86,27,086,33,87,28,035,29,88,01,343,*68
$GLGSV,3,3,09,,,,33*6C
$GNGLL,0420.00813,S,05540.05629,E,104820.00,A,D*60
$GNRMC,104821.00,A,0420.00833,S,05540.05650,E,0.954,133.73,220525,,,D*65
$GNVTG,133.73,T,,M,0.954,N,1.768,K,D*23
$GNGGA,104821.00,0420.00833,S,05540.05650,E,2,12,0.52,14.6,M,-47.6,M,,0000*41
$GNGSA,A,3,29,10,32,26,23,25,18,24,28,16,31,41,1.02,0.52,0.88*14
$GNGSA,A,3,65,86,87,72,66,76,77,,,,,,1.02,0.52,0.88*1E
$GPGSV,5,1,17,10,34,326,46,16,21,285,36,18,23,037,35,23,17,009,35*74
$GPGSV,5,2,17,24,07,079,31,25,16,153,34,26,31,255,42,27,08,328,33*73
$GPGSV,5,3,17,28,26,191,27,29,48,126,39,31,12,216,23,32,74,200,40*72
$GPGSV,5,4,17,36,52,277,41,40,85,352,43,41,58,082,41,49,32,274,*7B
$GPGSV,5,5,17,50,10,089,*4A
$GLGSV,3,1,09,65,65,337,33,66,49,225,36,72,16,017,28,76,18,185,24*68
$GLGSV,3,2,09,77,18,232,24,86,27,086,32,87,28,035,29,88,01,343,*68
$GLGSV,3,3,09,,,,25*6B
$GNGLL,0420.00833,S,05540.05650,E,104821.00,A,D*6D
$GNRMC,104822.00,A,0420.00840,S,05540.05662,E,0.298,,220525,,,D*73
$GNVTG,,T,,M,0.298,N,0.551,K,D*3A
$GNGGA,104822.00,0420.00840,S,05540.05662,E,2,12,0.52,14.9,M,-47.6,M,,0000*48
$GNGSA,A,3,29,10,32,26,23,25,18,24,28,16,31,41,1.02,0.52,0.88*14
$GNGSA,A,3,65,86,87,72,66,76,77,,,,,,1.02,0.52,0.88*1E
$GPGSV,5,1,17,10,34,326,44,16,21,285,39,18,23,037,38,23,17,009,39*78
$GPGSV,5,2,17,24,07,079,33,25,16,153,33,26,31,255,40,27,08,328,36*71
$GPGSV,5,3,17,28,26,191,21,29,48,126,40,31,12,216,23,32,74,200,42*78
$GPGSV,5,4,17,36,52,277,39,40,85,352,43,41,58,082,40,49,32,274,*75
$GPGSV,5,5,17,50,10,089,*4A
$GLGSV,3,1,09,65,65,337,35,66,49,225,27,72,16,017,31,76,18,185,21*63
$GLGSV,3,2,09,77,18,232,21,86,27,086,29,87,28,035,32,88,01,343,*6D
$GLGSV,3,3,09,,,,34*6B
$GNGLL,0420.00840,S,05540.05662,E,104822.00,A,D*6B
$GNRMC,104823.00,A,0420.00847,S,05540.05672,E,0.457,131.41,220525,,,D*69
$GNVTG,131.41,T,,M,0.457,N,0.847,K,D*2D
$GNGGA,104823.00,0420.00847,S,05540.05672,E,2,12,0.52,14.6,M,-47.6,M,,0000*40
$GNGSA,A,3,29,10,32,26,23,25,18,24,28,16,31,41,1.02,0.52,0.88*14
$GNGSA,A,3,65,86,87,72,66,76,77,,,,,,1.02,0.52,0.88*1E
$GPGSV,5,1,17,10,34,326,41,16,21,285,39,18,23,037,40,23,17,009,35*7E
$GPGSV,5,2,17,24,07,079,29,25,16,153,32,26,31,255,36,27,08,328,20*7D
$GPGSV,5,3,17,28,26,191,29,29,48,126,43,31,12,216,28,32,74,200,42*78
$GPGSV,5,4,17,36,52,277,40,40,85,352,41,41,58,082,40,49,32,274,*79
$GPGSV,5,5,17,50,10,089,*4A
$GLGSV,3,1,09,65,65,337,34,66,49,225,35,72,16,017,30,76,18,185,24*65
$GLGSV,3,2,09,77,18,232,29,86,27,086,30,87,28,035,32,88,01,343,19*65
$GLGSV,3,3,09,,,,30*6F
$GNGLL,0420.00847,S,05540.05672,E,104823.00,A,D*6C
$GNRMC,104824.00,A,0420.00861,S,05540.05682,E,0.666,142.51,220525,,,D*60
$GNVTG,142.51,T,,M,0.666,N,1.233,K,D*20
$GNGGA,104824.00,0420.00861,S,05540.05682,E,2,12,0.52,14.5,M,-47.6,M,,0000*4F
$GNGSA,A,3,29,10,32,26,23,25,18,24,28,16,31,41,1.02,0.52,0.88*14
$GNGSA,A,3,65,86,87,72,66,76,77,,,,,,1.02,0.52,0.88*1E
$GPGSV,5,1,17,10,34,326,40,16,21,285,32,18,23,037,33,23,17,009,33*76
$GPGSV,5,2,17,24,07,079,30,25,16,153,31,26,31,255,38,27,08,328,21*79
$GPGSV,5,3,17,28,26,191,21,29,48,126,41,31,12,216,27,32,74,200,42*7D
$GPGSV,5,4,17,36,52,277,39,40,85,352,41,41,58,082,39,49,32,274,*79
$GPGSV,5,5,17,50,10,089,*4A
$GLGSV,3,1,09,65,65,337,36,66,49,225,26,72,16,017,29,76,18,185,24*6D
$GLGSV,3,2,09,77,18,232,20,86,27,086,33,87,28,035,32,88,01,343,20*65
$GLGSV,3,3,09,,,,33*6C
$GNGLL,0420.00861,S,05540.05682,E,104824.00,A,D*60
$GNRMC,104825.00,A,0420.00871,S,05540.05689,E,0.319,,220525,,,D*7B
$GNVTG,,T,,M,0.319,N,0.591,K,D*3E
$GNGGA,104825.00,0420.00871,S,05540.05689,E,2,12,0.52,14.6,M,-47.6,M,,0000*47
$GNGSA,A,3,29,10,32,26,23,25,18,24,28,16,31,41,1.02,0.52,0.88*14
$GNGSA,A,3,65,86,87,72,66,76,77,,,,,,1.02,0.52,0.88*1E
$GPGSV,5,1,17,10,34,326,43,16,21,285,38,18,23,037,40,23,17,009,32*7A
$GPGSV,5,2,17,24,07,079,31,25,16,153,31,26,31,255,30,27,08,328,34*74
$GPGSV,5,3,17,28,26,191,22,29,48,126,40,31,12,216,25,32,74,200,42*7D
$GPGSV,5,4,17,36,52,277,39,40,85,352,42,41,58,082,39,49,32,274,*7A
$GPGSV,5,5,17,50,10,089,*4A
$GLGSV,3,1,09,65,65,337,35,66,49,225,31,72,16,017,29,76,18,185,24*68
$GLGSV,3,2,09,77,18,232,19,86,27,086,28,87,28,035,32,88,01,343,20*65
$GLGSV,3,3,09,,,,36*69
$GNGLL,0420.00871,S,05540.05689,E,104825.00,A,D*6B
$GNRMC,104826.00,A,0420.00866,S,05540.05692,E,0.313,,220525,,,D*7E
$GNVTG,,T,,M,0.313,N,0.580,K,D*34
$GNGGA,104826.00,0420.00866,S,05540.05692,E,2,12,0.52,14.8,M,-47.6,M,,0000*46
$GNGSA,A,3,29,10,32,26,23,25,18,24,28,16,31,41,1.02,0.52,0.88*14
$GNGSA,A,3,65,86,87,72,66,76,77,,,,,,1.02,0.52,0.88*1E
$GPGSV,5,1,17,10,34,326,42,16,21,285,35,18,23,037,38,23,17,009,32*79
$GPGSV,5,2,17,24,07,079,35,25,16,153,35,26,31,255,41,27,08,328,36*70
$GPGSV,5,3,17,28,26,191,23,29,48,126,40,31,12,216,24,32,74,200,41*7E
$GPGSV,5,4,17,36,52,277,40,40,85,352,43,41,58,082,40,49,32,274,*7B
$GPGSV,5,5,17,50,10,089,*4A
$GLGSV,3,1,09,65,65,337,35,66,49,225,34,72,16,017,28,76,18,185,23*6B
$GLGSV,3,2,09,77,18,232,19,86,27,086,29,87,28,035,30,88,01,343,21*67
$GLGSV,3,3,09,,,,32*6D
$GNGLL,0420.00866,S,05540.05692,E,104826.00,A,D*64
$GNRMC,104827.00,A,0420.00845,S,05540.05690,E,0.926,39.71,220525,,,D*52
$GNVTG,39.71,T,,M,0.926,N,1.715,K,D*15
$GNGGA,104827.00,0420.00845,S,05540.05690,E,2,12,0.52,15.1,M,-47.6,M,,0000*4C
$GNGSA,A,3,29,10,32,26,23,25,18,24,28,16,31,41,1.02,0.52,0.88*14
$GNGSA,A,3,65,86,87,72,66,76,77,,,,,,1.02,0.52,0.88*1E
$GPGSV,5,1,17,10,34,326,43,16,21,285,36,18,23,037,39,23,17,009,24*7D
$GPGSV,5,2,17,24,07,079,35,25,16,153,34,26,31,255,33,27,08,328,34*76
$GPGSV,5,3,17,28,26,191,22,29,48,126,40,31,12,216,26,32,74,200,43*7F
$GPGSV,5,4,17,36,52,277,38,40,85,352,42,41,58,082,39,49,32,274,*7B
$GPGSV,5,5,17,50,10,089,*4A
$GLGSV,3,1,09,65,65,337,35,66,49,225,34,72,15,017,29,76,18,185,21*6B
$GLGSV,3,2,09,77,18,232,22,86,27,086,33,87,28,035,33,88,01,343,22*64
$GLGSV,3,3,09,,,,33*6C
$GNGLL,0420.00845,S,05540.05690,E,104827.00,A,D*66
$GNRMC,104828.00,A,0420.00823,S,05540.05685,E,0.823,21.41,220525,,,D*57
$GNVTG,21.41,T,,M,0.823,N,1.525,K,D*1A
$GNGGA,104828.00,0420.00823,S,05540.05685,E,2,12,0.52,15.0,M,-47.6,M,,0000*46
$GNGSA,A,3,29,10,32,26,23,25,18,24,28,16,31,41,1.02,0.52,0.88*14
$GNGSA,A,3,65,86,87,72,66,76,77,,,,,,1.02,0.52,0.88*1E
$GPGSV,5,1,17,10,34,326,36,16,21,285,32,18,23,037,34,23,17,009,33*70
$GPGSV,5,2,17,24,07,079,30,25,16,153,32,26,31,255,32,27,08,328,23*72
$GPGSV,5,3,17,28,26,191,21,29,48,126,35,31,12,216,28,32,74,200,38*7C
$GPGSV,5,4,17,36,52,277,28,40,85,352,34,41,58,082,34,49,32,274,*76
$GPGSV,5,5,17,50,10,089,*4A
$GLGSV,3,1,09,65,65,337,31,66,49,225,24,72,15,017,29,76,18,185,20*6F
$GLGSV,3,2,09,77,18,232,22,86,27,086,27,87,28,035,32,88,01,343,29*6B
$GLGSV,3,3,09,,,,29*67
$GNGLL,0420.00823,S,05540.05685,E,104828.00,A,D*6D
