$GNRMC,104933.00,A,0420.04916,S,05540.09114,E,0.999,96.71,220525,,,A*56
$GNVTG,96.71,T,,M,0.999,N,1.851,K,A*1E
$GNGGA,104933.00,0420.04916,S,05540.09114,E,1,12,0.53,11.2,M,-47.6,M,,*49
$GNGSA,A,3,29,10,32,26,23,25,18,24,28,16,31,27,1.09,0.53,0.95*12
$GNGSA,A,3,65,86,87,72,66,76,77,,,,,,1.09,0.53,0.95*18
$GPGSV,5,1,17,10,33,327,37,16,21,285,31,18,23,037,29,23,17,009,38*73
$GPGSV,5,2,17,24,07,078,24,25,16,153,30,26,31,255,36,27,09,328,26*74
$GPGSV,5,3,17,28,26,191,37,29,47,127,39,31,12,215,38,32,74,201,41*74
$GPGSV,5,4,17,36,52,277,35,40,85,352,,41,58,082,40,49,32,274,*7E
$GPGSV,5,5,17,50,10,089,*4A
$GLGSV,3,1,09,65,65,337,35,66,49,225,38,72,15,017,32,76,18,184,31*6D
$GLGSV,3,2,09,77,18,232,24,86,27,087,40,87,29,036,32,88,01,344,31*61
$GLGSV,3,3,09,,,,35*6A
$GNGLL,0420.04916,S,05540.09114,E,104933.00,A,A*63
$GNRMC,104934.00,A,0420.04895,S,05540.09144,E,1.420,77.99,220525,,,A*59
$GNVTG,77.99,T,,M,1.420,N,2.629,K,A*1B
$GNGGA,104934.00,0420.04895,S,05540.09144,E,1,12,0.53,11.6,M,-47.6,M,,*45
$GNGSA,A,3,29,10,32,26,23,25,18,24,28,16,31,27,1.09,0.53,0.95*12
$GNGSA,A,3,65,86,87,72,66,76,77,,,,,,1.09,0.53,0.95*18
$GPGSV,5,1,17,10,33,327,33,16,21,285,24,18,23,037,30,23,17,009,36*75
$GPGSV,5,2,17,24,07,078,24,25,16,153,29,26,31,255,33,27,09,328,24*7B
$GPGSV,5,3,17,28,26,191,35,29,47,127,29,31,12,215,36,32,74,201,39*76
$GPGSV,5,4,17,36,52,277,30,40,85,352,,41,58,082,38,49,32,274,*74
$GPGSV,5,5,17,50,10,089,*4A
$GLGSV,3,1,09,65,65,337,34,66,49,225,35,72,15,017,27,76,18,184,29*6C
$GLGSV,3,2,09,77,18,232,23,86,27,087,34,87,29,036,36,88,01,344,32*62
$GLGSV,3,3,09,,,,35*6A
$GNGLL,0420.04895,S,05540.09144,E,104934.00,A,A*6B
$GNRMC,104935.00,A,0420.04857,S,05540.09171,E,1.616,52.34,220525,,,A*57
$GNVTG,52.34,T,,M,1.616,N,2.992,K,A*13
$GNGGA,104935.00,0420.04857,S,05540.09171,E,1,12,0.53,11.6,M,-47.6,M,,*4C
$GNGSA,A,3,29,10,32,26,23,25,18,24,28,16,31,27,1.09,0.53,0.95*12
$GNGSA,A,3,65,86,87,72,66,76,77,,,,,,1.09,0.53,0.95*18
$GPGSV,5,1,17,10,33,327,36,16,21,285,25,18,23,037,34,23,17,009,37*74
$GPGSV,5,2,17,24,07,078,23,25,16,153,33,26,31,255,35,27,09,328,25*70
$GPGSV,5,3,17,28,26,191,35,29,47,127,36,31,12,215,36,32,74,201,41*77
$GPGSV,5,4,17,36,52,277,31,40,85,352,,41,58,082,40,49,32,274,*7A
$GPGSV,5,5,17,50,10,089,*4A
$GLGSV,3,1,09,65,64,338,35,66,49,225,35,72,15,017,32,76,18,184,29*67
$GLGSV,3,2,09,77,18,232,24,86,27,087,34,87,29,036,38,88,01,344,35*6C
$GLGSV,3,3,09,,,,31*6E
$GNGLL,0420.04857,S,05540.09171,E,104935.00,A,A*62
$GNRMC,104936.00,A,0420.04837,S,05540.09193,E,0.850,55.26,220525,,,A*57
$GNVTG,55.26,T,,M,0.850,N,1.574,K,A*1D
$GNGGA,104936.00,0420.04837,S,05540.09193,E,1,12,0.53,11.5,M,-47.6,M,,*46
$GNGSA,A,3,29,10,32,26,23,25,18,24,28,16,31,27,1.09,0.53,0.95*12
$GNGSA,A,3,65,86,87,72,66,76,77,,,,,,1.09,0.53,0.95*18
$GPGSV,5,1,17,10,33,327,34,16,21,285,25,18,23,037,39,23,17,009,31*7D
$GPGSV,5,2,17,24,07,078,23,25,16,153,33,26,31,255,35,27,09,328,26*73
$GPGSV,5,3,17,28,26,191,38,29,47,127,38,31,12,215,37,32,74,201,44*70
$GPGSV,5,4,17,36,52,277,30,40,85,352,,41,58,082,41,49,32,274,*7A
$GPGSV,5,5,17,50,10,089,*4A
$GLGSV,3,1,09,65,64,338,34,66,49,226,40,72,15,017,33,76,18,184,29*66
$GLGSV,3,2,09,77,18,232,25,86,27,087,33,87,29,036,38,88,01,344,31*6E
$GLGSV,3,3,09,,,,34*6B
$GNGLL,0420.04837,S,05540.09193,E,104936.00,A,A*6B
$GNRMC,104937.00,A,0420.04826,S,05540.09214,E,0.774,64.31,220525,,,A*57
$GNVTG,64.31,T,,M,0.774,N,1.433,K,A*12
$GNGGA,104937.00,0420.04826,S,05540.09214,E,1,12,0.53,11.3,M,-47.6,M,,*4D
$GNGSA,A,3,29,10,32,26,23,25,18,24,28,16,31,27,1.09,0.53,0.95*12
$GNGSA,A,3,65,86,87,72,66,76,77,,,,,,1.09,0.53,0.95*18
$GPGSV,5,1,17,10,33,327,36,16,21,285,24,18,23,037,37,23,17,009,40*76
$GPGSV,5,2,17,24,07,078,25,25,16,153,36,26,31,255,37,27,09,328,33*76
$GPGSV,5,3,17,28,26,191,37,29,47,127,38,31,12,215,35,32,74,201,43*7A
$GPGSV,5,4,17,36,52,277,31,40,85,352,,41,58,082,39,49,32,274,*74
$GPGSV,5,5,17,50,10,089,*4A
$GLGSV,3,1,09,65,64,338,36,66,49,226,39,72,15,017,34,76,18,184,28*6C
$GLGSV,3,2,09,77,18,232,25,86,27,087,33,87,29,036,40,88,01,344,30*60
$GLGSV,3,3,09,,,,36*69
$GNGLL,0420.04826,S,05540.09214,E,104937.00,A,A*66
$GNRMC,104938.00,A,0420.04804,S,05540.09231,E,1.111,49.20,220525,,,A*54
$GNVTG,49.20,T,,M,1.111,N,2.058,K,A*13
$GNGGA,104938.00,0420.04804,S,05540.09231,E,1,12,0.56,11.4,M,-47.6,M,,*47
$GNGSA,A,3,29,10,32,26,23,25,18,24,28,31,27,,1.11,0.56,0.96*1A
$GNGSA,A,3,65,86,87,72,66,76,77,,,,,,1.11,0.56,0.96*17
$GPGSV,5,1,17,10,33,327,38,16,21,285,,18,23,037,32,23,17,009,38*74
$GPGSV,5,2,17,24,07,078,25,25,16,153,30,26,31,255,34,27,09,328,33*73
$GPGSV,5,3,17,28,26,191,37,29,47,127,36,31,12,215,35,32,74,201,43*74
$GPGSV,5,4,17,36,52,277,,40,85,352,,41,58,082,39,49,32,274,*76
$GPGSV,5,5,17,50,10,089,*4A
$GLGSV,3,1,09,65,64,338,36,66,49,226,39,72,15,017,37,76,18,184,32*64
$GLGSV,3,2,09,77,18,232,26,86,27,087,29,87,29,036,33,88,01,344,35*69
$GLGSV,3,3,09,,,,41*69
$GNGLL,0420.04804,S,05540.09231,E,104938.00,A,A*6E
$GNRMC,104939.00,A,0420.04778,S,05540.09248,E,1.018,45.44,220525,,,A*59
$GNVTG,45.44,T,,M,1.018,N,1.886,K,A*1D
$GNGGA,104939.00,0420.04778,S,05540.09248,E,1,12,0.56,11.6,M,-47.6,M,,*4E
$GNGSA,A,3,29,10,32,26,23,25,18,24,28,31,27,,1.11,0.56,0.96*1A
$GNGSA,A,3,65,86,87,72,66,76,77,,,,,,1.11,0.56,0.96*17
$GPGSV,5,1,17,10,33,327,40,16,21,285,,18,23,037,39,23,17,009,36*7E
$GPGSV,5,2,17,24,07,078,23,25,16,153,31,26,31,255,36,27,09,328,34*71
$GPGSV,5,3,17,28,26,191,38,29,47,127,42,31,12,215,37,32,74,201,47*7E
$GPGSV,5,4,17,36,52,277,,40,85,352,,41,58,082,37,49,32,274,*78
$GPGSV,5,5,17,50,10,089,*4A
$GLGSV,3,1,09,65,64,338,38,66,49,226,41,72,15,017,36,76,18,184,32*64
$GLGSV,3,2,09,77,18,232,26,86,27,087,36,87,29,036,38,88,01,344,35*6C
$GLGSV,3,3,09,,,,34*6B
$GNGLL,0420.04778,S,05540.09248,E,104939.00,A,A*65
$GNRMC,104940.00,A,0420.04753,S,05540.09265,E,1.020,38.52,220525,,,A*57
$GNVTG,38.52,T,,M,1.020,N,1.888,K,A*15
$GNGGA,104940.00,0420.04753,S,05540.09265,E,1,12,0.56,11.4,M,-47.6,M,,*44
$GNGSA,A,3,29,10,32,26,23,25,18,24,28,31,27,,1.11,0.56,0.96*1A
$GNGSA,A,3,65,86,87,72,66,76,77,,,,,,1.11,0.56,0.96*17
$GPGSV,5,1,17,10,33,327,37,16,21,285,,18,23,037,40,23,17,009,42*73
$GPGSV,5,2,17,24,07,078,26,25,16,153,34,26,31,255,33,27,09,328,33*73
$GPGSV,5,3,17,28,26,191,41,29,47,127,39,31,12,215,38,32,74,201,46*72
$GPGSV,5,4,17,36,52,277,,40,85,352,,41,58,082,37,49,32,274,*78
$GPGSV,5,5,17,50,10,089,*4A
$GLGSV,3,1,09,65,64,338,36,66,49,226,38,72,15,017,28,76,18,184,31*68
$GLGSV,3,2,09,77,18,232,25,86,27,087,33,87,29,036,33,88,01,344,35*61
$GLGSV,3,3,09,,,,35*6A
$GNGLL,0420.04753,S,05540.09265,E,104940.00,A,A*6D
$GNRMC,104941.00,A,0420.04730,S,05540.09271,E,0.721,26.94,220525,,,A*54
$GNVTG,26.94,T,,M,0.721,N,1.335,K,A*1A
$GNGGA,104941.00,0420.04730,S,05540.09271,E,1,12,0.56,11.2,M,-47.6,M,,*43
$GNGSA,A,3,29,10,32,26,23,25,18,24,28,31,27,,1.11,0.56,0.96*1A
$GNGSA,A,3,65,86,87,72,66,76,77,,,,,,1.11,0.56,0.96*17
$GPGSV,5,1,17,10,33,327,44,16,21,285,,18,23,037,43,23,17,009,37*76
$GPGSV,5,2,17,24,07,078,24,25,16,153,30,26,31,255,29,27,09,328,34*79
$GPGSV,5,3,17,28,26,191,38,29,47,127,40,31,12,215,35,32,74,201,46*7F
$GPGSV,5,4,17,36,52,277,,40,85,352,,41,58,082,40,49,32,274,*78
$GPGSV,5,5,17,50,10,089,*4A
$GLGSV,3,1,09,65,64,338,37,66,49,226,40,72,15,017,36,76,18,184,31*69
$GLGSV,3,2,09,77,18,232,26,86,27,087,32,87,29,036,33,88,01,344,34*62
$GLGSV,3,3,09,,,,37*68
$GNGLL,0420.04730,S,05540.09271,E,104941.00,A,A*6C
$GNRMC,104942.00,A,0420.04709,S,05540.09280,E,0.743,32.49,220525,,,A*52
$GNVTG,32.49,T,,M,0.743,N,1.375,K,A*1F
$GNGGA,104942.00,0420.04709,S,05540.09280,E,1,12,0.61,11.1,M,-47.6,M,,*43
$GNGSA,A,3,29,10,32,23,25,18,24,28,31,27,,,1.16,0.61,0.99*12
$GNGSA,A,3,65,86,87,72,66,76,77,,,,,,1.16,0.61,0.99*1B
$GPGSV,5,1,17,10,33,327,41,16,21,285,28,18,23,037,39,23,17,009,39*7A
$GPGSV,5,2,17,24,07,078,20,25,16,153,34,26,31,255,25,27,09,328,29*79
$GPGSV,5,3,17,28,26,191,42,29,47,127,42,31,12,215,37,32,74,201,45*71
$GPGSV,5,4,17,36,52,277,,40,85,352,,41,58,082,40,49,32,274,*78
$GPGSV,5,5,17,50,10,089,*4A
$GLGSV,3,1,09,65,64,338,37,66,49,226,37,72,14,018,28,76,18,184,30*69
$GLGSV,3,2,09,77,18,232,26,86,27,087,34,87,29,036,34,88,01,344,32*65
$GLGSV,3,3,09,,,,34*6B
$GNGLL,0420.04709,S,05540.09280,E,104942.00,A,A*6B
$GNRMC,104943.00,A,0420.04688,S,05540.09286,E,0.653,28.16,220525,,,A*5C
$GNVTG,28.16,T,,M,0.653,N,1.210,K,A*1C
$GNGGA,104943.00,0420.04688,S,05540.09286,E,1,12,0.57,11.3,M,-47.6,M,,*4B
$GNGSA,A,3,29,10,32,23,25,18,24,28,16,31,27,,1.13,0.57,0.98*14
$GNGSA,A,3,65,86,87,72,66,76,77,,,,,,1.13,0.57,0.98*1A
$GPGSV,5,1,17,10,33,327,44,16,21,285,27,18,23,037,41,23,17,009,33*75
$GPGSV,5,2,17,24,07,078,21,25,16,153,31,26,31,255,25,27,09,328,28*7C
$GPGSV,5,3,17,28,26,191,40,29,47,127,42,31,12,215,36,32,74,201,45*72
$GPGSV,5,4,17,36,52,277,,40,85,352,41,41,58,082,34,49,32,274,*7E
$GPGSV,5,5,17,50,10,089,*4A
$GLGSV,3,1,09,65,64,338,40,66,49,226,34,72,14,018,36,76,18,184,34*61
$GLGSV,3,2,09,77,18,232,25,86,27,087,37,87,29,036,34,88,01,344,32*65
$GLGSV,3,3,09,,,,30*6F
$GNGLL,0420.04688,S,05540.09286,E,104943.00,A,A*64
$GNRMC,104944.00,A,0420.04657,S,05540.09290,E,1.197,11.42,220525,,,A*5B
$GNVTG,11.42,T,,M,1.197,N,2.217,K,A*1D
$GNGGA,104944.00,0420.04657,S,05540.09290,E,1,12,0.55,11.6,M,-47.6,M,,*4E
$GNGSA,A,3,29,10,32,26,23,25,18,24,28,16,31,27,1.12,0.55,0.98*13
$GNGSA,A,3,65,86,87,72,66,76,77,,,,,,1.12,0.55,0.98*19
$GPGSV,5,1,17,10,33,327,42,16,21,285,29,18,23,037,39,23,17,009,41*77
$GPGSV,5,2,17,24,07,078,20,25,16,153,30,26,31,255,26,27,09,328,38*7E
$GPGSV,5,3,17,28,26,191,38,29,47,127,42,31,12,215,36,32,74,201,44*7C
$GPGSV,5,4,17,36,52,277,,40,85,352,41,41,58,082,37,49,32,274,*7D
$GPGSV,5,5,17,50,10,089,*4A
$GLGSV,3,1,09,65,64,338,37,66,49,226,34,72,14,018,33,76,18,184,30*60
$GLGSV,3,2,09,77,18,232,23,86,27,087,37,87,29,036,37,88,01,344,36*64
$GLGSV,3,3,09,,,,38*67
$GNGLL,0420.04657,S,05540.09290,E,104944.00,A,A*66
$GNRMC,104945.00,A,0420.04619,S,05540.09294,E,1.232,10.11,220525,,,A*5F
$GNVTG,10.11,T,,M,1.232,N,2.281,K,A*19
$GNGGA,104945.00,0420.04619,S,05540.09294,E,1,12,0.55,11.6,M,-47.6,M,,*41
$GNGSA,A,3,29,10,32,26,23,25,18,24,28,16,31,27,1.12,0.55,0.98*13
$GNGSA,A,3,65,86,87,72,66,76,77,,,,,,1.12,0.55,0.98*19
$GPGSV,5,1,17,10,33,327,46,16,21,285,32,18,23,037,42,23,17,009,36*75
$GPGSV,5,2,17,24,07,078,17,25,16,153,37,26,31,255,26,27,09,328,28*7C
$GPGSV,5,3,17,28,26,191,40,29,47,127,39,31,12,215,36,32,74,201,45*7E
$GPGSV,5,4,17,36,52,277,,40,85,352,42,41,58,082,40,49,32,274,*7E
$GPGSV,5,5,17,50,10,089,*4A
$GLGSV,3,1,09,65,64,338,39,66,49,226,34,72,14,018,27,76,18,184,31*6A
$GLGSV,3,2,09,77,18,232,24,86,27,087,34,87,29,036,37,88,01,344,32*64
$GLGSV,3,3,09,,,,33*6C
$GNGLL,0420.04619,S,05540.09294,E,104945.00,A,A*69
$GNRMC,104946.00,A,0420.04591,S,05540.09297,E,0.839,10.47,220525,,,A*5F
$GNVTG,10.47,T,,M,0.839,N,1.553,K,A*11
$GNGGA,104946.00,0420.04591,S,05540.09297,E,1,12,0.54,11.5,M,-47.6,M,,*40
$GNGSA,A,3,29,10,32,26,23,25,18,28,16,31,27,,1.12,0.54,0.98*14
$GNGSA,A,3,65,86,87,72,66,76,77,,,,,,1.12,0.54,0.98*18
$GPGSV,5,1,17,10,33,327,45,16,21,285,35,18,23,037,39,23,17,009,40*7C
$GPGSV,5,2,17,24,07,078,,25,16,153,32,26,31,255,26,27,09,328,33*75
$GPGSV,5,3,17,28,26,191,40,29,47,127,43,31,12,215,36,32,74,201,44*72
$GPGSV,5,4,17,36,52,277,,40,85,352,44,41,58,082,34,49,32,274,*7B
$GPGSV,5,5,17,50,10,089,*4A
$GLGSV,3,1,09,65,64,338,39,66,49,226,31,72,14,018,36,76,18,184,31*6F
$GLGSV,3,2,09,77,18,232,24,86,27,087,34,87,29,036,33,88,01,344,30*62
$GLGSV,3,3,09,,,,34*6B
$GNGLL,0420.04591,S,05540.09297,E,104946.00,A,A*6A
$GNRMC,104947.00,A,0420.04557,S,05540.09297,E,1.176,3.51,220525,,,A*62
$GNVTG,3.51,T,,M,1.176,N,2.177,K,A*26
$GNGGA,104947.00,0420.04557,S,05540.09297,E,1,12,0.56,11.7,M,-47.6,M,,*4B
$GNGSA,A,3,29,10,32,26,23,25,18,28,16,31,27,,1.15,0.56,1.00*11
$GNGSA,A,3,65,86,87,72,66,76,77,,,,,,1.15,0.56,1.00*1D
$GPGSV,5,1,17,10,33,327,42,16,21,285,35,18,23,037,39,23,17,009,44*7F
$GPGSV,5,2,17,24,07,078,27,25,16,153,33,26,31,255,28,27,09,328,35*79
$GPGSV,5,3,17,28,26,191,40,29,47,127,38,31,12,215,35,32,74,201,44*7D
$GPGSV,5,4,17,36,52,277,35,40,85,352,41,41,58,082,35,49,32,274,*79
$GPGSV,5,5,17,50,10,089,*4A
$GLGSV,3,1,09,65,64,338,39,66,49,226,31,72,14,018,35,76,18,184,31*6C
$GLGSV,3,2,09,77,18,231,24,86,27,087,34,87,29,036,32,88,01,344,30*60
$GLGSV,3,3,09,,,,34*6B
$GNGLL,0420.04557,S,05540.09297,E,104947.00,A,A*61
$GNRMC,104948.00,A,0420.04524,S,05540.09300,E,1.164,8.04,220525,,,A*6E
$GNVTG,8.04,T,,M,1.164,N,2.156,K,A*2D
$GNGGA,104948.00,0420.04524,S,05540.09300,E,1,12,0.53,11.7,M,-47.6,M,,*4A
$GNGSA,A,3,29,10,32,26,23,25,18,24,28,16,31,27,1.09,0.53,0.95*12
$GNGSA,A,3,65,86,87,72,66,76,77,,,,,,1.09,0.53,0.95*18
$GPGSV,5,1,17,10,33,327,44,16,21,285,33,18,23,037,40,23,17,009,36*74
$GPGSV,5,2,17,24,07,078,26,25,16,153,37,26,31,255,31,27,09,328,37*76
$GPGSV,5,3,17,28,26,191,39,29,47,127,41,31,12,215,33,32,74,201,43*7C
$GPGSV,5,4,17,36,52,277,35,40,85,352,40,41,58,082,35,49,32,274,*78
$GPGSV,5,5,17,50,10,089,*4A
$GLGSV,3,1,09,65,64,338,38,66,49,226,33,72,14,018,30,76,18,184,33*68
$GLGSV,3,2,09,77,18,231,25,86,27,087,31,87,29,036,31,88,01,344,30*67
$GLGSV,3,3,09,,,,37*68
$GNGLL,0420.04524,S,05540.09300,E,104948.00,A,A*65
$GNRMC,104949.00,A,0420.04497,S,05540.09301,E,0.858,5.90,220525,,,A*60
$GNVTG,5.90,T,,M,0.858,N,1.589,K,A*2F
$GNGGA,104949.00,0420.04497,S,05540.09301,E,1,12,0.53,11.8,M,-47.6,M,,*4C
$GNGSA,A,3,29,10,32,26,23,25,18,24,28,16,31,27,1.09,0.53,0.95*12
$GNGSA,A,3,65,86,87,72,66,76,77,,,,,,1.09,0.53,0.95*18
$GPGSV,5,1,17,10,33,327,45,16,21,285,29,18,23,037,36,23,17,009,40*7E
$GPGSV,5,2,17,24,07,078,25,25,16,153,34,26,31,255,31,27,09,328,33*72
$GPGSV,5,3,17,28,26,191,39,29,47,127,40,31,12,215,34,32,74,201,43*7A
$GPGSV,5,4,17,36,52,277,36,40,85,352,44,41,58,082,38,49,32,274,*72
$GPGSV,5,5,17,50,10,089,*4A
$GLGSV,3,1,09,65,64,338,38,66,49,226,33,72,14,018,37,76,18,184,32*6E
$GLGSV,3,2,09,77,18,231,24,86,27,087,32,87,29,036,31,88,01,344,29*6D
$GLGSV,3,3,09,,,,34*6B
$GNGLL,0420.04497,S,05540.09301,E,104949.00,A,A*6C
$GNRMC,104950.00,A,0420.04473,S,05540.09296,E,0.835,358.68,220525,,,A*6A
$GNVTG,358.68,T,,M,0.835,N,1.546,K,A*2B
$GNGGA,104950.00,0420.04473,S,05540.09296,E,1,12,0.53,11.7,M,-47.6,M,,*4E
$GNGSA,A,3,29,10,32,26,23,25,18,24,28,16,31,27,1.09,0.53,0.95*12
$GNGSA,A,3,65,86,87,72,66,76,77,,,,,,1.09,0.53,0.95*18
$GPGSV,5,1,17,10,33,327,45,16,21,285,33,18,23,037,38,23,17,009,41*7A
$GPGSV,5,2,17,24,07,078,25,25,16,153,37,26,31,255,30,27,09,328,28*7A
$GPGSV,5,3,17,28,26,191,39,29,47,127,41,31,12,215,34,32,74,201,42*7A
$GPGSV,5,4,17,36,52,277,35,40,85,352,42,41,58,082,39,49,32,274,*76
$GPGSV,5,5,17,50,10,089,*4A
$GLGSV,3,1,09,65,64,338,38,66,49,226,31,72,14,018,30,76,18,184,32*6B
$GLGSV,3,2,09,77,18,231,25,86,27,087,37,87,29,036,31,88,01,344,31*60
$GLGSV,3,3,09,,,,34*6B
$GNGLL,0420.04473,S,05540.09296,E,104950.00,A,A*61
$GNRMC,104951.00,A,0420.04460,S,05540.09298,E,0.340,,220525,,,A*70
$GNVTG,,T,,M,0.340,N,0.629,K,A*37
$GNGGA,104951.00,0420.04460,S,05540.09298,E,1,12,0.53,11.5,M,-47.6,M,,*41
$GNGSA,A,3,29,10,32,26,23,25,18,24,28,16,31,27,1.09,0.53,0.95*12
$GNGSA,A,3,65,86,87,72,66,76,77,,,,,,1.09,0.53,0.95*18
$GPGSV,5,1,17,10,33,327,47,16,21,285,29,18,23,037,38,23,17,009,38*7D
$GPGSV,5,2,17,24,07,078,27,25,16,153,35,26,31,255,33,27,09,328,33*73
$GPGSV,5,3,17,28,26,191,40,29,47,127,41,31,12,215,31,32,74,201,45*76
$GPGSV,5,4,17,36,52,277,37,40,85,352,46,41,58,082,36,49,32,274,*7F
$GPGSV,5,5,17,50,10,089,*4A
$GLGSV,3,1,09,65,64,338,35,66,49,226,32,72,14,018,29,76,18,184,30*6F
$GLGSV,3,2,09,77,18,231,25,86,27,087,26,87,29,036,29,88,01,344,29*60
$GLGSV,3,3,09,,,,23*6D
$GNGLL,0420.04460,S,05540.09298,E,104951.00,A,A*6C
$GNRMC,104952.00,A,0420.04439,S,05540.09298,E,0.874,358.84,220525,,,A*6F
$GNVTG,358.84,T,,M,0.874,N,1.619,K,A*25
$GNGGA,104952.00,0420.04439,S,05540.09298,E,1,12,0.53,11.6,M,-47.6,M,,*4D
$GNGSA,A,3,29,10,32,26,23,25,18,24,28,16,31,27,1.09,0.53,0.95*12
$GNGSA,A,3,65,86,87,72,66,76,77,,,,,,1.09,0.53,0.95*18
$GPGSV,5,1,17,10,33,327,43,16,21,285,35,18,23,037,38,23,17,009,44*7F
$GPGSV,5,2,17,24,07,078,28,25,16,153,38,26,31,255,32,27,09,328,33*70
$GPGSV,5,3,17,28,26,191,40,29,47,127,44,31,12,215,32,32,74,201,46*73
$GPGSV,5,4,17,36,52,277,39,40,85,352,42,41,58,082,38,49,32,274,*7B
$GPGSV,5,5,17,50,10,089,*4A
$GLGSV,3,1,09,65,64,338,36,66,49,226,32,72,14,018,29,76,18,184,29*64
$GLGSV,3,2,09,77,18,231,24,86,27,087,34,87,29,036,31,88,01,344,32*61
$GLGSV,3,3,09,,,,33*6C
$GNGLL,0420.04439,S,05540.09298,E,104952.00,A,A*63
$GNRMC,104953.00,A,0420.04417,S,05540.09305,E,0.821,12.16,220525,,,A*51
$GNVTG,12.16,T,,M,0.821,N,1.521,K,A*1B
$GNGGA,104953.00,0420.04417,S,05540.09305,E,1,12,0.53,11.6,M,-47.6,M,,*45
$GNGSA,A,3,29,10,32,26,23,25,18,24,28,16,31,27,1.09,0.53,0.95*12
$GNGSA,A,3,65,86,87,72,66,76,77,,,,,,1.09,0.53,0.95*18
$GPGSV,5,1,17,10,33,327,47,16,21,285,31,18,23,037,42,23,17,009,37*76
$GPGSV,5,2,17,24,07,078,34,25,16,153,35,26,31,255,34,27,09,328,34*71
$GPGSV,5,3,17,28,26,191,43,29,47,127,44,31,12,215,34,32,74,201,47*77
$GPGSV,5,4,17,36,52,277,41,40,85,352,45,41,58,082,38,49,32,274,*73
$GPGSV,5,5,17,50,10,089,*4A
$GLGSV,3,1,09,65,64,338,38,66,49,226,31,72,14,018,30,76,18,184,34*6D
$GLGSV,3,2,09,77,18,231,21,86,27,087,36,87,29,036,36,88,01,344,34*67
$GLGSV,3,3,09,,,,34*6B
$GNGLL,0420.04417,S,05540.09305,E,104953.00,A,A*6B
$GNRMC,104954.00,A,0420.04387,S,05540.09308,E,1.123,5.02,220525,,,A*6C
$GNVTG,5.02,T,,M,1.123,N,2.080,K,A*2F
$GNGGA,104954.00,0420.04387,S,05540.09308,E,1,12,0.53,11.7,M,-47.6,M,,*40
$GNGSA,A,3,29,10,32,26,23,25,18,24,28,16,31,27,1.09,0.53,0.95*12
$GNGSA,A,3,65,86,87,72,66,76,77,,,,,,1.09,0.53,0.95*18
$GPGSV,5,1,17,10,33,327,47,16,21,285,36,18,23,037,35,23,17,009,43*72
$GPGSV,5,2,17,24,07,078,27,25,16,153,34,26,31,255,31,27,09,328,34*77
$GPGSV,5,3,17,28,26,191,39,29,47,127,44,31,12,215,32,32,74,201,46*7D
$GPGSV,5,4,17,36,52,277,38,40,85,352,45,41,58,082,40,49,32,274,*72
$GPGSV,5,5,17,50,10,089,*4A
$GLGSV,3,1,09,65,64,338,38,66,49,226,31,72,14,018,30,76,18,184,28*60
$GLGSV,3,2,09,77,18,231,21,86,27,087,36,87,29,036,34,88,01,344,36*67
$GLGSV,3,3,09,,,,34*6B
$GNGLL,0420.04387,S,05540.09308,E,104954.00,A,A*6F
$GNRMC,104955.00,A,0420.04349,S,05540.09304,E,1.463,357.52,220525,,,D*66
$GNVTG,357.52,T,,M,1.463,N,2.709,K,D*2C
$GNGGA,104955.00,0420.04349,S,05540.09304,E,2,12,0.53,11.7,M,-47.6,M,,0000*4C
$GNGSA,A,3,29,10,32,26,23,25,18,24,28,16,31,27,1.09,0.53,0.95*12
$GNGSA,A,3,65,86,87,72,66,76,77,,,,,,1.09,0.53,0.95*18
$GPGSV,5,1,17,10,33,327,43,16,21,285,33,18,23,037,40,23,17,009,41*73
$GPGSV,5,2,17,24,07,078,27,25,16,153,33,26,31,255,33,27,09,328,40*71
$GPGSV,5,3,17,28,26,191,40,29,47,127,44,31,12,215,32,32,74,201,44*71
$GPGSV,5,4,17,36,52,277,40,40,85,352,42,41,58,082,38,49,32,274,*75
$GPGSV,5,5,17,50,10,089,*4A
$GLGSV,3,1,09,65,64,338,39,66,49,226,32,72,14,018,29,76,18,184,31*62
$GLGSV,3,2,09,77,18,231,21,86,27,087,36,87,29,036,32,88,01,344,35*62
$GLGSV,3,3,09,,,,34*6B
$GNGLL,0420.04349,S,05540.09304,E,104955.00,A,D*65
$GNRMC,104956.00,A,0420.04322,S,05540.09302,E,0.758,357.94,220525,,,D*6E
$GNVTG,357.94,T,,M,0.758,N,1.404,K,D*21
$GNGGA,104956.00,0420.04322,S,05540.09302,E,2,12,0.53,11.5,M,-47.6,M,,0000*46
$GNGSA,A,3,29,10,32,26,23,25,18,24,28,16,31,27,1.09,0.53,0.95*12
$GNGSA,A,3,65,86,87,72,66,76,77,,,,,,1.09,0.53,0.95*18
$GPGSV,5,1,17,10,33,327,45,16,21,285,37,18,23,037,42,23,17,009,40*72
$GPGSV,5,2,17,24,07,078,28,25,16,153,33,26,31,255,33,27,09,328,37*7E
$GPGSV,5,3,17,28,26,191,40,29,47,127,44,31,12,215,34,32,74,201,46*75
$GPGSV,5,4,17,36,52,277,41,40,85,352,45,41,58,082,41,49,32,274,*7D
$GPGSV,5,5,17,50,10,089,*4A
$GLGSV,3,1,09,65,64,338,39,66,49,226,33,72,14,018,35,76,18,184,32*6D
$GLGSV,3,2,09,77,18,231,19,86,27,088,36,87,29,036,34,88,01,344,33*66
$GLGSV,3,3,09,,,,27*69
$GNGLL,0420.04322,S,05540.09302,E,104956.00,A,D*6D
$GNRMC,104957.00,A,0420.04281,S,05540.09289,E,1.911,342.92,220525,,,D*65
$GNVTG,342.92,T,,M,1.911,N,3.540,K,D*22
$GNGGA,104957.00,0420.04281,S,05540.09289,E,2,12,0.53,11.8,M,-47.6,M,,0000*40
$GNGSA,A,3,29,10,32,26,23,25,18,24,28,16,31,27,1.09,0.53,0.95*12
$GNGSA,A,3,65,86,87,72,66,76,77,,,,,,1.09,0.53,0.95*18
$GPGSV,5,1,17,10,33,327,46,16,21,285,35,18,23,037,42,23,17,009,40*73
$GPGSV,5,2,17,24,07,078,25,25,16,153,35,26,31,255,32,27,09,328,39*7A
$GPGSV,5,3,17,28,26,191,40,29,47,127,43,31,12,215,32,32,74,201,43*71
$GPGSV,5,4,17,36,52,277,38,40,85,352,45,41,58,082,40,49,32,274,*72
$GPGSV,5,5,17,50,10,089,*4A
$GLGSV,3,1,09,65,64,338,39,66,49,226,32,72,14,018,38,76,18,184,31*62
$GLGSV,3,2,09,77,18,231,18,86,27,088,31,87,29,036,30,88,01,344,38*6F
$GLGSV,3,3,09,,,,40*68
$GNGLL,0420.04281,S,05540.09289,E,104957.00,A,D*66
$GNRMC,104958.00,A,0420.04232,S,05540.09277,E,1.768,346.86,220525,,,D*62
$GNVTG,346.86,T,,M,1.768,N,3.275,K,D*22
$GNGGA,104958.00,0420.04232,S,05540.09277,E,2,12,0.53,11.7,M,-47.6,M,,0000*49
$GNGSA,A,3,29,10,32,26,23,25,18,24,28,16,31,27,1.09,0.53,0.95*12
$GNGSA,A,3,65,86,87,72,66,76,77,,,,,,1.09,0.53,0.95*18
$GPGSV,5,1,17,10,33,327,40,16,21,285,33,18,23,037,40,23,17,009,40*71
$GPGSV,5,2,17,24,07,078,32,25,16,153,34,26,31,255,31,27,09,328,31*76
$GPGSV,5,3,17,28,26,191,39,29,47,127,43,31,12,215,32,32,74,201,44*78
$GPGSV,5,4,17,36,52,277,35,40,85,352,43,41,58,082,42,49,32,274,*7B
$GPGSV,5,5,17,50,10,089,*4A
$GLGSV,3,1,09,65,64,338,39,66,49,226,31,72,14,018,30,76,18,184,32*6A
$GLGSV,3,2,09,77,18,231,20,86,27,088,39,87,29,036,34,88,01,344,34*64
$GLGSV,3,3,09,,,,33*6C
$GNGLL,0420.04232,S,05540.09277,E,104958.00,A,D*60
$GNRMC,104959.00,A,0420.04200,S,05540.09277,E,0.919,350.35,220525,,,D*64
$GNVTG,350.35,T,,M,0.919,N,1.703,K,D*22
$GNGGA,104959.00,0420.04200,S,05540.09277,E,2,12,0.55,11.5,M,-47.6,M,,0000*4D
$GNGSA,A,3,29,10,32,26,23,25,18,24,28,16,31,27,1.12,0.55,0.98*13
$GNGSA,A,3,65,86,87,72,66,76,77,,,,,,1.12,0.55,0.98*19
$GPGSV,5,1,17,10,33,327,44,16,21,285,39,18,23,037,40,23,17,009,42*7D
$GPGSV,5,2,17,24,07,078,22,25,16,153,35,26,31,255,32,27,09,328,39*7D
$GPGSV,5,3,17,28,26,191,39,29,47,127,43,31,12,215,32,32,74,201,47*7B
$GPGSV,5,4,17,36,52,277,40,40,85,352,43,41,58,082,37,49,32,274,*7B
$GPGSV,5,5,17,50,10,089,*4A
$GLGSV,3,1,09,65,64,338,39,66,49,226,33,72,14,018,36,76,18,184,31*6D
$GLGSV,3,2,09,77,18,231,20,86,27,088,33,87,29,036,34,88,01,344,32*68
$GLGSV,3,3,09,,,,28*66
$GNGLL,0420.04200,S,05540.09277,E,104959.00,A,D*60
$GNRMC,105000.00,A,0420.04178,S,05540.09277,E,0.788,352.34,220525,,,D*69
$GNVTG,352.34,T,,M,0.788,N,1.460,K,D*21
$GNGGA,105000.00,0420.04178,S,05540.09277,E,2,12,0.53,11.4,M,-47.6,M,,0000*42
$GNGSA,A,3,29,10,32,26,23,25,18,24,28,16,31,27,1.09,0.53,0.95*12
$GNGSA,A,3,65,86,87,72,66,76,77,,,,,,1.09,0.53,0.95*18
$GPGSV,5,1,17,10,33,327,40,16,21,285,35,18,23,037,39,23,17,009,43*7A
$GPGSV,5,2,17,24,07,078,32,25,16,153,36,26,31,255,33,27,09,328,38*7F
$GPGSV,5,3,17,28,26,191,41,29,47,127,44,31,12,215,31,32,74,201,44*73
$GPGSV,5,4,17,36,52,277,37,40,85,352,43,41,58,082,42,49,32,274,*79
$GPGSV,5,5,17,50,10,089,*4A
$GLGSV,3,1,09,65,64,338,39,66,49,226,31,72,14,018,31,76,18,184,32*6B
$GLGSV,3,2,09,77,18,231,20,86,27,088,37,87,29,036,29,88,01,344,31*63
$GLGSV,3,3,09,,,,28*66
$GNGLL,0420.04178,S,05540.09277,E,105000.00,A,D*68
$GNRMC,105001.00,A,0420.04159,S,05540.09275,E,0.671,352.07,220525,,,D*6E
$GNVTG,352.07,T,,M,0.671,N,1.243,K,D*21
$GNGGA,105001.00,0420.04159,S,05540.09275,E,2,12,0.57,11.2,M,-47.6,M,,0000*40
$GNGSA,A,3,29,10,32,26,23,25,18,24,28,16,31,27,1.15,0.57,1.00*16
$GNGSA,A,3,65,86,87,72,66,76,,,,,,,1.15,0.57,1.00*1C
$GPGSV,5,1,17,10,33,327,47,16,21,285,30,18,23,037,42,23,17,009,36*76
$GPGSV,5,2,17,24,07,078,23,25,16,153,36,26,31,255,33,27,09,328,35*72
$GPGSV,5,3,17,28,26,191,39,29,47,127,41,31,12,215,30,32,74,201,44*78
$GPGSV,5,4,17,36,52,277,36,40,85,352,44,41,58,082,37,49,32,274,*7D
$GPGSV,5,5,17,50,10,089,*4A
$GLGSV,3,1,09,65,64,338,38,66,49,226,31,72,14,018,35,76,18,184,32*6E
$GLGSV,3,2,09,77,18,231,,86,27,088,33,87,29,036,34,88,01,344,30*68
$GLGSV,3,3,09,,,,28*66
$GNGLL,0420.04159,S,05540.09275,E,105001.00,A,D*68
$GNRMC,105002.00,A,0420.04139,S,05540.09273,E,0.754,353.66,220525,,,D*6D
$GNVTG,353.66,T,,M,0.754,N,1.396,K,D*28
$GNGGA,105002.00,0420.04139,S,05540.09273,E,2,12,0.55,11.4,M,-47.6,M,,0000*47
$GNGSA,A,3,29,10,32,26,23,25,18,24,28,16,31,27,1.11,0.55,0.97*1F
$GNGSA,A,3,65,86,87,72,66,76,,,,,,,1.11,0.55,0.97*15
$GPGSV,5,1,17,10,33,327,43,16,21,285,31,18,23,037,41,23,17,009,43*72
$GPGSV,5,2,17,24,07,078,22,25,16,153,33,26,31,255,32,27,09,328,38*7A
$GPGSV,5,3,17,28,26,191,40,29,47,127,42,31,12,215,30,32,74,201,44*75
$GPGSV,5,4,17,36,52,277,31,40,85,352,43,41,58,082,37,49,32,274,*7D
$GPGSV,5,5,17,50,10,089,*4A
$GLGSV,3,1,09,65,64,338,37,66,49,226,31,72,14,018,35,76,18,184,31*62
$GLGSV,3,2,09,77,18,231,,86,27,088,36,87,29,036,33,88,01,344,33*69
$GLGSV,3,3,09,,,,37*68
$GNGLL,0420.04139,S,05540.09273,E,105002.00,A,D*6B
$GNRMC,105003.00,A,0420.04107,S,05540.09270,E,1.337,353.38,220525,,,D*69
$GNVTG,353.38,T,,M,1.337,N,2.476,K,D*29
$GNGGA,105003.00,0420.04107,S,05540.09270,E,2,12,0.55,11.4,M,-47.6,M,,0000*48
$GNGSA,A,3,29,10,32,26,23,25,18,24,28,16,31,27,1.11,0.55,0.97*1F
$GNGSA,A,3,65,86,87,72,66,76,,,,,,,1.11,0.55,0.97*15
$GPGSV,5,1,17,10,33,327,46,16,21,285,32,18,23,037,41,23,17,009,36*76
$GPGSV,5,2,17,24,07,078,22,25,16,153,37,26,31,255,36,27,09,328,34*76
$GPGSV,5,3,17,28,26,191,40,29,47,127,42,31,12,215,33,32,74,201,44*76
$GPGSV,5,4,17,36,52,277,36,40,85,352,44,41,58,082,36,49,32,274,*7C
$GPGSV,5,5,17,50,10,089,*4A
$GLGSV,3,1,09,65,64,338,38,66,49,226,33,72,14,018,29,76,18,184,29*6B
$GLGSV,3,2,09,77,18,231,,86,27,088,35,87,29,036,32,88,01,344,34*6C
$GLGSV,3,3,09,,,,33*6C
$GNGLL,0420.04107,S,05540.09270,E,105003.00,A,D*64
$GNRMC,105004.00,A,0420.04077,S,05540.09265,E,0.976,352.17,220525,,,D*6E
$GNVTG,352.17,T,,M,0.976,N,1.808,K,D*2D
$GNGGA,105004.00,0420.04077,S,05540.09265,E,2,12,0.55,11.2,M,-47.6,M,,0000*4B
$GNGSA,A,3,29,10,32,26,23,25,18,24,28,16,31,27,1.11,0.55,0.97*1F
$GNGSA,A,3,65,86,87,72,66,76,,,,,,,1.11,0.55,0.97*15
$GPGSV,5,1,17,10,33,327,44,16,21,285,34,18,23,037,38,23,17,009,40*7D
$GPGSV,5,2,17,24,07,078,23,25,16,153,39,26,31,255,31,27,09,328,33*79
$GPGSV,5,3,17,28,26,191,40,29,47,127,40,31,12,215,32,32,74,201,43*72
$GPGSV,5,4,17,36,52,277,39,40,85,352,43,41,58,082,41,49,32,274,*74
$GPGSV,5,5,17,50,10,089,*4A
$GLGSV,3,1,09,65,64,338,35,66,49,226,31,72,14,018,30,76,18,184,32*66
$GLGSV,3,2,09,77,18,231,,86,27,088,38,87,29,036,31,88,01,344,34*62
$GLGSV,3,3,09,,,,23*6D
$GNGLL,0420.04077,S,05540.09265,E,105004.00,A,D*61
$GNRMC,105005.00,A,0420.04061,S,05540.09265,E,0.447,,220525,,,D*7B
$GNVTG,,T,,M,0.447,N,0.828,K,D*3D
$GNGGA,105005.00,0420.04061,S,05540.09265,E,2,12,0.55,11.2,M,-47.6,M,,0000*4D
$GNGSA,A,3,29,10,32,26,23,25,18,24,28,16,31,27,1.11,0.55,0.97*1F
$GNGSA,A,3,65,86,87,72,66,76,,,,,,,1.11,0.55,0.97*15
$GPGSV,5,1,17,10,33,327,41,16,21,285,33,18,23,037,37,23,17,009,36*71
$GPGSV,5,2,17,24,07,078,25,25,16,153,36,26,31,255,32,27,09,328,33*73
$GPGSV,5,3,17,28,26,191,37,29,47,127,38,31,12,215,30,32,74,201,44*78
$GPGSV,5,4,17,36,52,277,35,40,85,352,44,41,58,082,36,49,32,274,*7F
$GPGSV,5,5,17,50,10,089,*4A
$GLGSV,3,1,09,65,64,338,37,66,49,226,29,72,14,018,30,76,18,184,31*6E
$GLGSV,3,2,09,77,18,231,,86,27,088,35,87,29,036,32,88,01,344,32*6A
$GLGSV,3,3,09,,,,24*6A
$GNGLL,0420.04061,S,05540.09265,E,105005.00,A,D*67
$GNRMC,105006.00,A,0420.04032,S,05540.09264,E,1.241,352.55,220525,,,D*64
$GNVTG,352.55,T,,M,1.241,N,2.299,K,D*24
$GNGGA,105006.00,0420.04032,S,05540.09264,E,2,12,0.55,11.3,M,-47.6,M,,0000*48
$GNGSA,A,3,29,10,32,26,23,25,18,24,28,16,31,27,1.11,0.55,0.97*1F
$GNGSA,A,3,65,86,87,72,66,76,,,,,,,1.11,0.55,0.97*15
$GPGSV,5,1,17,10,33,327,42,16,21,285,36,18,23,037,40,23,17,009,42*74
$GPGSV,5,2,17,24,07,078,24,25,16,153,37,26,31,255,31,27,09,328,38*7B
$GPGSV,5,3,17,28,26,191,40,29,47,127,38,31,12,215,29,32,74,201,44*70
$GPGSV,5,4,17,36,52,277,36,40,85,352,44,41,58,082,39,49,32,274,*73
$GPGSV,5,5,17,50,10,089,*4A
$GLGSV,3,1,09,65,64,338,35,66,49,226,29,72,14,018,30,76,18,184,30*6D
$GLGSV,3,2,09,77,18,231,,86,27,088,35,87,29,036,30,88,01,344,33*69
$GLGSV,3,3,09,,,,37*68
$GNGLL,0420.04032,S,05540.09264,E,105006.00,A,D*63
$GNRMC,105007.00,A,0420.03992,S,05540.09254,E,1.495,347.85,220525,,,D*64
$GNVTG,347.85,T,,M,1.495,N,2.769,K,D*28
$GNGGA,105007.00,0420.03992,S,05540.09254,E,2,12,0.55,11.4,M,-47.6,M,,0000*49
$GNGSA,A,3,29,10,32,26,23,25,18,24,28,16,31,27,1.11,0.55,0.97*1F
$GNGSA,A,3,65,86,87,72,66,76,,,,,,,1.11,0.55,0.97*15
$GPGSV,5,1,17,10,33,327,43,16,21,285,36,18,23,037,37,23,17,009,40*77
$GPGSV,5,2,17,24,07,078,23,25,16,153,38,26,31,255,31,27,09,328,38*73
$GPGSV,5,3,17,28,26,191,42,29,47,127,38,31,12,215,31,32,74,201,43*7C
$GPGSV,5,4,17,36,52,277,36,40,85,352,41,41,58,082,39,49,32,274,*76
$GPGSV,5,5,17,50,10,089,*4A
$GLGSV,3,1,09,65,64,338,35,66,49,226,34,72,14,018,30,76,18,184,30*61
$GLGSV,3,2,09,77,18,231,,86,27,088,38,87,29,036,32,88,01,344,36*63
$GLGSV,3,3,09,,,,36*69
$GNGLL,0420.03992,S,05540.09254,E,105007.00,A,D*65
$GNRMC,105008.00,A,0420.03956,S,05540.09240,E,1.304,343.26,220525,,,D*64
$GNVTG,343.26,T,,M,1.304,N,2.414,K,D*23
$GNGGA,105008.00,0420.03956,S,05540.09240,E,2,12,0.55,11.4,M,-47.6,M,,0000*4B
$GNGSA,A,3,29,10,32,26,23,25,18,24,28,16,31,27,1.11,0.55,0.97*1F
$GNGSA,A,3,65,86,87,72,66,76,,,,,,,1.11,0.55,0.97*15
$GPGSV,5,1,17,10,33,327,46,16,21,285,35,18,23,037,40,23,17,009,37*71
$GPGSV,5,2,17,24,07,078,24,25,16,153,38,26,31,255,32,27,09,328,35*7A
$GPGSV,5,3,17,28,26,191,40,29,47,127,34,31,12,215,31,32,74,201,43*72
$GPGSV,5,4,17,36,52,277,38,40,85,352,43,41,58,082,38,49,32,274,*7B
$GPGSV,5,5,17,50,10,089,*4A
$GLGSV,3,1,09,65,64,338,38,66,49,226,34,72,14,018,32,76,18,184,30*6E
$GLGSV,3,2,09,77,18,231,,86,27,088,39,87,29,036,33,88,01,344,36*63
$GLGSV,3,3,09,,,,31*6E
$GNGLL,0420.03956,S,05540.09240,E,105008.00,A,D*67
$GNRMC,105009.00,A,0420.03926,S,05540.09233,E,1.032,346.57,220525,,,D*63
$GNVTG,346.57,T,,M,1.032,N,1.911,K,D*2D
$GNGGA,105009.00,0420.03926,S,05540.09233,E,2,12,0.55,11.3,M,-47.6,M,,0000*4E
$GNGSA,A,3,29,10,32,26,23,25,18,24,28,16,31,27,1.11,0.55,0.97*1F
$GNGSA,A,3,65,86,87,72,66,76,,,,,,,1.11,0.55,0.97*15
$GPGSV,5,1,17,10,33,327,43,16,21,285,36,18,23,037,39,23,17,009,37*79
$GPGSV,5,2,17,24,07,078,26,25,16,153,39,26,31,255,32,27,09,328,34*78
$GPGSV,5,3,17,28,26,191,40,29,47,127,44,31,12,215,30,32,74,201,44*73
$GPGSV,5,4,17,36,52,277,40,40,85,352,42,41,58,082,40,49,32,274,*7A
$GPGSV,5,5,17,50,10,089,*4A
$GLGSV,3,1,09,65,64,338,36,66,49,226,28,72,14,018,32,76,18,184,32*6F
$GLGSV,3,2,09,77,18,231,,86,27,088,37,87,29,036,33,88,01,344,33*68
$GLGSV,3,3,09,,,,29*67
$GNGLL,0420.03926,S,05540.09233,E,105009.00,A,D*65
$GNRMC,105010.00,A,0420.03904,S,05540.09232,E,0.635,349.10,220525,,,D*66
$GNVTG,349.10,T,,M,0.635,N,1.176,K,D*28
$GNGGA,105010.00,0420.03904,S,05540.09232,E,2,12,0.58,11.3,M,-47.6,M,,0000*4A
$GNGSA,A,3,29,10,32,26,23,25,18,24,28,16,31,27,1.17,0.58,1.01*1A
$GNGSA,A,3,65,86,87,72,66,76,,,,,,,1.17,0.58,1.01*10
$GPGSV,5,1,17,10,33,327,41,16,21,285,36,18,23,037,37,23,17,009,39*7B
$GPGSV,5,2,17,24,07,078,24,25,16,153,34,26,31,255,32,27,09,328,33*70
$GPGSV,5,3,17,28,26,191,40,29,47,127,42,31,12,215,29,32,74,201,45*7C
$GPGSV,5,4,17,36,52,277,39,40,85,352,45,41,58,082,39,49,32,274,*7D
$GPGSV,5,5,17,50,10,089,*4A
$GLGSV,3,1,09,65,64,338,37,66,49,226,29,72,14,018,29,76,18,184,32*65
$GLGSV,3,2,09,77,18,231,,86,27,088,35,87,29,036,33,88,01,344,33*6A
$GLGSV,3,3,09,,,,35*6A
$GNGLL,0420.03904,S,05540.09232,E,105010.00,A,D*6C
$GNRMC,105011.00,A,0420.03864,S,05540.09220,E,1.856,340.58,220525,,,D*6C
$GNVTG,340.58,T,,M,1.856,N,3.438,K,D*2A
$GNGGA,105011.00,0420.03864,S,05540.09220,E,2,12,0.57,11.5,M,-47.6,M,,0000*46
$GNGSA,A,3,29,10,32,26,23,25,18,24,28,16,31,27,1.15,0.57,1.00*16
$GNGSA,A,3,65,86,87,72,66,76,,,,,,,1.15,0.57,1.00*1C
$GPGSV,5,1,17,10,33,327,44,16,21,285,35,18,23,037,39,23,17,009,43*7E
$GPGSV,5,2,17,24,07,078,23,25,16,153,37,26,31,255,35,27,09,328,39*79
$GPGSV,5,3,17,28,26,191,40,29,47,127,42,31,12,215,30,32,74,201,44*75
$GPGSV,5,4,17,36,52,277,34,40,85,352,44,41,58,082,38,49,32,274,*70
$GPGSV,5,5,17,50,10,089,*4A
$GLGSV,3,1,09,65,64,338,37,66,49,226,30,72,14,018,30,76,18,184,30*67
$GLGSV,3,2,09,77,18,231,,86,27,088,37,87,29,036,31,88,01,344,38*61
$GLGSV,3,3,09,,,,38*67
$GNGLL,0420.03864,S,05540.09220,E,105011.00,A,D*69
$GNRMC,105012.00,A,0420.03825,S,05540.09205,E,1.397,340.11,220525,,,D*66
$GNVTG,340.11,T,,M,1.397,N,2.588,K,D*2A
$GNGGA,105012.00,0420.03825,S,05540.09205,E,2,12,0.57,11.2,M,-47.6,M,,0000*40
$GNGSA,A,3,29,10,32,26,23,25,18,24,28,16,31,27,1.15,0.57,1.00*16
$GNGSA,A,3,65,86,87,72,66,76,,,,,,,1.15,0.57,1.00*1C
$GPGSV,5,1,17,10,33,327,42,16,21,285,31,18,23,037,41,23,17,009,39*7E
$GPGSV,5,2,17,24,07,078,23,25,16,153,39,26,31,255,29,27,09,328,28*7A
$GPGSV,5,3,17,28,26,191,40,29,47,127,41,31,12,215,35,32,74,201,43*74
$GPGSV,5,4,17,36,52,277,34,40,85,352,44,41,58,082,42,49,32,274,*7D
$GPGSV,5,5,17,50,10,089,*4A
$GLGSV,3,1,09,65,64,338,37,66,49,226,29,72,14,018,29,76,18,184,32*65
$GLGSV,3,2,09,77,18,231,,86,27,088,37,87,29,036,30,88,01,344,34*6C
$GLGSV,3,3,09,,,,28*66
$GNGLL,0420.03825,S,05540.09205,E,105012.00,A,D*68
$GNRMC,105013.00,A,0420.03806,S,05540.09205,E,0.433,344.81,220525,,,D*63
$GNVTG,344.81,T,,M,0.433,N,0.802,K,D*22
$GNGGA,105013.00,0420.03806,S,05540.09205,E,2,12,0.57,10.8,M,-47.6,M,,0000*4B
$GNGSA,A,3,29,10,32,26,23,25,18,24,28,16,31,27,1.15,0.57,1.00*16
$GNGSA,A,3,65,86,87,72,66,76,,,,,,,1.15,0.57,1.00*1C
$GPGSV,5,1,17,10,33,327,46,16,21,285,37,18,23,037,40,23,17,009,39*7D
$GPGSV,5,2,17,24,07,078,20,25,16,153,35,26,31,255,31,27,09,328,38*7D
$GPGSV,5,3,17,28,26,191,40,29,47,127,43,31,12,215,26,32,74,201,45*72
$GPGSV,5,4,17,36,52,277,40,40,85,352,44,41,58,082,37,49,32,274,*7C
$GPGSV,5,5,17,50,10,089,*4A
$GLGSV,3,1,09,65,64,338,37,66,49,226,34,72,14,018,36,76,18,184,32*67
$GLGSV,3,2,09,77,18,231,,86,27,088,36,87,29,036,31,88,01,344,32*6A
$GLGSV,3,3,09,,,,35*6A
$GNGLL,0420.03806,S,05540.09205,E,105013.00,A,D*68
$GNRMC,105014.00,A,0420.03784,S,05540.09203,E,0.905,346.19,220525,,,D*6C
$GNVTG,346.19,T,,M,0.905,N,1.677,K,D*24
$GNGGA,105014.00,0420.03784,S,05540.09203,E,2,12,0.57,11.0,M,-47.6,M,,0000*46
$GNGSA,A,3,29,10,32,26,23,25,18,24,28,16,31,27,1.15,0.57,1.00*16
$GNGSA,A,3,65,86,87,72,66,76,,,,,,,1.15,0.57,1.00*1C
$GPGSV,5,1,17,10,33,327,46,16,21,284,35,18,23,037,40,23,17,009,41*71
$GPGSV,5,2,17,24,07,078,19,25,16,153,34,26,31,255,30,27,09,328,29*77
$GPGSV,5,3,17,28,26,191,39,29,47,127,39,31,12,215,26,32,74,201,44*70
$GPGSV,5,4,17,36,52,277,37,40,85,352,45,41,58,082,37,49,32,274,*7D
$GPGSV,5,5,17,50,10,089,*4A
$GLGSV,3,1,09,65,64,338,38,66,49,226,27,72,14,018,36,76,18,184,30*68
$GLGSV,3,2,09,77,18,231,24,86,27,088,37,87,29,036,31,88,01,344,31*6E
$GLGSV,3,3,09,,,,37*68
$GNGLL,0420.03784,S,05540.09203,E,105014.00,A,D*6C
$GNRMC,105015.00,A,0420.03753,S,05540.09190,E,1.309,336.22,220525,,,D*66
$GNVTG,336.22,T,,M,1.309,N,2.425,K,D*2A
$GNGGA,105015.00,0420.03753,S,05540.09190,E,2,12,0.57,11.1,M,-47.6,M,,0000*45
$GNGSA,A,3,29,10,32,26,23,25,18,24,28,16,31,27,1.15,0.57,1.00*16
$GNGSA,A,3,65,86,87,72,66,76,,,,,,,1.15,0.57,1.00*1C
$GPGSV,5,1,17,10,33,327,43,16,21,284,38,18,23,037,39,23,17,009,39*78
$GPGSV,5,2,17,24,07,078,19,25,16,153,34,26,31,255,28,27,09,328,35*73
$GPGSV,5,3,17,28,26,191,41,29,47,127,35,31,12,215,26,32,74,201,43*74
$GPGSV,5,4,17,36,52,277,38,40,85,352,43,41,58,082,38,49,32,274,*7B
$GPGSV,5,5,17,50,10,089,*4A
$GLGSV,3,1,09,65,64,338,37,66,49,226,30,72,14,018,32,76,18,184,30*65
$GLGSV,3,2,09,77,18,231,22,86,27,088,37,87,29,036,32,88,01,344,33*69
$GLGSV,3,3,09,,,,32*6D
$GNGLL,0420.03753,S,05540.09190,E,105015.00,A,D*6E
$GNRMC,105016.00,A,0420.03721,S,05540.09183,E,1.167,343.14,220525,,,D*6F
$GNVTG,343.14,T,,M,1.167,N,2.161,K,D*22
$GNGGA,105016.00,0420.03721,S,05540.09183,E,2,12,0.56,10.9,M,-47.6,M,,0000*49
$GNGSA,A,3,29,10,32,26,23,25,18,24,28,16,31,27,1.13,0.56,0.98*11
$GNGSA,A,3,65,86,87,72,66,76,,,,,,,1.13,0.56,0.98*1B
$GPGSV,5,1,17,10,33,327,45,16,21,284,29,18,23,038,36,23,17,009,36*71
$GPGSV,5,2,17,24,07,078,21,25,16,153,35,26,31,255,30,27,09,328,34*71
$GPGSV,5,3,17,28,26,191,41,29,47,127,42,31,12,215,28,32,74,201,43*7A
$GPGSV,5,4,17,36,52,277,38,40,85,352,42,41,58,082,38,49,32,274,*7A
$GPGSV,5,5,17,50,10,089,*4A
$GLGSV,3,1,09,65,64,338,37,66,49,226,30,72,14,018,25,76,18,184,32*61
$GLGSV,3,2,09,77,18,231,19,86,27,088,36,87,29,036,31,88,01,344,33*63
$GLGSV,3,3,09,,,,33*6C
$GNGLL,0420.03721,S,05540.09183,E,105016.00,A,D*6A
$GNRMC,105017.00,A,0420.03697,S,05540.09183,E,0.604,350.46,220525,,,D*64
$GNVTG,350.46,T,,M,0.604,N,1.118,K,D*29
$GNGGA,105017.00,0420.03697,S,05540.09183,E,2,12,0.56,10.7,M,-47.6,M,,0000*4A
$GNGSA,A,3,29,10,32,26,23,25,18,24,28,16,31,27,1.13,0.56,0.98*11
$GNGSA,A,3,65,86,87,72,66,76,,,,,,,1.13,0.56,0.98*1B
$GPGSV,5,1,17,10,33,327,42,16,21,284,31,18,23,038,40,23,17,009,36*7E
$GPGSV,5,2,17,24,07,078,25,25,16,153,33,26,31,255,31,27,09,328,34*72
$GPGSV,5,3,17,28,26,191,41,29,47,127,38,31,12,215,29,32,74,201,42*77
$GPGSV,5,4,17,36,52,277,39,40,85,352,44,41,58,082,36,49,32,274,*73
$GPGSV,5,5,17,50,10,089,*4A
$GLGSV,3,1,09,65,64,338,37,66,49,226,33,72,14,018,29,76,18,184,32*6E
$GLGSV,3,2,09,77,18,231,13,86,27,088,35,87,29,036,29,88,01,344,28*69
$GLGSV,3,3,09,,,,26*68
$GNGLL,0420.03697,S,05540.09183,E,105017.00,A,D*67
$GNRMC,105018.00,A,0420.03665,S,05540.09170,E,1.427,333.48,220525,,,D*63
$GNVTG,333.48,T,,M,1.427,N,2.644,K,D*2D
$GNGGA,105018.00,0420.03665,S,05540.09170,E,2,12,0.55,11.1,M,-47.6,M,,0000*40
$GNGSA,A,3,29,10,32,26,23,25,18,24,28,16,31,27,1.11,0.55,0.97*1F
$GNGSA,A,3,65,86,87,72,66,76,77,,,,,,1.11,0.55,0.97*15
$GPGSV,5,1,17,10,33,327,44,16,21,284,35,18,23,038,39,23,17,009,37*73
$GPGSV,5,2,17,24,07,078,26,25,16,153,32,26,31,255,30,27,09,328,34*71
$GPGSV,5,3,17,28,26,191,38,29,47,127,41,31,12,215,30,32,74,201,43*7E
$GPGSV,5,4,17,36,52,277,35,40,85,352,43,41,58,082,35,49,32,274,*7B
$GPGSV,5,5,17,50,10,089,*4A
$GLGSV,3,1,09,65,64,338,39,66,49,226,31,72,14,018,31,76,18,184,30*69
$GLGSV,3,2,09,77,18,231,12,86,27,088,31,87,29,036,32,88,01,344,33*6C
$GLGSV,3,3,09,,,,26*68
$GNGLL,0420.03665,S,05540.09170,E,105018.00,A,D*69
$GNRMC,105019.00,A,0420.03624,S,05540.09154,E,1.637,338.43,220525,,,D*62
$GNVTG,338.43,T,,M,1.637,N,3.031,K,D*2B
$GNGGA,105019.00,0420.03624,S,05540.09154,E,2,12,0.57,11.1,M,-47.6,M,,0000*40
$GNGSA,A,3,29,10,32,26,23,25,18,24,28,16,31,27,1.15,0.57,1.00*16
$GNGSA,A,3,65,86,87,72,66,76,77,,,,,,1.15,0.57,1.00*1C
$GPGSV,5,1,17,10,33,327,44,16,21,284,31,18,23,038,37,23,17,009,36*78
$GPGSV,5,2,17,24,07,078,25,25,16,153,36,26,31,255,30,27,09,328,36*74
$GPGSV,5,3,17,28,26,191,40,29,47,127,41,31,12,215,29,32,74,201,43*79
$GPGSV,5,4,17,36,52,277,35,40,85,352,42,41,58,082,35,49,32,274,*7A
$GPGSV,5,5,17,50,10,089,*4A
$GLGSV,3,1,09,65,64,338,37,66,49,226,30,72,14,018,33,76,18,184,32*66
$GLGSV,3,2,09,77,18,231,18,86,27,088,35,87,29,036,31,88,01,344,30*62
$GLGSV,3,3,09,,,,34*6B
$GNGLL,0420.03624,S,05540.09154,E,105019.00,A,D*6B
$GNRMC,105020.00,A,0420.03600,S,05540.09149,E,0.636,339.02,220525,,,D*66
$GNVTG,339.02,T,,M,0.636,N,1.178,K,D*21
$GNGGA,105020.00,0420.03600,S,05540.09149,E,2,12,0.55,11.0,M,-47.6,M,,0000*43
$GNGSA,A,3,29,10,32,26,23,25,18,24,28,16,31,27,1.11,0.55,0.97*1F
$GNGSA,A,3,65,86,87,72,66,76,77,,,,,,1.11,0.55,0.97*15
$GPGSV,5,1,17,10,33,327,44,16,21,284,37,18,23,038,37,23,17,010,38*78
$GPGSV,5,2,17,24,07,078,23,25,16,153,34,26,31,255,30,27,09,328,32*74
$GPGSV,5,3,17,28,26,191,38,29,47,127,40,31,12,215,34,32,74,201,44*7C
$GPGSV,5,4,17,36,52,277,35,40,85,352,42,41,58,082,35,49,32,274,*7A
$GPGSV,5,5,17,50,10,089,*4A
$GLGSV,3,1,09,65,64,338,37,66,49,226,33,72,14,018,31,76,18,184,32*67
$GLGSV,3,2,09,77,18,231,18,86,27,088,31,87,29,036,34,88,01,344,33*60
$GLGSV,3,3,09,,,,24*6A
$GNGLL,0420.03600,S,05540.09149,E,105020.00,A,D*6B
$GNRMC,105021.00,A,0420.03571,S,05540.09149,E,1.223,355.79,220525,,,D*65
$GNVTG,355.79,T,,M,1.223,N,2.266,K,D*29
$GNGGA,105021.00,0420.03571,S,05540.09149,E,2,12,0.57,11.0,M,-47.6,M,,0000*45
$GNGSA,A,3,29,10,32,26,23,25,18,24,28,16,31,27,1.15,0.57,1.00*16
$GNGSA,A,3,65,86,87,72,66,76,77,,,,,,1.15,0.57,1.00*1C
$GPGSV,5,1,17,10,33,327,40,16,21,284,37,18,23,038,30,23,17,010,43*77
$GPGSV,5,2,17,24,07,078,23,25,16,153,37,26,31,255,34,27,09,328,35*74
$GPGSV,5,3,17,28,26,191,38,29,47,127,40,31,12,215,32,32,74,201,42*7C
$GPGSV,5,4,17,36,52,277,38,40,85,352,42,41,58,082,39,49,32,274,*7B
$GPGSV,5,5,17,50,10,089,*4A
$GLGSV,3,1,09,65,64,338,37,66,49,226,33,72,14,018,32,76,18,184,30*66
$GLGSV,3,2,09,77,18,231,15,86,27,088,32,87,29,036,34,88,01,344,30*6D
$GLGSV,3,3,09,,,,25*6B
$GNGLL,0420.03571,S,05540.09149,E,105021.00,A,D*6F
$GNRMC,105022.00,A,0420.03531,S,05540.09151,E,1.478,1.27,220525,,,D*6A
$GNVTG,1.27,T,,M,1.478,N,2.738,K,D*26
$GNGGA,105022.00,0420.03531,S,05540.09151,E,2,12,0.55,11.2,M,-47.6,M,,0000*4B
$GNGSA,A,3,29,10,32,26,23,25,18,24,28,16,31,27,1.11,0.55,0.97*1F
$GNGSA,A,3,65,86,87,72,66,76,77,,,,,,1.11,0.55,0.97*15
$GPGSV,5,1,17,10,33,327,41,16,21,284,35,18,23,038,30,23,17,010,41*76
$GPGSV,5,2,17,24,07,078,29,25,15,152,37,26,31,255,36,27,09,328,43*7F
$GPGSV,5,3,17,28,26,191,37,29,47,127,40,31,12,215,25,32,74,201,39*79
$GPGSV,5,4,17,36,52,277,40,40,85,352,43,41,58,082,38,49,32,274,*74
$GPGSV,5,5,17,50,10,089,*4A
$GLGSV,3,1,09,65,64,338,38,66,49,226,33,72,14,018,27,76,18,184,30*6D
$GLGSV,3,2,09,77,18,231,20,86,27,088,33,87,29,036,29,88,01,344,32*64
$GLGSV,3,3,09,,,,24*6A
$GNGLL,0420.03531,S,05540.09151,E,105022.00,A,D*61
$GNRMC,105023.00,A,0420.03483,S,05540.09149,E,1.766,357.45,220525,,,D*62
$GNVTG,357.45,T,,M,1.766,N,3.270,K,D*26
$GNGGA,105023.00,0420.03483,S,05540.09149,E,2,12,0.55,11.3,M,-47.6,M,,0000*4A
$GNGSA,A,3,29,10,32,26,23,25,18,24,28,16,31,27,1.11,0.55,0.97*1F
$GNGSA,A,3,65,86,87,72,66,76,77,,,,,,1.11,0.55,0.97*15
$GPGSV,5,1,17,10,33,327,44,16,21,284,42,18,23,038,34,23,17,010,38*79
$GPGSV,5,2,17,24,07,078,28,25,15,152,35,26,31,254,38,27,09,328,36*71
$GPGSV,5,3,17,28,26,191,29,29,47,127,42,31,12,215,31,32,74,201,42*7D
$GPGSV,5,4,17,36,52,277,42,40,85,352,42,41,58,082,38,49,32,274,*77
$GPGSV,5,5,17,50,10,089,*4A
$GLGSV,3,1,09,65,64,338,38,66,49,226,34,72,14,018,31,76,18,184,29*65
$GLGSV,3,2,09,77,18,231,16,86,27,088,32,87,29,036,34,88,01,344,34*6A
$GLGSV,3,3,09,,,,25*6B
$GNGLL,0420.03483,S,05540.09149,E,105023.00,A,D*61
$GNRMC,105024.00,A,0420.03439,S,05540.09145,E,1.428,353.97,220525,,,D*6A
$GNVTG,353.97,T,,M,1.428,N,2.645,K,D*27
$GNGGA,105024.00,0420.03439,S,05540.09145,E,2,12,0.55,11.2,M,-47.6,M,,0000*41
$GNGSA,A,3,29,10,32,26,23,25,18,24,28,16,31,27,1.11,0.55,0.97*1F
$GNGSA,A,3,65,86,87,72,66,76,77,,,,,,1.11,0.55,0.97*15
$GPGSV,5,1,17,10,33,327,43,16,21,284,38,18,23,038,35,23,17,010,29*72
$GPGSV,5,2,17,24,07,078,30,25,15,152,31,26,31,254,40,27,09,328,29*7D
$GPGSV,5,3,17,28,26,191,28,29,47,127,42,31,12,215,25,32,74,201,42*79
$GPGSV,5,4,17,36,52,277,43,40,85,352,42,41,58,082,37,49,32,274,*79
$GPGSV,5,5,17,50,10,089,*4A
$GLGSV,3,1,09,65,64,338,38,66,49,226,35,72,14,018,26,76,18,184,28*63
$GLGSV,3,2,09,77,18,231,19,86,27,088,29,87,29,036,30,88,01,344,32*6D
$GLGSV,3,3,09,,,,27*69
$GNGLL,0420.03439,S,05540.09145,E,105024.00,A,D*6B
$GNRMC,105025.00,A,0420.03412,S,05540.09145,E,0.715,354.78,220525,,,D*68
$GNVTG,354.78,T,,M,0.715,N,1.324,K,D*2C
$GNGGA,105025.00,0420.03412,S,05540.09145,E,2,12,0.55,11.1,M,-47.6,M,,0000*4A
$GNGSA,A,3,29,10,32,26,23,25,18,24,28,16,31,27,1.11,0.55,0.97*1F
$GNGSA,A,3,65,86,87,72,66,76,77,,,,,,1.11,0.55,0.97*15
$GPGSV,5,1,17,10,33,327,40,16,21,284,39,18,23,038,36,23,17,010,35*7E
$GPGSV,5,2,17,24,07,078,29,25,15,152,30,26,31,254,42,27,09,328,20*7F
$GPGSV,5,3,17,28,26,190,28,29,47,127,40,31,12,215,34,32,74,201,41*79
$GPGSV,5,4,17,36,52,277,40,40,85,352,42,41,58,082,38,49,32,274,*75
$GPGSV,5,5,17,50,10,089,*4A
$GLGSV,3,1,09,65,64,338,33,66,49,226,35,72,14,018,26,76,18,184,17*64
$GLGSV,3,2,09,77,18,231,21,86,27,088,30,87,29,036,34,88,01,344,26*6F
$GLGSV,3,3,09,,,,27*69
$GNGLL,0420.03412,S,05540.09145,E,105025.00,A,D*63
$GNRMC,105026.00,A,0420.03381,S,05540.09146,E,1.130,356.30,220525,,,D*6B
$GNVTG,356.30,T,,M,1.130,N,2.093,K,D*2E
$GNGGA,105026.00,0420.03381,S,05540.09146,E,2,12,0.53,11.3,M,-47.6,M,,0000*43
$GNGSA,A,3,29,10,32,26,23,25,18,24,28,16,31,27,1.09,0.53,0.95*12
$GNGSA,A,3,65,86,87,72,66,76,77,,,,,,1.09,0.53,0.95*18
$GPGSV,5,1,17,10,33,327,43,16,21,284,39,18,23,038,29,23,17,010,38*7E
$GPGSV,5,2,17,24,07,078,33,25,15,152,31,26,31,254,42,27,09,328,36*72
$GPGSV,5,3,17,28,26,190,21,29,47,127,39,31,12,215,20,32,74,201,42*78
$GPGSV,5,4,17,36,52,277,39,40,85,352,44,41,58,082,40,49,32,274,*72
$GPGSV,5,5,17,50,10,089,*4A
$GLGSV,3,1,09,65,64,338,36,66,49,226,37,72,14,018,25,76,18,184,21*65
$GLGSV,3,2,09,77,18,231,21,86,27,088,33,87,29,036,31,88,01,344,22*6D
$GLGSV,3,3,09,,,,35*6A
$GNGLL,0420.03381,S,05540.09146,E,105026.00,A,D*6E
$GNRMC,105027.00,A,0420.03333,S,05540.09146,E,1.903,356.49,220525,,,D*65
$GNVTG,356.49,T,,M,1.903,N,3.525,K,D*21
$GNGGA,105027.00,0420.03333,S,05540.09146,E,2,12,0.53,11.7,M,-47.6,M,,0000*4F
$GNGSA,A,3,29,10,32,26,23,25,18,24,28,16,31,27,1.09,0.53,0.95*12
$GNGSA,A,3,65,86,87,72,66,76,77,,,,,,1.09,0.53,0.95*18
$GPGSV,5,1,17,10,33,327,41,16,21,284,41,18,23,038,34,23,17,010,34*73
$GPGSV,5,2,17,24,07,078,33,25,15,152,29,26,31,254,41,27,09,328,31*7F
$GPGSV,5,3,17,28,26,190,29,29,47,127,35,31,12,215,33,32,74,201,39*72
$GPGSV,5,4,17,36,52,277,42,40,85,352,42,41,58,082,38,49,32,274,*77
$GPGSV,5,5,17,50,10,089,*4A
$GLGSV,3,1,09,65,64,338,36,66,49,226,42,72,14,018,31,76,18,184,24*67
$GLGSV,3,2,09,77,18,231,26,86,27,088,32,87,29,036,32,88,01,344,24*6E
$GLGSV,3,3,09,,,,35*6A
$GNGLL,0420.03333,S,05540.09146,E,105027.00,A,D*66
$GNRMC,105028.00,A,0420.03275,S,05540.09132,E,2.298,347.96,220525,,,D*62
$GNVTG,347.96,T,,M,2.298,N,4.256,K,D*2D
$GNGGA,105028.00,0420.03275,S,05540.09132,E,2,12,0.53,11.7,M,-47.6,M,,0000*40
$GNGSA,A,3,29,10,32,26,23,25,18,24,28,16,31,27,1.09,0.53,0.95*12
$GNGSA,A,3,65,86,87,72,66,76,77,,,,,,1.09,0.53,0.95*18
$GPGSV,5,1,17,10,33,327,40,16,21,284,41,18,23,038,36,23,17,010,35*71
$GPGSV,5,2,17,24,07,078,34,25,15,152,19,26,31,254,43,27,09,328,24*7D
$GPGSV,5,3,17,28,26,190,33,29,47,127,38,31,13,215,35,32,74,201,42*7F
$GPGSV,5,4,17,36,52,277,42,40,85,352,41,41,58,082,38,49,32,274,*74
$GPGSV,5,5,17,50,10,089,*4A
$GLGSV,3,1,09,65,64,338,37,66,49,226,41,72,14,018,34,76,18,184,31*64
$GLGSV,3,2,09,77,18,231,29,86,27,088,33,87,29,036,31,88,01,344,27*60
$GLGSV,3,3,09,,,,30*6F
$GNGLL,0420.03275,S,05540.09132,E,105028.00,A,D*69
$GNRMC,105029.00,A,0420.03229,S,05540.09108,E,1.720,340.82,220525,,,D*64
$GNVTG,340.82,T,,M,1.720,N,3.185,K,D*20
$GNGGA,105029.00,0420.03229,S,05540.09108,E,2,12,0.53,11.3,M,-47.6,M,,0000*45
$GNGSA,A,3,29,10,32,26,23,25,18,24,28,16,31,27,1.09,0.53,0.95*12
$GNGSA,A,3,65,86,87,72,66,76,77,,,,,,1.09,0.53,0.95*18
$GPGSV,5,1,17,10,33,327,36,16,21,284,37,18,23,038,32,23,17,010,36*76
$GPGSV,5,2,17,24,07,078,32,25,15,152,24,26,31,254,34,27,09,328,25*74
$GPGSV,5,3,17,28,26,190,34,29,47,127,36,31,13,215,35,32,75,202,37*76
$GPGSV,5,4,17,36,52,277,39,40,85,352,41,41,58,082,38,49,32,274,*78
$GPGSV,5,5,17,50,10,089,*4A
$GLGSV,3,1,09,65,64,338,36,66,49,226,39,72,14,018,32,76,18,184,34*69
$GLGSV,3,2,09,77,18,231,29,86,27,088,32,87,29,036,29,88,01,344,29*66
$GLGSV,3,3,09,,,,29*67
$GNGLL,0420.03229,S,05540.09108,E,105029.00,A,D*68
$GNRMC,105030.00,A,0420.03199,S,05540.09088,E,1.151,335.39,220525,,,D*6F
$GNVTG,335.39,T,,M,1.151,N,2.131,K,D*2C
$GNGGA,105030.00,0420.03199,S,05540.09088,E,2,12,0.53,11.4,M,-47.6,M,,0000*4B
$GNGSA,A,3,29,10,32,26,23,25,18,24,28,16,31,27,1.09,0.53,0.95*12
$GNGSA,A,3,65,86,87,72,66,76,77,,,,,,1.09,0.53,0.95*18
$GPGSV,5,1,17,10,33,327,38,16,21,284,40,18,23,038,35,23,17,010,32*7B
$GPGSV,5,2,17,24,07,078,30,25,15,152,25,26,31,254,41,27,09,328,27*77
$GPGSV,5,3,17,28,26,190,29,29,47,127,34,31,13,215,32,32,75,202,40*7F
$GPGSV,5,4,17,36,52,277,38,40,85,352,40,41,58,082,36,49,32,274,*76
$GPGSV,5,5,17,50,10,089,*4A
$GLGSV,3,1,09,65,64,338,34,66,49,226,34,72,14,018,30,76,18,184,29*68
$GLGSV,3,2,09,77,18,231,23,86,27,088,32,87,29,036,30,88,01,344,27*6A
$GLGSV,3,3,09,,,,29*67
$GNGLL,0420.03199,S,05540.09088,E,105030.00,A,D*61
$GNRMC,105031.00,A,0420.03166,S,05540.09074,E,1.363,335.93,220525,,,D*6E
$GNVTG,335.93,T,,M,1.363,N,2.525,K,D*2E
$GNGGA,105031.00,0420.03166,S,05540.09074,E,2,12,0.53,11.6,M,-47.6,M,,0000*4B
$GNGSA,A,3,29,10,32,26,23,25,18,24,28,16,31,27,1.09,0.53,0.95*12
$GNGSA,A,3,65,86,87,72,66,76,77,,,,,,1.09,0.53,0.95*18
$GPGSV,5,1,17,10,33,327,38,16,21,284,41,18,23,038,34,23,17,010,37*7E
$GPGSV,5,2,17,24,07,078,31,25,15,152,26,26,31,254,37,27,09,328,37*75
$GPGSV,5,3,17,28,26,190,29,29,47,127,31,31,13,215,36,32,75,202,40*7E
$GPGSV,5,4,17,36,52,277,39,40,85,352,38,41,58,082,34,49,32,274,*7A
$GPGSV,5,5,17,50,10,089,*4A
$GLGSV,3,1,09,65,64,338,33,66,49,226,37,72,14,018,24,76,18,184,28*68
$GLGSV,3,2,09,77,18,231,26,86,27,088,28,87,29,036,29,88,01,344,31*6B
$GLGSV,3,3,09,,,,31*6E
$GNGLL,0420.03166,S,05540.09074,E,105031.00,A,D*63
$GNRMC,105032.00,A,0420.03121,S,05540.09058,E,1.826,335.21,220525,,,D*63
$GNVTG,335.21,T,,M,1.826,N,3.382,K,D*27
$GNGGA,105032.00,0420.03121,S,05540.09058,E,2,12,0.53,11.7,M,-47.6,M,,0000*44
$GNGSA,A,3,29,10,32,26,23,25,18,24,28,16,31,27,1.09,0.53,0.95*12
$GNGSA,A,3,65,86,87,72,66,76,77,,,,,,1.09,0.53,0.95*18
$GPGSV,5,1,17,10,33,327,36,16,21,284,38,18,23,038,34,23,17,010,35*7C
$GPGSV,5,2,17,24,07,078,26,25,15,152,28,26,31,254,38,27,09,328,31*74
$GPGSV,5,3,17,28,26,190,34,29,47,127,30,31,13,215,33,32,75,202,42*74
$GPGSV,5,4,17,36,52,277,36,40,85,352,40,41,58,082,35,49,32,274,*7B
$GPGSV,5,5,17,50,10,089,*4A
$GLGSV,3,1,09,65,64,338,36,66,49,226,37,72,14,018,24,76,18,184,34*60
$GLGSV,3,2,09,77,18,231,28,86,27,088,29,87,29,036,28,88,01,344,27*62
$GLGSV,3,3,09,,,,31*6E
$GNGLL,0420.03121,S,05540.09058,E,105032.00,A,D*6D
$GNRMC,105033.00,A,0420.03075,S,05540.09032,E,1.922,330.99,220525,,,D*6D
$GNVTG,330.99,T,,M,1.922,N,3.560,K,D*2E
$GNGGA,105033.00,0420.03075,S,05540.09032,E,2,12,0.55,11.7,M,-47.6,M,,0000*4F
$GNGSA,A,3,29,10,32,26,23,25,18,24,28,16,31,27,1.12,0.55,0.98*13
$GNGSA,A,3,65,86,87,72,66,76,77,,,,,,1.12,0.55,0.98*19
$GPGSV,5,1,17,10,33,327,38,16,21,284,34,18,23,038,37,23,17,010,34*7C
$GPGSV,5,2,17,24,07,078,27,25,15,152,27,26,31,254,37,27,09,328,33*77
$GPGSV,5,3,17,28,26,190,34,29,47,127,25,31,13,215,36,32,75,202,41*76
$GPGSV,5,4,17,36,52,277,38,40,85,352,38,41,58,082,33,49,32,274,*7C
$GPGSV,5,5,17,50,10,089,*4A
$GLGSV,3,1,09,65,64,338,36,66,49,226,37,72,14,018,22,76,18,184,36*64
$GLGSV,3,2,09,77,18,231,33,86,27,088,22,87,29,036,27,88,01,344,27*6C
$GLGSV,3,3,09,,,,29*67
$GNGLL,0420.03075,S,05540.09032,E,105033.00,A,D*60
$GNRMC,105034.00,A,0420.03043,S,05540.09006,E,1.411,322.70,220525,,,D*61
$GNVTG,322.70,T,,M,1.411,N,2.613,K,D*21
$GNGGA,105034.00,0420.03043,S,05540.09006,E,2,12,0.53,11.5,M,-47.6,M,,0000*4E
$GNGSA,A,3,29,10,32,26,23,25,18,24,28,16,31,27,1.09,0.53,0.95*12
$GNGSA,A,3,65,86,87,72,66,76,77,,,,,,1.09,0.53,0.95*18
$GPGSV,5,1,17,10,33,327,40,16,21,284,35,18,23,038,39,23,17,010,34*7C
$GPGSV,5,2,17,24,07,078,13,25,15,152,27,26,31,254,38,27,09,328,29*74
$GPGSV,5,3,17,28,26,190,38,29,47,127,25,31,13,215,38,32,75,202,39*7B
$GPGSV,5,4,17,36,52,277,38,40,85,352,37,41,58,082,33,49,32,274,*73
$GPGSV,5,5,17,50,10,089,*4A
$GLGSV,3,1,09,65,64,338,35,66,49,226,38,72,14,018,21,76,18,184,36*6B
$GLGSV,3,2,09,77,18,231,36,86,27,088,21,87,29,036,27,88,01,344,27*6A
$GLGSV,3,3,09,,,,26*68
$GNGLL,0420.03043,S,05540.09006,E,105034.00,A,D*65
$GNRMC,105035.00,A,0420.03018,S,05540.08977,E,1.426,311.45,220525,,,D*62
$GNVTG,311.45,T,,M,1.426,N,2.640,K,D*25
$GNGGA,105035.00,0420.03018,S,05540.08977,E,2,12,0.53,11.6,M,-47.6,M,,0000*4C
$GNGSA,A,3,29,10,32,26,23,25,18,24,28,16,31,27,1.09,0.53,0.95*12
$GNGSA,A,3,65,86,87,72,66,76,77,,,,,,1.09,0.53,0.95*18
$GPGSV,5,1,17,10,33,327,39,16,21,284,34,18,23,038,39,23,17,010,34*73
$GPGSV,5,2,17,24,07,078,20,25,15,152,33,26,31,254,37,27,09,328,34*72
$GPGSV,5,3,17,28,26,190,28,29,47,127,25,31,13,215,40,32,75,202,41*7A
$GPGSV,5,4,17,36,52,277,35,40,85,352,39,41,58,082,35,49,32,274,*76
$GPGSV,5,5,17,50,10,089,*4A
$GLGSV,3,1,09,65,64,338,35,66,49,226,41,72,14,018,20,76,18,184,33*61
$GLGSV,3,2,09,77,18,231,30,86,27,088,21,87,29,036,29,88,01,344,27*62
$GLGSV,3,3,09,,,,24*6A
$GNGLL,0420.03018,S,05540.08977,E,105035.00,A,D*64
