$GNRMC,104503.00,A,0419.98811,S,05540.01236,E,2.109,347.33,220525,,,D*64
$GNVTG,347.33,T,,M,2.109,N,3.906,K,D*20
$GNGGA,104503.00,0419.98811,S,05540.01236,E,2,12,0.54,12.0,M,-47.6,M,,0000*41
$GNGSA,A,3,29,10,32,26,23,25,18,24,28,16,31,41,1.06,0.54,0.91*1E
$GNGSA,A,3,65,86,87,72,66,76,77,,,,,,1.06,0.54,0.91*14
$GPGSV,5,1,17,10,35,324,34,16,20,287,33,18,22,035,22,23,18,008,32*78
$GPGSV,5,2,17,24,07,081,25,25,17,154,27,26,31,257,22,27,07,328,30*7D
$GPGSV,5,3,17,28,25,192,28,29,49,124,35,31,12,217,21,32,72,199,34*77
$GPGSV,5,4,17,36,52,277,30,40,85,352,38,41,58,082,35,49,32,274,*72
$GPGSV,5,5,17,50,10,089,*4A
$GLGSV,3,1,10,65,67,335,33,66,47,222,29,72,17,018,29,76,19,186,22*6C
$GLGSV,3,2,10,77,18,234,20,85,00,133,12,86,26,085,27,87,28,034,25*63
$GLGSV,3,3,10,88,00,343,20,,,,29*59
$GNGLL,0419.98811,S,05540.01236,E,104503.00,A,D*6B
$GNRMC,104504.00,A,0419.98753,S,05540.01232,E,2.147,352.35,220525,,,D*66
$GNVTG,352.35,T,,M,2.147,N,3.976,K,D*2F
$GNGGA,104504.00,0419.98753,S,05540.01232,E,2,12,0.54,11.9,M,-47.6,M,,0000*41
$GNGSA,A,3,29,10,32,26,23,25,18,24,28,16,31,41,1.06,0.54,0.91*1E
$GNGSA,A,3,65,86,87,72,66,76,77,,,,,,1.06,0.54,0.91*14
$GPGSV,5,1,17,10,35,324,30,16,20,287,34,18,22,035,22,23,18,008,31*78
$GPGSV,5,2,17,24,07,081,23,25,17,154,27,26,31,257,29,27,07,328,23*72
$GPGSV,5,3,17,28,25,192,26,29,49,124,35,31,12,217,20,32,72,199,35*79
$GPGSV,5,4,17,36,52,277,34,40,85,352,38,41,58,082,32,49,32,274,*71
$GPGSV,5,5,17,50,10,089,*4A
$GLGSV,3,1,10,65,67,335,34,66,47,222,27,72,17,018,19,76,19,186,23*67
$GLGSV,3,2,10,77,18,234,21,85,00,133,09,86,26,085,28,87,28,034,22*60
$GLGSV,3,3,10,88,00,343,20,,,,21*51
$GNGLL,0419.98753,S,05540.01232,E,104504.00,A,D*61
$GNRMC,104505.00,A,0419.98699,S,05540.01235,E,1.824,358.48,220525,,,D*68
$GNVTG,358.48,T,,M,1.824,N,3.378,K,D*24
$GNGGA,104505.00,0419.98699,S,05540.01235,E,2,12,0.52,11.8,M,-47.6,M,,0000*47
$GNGSA,A,3,29,10,32,26,23,25,18,24,28,16,31,41,1.02,0.52,0.88*14
$GNGSA,A,3,65,86,87,72,66,76,77,,,,,,1.02,0.52,0.88*1E
$GPGSV,5,1,17,10,35,324,40,16,20,287,39,18,22,035,27,23,18,008,37*71
$GPGSV,5,2,17,24,07,081,24,25,17,154,29,26,31,257,33,27,07,328,31*73
$GPGSV,5,3,17,28,25,192,29,29,49,124,37,31,12,217,20,32,72,199,39*78
$GPGSV,5,4,17,36,52,277,38,40,85,352,42,41,58,082,38,49,32,274,*7A
$GPGSV,5,5,17,50,10,089,*4A
$GLGSV,3,1,10,65,67,335,35,66,47,222,33,72,17,018,23,76,19,186,25*6C
$GLGSV,3,2,10,77,18,234,22,85,00,133,14,86,26,085,33,87,28,034,22*65
$GLGSV,3,3,10,88,00,343,17,,,,19*5E
$GNGLL,0419.98699,S,05540.01235,E,104505.00,A,D*60
$GNRMC,104506.00,A,0419.98669,S,05540.01245,E,0.760,2.45,220525,,,D*6C
$GNVTG,2.45,T,,M,0.760,N,1.407,K,D*26
$GNGGA,104506.00,0419.98669,S,05540.01245,E,2,12,0.52,11.4,M,-47.6,M,,0000*40
$GNGSA,A,3,29,10,32,26,23,25,18,24,28,16,31,41,1.02,0.52,0.88*14
$GNGSA,A,3,65,86,87,72,66,76,77,,,,,,1.02,0.52,0.88*1E
$GPGSV,5,1,17,10,35,324,43,16,20,287,39,18,22,035,27,23,18,008,35*70
$GPGSV,5,2,17,24,07,081,25,25,17,154,27,26,31,257,36,27,07,328,35*7D
$GPGSV,5,3,17,28,25,192,18,29,49,124,41,31,12,217,20,32,72,199,42*77
$GPGSV,5,4,17,36,52,277,37,40,85,352,44,41,58,082,37,49,32,274,*7C
$GPGSV,5,5,17,50,10,089,*4A
$GLGSV,3,1,10,65,67,335,36,66,47,222,36,72,17,018,24,76,19,186,25*6D
$GLGSV,3,2,10,77,18,234,24,85,00,133,16,86,26,085,33,87,28,034,30*62
$GLGSV,3,3,10,88,00,343,16,,,,20*55
$GNGLL,0419.98669,S,05540.01245,E,104506.00,A,D*6B
$GNRMC,104507.00,A,0419.98638,S,05540.01248,E,1.090,2.57,220525,,,D*6E
$GNVTG,2.57,T,,M,1.090,N,2.019,K,D*24
$GNGGA,104507.00,0419.98638,S,05540.01248,E,2,12,0.52,11.6,M,-47.6,M,,0000*4A
$GNGSA,A,3,29,10,32,26,23,25,18,24,28,16,31,41,1.02,0.52,0.88*14
$GNGSA,A,3,65,86,87,72,66,76,77,,,,,,1.02,0.52,0.88*1E
$GPGSV,5,1,17,10,35,324,40,16,20,287,40,18,22,035,32,23,18,008,37*7B
$GPGSV,5,2,17,24,07,081,24,25,17,154,26,26,31,257,34,27,07,328,36*7C
$GPGSV,5,3,17,28,25,192,20,29,49,124,41,31,12,217,19,32,72,199,41*75
$GPGSV,5,4,17,36,52,277,37,40,85,352,43,41,58,082,39,49,32,274,*75
$GPGSV,5,5,17,50,10,089,*4A
$GLGSV,3,1,10,65,67,335,37,66,47,222,36,72,17,018,30,76,19,186,27*6B
$GLGSV,3,2,10,77,18,234,20,85,00,133,10,86,26,085,34,87,28,034,23*65
$GLGSV,3,3,10,88,00,343,17,,,,34*51
$GNGLL,0419.98638,S,05540.01248,E,104507.00,A,D*63
$GNRMC,104508.00,A,0419.98605,S,05540.01249,E,1.263,2.04,220525,,,D*66
$GNVTG,2.04,T,,M,1.263,N,2.339,K,D*2D
$GNGGA,104508.00,0419.98605,S,05540.01249,E,2,12,0.52,11.5,M,-47.6,M,,0000*49
$GNGSA,A,3,29,10,32,26,23,25,18,24,28,16,31,41,1.02,0.52,0.88*14
$GNGSA,A,3,65,86,87,72,66,76,77,,,,,,1.02,0.52,0.88*1E
$GPGSV,5,1,17,10,34,325,41,16,20,287,34,18,22,035,27,23,18,008,31*7B
$GPGSV,5,2,17,24,07,081,23,25,17,154,31,26,31,257,26,27,07,328,27*7E
$GPGSV,5,3,17,28,25,192,20,29,49,124,41,31,12,217,29,32,72,199,38*78
$GPGSV,5,4,17,36,52,277,37,40,85,352,44,41,58,082,38,49,32,274,*73
$GPGSV,5,5,17,50,10,089,*4A
$GLGSV,3,1,10,65,67,335,34,66,47,222,34,72,17,018,28,76,19,186,26*62
$GLGSV,3,2,10,77,18,234,23,85,00,133,13,86,26,085,36,87,28,034,26*62
$GLGSV,3,3,10,88,00,343,19,,,,21*5B
$GNGLL,0419.98605,S,05540.01249,E,104508.00,A,D*63
$GNRMC,104509.00,A,0419.98579,S,05540.01250,E,0.792,2.63,220525,,,D*6C
$GNVTG,2.63,T,,M,0.792,N,1.467,K,D*29
$GNGGA,104509.00,0419.98579,S,05540.01250,E,2,12,0.52,11.2,M,-47.6,M,,0000*4F
$GNGSA,A,3,29,10,32,26,23,25,18,24,28,16,31,41,1.02,0.52,0.88*14
$GNGSA,A,3,65,86,87,72,66,76,77,,,,,,1.02,0.52,0.88*1E
$GPGSV,5,1,17,10,34,325,32,16,20,287,37,18,22,035,14,23,18,008,32*7F
$GPGSV,5,2,17,24,07,081,23,25,17,154,23,26,31,257,31,27,07,328,35*78
$GPGSV,5,3,17,28,25,192,23,29,49,124,41,31,12,217,19,32,72,199,40*77
$GPGSV,5,4,17,36,52,277,38,40,85,352,45,41,58,082,36,49,32,274,*73
$GPGSV,5,5,17,50,10,089,*4A
$GLGSV,3,1,10,65,67,335,33,66,47,222,23,72,17,018,19,76,19,186,24*63
$GLGSV,3,2,10,77,18,234,22,85,00,133,12,86,26,085,32,87,28,034,28*68
$GLGSV,3,3,10,88,00,343,19,,,,22*58
$GNGLL,0419.98579,S,05540.01250,E,104509.00,A,D*62
$GNRMC,104510.00,A,0419.98571,S,05540.01257,E,0.336,,220525,,,D*78
$GNVTG,,T,,M,0.336,N,0.623,K,D*39
$GNGGA,104510.00,0419.98571,S,05540.01257,E,2,12,0.52,11.2,M,-47.6,M,,0000*48
$GNGSA,A,3,29,10,32,26,23,25,18,24,28,16,31,41,1.02,0.52,0.88*14
$GNGSA,A,3,65,86,87,72,66,76,77,,,,,,1.02,0.52,0.88*1E
$GPGSV,5,1,17,10,34,325,41,16,20,287,32,18,22,035,32,23,18,008,29*70
$GPGSV,5,2,17,24,07,081,32,25,17,154,23,26,31,257,25,27,07,328,31*79
$GPGSV,5,3,17,28,25,192,26,29,49,124,39,31,12,217,20,32,72,199,39*79
$GPGSV,5,4,17,36,52,277,39,40,85,352,43,41,58,082,38,49,32,274,*7A
$GPGSV,5,5,17,50,10,089,*4A
$GLGSV,3,1,10,65,67,335,34,66,47,222,31,72,17,018,18,76,19,186,23*61
$GLGSV,3,2,10,77,18,234,23,85,00,133,14,86,26,085,32,87,28,034,25*62
$GLGSV,3,3,10,88,00,343,18,,,,22*59
$GNGLL,0419.98571,S,05540.01257,E,104510.00,A,D*65
$GNRMC,104511.00,A,0419.98554,S,05540.01256,E,0.686,338.98,220525,,,D*66
$GNVTG,338.98,T,,M,0.686,N,1.270,K,D*23
$GNGGA,104511.00,0419.98554,S,05540.01256,E,2,12,0.52,11.6,M,-47.6,M,,0000*4B
$GNGSA,A,3,29,10,32,26,23,25,18,24,28,16,31,41,1.02,0.52,0.88*14
$GNGSA,A,3,65,86,87,72,66,76,77,,,,,,1.02,0.52,0.88*1E
$GPGSV,5,1,17,10,34,325,41,16,20,287,38,18,22,035,38,23,18,008,38*70
$GPGSV,5,2,17,24,07,081,30,25,17,154,22,26,31,257,39,27,07,328,36*70
$GPGSV,5,3,17,28,25,192,32,29,49,124,42,31,12,217,21,32,72,199,41*7E
$GPGSV,5,4,17,36,52,277,42,40,85,352,43,41,58,082,40,49,32,274,*79
$GPGSV,5,5,17,50,10,089,*4A
$GLGSV,3,1,10,65,67,335,37,66,47,222,33,72,17,018,23,76,19,186,23*68
$GLGSV,3,2,10,77,18,234,22,85,00,133,12,86,26,085,32,87,28,034,26*66
$GLGSV,3,3,10,88,00,343,17,,,,21*55
$GNGLL,0419.98554,S,05540.01256,E,104511.00,A,D*62
$GNRMC,104512.00,A,0419.98522,S,05540.01238,E,1.585,329.83,220525,,,D*67
$GNVTG,329.83,T,,M,1.585,N,2.936,K,D*22
$GNGGA,104512.00,0419.98522,S,05540.01238,E,2,12,0.54,11.7,M,-47.6,M,,0000*46
$GNGSA,A,3,29,10,32,26,23,25,18,24,28,16,31,41,1.06,0.54,0.91*1E
$GNGSA,A,3,65,86,87,72,66,76,77,,,,,,1.06,0.54,0.91*14
$GPGSV,5,1,17,10,34,325,41,16,20,287,36,18,22,035,28,23,18,008,36*71
$GPGSV,5,2,17,24,07,081,34,25,17,154,21,26,31,257,35,27,07,328,39*74
$GPGSV,5,3,17,28,25,192,31,29,49,124,40,31,12,217,22,32,72,199,40*7D
$GPGSV,5,4,17,36,52,277,38,40,85,352,44,41,58,082,40,49,32,274,*73
$GPGSV,5,5,17,50,10,089,*4A
$GLGSV,3,1,10,65,67,335,35,66,47,222,34,72,17,018,22,76,19,186,22*6D
$GLGSV,3,2,10,77,18,234,25,85,00,133,11,86,26,085,32,87,28,034,24*60
$GLGSV,3,3,10,88,00,343,18,,,,20*5B
$GNGLL,0419.98522,S,05540.01238,E,104512.00,A,D*68
$GNRMC,104513.00,A,0419.98492,S,05540.01232,E,0.992,342.82,220525,,,D*61
$GNVTG,342.82,T,,M,0.992,N,1.837,K,D*26
$GNGGA,104513.00,0419.98492,S,05540.01232,E,2,12,0.52,11.6,M,-47.6,M,,0000*40
$GNGSA,A,3,29,10,32,26,23,25,18,24,28,16,31,41,1.02,0.52,0.88*14
$GNGSA,A,3,65,86,87,72,66,76,77,,,,,,1.02,0.52,0.88*1E
$GPGSV,5,1,17,10,34,325,43,16,20,287,37,18,22,035,33,23,18,008,25*7A
$GPGSV,5,2,17,24,07,081,32,25,17,154,18,26,31,257,31,27,07,328,38*7D
$GPGSV,5,3,17,28,25,192,30,29,49,124,41,31,12,217,22,32,72,199,43*7E
$GPGSV,5,4,17,36,52,277,31,40,85,352,41,41,58,082,39,49,32,274,*71
$GPGSV,5,5,17,50,10,089,*4A
$GLGSV,3,1,10,65,67,335,32,66,47,222,35,72,17,018,19,76,19,186,22*63
$GLGSV,3,2,10,77,18,234,25,85,00,133,08,86,26,085,33,87,28,034,32*6E
$GLGSV,3,3,10,88,00,343,18,,,,24*5F
$GNGLL,0419.98492,S,05540.01232,E,104513.00,A,D*69
$GNRMC,104514.00,A,0419.98482,S,05540.01237,E,0.271,,220525,,,D*75
$GNVTG,,T,,M,0.271,N,0.502,K,D*3B
$GNGGA,104514.00,0419.98482,S,05540.01237,E,2,12,0.53,11.5,M,-47.6,M,,0000*41
$GNGSA,A,3,29,10,32,26,23,25,18,24,28,16,31,41,1.03,0.53,0.89*15
$GNGSA,A,3,65,86,87,66,76,77,,,,,,,1.03,0.53,0.89*1A
$GPGSV,5,1,17,10,34,325,40,16,20,287,35,18,22,035,30,23,18,008,32*7E
$GPGSV,5,2,17,24,07,081,26,25,17,154,23,26,31,257,32,27,07,328,36*7D
$GPGSV,5,3,17,28,25,192,29,29,49,124,40,31,12,217,30,32,72,199,39*79
$GPGSV,5,4,17,36,52,277,39,40,85,352,45,41,58,082,40,49,32,274,*73
$GPGSV,5,5,17,50,10,089,*4A
$GLGSV,3,1,10,65,67,335,35,66,47,222,35,72,17,018,16,76,19,186,23*6A
$GLGSV,3,2,10,77,18,234,24,85,00,133,06,86,26,085,23,87,28,034,28*6B
$GLGSV,3,3,10,88,00,343,14,,,,25*52
$GNGLL,0419.98482,S,05540.01237,E,104514.00,A,D*6A
$GNRMC,104515.00,A,0419.98470,S,05540.01245,E,0.501,352.60,220525,,,D*60
$GNVTG,352.60,T,,M,0.501,N,0.928,K,D*23
$GNGGA,104515.00,0419.98470,S,05540.01245,E,2,12,0.53,11.7,M,-47.6,M,,0000*4A
$GNGSA,A,3,29,10,32,26,23,25,18,24,28,16,31,41,1.03,0.53,0.89*15
$GNGSA,A,3,65,86,87,72,66,76,77,,,,,,1.03,0.53,0.89*1F
$GPGSV,5,1,17,10,34,325,40,16,20,287,41,18,22,035,29,23,18,008,27*71
$GPGSV,5,2,17,24,07,081,35,25,17,154,26,26,31,257,41,27,07,328,28*71
$GPGSV,5,3,17,28,25,192,30,29,49,124,34,31,12,217,22,32,72,199,40*7F
$GPGSV,5,4,17,36,52,277,36,40,85,352,41,41,58,082,39,49,32,274,*76
$GPGSV,5,5,17,50,10,089,*4A
$GLGSV,3,1,10,65,67,335,35,66,47,222,40,72,17,018,27,76,19,186,30*68
$GLGSV,3,2,10,77,18,234,24,85,00,133,09,86,26,085,30,87,28,034,32*6D
$GLGSV,3,3,10,88,00,343,11,,,,25*57
$GNGLL,0419.98470,S,05540.01245,E,104515.00,A,D*63
$GNRMC,104516.00,A,0419.98444,S,05540.01254,E,0.965,9.89,220525,,,D*60
$GNVTG,9.89,T,,M,0.965,N,1.787,K,D*2D
$GNGGA,104516.00,0419.98444,S,05540.01254,E,2,12,0.53,12.0,M,-47.6,M,,0000*4A
$GNGSA,A,3,29,10,32,26,23,25,18,24,28,16,31,41,1.03,0.53,0.89*15
$GNGSA,A,3,65,86,87,72,66,76,77,,,,,,1.03,0.53,0.89*1F
$GPGSV,5,1,17,10,34,325,40,16,20,287,34,18,23,036,37,23,18,008,34*7C
$GPGSV,5,2,17,24,07,081,32,25,17,154,25,26,31,257,44,27,07,328,25*7D
$GPGSV,5,3,17,28,25,192,28,29,49,124,36,31,12,217,34,32,72,199,40*73
$GPGSV,5,4,17,36,52,277,39,40,85,352,43,41,58,082,38,49,32,274,*7A
$GPGSV,5,5,17,50,10,089,*4A
$GLGSV,3,1,10,65,67,335,37,66,47,222,41,72,17,018,25,76,19,186,28*60
$GLGSV,3,2,10,77,18,234,25,85,00,133,07,86,26,085,31,87,28,034,28*68
$GLGSV,3,3,10,88,00,343,,,,,25*57
$GNGLL,0419.98444,S,05540.01254,E,104516.00,A,D*67
$GNRMC,104517.00,A,0419.98410,S,05540.01257,E,1.218,359.43,220525,,,D*63
$GNVTG,359.43,T,,M,1.218,N,2.255,K,D*24
$GNGGA,104517.00,0419.98410,S,05540.01257,E,2,12,0.53,12.3,M,-47.6,M,,0000*4A
$GNGSA,A,3,29,10,32,26,23,25,18,24,28,16,31,41,1.03,0.53,0.89*15
$GNGSA,A,3,65,86,87,72,66,76,77,,,,,,1.03,0.53,0.89*1F
$GPGSV,5,1,17,10,34,325,39,16,20,287,37,18,23,036,34,23,18,008,29*7E
$GPGSV,5,2,17,24,07,081,28,25,17,154,25,26,31,257,39,27,07,328,26*7F
$GPGSV,5,3,17,28,25,192,29,29,49,124,34,31,12,217,29,32,72,199,40*7C
$GPGSV,5,4,17,36,52,277,38,40,85,352,42,41,58,082,36,49,32,274,*74
$GPGSV,5,5,17,50,10,089,*4A
$GLGSV,3,1,10,65,67,335,36,66,47,222,39,72,17,018,25,76,19,186,28*6E
$GLGSV,3,2,10,77,18,234,31,85,00,133,07,86,26,085,31,87,28,034,30*64
$GLGSV,3,3,10,88,00,343,,,,,25*57
$GNGLL,0419.98410,S,05540.01257,E,104517.00,A,D*64
$GNRMC,104518.00,A,0419.98360,S,05540.01246,E,1.846,347.78,220525,,,D*6A
$GNVTG,347.78,T,,M,1.846,N,3.419,K,D*2D
$GNGGA,104518.00,0419.98360,S,05540.01246,E,2,12,0.53,12.6,M,-47.6,M,,0000*40
$GNGSA,A,3,29,10,32,26,23,25,18,24,28,16,31,41,1.03,0.53,0.89*15
$GNGSA,A,3,65,86,87,72,66,76,77,,,,,,1.03,0.53,0.89*1F
$GPGSV,5,1,17,10,34,325,39,16,20,287,38,18,23,036,35,23,18,008,30*78
$GPGSV,5,2,17,24,07,081,30,25,17,154,24,26,31,257,35,27,07,328,26*7B
$GPGSV,5,3,17,28,25,192,28,29,49,124,36,31,12,217,31,32,72,199,37*76
$GPGSV,5,4,17,36,52,277,39,40,85,352,41,41,58,082,36,49,32,274,*76
$GPGSV,5,5,17,50,10,089,*4A
$GLGSV,3,1,10,65,67,335,38,66,47,222,40,72,17,018,25,76,19,186,29*6F
$GLGSV,3,2,10,77,18,234,25,85,00,133,10,86,26,085,34,87,28,034,31*63
$GLGSV,3,3,10,88,00,343,,,,,27*55
$GNGLL,0419.98360,S,05540.01246,E,104518.00,A,D*6B
$GNRMC,104519.00,A,0419.98325,S,05540.01241,E,0.952,350.41,220525,,,D*64
$GNVTG,350.41,T,,M,0.952,N,1.763,K,D*28
$GNGGA,104519.00,0419.98325,S,05540.01241,E,2,12,0.53,12.3,M,-47.6,M,,0000*42
$GNGSA,A,3,29,10,32,26,23,25,18,24,28,16,31,41,1.03,0.53,0.89*15
$GNGSA,A,3,65,86,87,72,66,76,77,,,,,,1.03,0.53,0.89*1F
$GPGSV,5,1,17,10,34,325,41,16,20,287,29,18,23,036,32,23,18,008,28*79
$GPGSV,5,2,17,24,07,081,31,25,17,154,25,26,31,257,37,27,07,328,31*7F
$GPGSV,5,3,17,28,25,192,15,29,49,124,37,31,12,217,32,32,72,199,39*74
$GPGSV,5,4,17,36,52,277,40,40,85,352,40,41,58,082,36,49,32,274,*79
$GPGSV,5,5,17,50,10,089,*4A
$GLGSV,3,1,10,65,67,335,36,66,47,222,32,72,17,018,23,76,19,186,29*62
$GLGSV,3,2,10,77,18,234,25,85,00,133,13,86,26,085,33,87,28,034,35*63
$GLGSV,3,3,10,88,00,343,,,,,24*56
$GNGLL,0419.98325,S,05540.01241,E,104519.00,A,D*6C
$GNRMC,104520.00,A,0419.98302,S,05540.01244,E,0.630,352.97,220525,,,D*6C
$GNVTG,352.97,T,,M,0.630,N,1.167,K,D*28
$GNGGA,104520.00,0419.98302,S,05540.01244,E,2,12,0.53,12.6,M,-47.6,M,,0000*4D
$GNGSA,A,3,29,10,32,26,23,25,18,24,28,16,31,41,1.03,0.53,0.89*15
$GNGSA,A,3,65,86,87,72,66,76,77,,,,,,1.03,0.53,0.89*1F
$GPGSV,5,1,17,10,34,325,40,16,20,287,38,18,23,036,31,23,18,008,32*70
$GPGSV,5,2,17,24,07,081,26,25,17,154,23,26,31,257,40,27,07,328,30*7E
$GPGSV,5,3,17,28,25,192,21,29,49,124,37,31,12,217,34,32,72,199,40*7B
$GPGSV,5,4,17,36,52,277,37,40,85,352,41,41,58,082,37,49,32,274,*79
$GPGSV,5,5,17,50,10,089,*4A
$GLGSV,3,1,10,65,67,335,36,66,47,222,41,72,17,018,22,76,19,186,29*67
$GLGSV,3,2,10,77,18,234,24,85,00,133,08,86,26,085,36,87,28,034,26*6F
$GLGSV,3,3,10,88,00,343,,,,,29*5B
$GNGLL,0419.98302,S,05540.01244,E,104520.00,A,D*66
$GNRMC,104521.00,A,0419.98271,S,05540.01233,E,1.273,336.96,220525,,,D*69
$GNVTG,336.96,T,,M,1.273,N,2.358,K,D*24
$GNGGA,104521.00,0419.98271,S,05540.01233,E,2,12,0.53,12.7,M,-47.6,M,,0000*48
$GNGSA,A,3,29,10,32,26,23,25,18,24,28,16,31,41,1.03,0.53,0.89*15
$GNGSA,A,3,65,86,87,72,66,76,77,,,,,,1.03,0.53,0.89*1F
$GPGSV,5,1,17,10,34,325,40,16,20,287,31,18,23,036,27,23,18,008,32*7E
$GPGSV,5,2,17,24,07,080,25,25,17,154,24,26,31,257,40,27,07,328,24*7E
$GPGSV,5,3,17,28,25,192,25,29,49,124,37,31,12,217,35,32,72,199,38*71
$GPGSV,5,4,17,36,52,277,41,40,85,352,42,41,58,082,37,49,32,274,*7B
$GPGSV,5,5,17,50,10,089,*4A
$GLGSV,3,1,10,65,67,335,38,66,47,222,41,72,17,018,20,76,19,186,30*63
$GLGSV,3,2,10,77,18,234,26,85,00,133,08,86,26,085,35,87,28,034,31*68
$GLGSV,3,3,10,88,00,343,,,,,29*5B
$GNGLL,0419.98271,S,05540.01233,E,104521.00,A,D*62
$GNRMC,104522.00,A,0419.98241,S,05540.01219,E,0.942,336.07,220525,,,D*61
$GNVTG,336.07,T,,M,0.942,N,1.744,K,D*2E
$GNGGA,104522.00,0419.98241,S,05540.01219,E,2,12,0.53,12.8,M,-47.6,M,,0000*4F
$GNGSA,A,3,29,10,32,26,23,25,18,24,28,16,31,41,1.03,0.53,0.89*15
$GNGSA,A,3,65,86,87,72,66,76,77,,,,,,1.03,0.53,0.89*1F
$GPGSV,5,1,17,10,34,325,39,16,20,287,26,18,23,036,29,23,18,008,31*7B
$GPGSV,5,2,17,24,07,080,35,25,17,154,26,26,31,257,40,27,07,328,22*7B
$GPGSV,5,3,17,28,25,192,31,29,49,124,34,31,12,217,33,32,72,199,40*7E
$GPGSV,5,4,17,36,52,277,41,40,85,352,42,41,58,082,37,49,32,274,*7B
$GPGSV,5,5,17,50,10,089,*4A
$GLGSV,3,1,10,65,67,335,35,66,47,222,39,72,17,018,19,76,19,186,28*62
$GLGSV,3,2,10,77,18,234,25,85,00,133,06,86,26,085,31,87,28,034,24*65
$GLGSV,3,3,10,88,00,343,,,,,19*58
$GNGLL,0419.98241,S,05540.01219,E,104522.00,A,D*6A
$GNRMC,104523.00,A,0419.98223,S,05540.01217,E,0.478,342.69,220525,,,D*65
$GNVTG,342.69,T,,M,0.478,N,0.886,K,D*21
$GNGGA,104523.00,0419.98223,S,05540.01217,E,2,12,0.53,12.8,M,-47.6,M,,0000*44
$GNGSA,A,3,29,10,32,26,23,25,18,24,28,16,31,41,1.03,0.53,0.89*15
$GNGSA,A,3,65,86,87,72,66,76,77,,,,,,1.03,0.53,0.89*1F
$GPGSV,5,1,17,10,34,325,42,16,20,287,37,18,23,036,30,23,18,008,30*7E
$GPGSV,5,2,17,24,07,080,33,25,17,154,25,26,31,257,41,27,07,328,23*7E
$GPGSV,5,3,17,28,25,192,25,29,49,124,37,31,12,217,33,32,72,199,39*76
$GPGSV,5,4,17,36,52,277,41,40,85,352,42,41,58,082,36,49,32,274,*7A
$GPGSV,5,5,17,50,10,089,*4A
$GLGSV,3,1,10,65,67,335,36,66,47,222,38,72,17,018,20,76,19,186,28*6A
$GLGSV,3,2,10,77,18,234,28,85,00,133,07,86,26,085,34,87,28,034,24*6C
$GLGSV,3,3,10,88,00,343,,,,,20*52
$GNGLL,0419.98223,S,05540.01217,E,104523.00,A,D*61
$GNRMC,104524.00,A,0419.98226,S,05540.01220,E,0.452,62.53,220525,,,D*53
$GNVTG,62.53,T,,M,0.452,N,0.837,K,D*1B
$GNGGA,104524.00,0419.98226,S,05540.01220,E,2,12,0.53,12.4,M,-47.6,M,,0000*4E
$GNGSA,A,3,29,10,32,26,23,25,18,24,28,16,31,41,1.03,0.53,0.89*15
$GNGSA,A,3,65,86,87,72,66,76,77,,,,,,1.03,0.53,0.89*1F
$GPGSV,5,1,17,10,34,325,41,16,20,287,31,18,23,036,32,23,18,008,20*78
$GPGSV,5,2,17,24,07,080,28,25,17,154,26,26,31,257,42,27,07,328,31*77
$GPGSV,5,3,17,28,25,192,31,29,49,124,35,31,12,217,36,32,72,199,42*78
$GPGSV,5,4,17,36,52,277,38,40,85,352,40,41,58,082,37,49,32,274,*77
$GPGSV,5,5,17,50,10,089,*4A
$GLGSV,3,1,10,65,67,335,36,66,47,222,41,72,17,018,23,76,19,186,27*68
$GLGSV,3,2,10,77,18,234,27,85,00,133,07,86,26,085,33,87,28,034,26*66
$GLGSV,3,3,10,88,00,343,,,,,22*50
$GNGLL,0419.98226,S,05540.01220,E,104524.00,A,D*67
$GNRMC,104525.00,A,0419.98230,S,05540.01229,E,0.296,,220525,,,D*7E
$GNVTG,,T,,M,0.296,N,0.548,K,D*3C
$GNGGA,104525.00,0419.98230,S,05540.01229,E,2,12,0.53,12.6,M,-47.6,M,,0000*43
$GNGSA,A,3,29,10,32,26,23,25,18,24,28,16,31,41,1.03,0.53,0.89*15
$GNGSA,A,3,65,86,87,72,66,76,77,,,,,,1.03,0.53,0.89*1F
$GPGSV,5,1,17,10,34,325,40,16,20,287,37,18,23,036,27,23,18,008,34*7E
$GPGSV,5,2,17,24,07,080,33,25,17,154,26,26,31,257,41,27,07,328,29*77
$GPGSV,5,3,17,28,25,192,30,29,49,124,39,31,12,217,31,32,72,199,42*72
$GPGSV,5,4,17,36,52,277,38,40,85,352,44,41,58,082,39,49,32,274,*7D
$GPGSV,5,5,17,50,10,089,*4A
$GLGSV,3,1,10,65,67,335,35,66,47,222,40,72,17,018,21,76,19,186,27*68
$GLGSV,3,2,10,77,18,234,28,85,00,133,09,86,26,085,33,87,28,034,26*67
$GLGSV,3,3,10,88,00,343,,,,,30*53
$GNGLL,0419.98230,S,05540.01229,E,104525.00,A,D*68
$GNRMC,104526.00,A,0419.98233,S,05540.01235,E,0.330,,220525,,,D*7E
$GNVTG,,T,,M,0.330,N,0.610,K,D*3F
$GNGGA,104526.00,0419.98233,S,05540.01235,E,2,12,0.53,12.6,M,-47.6,M,,0000*4E
$GNGSA,A,3,29,10,32,26,23,25,18,24,28,16,31,41,1.03,0.53,0.89*15
$GNGSA,A,3,65,86,87,72,66,76,77,,,,,,1.03,0.53,0.89*1F
$GPGSV,5,1,17,10,34,325,43,16,20,287,24,18,23,036,32,23,18,008,21*7F
$GPGSV,5,2,17,24,07,080,32,25,17,154,27,26,31,257,42,27,07,328,23*7E
$GPGSV,5,3,17,28,25,192,25,29,49,124,37,31,12,217,33,32,72,199,44*7C
$GPGSV,5,4,17,36,52,277,42,40,85,352,43,41,58,082,40,49,32,274,*79
$GPGSV,5,5,17,50,10,089,*4A
$GLGSV,3,1,10,65,67,335,36,66,47,222,39,72,17,018,20,76,19,186,27*64
$GLGSV,3,2,10,77,18,234,28,85,00,133,10,86,26,085,34,87,28,034,27*69
$GLGSV,3,3,10,88,00,343,,,,,23*51
$GNGLL,0419.98233,S,05540.01235,E,104526.00,A,D*65
$GNRMC,104527.00,A,0419.98255,S,05540.01250,E,1.269,135.64,220525,,,D*6B
$GNVTG,135.64,T,,M,1.269,N,2.351,K,D*2A
$GNGGA,104527.00,0419.98255,S,05540.01250,E,2,12,0.53,12.4,M,-47.6,M,,0000*4E
$GNGSA,A,3,29,10,32,26,23,25,18,24,28,16,31,41,1.03,0.53,0.89*15
$GNGSA,A,3,65,86,87,72,66,76,77,,,,,,1.03,0.53,0.89*1F
$GPGSV,5,1,17,10,34,325,42,16,20,287,26,18,23,036,27,23,18,008,29*70
$GPGSV,5,2,17,24,07,080,27,25,17,154,27,26,31,257,40,27,07,328,31*7B
$GPGSV,5,3,17,28,25,192,23,29,49,124,37,31,12,217,35,32,72,199,41*79
$GPGSV,5,4,17,36,52,277,42,40,85,352,42,41,58,082,39,49,32,274,*76
$GPGSV,5,5,17,50,10,089,*4A
$GLGSV,3,1,10,65,67,335,36,66,47,222,41,72,17,018,25,76,19,186,27*6E
$GLGSV,3,2,10,77,18,234,25,85,00,133,08,86,26,085,36,87,28,034,26*6E
$GLGSV,3,3,10,88,00,343,,,,,22*50
$GNGLL,0419.98255,S,05540.01250,E,104527.00,A,D*67
$GNRMC,104528.00,A,0419.98267,S,05540.01263,E,0.316,,220525,,,D*76
$GNVTG,,T,,M,0.316,N,0.584,K,D*35
$GNGGA,104528.00,0419.98267,S,05540.01263,E,2,12,0.52,12.8,M,-47.6,M,,0000*4D
$GNGSA,A,3,29,10,32,26,23,25,18,24,28,16,31,41,1.02,0.52,0.88*14
$GNGSA,A,3,65,86,87,72,66,76,77,,,,,,1.02,0.52,0.88*1E
$GPGSV,5,1,17,10,34,325,39,16,20,287,38,18,23,036,35,23,18,008,36*7E
$GPGSV,5,2,17,24,07,080,32,25,17,154,27,26,31,257,40,27,07,328,30*7E
$GPGSV,5,3,17,28,25,192,25,29,49,124,39,31,12,217,24,32,72,199,41*71
$GPGSV,5,4,17,36,52,277,39,40,85,352,44,41,58,082,38,49,32,274,*7D
$GPGSV,5,5,17,50,10,089,*4A
$GLGSV,3,1,10,65,67,335,35,66,47,222,38,72,17,018,32,76,19,186,31*62
$GLGSV,3,2,10,77,18,234,26,85,00,133,10,86,26,085,35,87,28,034,31*61
$GLGSV,3,3,10,88,00,343,,,,,30*53
$GNGLL,0419.98267,S,05540.01263,E,104528.00,A,D*69
$GNRMC,104529.00,A,0419.98261,S,05540.01264,E,0.380,,220525,,,D*79
$GNVTG,,T,,M,0.380,N,0.703,K,D*37
$GNGGA,104529.00,0419.98261,S,05540.01264,E,2,12,0.53,13.0,M,-47.6,M,,0000*45
$GNGSA,A,3,29,10,32,26,23,25,18,24,28,16,31,41,1.03,0.53,0.89*15
$GNGSA,A,3,65,86,87,72,66,76,77,,,,,,1.03,0.53,0.89*1F
$GPGSV,5,1,17,10,34,325,42,16,20,287,35,18,23,036,33,23,18,008,30*7F
$GPGSV,5,2,17,24,07,080,30,25,17,154,21,26,31,257,29,27,07,328,36*73
$GPGSV,5,3,17,28,25,192,29,29,49,124,40,31,12,217,26,32,72,199,42*72
$GPGSV,5,4,17,36,52,277,42,40,85,352,42,41,58,082,40,49,32,274,*78
$GPGSV,5,5,17,50,10,089,*4A
$GLGSV,3,1,10,65,67,335,34,66,47,222,28,72,17,018,27,76,19,186,28*6E
$GLGSV,3,2,10,77,18,234,27,85,00,133,12,86,26,085,30,87,28,034,29*6E
$GLGSV,3,3,10,88,00,343,,,,,23*51
$GNGLL,0419.98261,S,05540.01264,E,104529.00,A,D*69
$GNRMC,104530.00,A,0419.98239,S,05540.01259,E,0.883,85.20,220525,,,D*5B
$GNVTG,85.20,T,,M,0.883,N,1.636,K,D*18
$GNGGA,104530.00,0419.98239,S,05540.01259,E,2,12,0.52,13.2,M,-47.6,M,,0000*4D
$GNGSA,A,3,29,10,32,26,23,25,18,24,28,16,31,41,1.02,0.52,0.88*14
$GNGSA,A,3,65,86,87,72,66,76,77,,,,,,1.02,0.52,0.88*1E
$GPGSV,5,1,17,10,34,325,43,16,20,287,32,18,23,036,35,23,18,008,32*7D
$GPGSV,5,2,17,24,07,080,26,25,17,154,19,26,31,257,41,27,07,328,35*72
$GPGSV,5,3,17,28,25,192,26,29,49,124,42,31,12,217,21,32,72,199,41*7B
$GPGSV,5,4,17,36,52,277,42,40,85,352,43,41,58,082,40,49,32,274,*79
$GPGSV,5,5,17,50,10,089,*4A
$GLGSV,3,1,10,65,67,335,37,66,47,222,35,72,17,018,23,76,19,186,24*69
$GLGSV,3,2,10,77,18,234,22,85,00,133,07,86,26,085,31,87,28,034,26*61
$GLGSV,3,3,10,88,00,343,,,,,20*52
$GNGLL,0419.98239,S,05540.01259,E,104530.00,A,D*62
$GNRMC,104531.00,A,0419.98215,S,05540.01248,E,0.924,27.79,220525,,,D*5C
$GNVTG,27.79,T,,M,0.924,N,1.711,K,D*14
$GNGGA,104531.00,0419.98215,S,05540.01248,E,2,12,0.52,13.3,M,-47.6,M,,0000*43
$GNGSA,A,3,29,10,32,26,23,25,18,24,28,16,31,41,1.02,0.52,0.88*14
$GNGSA,A,3,65,86,87,72,66,76,77,,,,,,1.02,0.52,0.88*1E
$GPGSV,5,1,17,10,34,325,40,16,20,287,38,18,23,036,31,23,18,008,32*70
$GPGSV,5,2,17,24,07,080,27,25,17,154,19,26,31,257,37,27,07,328,24*72
$GPGSV,5,3,17,28,25,192,28,29,49,124,42,31,12,217,21,32,72,199,40*74
$GPGSV,5,4,17,36,52,277,43,40,85,352,42,41,58,082,39,49,32,274,*77
$GPGSV,5,5,17,50,10,089,*4A
$GLGSV,3,1,10,65,67,335,36,66,47,222,37,72,17,018,22,76,19,186,23*6C
$GLGSV,3,2,10,77,18,234,19,85,00,133,07,86,26,085,31,87,28,034,25*6A
$GLGSV,3,3,10,88,00,343,22,,,,20*52
$GNGLL,0419.98215,S,05540.01248,E,104531.00,A,D*6D
$GNRMC,104532.00,A,0419.98202,S,05540.01243,E,0.375,,220525,,,D*79
$GNVTG,,T,,M,0.375,N,0.694,K,D*32
$GNGGA,104532.00,0419.98202,S,05540.01243,E,2,12,0.52,13.2,M,-47.6,M,,0000*4C
$GNGSA,A,3,29,10,32,26,23,25,18,24,28,16,31,41,1.02,0.52,0.88*14
$GNGSA,A,3,65,86,87,72,66,76,77,,,,,,1.02,0.52,0.88*1E
$GPGSV,5,1,17,10,34,325,42,16,20,287,30,18,23,036,30,23,18,008,31*78
$GPGSV,5,2,17,24,07,080,28,25,17,154,18,26,31,257,34,27,07,328,34*7E
$GPGSV,5,3,17,28,25,192,28,29,49,124,39,31,12,217,22,32,72,199,40*7B
$GPGSV,5,4,17,36,52,277,39,40,85,352,42,41,58,082,39,49,32,274,*7A
$GPGSV,5,5,17,50,10,089,*4A
$GLGSV,3,1,10,65,67,335,34,66,47,222,36,72,17,018,23,76,19,186,23*6E
$GLGSV,3,2,10,77,18,234,20,85,00,133,09,86,26,085,31,87,28,034,25*6E
$GLGSV,3,3,10,88,00,343,20,,,,20*50
$GNGLL,0419.98202,S,05540.01243,E,104532.00,A,D*63
$GNRMC,104533.00,A,0419.98194,S,05540.01238,E,0.351,,220525,,,D*7E
$GNVTG,,T,,M,0.351,N,0.649,K,D*34
$GNGGA,104533.00,0419.98194,S,05540.01238,E,2,12,0.52,13.3,M,-47.6,M,,0000*4C
$GNGSA,A,3,29,10,32,26,23,25,18,24,28,16,31,41,1.02,0.52,0.88*14
$GNGSA,A,3,65,86,87,72,66,76,77,,,,,,1.02,0.52,0.88*1E
$GPGSV,5,1,17,10,34,325,40,16,20,287,34,18,23,036,31,23,18,008,35*7B
$GPGSV,5,2,17,24,07,080,29,25,17,154,18,26,31,257,35,27,07,328,33*79
$GPGSV,5,3,17,28,25,192,28,29,49,124,37,31,12,217,25,32,72,199,38*7D
$GPGSV,5,4,17,36,52,277,41,40,85,352,43,41,58,082,39,49,32,274,*74
$GPGSV,5,5,17,50,10,089,*4A
$GLGSV,3,1,10,65,67,335,35,66,47,222,38,72,17,018,26,76,19,186,22*65
$GLGSV,3,2,10,77,18,234,24,85,00,133,09,86,26,085,31,87,28,034,23*6C
$GLGSV,3,3,10,88,00,343,18,,,,21*5A
$GNGLL,0419.98194,S,05540.01238,E,104533.00,A,D*62
$GNRMC,104534.00,A,0419.98194,S,05540.01237,E,0.162,,220525,,,D*74
$GNVTG,,T,,M,0.162,N,0.300,K,D*3E
$GNGGA,104534.00,0419.98194,S,05540.01237,E,2,12,0.52,13.1,M,-47.6,M,,0000*46
$GNGSA,A,3,29,10,32,26,23,25,18,24,28,16,31,41,1.02,0.52,0.88*14
$GNGSA,A,3,65,86,87,72,66,76,77,,,,,,1.02,0.52,0.88*1E
$GPGSV,5,1,17,10,34,325,38,16,20,287,33,18,23,036,35,23,18,008,18*78
$GPGSV,5,2,17,24,07,080,28,25,17,154,21,26,31,257,39,27,07,328,36*7B
$GPGSV,5,3,17,28,25,192,28,29,49,124,40,31,12,217,31,32,72,199,40*77
$GPGSV,5,4,17,36,52,277,40,40,85,352,43,41,58,082,38,49,32,274,*74
$GPGSV,5,5,17,50,10,089,*4A
$GLGSV,3,1,10,65,67,335,37,66,47,222,39,72,17,018,23,76,19,186,26*67
$GLGSV,3,2,10,77,18,234,23,85,00,133,09,86,26,085,31,87,28,034,27*6F
$GLGSV,3,3,10,88,00,343,15,,,,22*54
$GNGLL,0419.98194,S,05540.01237,E,104534.00,A,D*6A
$GNRMC,104535.00,A,0419.98196,S,05540.01245,E,0.287,,220525,,,D*7A
$GNVTG,,T,,M,0.287,N,0.531,K,D*32
$GNGGA,104535.00,0419.98196,S,05540.01245,E,2,12,0.52,13.1,M,-47.6,M,,0000*40
$GNGSA,A,3,29,10,32,26,23,25,18,24,28,16,31,41,1.02,0.52,0.88*14
$GNGSA,A,3,65,86,87,72,66,76,77,,,,,,1.02,0.52,0.88*1E
$GPGSV,5,1,17,10,34,325,39,16,20,287,33,18,23,036,34,23,18,008,33*71
$GPGSV,5,2,17,24,07,080,26,25,17,154,23,26,31,257,34,27,07,328,30*7C
$GPGSV,5,3,17,28,25,192,29,29,49,124,38,31,12,217,24,32,72,199,40*7D
$GPGSV,5,4,17,36,52,277,42,40,85,352,43,41,58,082,40,49,32,274,*79
$GPGSV,5,5,17,50,10,089,*4A
$GLGSV,3,1,10,65,67,335,35,66,47,222,39,72,17,018,23,76,19,186,26*65
$GLGSV,3,2,10,77,18,234,26,85,00,133,09,86,26,085,30,87,28,034,27*6B
$GLGSV,3,3,10,88,00,343,12,,,,21*50
$GNGLL,0419.98196,S,05540.01245,E,104535.00,A,D*6C
$GNRMC,104536.00,A,0419.98206,S,05540.01255,E,0.655,57.50,220525,,,D*50
$GNVTG,57.50,T,,M,0.655,N,1.213,K,D*16
$GNGGA,104536.00,0419.98206,S,05540.01255,E,2,12,0.52,12.9,M,-47.6,M,,0000*41
$GNGSA,A,3,29,10,32,26,23,25,18,24,28,16,31,41,1.02,0.52,0.88*14
$GNGSA,A,3,65,86,87,72,66,76,77,,,,,,1.02,0.52,0.88*1E
$GPGSV,5,1,17,10,34,325,41,16,20,287,29,18,23,036,37,23,18,008,22*76
$GPGSV,5,2,17,24,07,080,27,25,17,154,22,26,31,257,30,27,07,328,30*78
$GPGSV,5,3,17,28,25,192,20,29,49,124,38,31,12,217,25,32,72,199,40*75
$GPGSV,5,4,17,36,52,277,39,40,85,352,42,41,58,082,40,49,32,274,*74
$GPGSV,5,5,17,50,10,089,*4A
$GLGSV,3,1,10,65,67,335,32,66,47,222,33,72,17,018,21,76,19,186,27*6B
$GLGSV,3,2,10,77,18,234,24,85,00,133,10,86,26,085,31,87,28,034,29*6E
$GLGSV,3,3,10,88,00,343,12,,,,20*51
$GNGLL,0419.98206,S,05540.01255,E,104536.00,A,D*64
$GNRMC,104537.00,A,0419.98231,S,05540.01277,E,1.418,129.73,220525,,,D*66
$GNVTG,129.73,T,,M,1.418,N,2.626,K,D*24
$GNGGA,104537.00,0419.98231,S,05540.01277,E,2,12,0.52,12.7,M,-47.6,M,,0000*4A
$GNGSA,A,3,29,10,32,26,23,25,18,24,28,16,31,41,1.02,0.52,0.88*14
$GNGSA,A,3,65,86,87,72,66,76,77,,,,,,1.02,0.52,0.88*1E
$GPGSV,5,1,17,10,34,325,42,16,20,287,28,18,23,036,38,23,18,008,31*79
$GPGSV,5,2,17,24,07,080,25,25,17,154,24,26,31,257,36,27,07,328,35*7F
$GPGSV,5,3,17,28,25,192,32,29,49,124,39,31,12,217,32,32,72,199,40*71
$GPGSV,5,4,17,36,52,277,41,40,85,352,43,41,58,082,39,49,32,274,*74
$GPGSV,5,5,17,50,10,089,*4A
$GLGSV,3,1,10,65,67,335,35,66,47,222,38,72,17,018,22,76,19,186,27*64
$GLGSV,3,2,10,77,18,234,22,85,00,133,09,86,26,085,30,87,28,034,30*69
$GLGSV,3,3,10,88,00,343,10,,,,21*52
$GNGLL,0419.98231,S,05540.01277,E,104537.00,A,D*61
$GNRMC,104538.00,A,0419.98258,S,05540.01300,E,1.199,134.81,220525,,,D*6A
$GNVTG,134.81,T,,M,1.199,N,2.220,K,D*2B
$GNGGA,104538.00,0419.98258,S,05540.01300,E,2,12,0.52,12.8,M,-47.6,M,,0000*44
$GNGSA,A,3,29,10,32,26,23,25,18,24,28,16,31,41,1.02,0.52,0.88*14
$GNGSA,A,3,65,86,87,72,66,76,77,,,,,,1.02,0.52,0.88*1E
$GPGSV,5,1,17,10,34,325,39,16,20,287,33,18,23,036,35,23,18,008,31*72
$GPGSV,5,2,17,24,07,080,26,25,17,154,25,26,31,257,40,27,07,328,31*78
$GPGSV,5,3,17,28,25,192,32,29,49,124,40,31,12,217,26,32,72,199,40*7A
$GPGSV,5,4,17,36,52,277,37,40,85,352,43,41,58,082,36,49,32,274,*7A
$GPGSV,5,5,17,50,10,089,*4A
$GLGSV,3,1,10,65,67,335,35,66,47,222,39,72,17,018,24,76,19,186,32*67
$GLGSV,3,2,10,77,18,234,20,85,00,133,08,86,26,085,29,87,28,034,29*6A
$GLGSV,3,3,10,88,00,343,12,,,,19*5B
$GNGLL,0419.98258,S,05540.01300,E,104538.00,A,D*60
$GNRMC,104539.00,A,0419.98281,S,05540.01311,E,0.764,142.55,220525,,,D*62
$GNVTG,142.55,T,,M,0.764,N,1.415,K,D*25
$GNGGA,104539.00,0419.98281,S,05540.01311,E,2,12,0.52,12.9,M,-47.6,M,,0000*40
$GNGSA,A,3,29,10,32,26,23,25,18,24,28,16,31,41,1.02,0.52,0.88*14
$GNGSA,A,3,65,86,87,72,66,76,77,,,,,,1.02,0.52,0.88*1E
$GPGSV,5,1,17,10,34,325,40,16,20,287,32,18,23,036,35,23,18,008,30*7C
$GPGSV,5,2,17,24,07,080,25,25,17,154,24,26,31,257,39,27,07,328,32*77
$GPGSV,5,3,17,28,25,192,32,29,49,124,39,31,12,217,33,32,72,199,41*71
$GPGSV,5,4,17,36,52,277,43,40,85,352,44,41,58,082,38,49,32,274,*70
$GPGSV,5,5,17,50,10,089,*4A
$GLGSV,3,1,10,65,67,335,35,66,47,222,34,72,17,018,22,76,19,186,31*6F
$GLGSV,3,2,10,77,18,234,21,85,00,133,07,86,26,085,29,87,28,034,28*65
$GLGSV,3,3,10,88,00,343,17,,,,21*55
$GNGLL,0419.98281,S,05540.01311,E,104539.00,A,D*65
$GNRMC,104540.00,A,0419.98297,S,05540.01314,E,0.570,153.76,220525,,,D*68
$GNVTG,153.76,T,,M,0.570,N,1.056,K,D*20
$GNGGA,104540.00,0419.98297,S,05540.01314,E,2,12,0.52,13.1,M,-47.6,M,,0000*45
$GNGSA,A,3,29,10,32,26,23,25,18,24,28,16,31,41,1.02,0.52,0.88*14
$GNGSA,A,3,65,86,87,72,66,76,77,,,,,,1.02,0.52,0.88*1E
$GPGSV,5,1,17,10,34,325,41,16,20,287,37,18,23,036,25,23,18,008,32*7B
$GPGSV,5,2,17,24,07,080,31,25,17,154,26,26,31,257,37,27,07,328,30*7C
$GPGSV,5,3,17,28,25,192,25,29,49,124,39,31,12,217,27,32,72,199,41*72
$GPGSV,5,4,17,36,52,277,40,40,85,352,42,41,58,082,38,49,32,274,*75
$GPGSV,5,5,17,50,10,089,*4A
$GLGSV,3,1,10,65,67,335,37,66,47,222,40,72,17,018,22,76,19,186,30*6F
$GLGSV,3,2,10,77,18,234,25,85,00,133,09,86,26,085,30,87,28,034,28*67
$GLGSV,3,3,10,88,00,343,18,,,,23*58
$GNGLL,0419.98297,S,05540.01314,E,104540.00,A,D*69
$GNRMC,104541.00,A,0419.98291,S,05540.01315,E,0.475,66.75,220525,,,D*5E
$GNVTG,66.75,T,,M,0.475,N,0.880,K,D*12
$GNGGA,104541.00,0419.98291,S,05540.01315,E,2,12,0.52,13.5,M,-47.6,M,,0000*47
$GNGSA,A,3,29,10,32,26,23,25,18,24,28,16,31,41,1.02,0.52,0.88*14
$GNGSA,A,3,65,86,87,72,66,76,77,,,,,,1.02,0.52,0.88*1E
$GPGSV,5,1,17,10,34,325,41,16,20,287,37,18,23,036,35,23,18,008,32*7A
$GPGSV,5,2,17,24,07,080,25,25,17,154,25,26,31,257,41,27,07,328,25*7F
$GPGSV,5,3,17,28,25,192,30,29,49,124,38,31,12,217,35,32,72,199,41*74
$GPGSV,5,4,17,36,52,277,40,40,85,352,44,41,58,082,40,49,32,274,*7C
$GPGSV,5,5,17,50,10,089,*4A
$GLGSV,3,1,10,65,67,335,36,66,47,222,38,72,17,018,23,76,19,186,30*60
$GLGSV,3,2,10,77,18,234,26,85,00,133,08,86,26,085,33,87,28,034,27*69
$GLGSV,3,3,10,88,00,343,17,,,,24*50
$GNGLL,0419.98291,S,05540.01315,E,104541.00,A,D*6F
$GNRMC,104542.00,A,0419.98282,S,05540.01306,E,0.426,17.82,220525,,,D*55
$GNVTG,17.82,T,,M,0.426,N,0.789,K,D*1C
$GNGGA,104542.00,0419.98282,S,05540.01306,E,2,12,0.52,13.5,M,-47.6,M,,0000*44
$GNGSA,A,3,29,10,32,26,23,25,18,24,28,16,31,41,1.02,0.52,0.88*14
$GNGSA,A,3,65,86,87,72,66,76,77,,,,,,1.02,0.52,0.88*1E
$GPGSV,5,1,17,10,34,325,39,16,20,287,35,18,23,036,34,23,18,008,25*70
$GPGSV,5,2,17,24,07,080,30,25,17,154,24,26,31,257,38,27,07,328,27*76
$GPGSV,5,3,17,28,25,192,23,29,49,124,37,31,12,217,35,32,72,199,40*78
$GPGSV,5,4,17,36,52,277,41,40,85,352,42,41,58,082,38,49,32,274,*74
$GPGSV,5,5,17,50,10,089,*4A
$GLGSV,3,1,10,65,67,335,34,66,47,222,42,72,17,018,26,76,19,186,23*68
$GLGSV,3,2,10,77,18,234,25,85,00,133,11,86,26,085,33,87,28,034,27*62
$GLGSV,3,3,10,88,00,343,16,,,,25*50
$GNGLL,0419.98282,S,05540.01306,E,104542.00,A,D*6C
$GNRMC,104543.00,A,0419.98283,S,05540.01302,E,0.102,,220525,,,D*70
$GNVTG,,T,,M,0.102,N,0.189,K,D*3B
$GNGGA,104543.00,0419.98283,S,05540.01302,E,2,12,0.52,13.3,M,-47.6,M,,0000*46
$GNGSA,A,3,29,10,32,26,23,25,18,24,28,16,31,41,1.02,0.52,0.88*14
$GNGSA,A,3,65,86,87,72,66,76,77,,,,,,1.02,0.52,0.88*1E
$GPGSV,5,1,17,10,34,325,40,16,20,287,36,18,23,036,37,23,18,008,26*7D
$GPGSV,5,2,17,24,07,080,28,25,17,154,23,26,31,257,37,27,07,328,32*73
$GPGSV,5,3,17,28,25,192,31,29,49,124,38,31,12,217,31,32,72,199,41*71
$GPGSV,5,4,17,36,52,277,41,40,85,352,43,41,58,082,39,49,32,274,*74
$GPGSV,5,5,17,50,10,089,*4A
$GLGSV,3,1,10,65,67,335,34,66,47,222,42,72,17,018,26,76,19,186,26*6D
$GLGSV,3,2,10,77,18,234,22,85,00,133,09,86,26,085,32,87,28,034,27*6D
$GLGSV,3,3,10,88,00,343,15,,,,22*54
$GNGLL,0419.98283,S,05540.01302,E,104543.00,A,D*68
$GNRMC,104544.00,A,0419.98281,S,05540.01300,E,0.182,,220525,,,D*7F
$GNVTG,,T,,M,0.182,N,0.337,K,D*34
$GNGGA,104544.00,0419.98281,S,05540.01300,E,2,12,0.52,13.4,M,-47.6,M,,0000*46
$GNGSA,A,3,29,10,32,26,23,25,18,24,28,16,31,41,1.02,0.52,0.88*14
$GNGSA,A,3,65,86,87,72,66,76,77,,,,,,1.02,0.52,0.88*1E
$GPGSV,5,1,17,10,34,325,40,16,20,287,35,18,23,036,32,23,18,008,25*78
$GPGSV,5,2,17,24,07,080,28,25,17,154,22,26,31,257,40,27,07,328,29*78
$GPGSV,5,3,17,28,25,192,28,29,49,124,36,31,12,217,31,32,72,199,41*77
$GPGSV,5,4,17,36,52,277,42,40,85,352,42,41,58,082,38,49,32,274,*77
$GPGSV,5,5,17,50,10,089,*4A
$GLGSV,3,1,10,65,67,335,37,66,47,222,39,72,17,018,26,76,19,186,32*67
$GLGSV,3,2,10,77,18,234,21,85,00,133,09,86,26,085,31,87,28,034,28*62
$GLGSV,3,3,10,88,00,343,14,,,,24*53
$GNGLL,0419.98281,S,05540.01300,E,104544.00,A,D*6F
$GNRMC,104545.00,A,0419.98280,S,05540.01302,E,0.117,,220525,,,D*71
$GNVTG,,T,,M,0.117,N,0.217,K,D*3B
$GNGGA,104545.00,0419.98280,S,05540.01302,E,2,12,0.52,13.2,M,-47.6,M,,0000*42
$GNGSA,A,3,29,10,32,26,23,25,18,24,28,16,31,41,1.02,0.52,0.88*14
$GNGSA,A,3,65,86,87,72,66,76,77,,,,,,1.02,0.52,0.88*1E
$GPGSV,5,1,17,10,34,325,39,16,20,287,35,18,23,036,36,23,18,008,27*70
$GPGSV,5,2,17,24,07,080,28,25,17,154,25,26,31,257,39,27,07,328,18*73
$GPGSV,5,3,17,28,25,192,33,29,49,124,39,31,12,217,31,32,72,199,41*72
$GPGSV,5,4,17,36,52,277,40,40,85,352,43,41,58,082,38,49,32,274,*74
$GPGSV,5,5,17,50,10,089,*4A
$GLGSV,3,1,10,65,67,335,37,66,47,222,40,72,17,018,22,76,19,186,26*68
$GLGSV,3,2,10,77,18,234,29,85,00,133,10,86,26,085,31,87,28,034,30*6B
$GLGSV,3,3,10,88,00,343,15,,,,26*50
$GNGLL,0419.98280,S,05540.01302,E,104545.00,A,D*6D
$GNRMC,104546.00,A,0419.98292,S,05540.01314,E,0.879,115.55,220525,,,D*6C
$GNVTG,115.55,T,,M,0.879,N,1.628,K,D*28
$GNGGA,104546.00,0419.98292,S,05540.01314,E,2,12,0.52,13.0,M,-47.6,M,,0000*47
$GNGSA,A,3,29,10,32,26,23,25,18,24,28,16,31,41,1.02,0.52,0.88*14
$GNGSA,A,3,65,86,87,72,66,76,77,,,,,,1.02,0.52,0.88*1E
$GPGSV,5,1,17,10,34,325,41,16,20,287,24,18,23,036,33,23,18,008,32*7E
$GPGSV,5,2,17,24,07,080,22,25,17,154,23,26,31,257,36,27,07,328,36*7C
$GPGSV,5,3,17,28,25,192,33,29,49,124,39,31,12,217,26,32,72,199,40*75
$GPGSV,5,4,17,36,52,277,40,40,85,352,41,41,58,082,35,49,32,274,*7B
$GPGSV,5,5,17,50,10,089,*4A
$GLGSV,3,1,10,65,67,335,36,66,47,222,38,72,17,018,20,76,19,186,27*65
$GLGSV,3,2,10,77,18,234,19,85,00,133,07,86,26,085,31,87,28,034,31*6F
$GLGSV,3,3,10,88,00,343,18,,,,23*58
$GNGLL,0419.98292,S,05540.01314,E,104546.00,A,D*6A
$GNRMC,104547.00,A,0419.98310,S,05540.01334,E,0.921,124.27,220525,,,D*6F
$GNVTG,124.27,T,,M,0.921,N,1.706,K,D*2E
$GNGGA,104547.00,0419.98310,S,05540.01334,E,2,12,0.52,12.9,M,-47.6,M,,0000*47
$GNGSA,A,3,29,10,32,26,23,25,18,24,28,16,31,41,1.02,0.52,0.88*14
$GNGSA,A,3,65,86,87,72,66,76,77,,,,,,1.02,0.52,0.88*1E
$GPGSV,5,1,17,10,34,325,38,16,20,287,32,18,23,036,34,23,18,008,32*70
$GPGSV,5,2,17,24,07,080,25,25,17,154,22,26,31,257,36,27,07,328,32*7E
$GPGSV,5,3,17,28,25,192,29,29,49,124,39,31,12,217,25,32,72,199,39*73
$GPGSV,5,4,17,36,52,277,41,40,85,352,42,41,58,082,37,49,32,274,*7B
$GPGSV,5,5,17,50,10,089,*4A
$GLGSV,3,1,10,65,67,335,34,66,47,222,36,72,17,018,22,76,19,186,28*64
$GLGSV,3,2,10,77,18,234,23,85,00,133,10,86,26,085,30,87,28,034,32*62
$GLGSV,3,3,10,88,00,343,17,,,,21*55
$GNGLL,0419.98310,S,05540.01334,E,104547.00,A,D*62
$GNRMC,104548.00,A,0419.98326,S,05540.01356,E,0.858,127.84,220525,,,D*64
$GNVTG,127.84,T,,M,0.858,N,1.588,K,D*2F
$GNGGA,104548.00,0419.98326,S,05540.01356,E,2,12,0.52,13.0,M,-47.6,M,,0000*41
$GNGSA,A,3,29,10,32,26,23,25,18,24,28,16,31,41,1.02,0.52,0.88*14
$GNGSA,A,3,65,86,87,72,66,76,77,,,,,,1.02,0.52,0.88*1E
$GPGSV,5,1,17,10,34,325,40,16,20,287,34,18,23,036,31,23,18,008,25*7A
$GPGSV,5,2,17,24,07,080,24,25,17,154,20,26,31,257,40,27,07,328,28*77
$GPGSV,5,3,17,28,25,192,27,29,49,124,41,31,12,217,25,32,72,199,42*7E
$GPGSV,5,4,17,36,52,277,40,40,85,352,43,41,58,082,31,49,32,274,*7D
$GPGSV,5,5,17,50,10,089,*4A
$GLGSV,3,1,10,65,67,335,34,66,47,222,37,72,17,018,21,76,19,186,25*6B
$GLGSV,3,2,10,77,18,234,22,85,00,133,11,86,26,085,31,87,28,034,31*60
$GLGSV,3,3,10,88,00,343,16,,,,16*50
$GNGLL,0419.98326,S,05540.01356,E,104548.00,A,D*6C
$GNRMC,104549.00,A,0419.98335,S,05540.01368,E,0.363,,220525,,,D*7F
$GNVTG,,T,,M,0.363,N,0.673,K,D*3C
$GNGGA,104549.00,0419.98335,S,05540.01368,E,2,12,0.55,13.1,M,-47.6,M,,0000*49
$GNGSA,A,3,29,10,32,26,23,25,18,24,28,16,31,41,1.08,0.55,0.93*13
$GNGSA,A,3,65,86,87,72,66,76,77,,,,,,1.08,0.55,0.93*19
$GPGSV,5,1,17,10,34,325,37,16,20,287,35,18,23,036,30,23,18,008,31*7F
$GPGSV,5,2,17,24,07,080,31,25,17,154,21,26,31,257,34,27,07,328,*7B
$GPGSV,5,3,17,28,25,192,27,29,49,124,41,31,12,217,24,32,72,199,39*73
$GPGSV,5,4,17,36,52,277,40,40,85,352,42,41,58,082,37,49,32,274,*7A
$GPGSV,5,5,17,50,10,089,*4A
$GLGSV,3,1,10,65,67,335,33,66,47,222,36,72,17,018,30,76,19,186,22*6A
$GLGSV,3,2,10,77,18,234,24,85,00,133,15,86,26,085,35,87,28,034,30*67
$GLGSV,3,3,10,88,00,343,16,,,,20*55
$GNGLL,0419.98335,S,05540.01368,E,104549.00,A,D*62
$GNRMC,104550.00,A,0419.98333,S,05540.01370,E,0.173,,220525,,,D*7B
$GNVTG,,T,,M,0.173,N,0.321,K,D*3D
$GNGGA,104550.00,0419.98333,S,05540.01370,E,2,12,0.55,13.4,M,-47.6,M,,0000*4B
$GNGSA,A,3,29,10,32,26,23,25,18,24,28,16,31,41,1.08,0.55,0.93*13
$GNGSA,A,3,65,86,87,72,66,76,77,,,,,,1.08,0.55,0.93*19
$GPGSV,5,1,17,10,34,325,39,16,20,287,38,18,23,036,34,23,18,008,32*7B
$GPGSV,5,2,17,24,07,080,25,25,17,154,31,26,31,257,37,27,07,328,27*79
$GPGSV,5,3,17,28,25,192,28,29,49,124,39,31,12,217,23,32,72,199,40*7A
$GPGSV,5,4,17,36,52,277,40,40,85,352,43,41,58,082,37,49,32,274,*7B
$GPGSV,5,5,17,50,10,089,*4A
$GLGSV,3,1,10,65,66,336,37,66,47,222,30,72,17,018,22,76,19,186,20*6B
$GLGSV,3,2,10,77,18,234,25,85,00,133,19,86,26,085,25,87,28,034,30*6B
$GLGSV,3,3,10,88,00,343,19,,,,19*50
$GNGLL,0419.98333,S,05540.01370,E,104550.00,A,D*65
$GNRMC,104551.00,A,0419.98331,S,05540.01365,E,0.292,,220525,,,D*70
$GNVTG,,T,,M,0.292,N,0.541,K,D*31
$GNGGA,104551.00,0419.98331,S,05540.01365,E,2,12,0.52,13.4,M,-47.6,M,,0000*4B
$GNGSA,A,3,29,10,32,26,23,25,18,24,28,16,31,41,1.02,0.52,0.88*14
$GNGSA,A,3,65,86,87,72,66,76,77,,,,,,1.02,0.52,0.88*1E
$GPGSV,5,1,17,10,34,325,39,16,20,287,37,18,23,036,34,23,18,008,40*71
$GPGSV,5,2,17,24,07,080,31,25,17,154,35,26,31,257,36,27,07,328,36*79
$GPGSV,5,3,17,28,25,192,29,29,49,124,37,31,12,217,24,32,72,199,40*72
$GPGSV,5,4,17,36,52,277,40,40,85,352,42,41,58,082,35,49,32,274,*78
$GPGSV,5,5,17,50,10,089,*4A
$GLGSV,3,1,10,65,66,336,35,66,48,223,31,72,17,018,26,76,19,186,23*61
$GLGSV,3,2,10,77,18,234,27,85,00,133,16,86,26,085,17,87,28,034,25*63
$GLGSV,3,3,10,88,00,343,19,,,,18*51
$GNGLL,0419.98331,S,05540.01365,E,104551.00,A,D*62
$GNRMC,104552.00,A,0419.98329,S,05540.01357,E,0.388,,220525,,,D*71
$GNVTG,,T,,M,0.388,N,0.719,K,D*34
$GNGGA,104552.00,0419.98329,S,05540.01357,E,2,12,0.55,13.5,M,-47.6,M,,0000*46
$GNGSA,A,3,29,10,32,26,23,25,18,24,28,16,31,41,1.08,0.55,0.93*13
$GNGSA,A,3,65,86,87,72,66,76,77,,,,,,1.08,0.55,0.93*19
$GPGSV,5,1,17,10,34,325,40,16,20,287,38,18,23,036,35,23,18,008,36*70
$GPGSV,5,2,17,24,07,080,25,25,17,154,33,26,31,257,38,27,07,328,19*79
$GPGSV,5,3,17,28,25,192,33,29,49,124,41,31,12,217,25,32,72,199,42*7B
$GPGSV,5,4,17,36,52,277,39,40,85,352,42,41,58,082,38,49,32,274,*7B
$GPGSV,5,5,17,50,10,089,*4A
$GLGSV,3,1,10,65,66,336,34,66,48,223,31,72,17,018,25,76,19,186,24*64
$GLGSV,3,2,10,77,18,234,26,85,00,133,13,86,26,085,23,87,28,034,26*63
$GLGSV,3,3,10,88,00,343,19,,,,19*50
$GNGLL,0419.98329,S,05540.01357,E,104552.00,A,D*69
$GNRMC,104553.00,A,0419.98324,S,05540.01344,E,0.564,185.11,220525,,,D*69
$GNVTG,185.11,T,,M,0.564,N,1.044,K,D*2C
$GNGGA,104553.00,0419.98324,S,05540.01344,E,2,12,0.52,13.5,M,-47.6,M,,0000*4F
$GNGSA,A,3,29,10,32,26,23,25,18,24,28,16,31,41,1.02,0.52,0.88*14
$GNGSA,A,3,65,86,87,72,66,76,77,,,,,,1.02,0.52,0.88*1E
$GPGSV,5,1,17,10,34,325,42,16,20,287,31,18,23,036,35,23,18,008,37*7A
$GPGSV,5,2,17,24,07,080,31,25,17,154,32,26,31,257,36,27,07,328,33*7B
$GPGSV,5,3,17,28,25,192,27,29,49,124,40,31,12,217,25,32,72,199,41*7C
$GPGSV,5,4,17,36,52,277,43,40,85,352,42,41,58,082,38,49,32,274,*76
$GPGSV,5,5,17,50,10,089,*4A
$GLGSV,3,1,10,65,66,336,37,66,48,223,31,72,17,018,27,76,19,186,24*65
$GLGSV,3,2,10,77,18,234,27,85,00,133,11,86,26,085,28,87,28,034,27*6A
$GLGSV,3,3,10,88,00,343,17,,,,17*50
$GNGLL,0419.98324,S,05540.01344,E,104553.00,A,D*67
$GNRMC,104554.00,A,0419.98334,S,05540.01331,E,0.650,201.20,220525,,,D*64
$GNVTG,201.20,T,,M,0.650,N,1.204,K,D*23
$GNGGA,104554.00,0419.98334,S,05540.01331,E,2,12,0.52,13.1,M,-47.6,M,,0000*4F
$GNGSA,A,3,29,10,32,26,23,25,18,24,28,16,31,41,1.02,0.52,0.88*14
$GNGSA,A,3,65,86,87,72,66,76,77,,,,,,1.02,0.52,0.88*1E
$GPGSV,5,1,17,10,34,325,33,16,20,287,34,18,23,036,35,23,18,008,36*78
$GPGSV,5,2,17,24,07,080,25,25,17,154,32,26,31,257,35,27,07,328,36*78
$GPGSV,5,3,17,28,25,192,30,29,49,124,40,31,12,217,23,32,72,199,42*7F
$GPGSV,5,4,17,36,52,277,42,40,85,352,41,41,58,082,38,49,32,274,*74
$GPGSV,5,5,17,50,10,089,*4A
$GLGSV,3,1,10,65,66,336,35,66,48,223,35,72,17,018,28,76,19,186,24*6C
$GLGSV,3,2,10,77,18,234,25,85,00,133,15,86,26,085,28,87,28,034,27*6C
$GLGSV,3,3,10,88,00,343,15,,,,19*5C
$GNGLL,0419.98334,S,05540.01331,E,104554.00,A,D*63
$GNRMC,104555.00,A,0419.98353,S,05540.01331,E,0.720,185.40,220525,,,D*6B
$GNVTG,185.40,T,,M,0.720,N,1.333,K,D*29
$GNGGA,104555.00,0419.98353,S,05540.01331,E,2,12,0.52,13.0,M,-47.6,M,,0000*4E
$GNGSA,A,3,29,10,32,26,23,25,18,24,28,16,31,41,1.02,0.52,0.88*14
$GNGSA,A,3,65,86,87,72,66,76,77,,,,,,1.02,0.52,0.88*1E
$GPGSV,5,1,17,10,34,325,43,16,20,287,34,18,23,036,33,23,18,008,39*76
$GPGSV,5,2,17,24,07,080,25,25,17,154,33,26,31,257,35,27,07,328,36*79
$GPGSV,5,3,17,28,25,192,29,29,49,124,38,31,12,217,21,32,72,199,41*79
$GPGSV,5,4,17,36,52,277,42,40,85,352,44,41,58,082,38,49,32,274,*71
$GPGSV,5,5,17,50,10,089,*4A
$GLGSV,3,1,10,65,66,336,35,66,48,223,32,72,17,018,26,76,19,186,24*65
$GLGSV,3,2,10,77,18,234,27,85,00,133,10,86,26,085,28,87,28,034,27*6B
$GLGSV,3,3,10,88,00,343,11,,,,30*53
$GNGLL,0419.98353,S,05540.01331,E,104555.00,A,D*63
$GNRMC,104556.00,A,0419.98374,S,05540.01327,E,0.787,194.10,220525,,,D*62
$GNVTG,194.10,T,,M,0.787,N,1.458,K,D*2B
$GNGGA,104556.00,0419.98374,S,05540.01327,E,2,12,0.52,13.1,M,-47.6,M,,0000*4E
$GNGSA,A,3,29,10,32,26,23,25,18,24,28,16,31,41,1.02,0.52,0.88*14
$GNGSA,A,3,65,86,87,72,66,76,77,,,,,,1.02,0.52,0.88*1E
$GPGSV,5,1,17,10,34,325,38,16,20,287,39,18,23,036,36,23,18,008,36*7D
$GPGSV,5,2,17,24,07,080,26,25,17,154,33,26,31,257,37,27,07,328,23*7C
$GPGSV,5,3,17,28,25,192,31,29,49,124,39,31,12,217,30,32,72,199,42*72
$GPGSV,5,4,17,36,52,277,38,40,85,352,41,41,58,082,39,49,32,274,*78
$GPGSV,5,5,17,50,10,089,*4A
$GLGSV,3,1,10,65,66,336,35,66,48,223,34,72,17,018,24,76,19,186,24*61
$GLGSV,3,2,10,77,18,234,26,85,00,133,12,86,26,085,27,87,28,034,28*68
$GLGSV,3,3,10,88,00,343,,,,,22*50
$GNGLL,0419.98374,S,05540.01327,E,104556.00,A,D*62
$GNRMC,104557.00,A,0419.98397,S,05540.01318,E,0.915,197.47,220525,,,D*66
$GNVTG,197.47,T,,M,0.915,N,1.694,K,D*2D
$GNGGA,104557.00,0419.98397,S,05540.01318,E,2,12,0.52,13.2,M,-47.6,M,,0000*4D
$GNGSA,A,3,29,10,32,26,23,25,18,24,28,16,31,41,1.02,0.52,0.88*14
$GNGSA,A,3,65,86,87,72,66,76,77,,,,,,1.02,0.52,0.88*1E
$GPGSV,5,1,17,10,34,325,44,16,20,287,38,18,23,036,35,23,18,008,37*75
$GPGSV,5,2,17,24,07,080,24,25,17,154,30,26,31,257,31,27,07,328,37*7E
$GPGSV,5,3,17,28,25,192,25,29,49,124,41,31,12,217,21,32,72,199,40*7A
$GPGSV,5,4,17,36,52,277,43,40,85,352,43,41,58,082,37,49,32,274,*78
$GPGSV,5,5,17,50,10,089,*4A
$GLGSV,3,1,10,65,66,336,37,66,48,223,33,72,16,018,31,76,19,186,25*60
$GLGSV,3,2,10,77,18,234,27,85,00,133,14,86,26,085,29,87,28,034,27*6E
$GLGSV,3,3,10,88,00,343,,,,,20*52
$GNGLL,0419.98397,S,05540.01318,E,104557.00,A,D*62
$GNRMC,104558.00,A,0419.98399,S,05540.01306,E,0.578,220.98,220525,,,D*62
$GNVTG,220.98,T,,M,0.578,N,1.070,K,D*2B
$GNGGA,104558.00,0419.98399,S,05540.01306,E,2,12,0.52,13.4,M,-47.6,M,,0000*45
$GNGSA,A,3,29,10,32,26,23,25,18,24,28,16,31,41,1.02,0.52,0.88*14
$GNGSA,A,3,65,86,87,72,66,76,77,,,,,,1.02,0.52,0.88*1E
$GPGSV,5,1,17,10,34,325,40,16,20,287,36,18,23,036,31,23,18,008,37*7B
$GPGSV,5,2,17,24,07,080,32,25,17,154,32,26,31,257,26,27,07,328,36*7C
$GPGSV,5,3,17,28,25,192,26,29,49,124,39,31,12,217,29,32,72,199,40*7E
$GPGSV,5,4,17,36,52,277,40,40,85,352,42,41,58,082,39,49,32,274,*74
$GPGSV,5,5,17,50,10,089,*4A
$GLGSV,3,1,10,65,66,336,34,66,48,223,33,72,16,018,26,76,19,186,24*64
$GLGSV,3,2,10,77,18,234,26,85,00,133,17,86,26,085,27,87,28,034,29*6C
$GLGSV,3,3,10,88,00,343,,,,,29*5B
$GNGLL,0419.98399,S,05540.01306,E,104558.00,A,D*6C
$GNRMC,104559.00,A,0419.98395,S,05540.01291,E,0.631,250.36,220525,,,D*6D
$GNVTG,250.36,T,,M,0.631,N,1.169,K,D*2F
$GNGGA,104559.00,0419.98395,S,05540.01291,E,2,12,0.52,13.3,M,-47.6,M,,0000*40
$GNGSA,A,3,29,10,32,26,23,25,18,24,28,16,31,41,1.02,0.52,0.88*14
$GNGSA,A,3,65,86,87,72,66,76,77,,,,,,1.02,0.52,0.88*1E
$GPGSV,5,1,17,10,34,325,39,16,20,287,36,18,23,036,37,23,18,008,35*71
$GPGSV,5,2,17,24,07,080,25,25,17,154,35,26,31,257,32,27,07,328,33*7D
$GPGSV,5,3,17,28,25,192,31,29,49,124,36,31,12,217,25,32,72,199,43*78
$GPGSV,5,4,17,36,52,277,43,40,85,352,43,41,58,082,39,49,32,274,*76
$GPGSV,5,5,17,50,10,089,*4A
$GLGSV,3,1,10,65,66,336,38,66,48,223,36,72,16,018,27,76,19,186,25*6D
$GLGSV,3,2,10,77,18,234,24,85,00,133,09,86,26,085,26,87,28,034,34*6C
$GLGSV,3,3,10,88,00,343,,,,,25*57
$GNGLL,0419.98395,S,05540.01291,E,104559.00,A,D*6E
$GNRMC,104600.00,A,0419.98402,S,05540.01285,E,0.378,,220525,,,D*7A
$GNVTG,,T,,M,0.378,N,0.701,K,D*32
$GNGGA,104600.00,0419.98402,S,05540.01285,E,2,12,0.52,13.1,M,-47.6,M,,0000*41
$GNGSA,A,3,29,10,32,26,23,25,18,24,28,16,31,41,1.02,0.52,0.88*14
$GNGSA,A,3,65,86,87,72,66,76,77,,,,,,1.02,0.52,0.88*1E
$GPGSV,5,1,17,10,34,325,41,16,20,287,28,18,23,036,34,23,18,008,34*73
$GPGSV,5,2,17,24,07,080,22,25,17,154,34,26,31,257,32,27,07,328,35*7D
$GPGSV,5,3,17,28,25,192,33,29,49,124,35,31,12,217,25,32,72,199,41*7B
$GPGSV,5,4,17,36,52,277,42,40,85,352,42,41,58,082,36,49,32,274,*79
$GPGSV,5,5,17,50,10,089,*4A
$GLGSV,3,1,10,65,66,336,38,66,48,223,31,72,16,018,29,76,19,186,25*64
$GLGSV,3,2,10,77,18,234,24,85,00,133,11,86,26,085,26,87,28,034,34*65
$GLGSV,3,3,10,88,00,343,,,,,22*50
$GNGLL,0419.98402,S,05540.01285,E,104600.00,A,D*6D
$GNRMC,104601.00,A,0419.98422,S,05540.01284,E,0.866,210.97,220525,,,D*6F
$GNVTG,210.97,T,,M,0.866,N,1.603,K,D*27
$GNGGA,104601.00,0419.98422,S,05540.01284,E,2,12,0.52,13.1,M,-47.6,M,,0000*43
$GNGSA,A,3,29,10,32,26,23,25,18,24,28,16,31,41,1.02,0.52,0.88*14
$GNGSA,A,3,65,86,87,72,66,76,77,,,,,,1.02,0.52,0.88*1E
$GPGSV,5,1,17,10,34,325,41,16,20,287,38,18,23,036,34,23,18,008,38*7E
$GPGSV,5,2,17,24,07,080,30,25,17,154,35,26,31,257,29,27,07,328,38*78
$GPGSV,5,3,17,28,25,192,33,29,49,124,36,31,12,217,25,32,72,199,41*78
$GPGSV,5,4,17,36,52,277,41,40,85,352,43,41,58,082,39,49,32,274,*74
$GPGSV,5,5,17,50,10,089,*4A
$GLGSV,3,1,10,65,66,336,36,66,48,223,35,72,16,018,29,76,19,185,22*6A
$GLGSV,3,2,10,77,18,234,23,85,00,133,11,86,26,085,27,87,28,034,32*65
$GLGSV,3,3,10,88,00,343,,,,,25*57
$GNGLL,0419.98422,S,05540.01284,E,104601.00,A,D*6F
$GNRMC,104602.00,A,0419.98440,S,05540.01276,E,0.648,215.20,220525,,,D*6E
$GNVTG,215.20,T,,M,0.648,N,1.201,K,D*2A
$GNGGA,104602.00,0419.98440,S,05540.01276,E,2,12,0.52,13.1,M,-47.6,M,,0000*49
$GNGSA,A,3,29,10,32,26,23,25,18,24,28,16,31,41,1.02,0.52,0.88*14
$GNGSA,A,3,65,86,87,72,66,76,77,,,,,,1.02,0.52,0.88*1E
$GPGSV,5,1,17,10,34,325,42,16,20,287,36,18,23,036,34,23,18,008,37*7C
$GPGSV,5,2,17,24,07,080,29,25,17,154,37,26,31,257,34,27,07,328,34*72
$GPGSV,5,3,17,28,25,192,27,29,49,124,36,31,12,217,25,32,72,199,41*7D
$GPGSV,5,4,17,36,52,277,41,40,85,352,42,41,58,082,39,49,32,274,*75
$GPGSV,5,5,17,50,10,089,*4A
$GLGSV,3,1,10,65,66,336,35,66,48,223,30,72,16,018,30,76,19,185,22*64
$GLGSV,3,2,10,77,18,233,23,85,00,133,10,86,26,085,29,87,28,034,33*6C
$GLGSV,3,3,10,88,00,343,,,,,25*57
$GNGLL,0419.98440,S,05540.01276,E,104602.00,A,D*65
$GNRMC,104603.00,A,0419.98459,S,05540.01260,E,0.899,220.36,220525,,,D*63
$GNVTG,220.36,T,,M,0.899,N,1.664,K,D*2E
$GNGGA,104603.00,0419.98459,S,05540.01260,E,2,12,0.52,13.1,M,-47.6,M,,0000*47
$GNGSA,A,3,29,10,32,26,23,25,18,24,28,16,31,41,1.02,0.52,0.88*14
$GNGSA,A,3,65,86,87,72,66,76,77,,,,,,1.02,0.52,0.88*1E
$GPGSV,5,1,17,10,34,325,39,16,20,287,32,18,23,036,35,23,18,008,37*75
$GPGSV,5,2,17,24,07,080,27,25,17,154,35,26,31,257,31,27,07,328,29*77
$GPGSV,5,3,17,28,25,192,33,29,49,124,39,31,12,217,25,32,72,199,41*77
$GPGSV,5,4,17,36,52,277,39,40,85,352,42,41,58,082,39,49,32,274,*7A
$GPGSV,5,5,17,50,10,089,*4A
$GLGSV,3,1,10,65,66,336,35,66,48,223,31,72,16,018,29,76,19,185,20*6F
$GLGSV,3,2,10,77,18,233,22,85,00,133,12,86,26,085,29,87,28,034,33*6F
$GLGSV,3,3,10,88,00,343,,,,,29*5B
$GNGLL,0419.98459,S,05540.01260,E,104603.00,A,D*6B
$GNRMC,104604.00,A,0419.98465,S,05540.01245,E,0.526,233.47,220525,,,D*61
$GNVTG,233.47,T,,M,0.526,N,0.974,K,D*2C
$GNGGA,104604.00,0419.98465,S,05540.01245,E,2,12,0.52,13.5,M,-47.6,M,,0000*4C
$GNGSA,A,3,29,10,32,26,23,25,18,24,28,16,31,41,1.02,0.52,0.88*14
$GNGSA,A,3,65,86,87,72,66,76,77,,,,,,1.02,0.52,0.88*1E
$GPGSV,5,1,17,10,34,325,39,16,20,287,35,18,23,036,31,23,18,008,39*78
$GPGSV,5,2,17,24,07,080,28,25,17,154,35,26,31,257,32,27,07,328,36*75
$GPGSV,5,3,17,28,25,192,29,29,49,124,37,31,12,217,22,32,72,199,39*7A
$GPGSV,5,4,17,36,52,277,37,40,85,352,44,41,58,082,40,49,32,274,*7C
$GPGSV,5,5,17,50,10,089,*4A
$GLGSV,3,1,10,65,66,336,33,66,48,223,32,72,16,018,29,76,19,185,16*6F
$GLGSV,3,2,10,77,18,233,22,85,00,133,09,86,26,085,25,87,28,034,31*6B
$GLGSV,3,3,10,88,00,343,,,,,33*50
$GNGLL,0419.98465,S,05540.01245,E,104604.00,A,D*64
$GNRMC,104605.00,A,0419.98466,S,05540.01219,E,1.114,260.97,220525,,,D*65
$GNVTG,260.97,T,,M,1.114,N,2.063,K,D*2E
$GNGGA,104605.00,0419.98466,S,05540.01219,E,2,12,0.52,13.4,M,-47.6,M,,0000*46
$GNGSA,A,3,29,10,32,26,23,25,18,24,28,16,31,41,1.02,0.52,0.88*14
$GNGSA,A,3,65,86,87,72,66,76,77,,,,,,1.02,0.52,0.88*1E
$GPGSV,5,1,17,10,34,325,30,16,20,287,31,18,23,036,33,23,18,008,36*78
$GPGSV,5,2,17,24,07,080,27,25,17,154,35,26,31,257,27,27,07,328,28*71
$GPGSV,5,3,17,28,25,192,30,29,49,124,40,31,12,217,30,32,72,199,41*7E
$GPGSV,5,4,17,36,52,277,42,40,85,352,41,41,58,082,40,49,32,274,*7B
$GPGSV,5,5,17,50,10,089,*4A
$GLGSV,3,1,10,65,66,336,36,66,48,223,33,72,16,018,24,76,19,185,23*60
$GLGSV,3,2,10,77,18,233,21,85,00,133,14,86,26,085,24,87,28,034,29*6C
$GLGSV,3,3,10,88,00,343,22,,,,22*50
$GNGLL,0419.98466,S,05540.01219,E,104605.00,A,D*6F
$GNRMC,104606.00,A,0419.98476,S,05540.01198,E,0.703,250.76,220525,,,D*60
$GNVTG,250.76,T,,M,0.703,N,1.302,K,D*24
$GNGGA,104606.00,0419.98476,S,05540.01198,E,2,12,0.52,13.2,M,-47.6,M,,0000*48
$GNGSA,A,3,29,10,32,26,23,25,18,24,28,16,31,41,1.02,0.52,0.88*14
$GNGSA,A,3,65,86,87,72,66,76,77,,,,,,1.02,0.52,0.88*1E
$GPGSV,5,1,17,10,34,325,41,16,20,287,32,18,23,036,33,23,18,008,38*73
$GPGSV,5,2,17,24,07,080,24,25,17,154,33,26,31,257,35,27,07,328,34*7A
$GPGSV,5,3,17,28,25,192,30,29,49,124,40,31,12,217,29,32,72,199,41*76
$GPGSV,5,4,17,36,52,277,44,40,85,352,42,41,58,082,38,49,32,274,*71
$GPGSV,5,5,17,50,10,089,*4A
$GLGSV,3,1,10,65,66,336,36,66,48,223,32,72,16,018,31,76,19,185,24*62
$GLGSV,3,2,10,77,18,233,23,85,00,133,08,86,26,085,30,87,28,034,27*68
$GLGSV,3,3,10,88,00,343,21,,,,22*53
$GNGLL,0419.98476,S,05540.01198,E,104606.00,A,D*67
$GNRMC,104607.00,A,0419.98498,S,05540.01188,E,0.993,216.89,220525,,,D*65
$GNVTG,216.89,T,,M,0.993,N,1.839,K,D*22
$GNGGA,104607.00,0419.98498,S,05540.01188,E,2,12,0.52,13.0,M,-47.6,M,,0000*4A
$GNGSA,A,3,29,10,32,26,23,25,18,24,28,16,31,41,1.02,0.52,0.88*14
$GNGSA,A,3,65,86,87,72,66,76,77,,,,,,1.02,0.52,0.88*1E
$GPGSV,5,1,17,10,34,325,42,16,20,287,32,18,23,036,33,23,18,008,38*70
$GPGSV,5,2,17,24,07,080,21,25,17,154,32,26,31,257,32,27,07,328,35*78
$GPGSV,5,3,17,28,25,192,30,29,49,124,40,31,12,217,26,32,72,199,41*79
$GPGSV,5,4,17,36,52,277,42,40,85,352,43,41,58,082,38,49,32,274,*76
$GPGSV,5,5,17,50,10,089,*4A
$GLGSV,3,1,10,65,66,336,38,66,48,223,36,72,16,018,30,76,19,185,24*69
$GLGSV,3,2,10,77,18,233,24,85,00,133,08,86,26,085,22,87,28,034,27*6C
$GLGSV,3,3,10,88,00,343,20,,,,21*51
$GNGLL,0419.98498,S,05540.01188,E,104607.00,A,D*67
$GNRMC,104608.00,A,0419.98521,S,05540.01178,E,0.888,214.79,220525,,,D*60
$GNVTG,214.79,T,,M,0.888,N,1.645,K,D*21
$GNGGA,104608.00,0419.98521,S,05540.01178,E,2,12,0.52,13.0,M,-47.6,M,,0000*49
$GNGSA,A,3,29,10,32,26,23,25,18,24,28,16,31,41,1.02,0.52,0.88*14
$GNGSA,A,3,65,86,87,72,66,76,77,,,,,,1.02,0.52,0.88*1E
$GPGSV,5,1,17,10,34,325,45,16,20,287,36,18,23,036,36,23,18,008,38*76
$GPGSV,5,2,17,24,07,080,30,25,17,154,30,26,31,257,35,27,07,328,36*7E
$GPGSV,5,3,17,28,25,192,22,29,49,124,39,31,12,217,24,32,72,199,40*77
$GPGSV,5,4,17,36,52,277,41,40,85,352,44,41,58,082,35,49,32,274,*7F
$GPGSV,5,5,17,50,10,089,*4A
$GLGSV,3,1,10,65,66,336,36,66,48,223,36,72,16,018,28,76,19,185,23*69
$GLGSV,3,2,10,77,18,233,26,85,00,133,12,86,26,085,26,87,28,034,32*65
$GLGSV,3,3,10,88,00,343,17,,,,21*55
$GNGLL,0419.98521,S,05540.01178,E,104608.00,A,D*64
$GNRMC,104609.00,A,0419.98541,S,05540.01165,E,0.904,208.97,220525,,,D*63
$GNVTG,208.97,T,,M,0.904,N,1.675,K,D*2A
$GNGGA,104609.00,0419.98541,S,05540.01165,E,2,12,0.52,12.9,M,-47.6,M,,0000*4A
$GNGSA,A,3,29,10,32,26,23,25,18,24,28,16,31,41,1.02,0.52,0.88*14
$GNGSA,A,3,65,86,87,72,66,76,77,,,,,,1.02,0.52,0.88*1E
$GPGSV,5,1,17,10,34,325,37,16,20,287,37,18,23,036,34,23,18,008,34*7C
$GPGSV,5,2,17,24,07,080,32,25,17,154,32,26,31,257,31,27,07,328,24*79
$GPGSV,5,3,17,28,25,192,21,29,49,124,41,31,12,217,22,32,72,199,42*7F
$GPGSV,5,4,17,36,52,277,43,40,85,352,40,41,58,082,40,49,32,274,*7B
$GPGSV,5,5,17,50,10,089,*4A
$GLGSV,3,1,10,65,66,336,40,66,48,223,35,72,16,018,27,76,19,185,23*64
$GLGSV,3,2,10,77,18,233,26,85,00,133,15,86,26,085,32,87,28,034,30*65
$GLGSV,3,3,10,88,00,343,18,,,,25*5E
$GNGLL,0419.98541,S,05540.01165,E,104609.00,A,D*6F
$GNRMC,104610.00,A,0419.98563,S,05540.01162,E,0.901,198.54,220525,,,D*6C
$GNVTG,198.54,T,,M,0.901,N,1.669,K,D*27
$GNGGA,104610.00,0419.98563,S,05540.01162,E,2,12,0.52,12.9,M,-47.6,M,,0000*45
$GNGSA,A,3,29,10,32,26,23,25,18,24,28,16,31,41,1.02,0.52,0.88*14
$GNGSA,A,3,65,86,87,72,66,76,77,,,,,,1.02,0.52,0.88*1E
$GPGSV,5,1,17,10,34,325,43,16,20,287,38,18,23,036,35,23,18,008,34*71
$GPGSV,5,2,17,24,07,080,27,25,17,154,31,26,31,257,37,27,07,328,36*7B
$GPGSV,5,3,17,28,25,192,20,29,49,124,40,31,12,217,21,32,72,199,41*7F
$GPGSV,5,4,17,36,52,277,42,40,85,352,44,41,58,082,38,49,32,274,*71
$GPGSV,5,5,17,50,10,089,*4A
$GLGSV,3,1,10,65,66,336,35,66,48,223,36,72,16,018,25,76,19,185,25*61
$GLGSV,3,2,10,77,18,233,27,85,00,134,10,86,26,085,31,87,28,034,30*65
$GLGSV,3,3,10,88,00,343,17,,,,23*57
$GNGLL,0419.98563,S,05540.01162,E,104610.00,A,D*60
$GNRMC,104611.00,A,0419.98572,S,05540.01150,E,0.480,212.78,220525,,,D*67
$GNVTG,212.78,T,,M,0.480,N,0.889,K,D*2D
$GNGGA,104611.00,0419.98572,S,05540.01150,E,2,12,0.52,13.1,M,-47.6,M,,0000*4C
$GNGSA,A,3,29,10,32,26,23,25,18,24,28,16,31,41,1.02,0.52,0.88*14
$GNGSA,A,3,65,86,87,72,66,76,77,,,,,,1.02,0.52,0.88*1E
$GPGSV,5,1,17,10,34,325,44,16,20,287,35,18,23,036,33,23,18,008,38*71
$GPGSV,5,2,17,24,07,080,27,25,17,154,31,26,31,257,31,27,07,328,36*7D
$GPGSV,5,3,17,28,25,192,23,29,49,124,40,31,12,217,21,32,72,199,40*7D
$GPGSV,5,4,17,36,52,277,43,40,85,352,41,41,58,082,41,49,32,274,*7B
$GPGSV,5,5,17,50,10,089,*4A
$GLGSV,3,1,10,65,66,336,37,66,48,223,27,72,16,018,31,76,19,185,25*66
$GLGSV,3,2,10,77,18,233,26,85,00,134,12,86,26,086,32,87,28,034,34*62
$GLGSV,3,3,10,88,00,343,16,,,,25*50
$GNGLL,0419.98572,S,05540.01150,E,104611.00,A,D*60
$GNRMC,104612.00,A,0419.98580,S,05540.01138,E,0.685,221.97,220525,,,D*61
$GNVTG,221.97,T,,M,0.685,N,1.269,K,D*2E
$GNGGA,104612.00,0419.98580,S,05540.01138,E,2,12,0.53,13.1,M,-47.6,M,,0000*4D
$GNGSA,A,3,29,10,32,26,23,25,18,24,28,16,31,41,1.03,0.53,0.89*15
$GNGSA,A,3,65,86,87,72,66,76,77,,,,,,1.03,0.53,0.89*1F
$GPGSV,5,1,17,10,34,325,43,16,20,287,37,18,23,036,28,23,18,008,34*72
$GPGSV,5,2,17,24,07,080,27,25,17,154,31,26,31,257,37,27,07,328,32*7F
$GPGSV,5,3,17,28,25,192,22,29,49,124,39,31,12,217,29,32,72,199,41*7B
$GPGSV,5,4,17,36,52,277,42,40,85,352,41,41,58,082,37,49,32,274,*7B
$GPGSV,5,5,17,50,10,089,*4A
$GLGSV,3,1,10,65,66,336,36,66,48,223,35,72,16,018,24,76,19,185,24*61
$GLGSV,3,2,10,77,18,233,24,85,00,134,09,86,26,086,31,87,28,034,30*6D
$GLGSV,3,3,10,88,00,343,19,,,,25*5F
$GNGLL,0419.98580,S,05540.01138,E,104612.00,A,D*60
$GNRMC,104613.00,A,0419.98590,S,05540.01123,E,0.740,225.53,220525,,,D*6F
$GNVTG,225.53,T,,M,0.740,N,1.371,K,D*22
$GNGGA,104613.00,0419.98590,S,05540.01123,E,2,12,0.52,13.1,M,-47.6,M,,0000*46
$GNGSA,A,3,29,10,32,26,23,25,18,24,28,16,31,41,1.02,0.52,0.88*14
$GNGSA,A,3,65,86,87,72,66,76,77,,,,,,1.02,0.52,0.88*1E
$GPGSV,5,1,17,10,34,325,44,16,20,287,34,18,23,036,33,23,18,008,31*79
$GPGSV,5,2,17,24,07,080,27,25,17,154,30,26,31,257,35,27,07,328,38*76
$GPGSV,5,3,17,28,25,192,25,29,49,124,39,31,12,217,22,32,72,199,40*76
$GPGSV,5,4,17,36,52,277,43,40,85,352,41,41,58,082,39,49,32,274,*74
$GPGSV,5,5,17,50,10,089,*4A
