$GNRMC,105649.00,A,0419.64875,S,05540.00076,E,1.006,32.01,220525,,,D*53
$GNVTG,32.01,T,,M,1.006,N,1.862,K,D*1C
$GNGGA,105649.00,0419.64875,S,05540.00076,E,2,12,0.52,10.9,M,-47.6,M,,0000*46
$GNGSA,A,3,29,10,32,26,23,25,18,24,28,16,31,41,1.02,0.52,0.88*14
$GNGSA,A,3,65,86,87,72,66,76,77,,,,,,1.02,0.52,0.88*1E
$GPGSV,5,1,17,10,32,330,34,16,22,281,31,18,24,041,37,23,15,012,37*7E
$GPGSV,5,2,17,24,06,075,26,25,14,150,32,26,31,251,25,27,12,328,36*74
$GPGSV,5,3,17,28,27,188,29,29,45,131,31,31,14,213,28,32,78,206,36*75
$GPGSV,5,4,17,36,52,277,28,40,85,353,41,41,58,082,40,49,32,274,*76
$GPGSV,5,5,17,50,10,089,*4A
$GLGSV,3,1,10,65,61,341,33,66,51,230,28,67,02,209,,72,11,018,26*6B
$GLGSV,3,2,10,76,17,181,29,77,18,228,10,86,27,092,26,87,31,039,31*60
$GLGSV,3,3,10,88,03,346,35,,,,34*57
$GNGLL,0419.64875,S,05540.00076,E,105649.00,A,D*61
$GNRMC,105650.00,A,0419.64844,S,05540.00084,E,1.267,16.18,220525,,,D*5F
$GNVTG,16.18,T,,M,1.267,N,2.346,K,D*19
$GNGGA,105650.00,0419.64844,S,05540.00084,E,2,12,0.52,10.8,M,-47.6,M,,0000*40
$GNGSA,A,3,29,10,32,26,23,25,18,24,28,16,31,41,1.02,0.52,0.88*14
$GNGSA,A,3,65,86,87,72,66,76,77,,,,,,1.02,0.52,0.88*1E
$GPGSV,5,1,17,10,32,330,36,16,22,281,30,18,24,041,40,23,15,012,31*7B
$GPGSV,5,2,17,24,06,075,26,25,14,150,31,26,31,251,26,27,12,328,36*74
$GPGSV,5,3,17,28,27,188,36,29,45,131,39,31,14,213,32,32,78,206,40*79
$GPGSV,5,4,17,36,52,277,28,40,85,353,42,41,58,082,41,49,32,274,*74
$GPGSV,5,5,17,50,10,089,*4A
$GLGSV,3,1,10,65,61,341,33,66,51,230,27,67,02,209,,72,11,018,26*64
$GLGSV,3,2,10,76,17,181,27,77,18,228,08,86,27,092,27,87,31,039,33*64
$GLGSV,3,3,10,88,03,346,39,,,,37*58
$GNGLL,0419.64844,S,05540.00084,E,105650.00,A,D*66
$GNRMC,105651.00,A,0419.64813,S,05540.00098,E,1.078,20.85,220525,,,D*5C
$GNVTG,20.85,T,,M,1.078,N,1.996,K,D*10
$GNGGA,105651.00,0419.64813,S,05540.00098,E,2,12,0.52,10.5,M,-47.6,M,,0000*43
$GNGSA,A,3,29,10,32,26,23,25,18,24,28,16,31,41,1.02,0.52,0.88*14
$GNGSA,A,3,65,86,87,72,66,76,77,,,,,,1.02,0.52,0.88*1E
$GPGSV,5,1,17,10,32,330,42,16,22,281,21,18,24,041,42,23,15,012,35*7E
$GPGSV,5,2,17,24,06,075,24,25,14,150,34,26,31,251,28,27,12,328,33*78
$GPGSV,5,3,17,28,27,188,38,29,45,131,34,31,14,213,31,32,78,206,40*79
$GPGSV,5,4,17,36,52,277,33,40,85,353,44,41,58,082,42,49,32,274,*7B
$GPGSV,5,5,17,50,10,089,*4A
$GLGSV,3,1,10,65,61,341,33,66,51,230,33,67,02,209,,72,11,018,26*61
$GLGSV,3,2,10,76,17,181,31,77,18,228,14,86,27,092,34,87,31,039,42*6A
$GLGSV,3,3,10,88,03,346,36,,,,39*59
$GNGLL,0419.64813,S,05540.00098,E,105651.00,A,D*68
$GNRMC,105652.00,A,0419.64792,S,05540.00118,E,1.006,33.26,220525,,,D*52
$GNVTG,33.26,T,,M,1.006,N,1.864,K,D*1E
$GNGGA,105652.00,0419.64792,S,05540.00118,E,2,12,0.52,10.4,M,-47.6,M,,0000*4E
$GNGSA,A,3,29,10,32,26,23,25,18,24,28,16,31,41,1.02,0.52,0.88*14
$GNGSA,A,3,65,86,87,72,66,76,77,,,,,,1.02,0.52,0.88*1E
$GPGSV,5,1,17,10,32,330,45,16,22,281,33,18,24,041,43,23,15,012,38*76
$GPGSV,5,2,17,24,06,075,27,25,14,150,32,26,31,251,29,27,12,328,36*79
$GPGSV,5,3,17,28,27,188,35,29,45,131,38,31,14,213,37,32,78,206,41*7F
$GPGSV,5,4,17,36,52,277,36,40,85,353,45,41,58,082,38,49,32,274,*72
$GPGSV,5,5,17,50,10,089,*4A
$GLGSV,3,1,10,65,61,341,36,66,51,230,28,67,02,209,,72,11,018,32*6B
$GLGSV,3,2,10,76,17,181,32,77,18,228,16,86,27,092,30,87,31,039,36*6C
$GLGSV,3,3,10,88,03,346,39,,,,39*56
$GNGLL,0419.64792,S,05540.00118,E,105652.00,A,D*64
$GNRMC,105653.00,A,0419.64772,S,05540.00132,E,0.837,32.47,220525,,,D*58
$GNVTG,32.47,T,,M,0.837,N,1.550,K,D*19
$GNGGA,105653.00,0419.64772,S,05540.00132,E,2,12,0.52,10.5,M,-47.6,M,,0000*48
$GNGSA,A,3,29,10,32,26,23,25,18,24,28,16,31,41,1.02,0.52,0.88*14
$GNGSA,A,3,65,86,87,72,66,76,77,,,,,,1.02,0.52,0.88*1E
$GPGSV,5,1,17,10,32,330,37,16,22,281,26,18,24,041,42,23,15,012,36*78
$GPGSV,5,2,17,24,06,075,29,25,14,150,33,26,31,251,27,27,12,328,33*7D
$GPGSV,5,3,17,28,27,188,33,29,45,131,39,31,14,213,33,32,78,206,39*73
$GPGSV,5,4,17,36,52,277,32,40,85,353,43,41,58,082,39,49,32,274,*71
$GPGSV,5,5,17,50,10,089,*4A
$GLGSV,3,1,10,65,61,341,32,66,51,230,29,67,02,209,,72,11,018,28*65
$GLGSV,3,2,10,76,17,181,29,77,18,228,20,86,27,092,25,87,31,039,36*67
$GLGSV,3,3,10,88,03,346,38,,,,37*59
$GNGLL,0419.64772,S,05540.00132,E,105653.00,A,D*63
$GNRMC,105654.00,A,0419.64743,S,05540.00147,E,1.218,25.62,220525,,,D*58
$GNVTG,25.62,T,,M,1.218,N,2.256,K,D*1C
$GNGGA,105654.00,0419.64743,S,05540.00147,E,2,12,0.52,10.5,M,-47.6,M,,0000*4F
$GNGSA,A,3,29,10,32,26,23,25,18,24,28,16,31,41,1.02,0.52,0.88*14
$GNGSA,A,3,65,86,87,72,66,76,77,,,,,,1.02,0.52,0.88*1E
$GPGSV,5,1,17,10,32,330,43,16,22,281,35,18,24,041,45,23,15,012,39*71
$GPGSV,5,2,17,24,06,075,29,25,14,150,37,26,31,251,29,27,12,328,42*71
$GPGSV,5,3,17,28,27,188,36,29,45,131,41,31,14,213,38,32,78,206,43*7F
$GPGSV,5,4,17,36,52,277,39,40,85,353,45,41,58,082,43,49,32,274,*71
$GPGSV,5,5,17,50,10,089,*4A
$GLGSV,3,1,10,65,61,341,35,66,51,230,30,67,02,209,,72,11,018,30*63
$GLGSV,3,2,10,76,17,181,29,77,18,228,20,86,27,092,28,87,31,039,33*6F
$GLGSV,3,3,10,88,03,346,39,,,,37*58
$GNGLL,0419.64743,S,05540.00147,E,105654.00,A,D*64
$GNRMC,105655.00,A,0419.64709,S,05540.00155,E,1.171,18.36,220525,,,D*57
$GNVTG,18.36,T,,M,1.171,N,2.168,K,D*11
$GNGGA,105655.00,0419.64709,S,05540.00155,E,2,12,0.52,10.4,M,-47.6,M,,0000*42
$GNGSA,A,3,29,10,32,26,23,25,18,24,28,16,31,41,1.02,0.52,0.88*14
$GNGSA,A,3,65,86,87,72,66,76,77,,,,,,1.02,0.52,0.88*1E
$GPGSV,5,1,17,10,32,330,45,16,22,281,31,18,24,041,46,23,15,012,36*7F
$GPGSV,5,2,17,24,06,075,30,25,14,150,32,26,31,251,28,27,12,328,31*79
$GPGSV,5,3,17,28,27,188,39,29,45,131,39,31,14,213,38,32,78,206,45*79
$GPGSV,5,4,17,36,52,277,39,40,85,353,43,41,58,082,42,49,32,274,*76
$GPGSV,5,5,17,50,10,089,*4A
$GLGSV,3,1,10,65,61,341,35,66,51,230,29,67,02,209,,72,11,018,31*6A
$GLGSV,3,2,10,76,17,181,29,77,18,228,18,86,27,092,28,87,31,039,37*60
$GLGSV,3,3,10,88,03,346,37,,,,38*59
$GNGLL,0419.64709,S,05540.00155,E,105655.00,A,D*68
$GNRMC,105656.00,A,0419.64682,S,05540.00166,E,0.938,22.01,220525,,,D*5F
$GNVTG,22.01,T,,M,0.938,N,1.738,K,D*18
$GNGGA,105656.00,0419.64682,S,05540.00166,E,2,12,0.55,10.3,M,-47.6,M,,0000*43
$GNGSA,A,3,29,10,32,26,23,25,18,24,28,16,31,41,1.06,0.55,0.91*1F
$GNGSA,A,3,65,86,87,72,66,76,77,,,,,,1.06,0.55,0.91*15
$GPGSV,5,1,17,10,32,330,45,16,22,281,23,18,24,041,45,23,15,012,41*7F
$GPGSV,5,2,17,24,06,075,30,25,14,150,33,26,31,251,25,27,12,328,27*72
$GPGSV,5,3,17,28,27,188,39,29,45,131,37,31,14,213,37,32,78,206,44*79
$GPGSV,5,4,17,36,52,277,38,40,85,353,45,41,58,082,41,49,32,274,*72
$GPGSV,5,5,17,50,10,089,*4A
$GLGSV,3,1,10,65,61,341,37,66,51,230,31,67,02,209,,72,11,018,29*68
$GLGSV,3,2,10,76,17,181,29,77,18,228,18,86,27,092,28,87,31,039,39*6E
$GLGSV,3,3,10,88,03,346,32,,,,38*5C
$GNGLL,0419.64682,S,05540.00166,E,105656.00,A,D*69
$GNRMC,105657.00,A,0419.64662,S,05540.00177,E,0.741,25.70,220525,,,D*51
$GNVTG,25.70,T,,M,0.741,N,1.373,K,D*12
$GNGGA,105657.00,0419.64662,S,05540.00177,E,2,12,0.57,10.4,M,-47.6,M,,0000*49
$GNGSA,A,3,29,10,32,23,25,18,24,28,16,31,41,27,1.07,0.57,0.91*1D
$GNGSA,A,3,65,86,87,72,66,76,77,,,,,,1.07,0.57,0.91*16
$GPGSV,5,1,17,10,32,330,46,16,22,281,23,18,24,041,45,23,15,012,41*7C
$GPGSV,5,2,17,24,06,075,31,25,14,150,33,26,31,251,,27,12,328,33*71
$GPGSV,5,3,17,28,27,188,39,29,45,131,40,31,14,213,37,32,78,206,44*79
$GPGSV,5,4,17,36,52,277,39,40,85,353,45,41,58,082,41,49,32,274,*73
$GPGSV,5,5,17,50,10,089,*4A
$GLGSV,3,1,10,65,61,341,35,66,51,230,31,67,02,209,,72,11,018,30*62
$GLGSV,3,2,10,76,17,181,30,77,18,228,18,86,27,092,26,87,31,039,37*66
$GLGSV,3,3,10,88,03,346,32,,,,39*5D
$GNGLL,0419.64662,S,05540.00177,E,105657.00,A,D*66
$GNRMC,105658.00,A,0419.64636,S,05540.00180,E,1.038,10.49,220525,,,D*53
$GNVTG,10.49,T,,M,1.038,N,1.922,K,D*18
$GNGGA,105658.00,0419.64636,S,05540.00180,E,2,12,0.54,10.6,M,-47.6,M,,0000*4E
$GNGSA,A,3,29,10,32,23,25,18,24,28,16,31,41,27,1.03,0.54,0.88*12
$GNGSA,A,3,65,86,87,72,66,76,77,,,,,,1.03,0.54,0.88*19
$GPGSV,5,1,17,10,32,330,46,16,22,281,26,18,24,041,44,23,15,012,41*78
$GPGSV,5,2,17,24,06,075,30,25,14,150,33,26,31,251,27,27,12,328,38*7E
$GPGSV,5,3,17,28,27,188,39,29,45,131,35,31,14,213,30,32,78,206,44*7C
$GPGSV,5,4,17,36,52,277,38,40,85,353,45,41,58,082,41,49,32,274,*72
$GPGSV,5,5,17,50,10,089,*4A
$GLGSV,3,1,10,65,61,341,36,66,51,230,31,67,02,209,,72,11,018,34*65
$GLGSV,3,2,10,76,17,181,30,77,18,228,17,86,27,092,23,87,31,039,36*6D
$GLGSV,3,3,10,88,03,346,33,,,,39*5C
$GNGLL,0419.64636,S,05540.00180,E,105658.00,A,D*60
$GNRMC,105659.00,A,0419.64608,S,05540.00182,E,0.987,8.23,220525,,,D*64
$GNVTG,8.23,T,,M,0.987,N,1.828,K,D*2A
$GNGGA,105659.00,0419.64608,S,05540.00182,E,2,12,0.54,10.4,M,-47.6,M,,0000*42
$GNGSA,A,3,29,10,32,23,25,18,24,28,16,31,41,27,1.03,0.54,0.88*12
$GNGSA,A,3,65,86,87,72,66,76,77,,,,,,1.03,0.54,0.88*19
$GPGSV,5,1,17,10,32,330,43,16,22,281,29,18,24,041,42,23,15,012,43*76
$GPGSV,5,2,17,24,06,075,28,25,14,150,33,26,31,251,25,27,12,328,33*7E
$GPGSV,5,3,17,28,27,188,40,29,45,131,41,31,14,213,30,32,78,206,43*76
$GPGSV,5,4,17,36,52,277,38,40,85,353,46,41,58,082,41,49,32,274,*71
$GPGSV,5,5,17,50,10,089,*4A
$GLGSV,3,1,10,65,61,341,30,66,51,230,30,67,02,209,,72,11,018,32*64
$GLGSV,3,2,10,76,17,181,31,77,18,228,16,86,27,092,23,87,31,039,38*63
$GLGSV,3,3,10,88,03,346,34,,,,37*55
$GNGLL,0419.64608,S,05540.00182,E,105659.00,A,D*6E
$GNRMC,105700.00,A,0419.64593,S,05540.00190,E,0.595,20.82,220525,,,D*55
$GNVTG,20.82,T,,M,0.595,N,1.101,K,D*16
$GNGGA,105700.00,0419.64593,S,05540.00190,E,2,12,0.52,10.1,M,-47.6,M,,0000*4E
$GNGSA,A,3,29,10,32,26,23,25,18,24,28,16,31,41,1.02,0.52,0.88*14
$GNGSA,A,3,65,86,87,72,66,76,77,,,,,,1.02,0.52,0.88*1E
$GPGSV,5,1,17,10,32,330,39,16,22,281,28,18,24,041,44,23,15,012,36*7E
$GPGSV,5,2,17,24,06,075,28,25,14,150,33,26,31,251,23,27,12,328,35*7E
$GPGSV,5,3,17,28,27,188,40,29,45,131,39,31,14,213,31,32,78,206,41*7A
$GPGSV,5,4,17,36,52,277,37,40,85,353,44,41,58,082,43,49,32,274,*7E
$GPGSV,5,5,17,50,10,089,*4A
$GLGSV,3,1,10,65,61,341,35,66,51,230,29,67,02,209,,72,11,018,31*6A
$GLGSV,3,2,10,76,17,181,31,77,18,228,15,86,27,092,24,87,31,039,36*69
$GLGSV,3,3,10,88,03,346,29,,,,37*59
$GNGLL,0419.64593,S,05540.00190,E,105700.00,A,D*61
$GNRMC,105701.00,A,0419.64571,S,05540.00194,E,0.972,9.27,220525,,,D*6D
$GNVTG,9.27,T,,M,0.972,N,1.799,K,D*20
$GNGGA,105701.00,0419.64571,S,05540.00194,E,2,12,0.52,10.2,M,-47.6,M,,0000*44
$GNGSA,A,3,29,10,32,26,23,25,18,24,28,16,31,41,1.02,0.52,0.88*14
$GNGSA,A,3,65,86,87,72,66,76,77,,,,,,1.02,0.52,0.88*1E
$GPGSV,5,1,17,10,32,330,39,16,22,281,29,18,24,041,42,23,15,012,39*76
$GPGSV,5,2,17,24,06,075,27,25,14,150,32,26,31,251,21,27,12,328,40*70
$GPGSV,5,3,17,28,27,188,40,29,45,131,37,31,14,213,28,32,78,206,41*7C
$GPGSV,5,4,17,36,52,277,32,40,85,353,42,41,58,082,38,49,32,274,*71
$GPGSV,5,5,17,50,10,089,*4A
$GLGSV,3,1,10,65,61,341,35,66,51,230,28,67,02,209,,72,11,018,35*6F
$GLGSV,3,2,10,76,17,181,29,77,18,228,15,86,27,092,26,87,31,039,33*67
$GLGSV,3,3,10,88,03,346,32,,,,38*5C
$GNGLL,0419.64571,S,05540.00194,E,105701.00,A,D*68
$GNRMC,105702.00,A,0419.64542,S,05540.00195,E,1.062,4.65,220525,,,D*6D
$GNVTG,4.65,T,,M,1.062,N,1.966,K,D*2C
$GNGGA,105702.00,0419.64542,S,05540.00195,E,2,12,0.52,10.0,M,-47.6,M,,0000*44
$GNGSA,A,3,29,10,32,26,23,25,18,24,28,16,31,41,1.02,0.52,0.88*14
$GNGSA,A,3,65,86,87,72,66,76,77,,,,,,1.02,0.52,0.88*1E
$GPGSV,5,1,17,10,32,330,43,16,22,281,30,18,24,041,41,23,15,012,43*7D
$GPGSV,5,2,17,24,06,075,25,25,14,150,37,26,31,251,23,27,12,328,33*71
$GPGSV,5,3,17,28,27,188,42,29,45,131,40,31,14,213,26,32,78,206,42*73
$GPGSV,5,4,17,36,52,277,39,40,85,353,43,41,58,082,38,49,32,274,*7B
$GPGSV,5,5,17,50,10,089,*4A
$GLGSV,3,1,10,65,61,341,36,66,51,230,28,67,02,209,,72,11,018,32*6B
$GLGSV,3,2,10,76,17,181,28,77,18,228,17,86,27,092,26,87,31,039,36*61
$GLGSV,3,3,10,88,03,346,33,,,,36*53
$GNGLL,0419.64542,S,05540.00195,E,105702.00,A,D*6A
$GNRMC,105703.00,A,0419.64514,S,05540.00196,E,0.932,2.89,220525,,,D*65
$GNVTG,2.89,T,,M,0.932,N,1.727,K,D*2E
$GNGGA,105703.00,0419.64514,S,05540.00196,E,2,12,0.52,10.2,M,-47.6,M,,0000*47
$GNGSA,A,3,29,10,32,26,23,25,18,24,28,16,31,41,1.02,0.52,0.88*14
$GNGSA,A,3,65,86,87,72,66,76,77,,,,,,1.02,0.52,0.88*1E
$GPGSV,5,1,17,10,32,330,45,16,22,281,29,18,24,041,43,23,15,012,41*73
$GPGSV,5,2,17,24,06,075,22,25,14,150,33,26,31,251,24,27,12,328,33*75
$GPGSV,5,3,17,28,27,188,39,29,45,131,35,31,14,213,22,32,78,206,43*78
$GPGSV,5,4,17,36,52,277,38,40,85,353,44,41,58,082,37,49,32,274,*72
$GPGSV,5,5,17,50,10,089,*4A
$GLGSV,3,1,10,65,61,341,36,66,51,230,28,67,02,209,,72,11,018,24*6C
$GLGSV,3,2,10,76,17,181,27,77,18,228,17,86,27,092,26,87,31,039,36*6E
$GLGSV,3,3,10,88,03,346,33,,,,36*53
$GNGLL,0419.64514,S,05540.00196,E,105703.00,A,D*6B
$GNRMC,105704.00,A,0419.64490,S,05540.00195,E,0.849,2.10,220525,,,D*61
$GNVTG,2.10,T,,M,0.849,N,1.572,K,D*21
$GNGGA,105704.00,0419.64490,S,05540.00195,E,2,12,0.57,10.0,M,-47.6,M,,0000*49
$GNGSA,A,3,29,10,32,23,25,18,28,16,41,27,,,1.10,0.57,0.94*1A
$GNGSA,A,3,65,86,87,72,66,76,77,,,,,,1.10,0.57,0.94*15
$GPGSV,5,1,17,10,32,330,44,16,22,281,21,18,24,041,41,23,15,012,38*76
$GPGSV,5,2,17,24,06,075,22,25,14,150,38,26,31,251,25,27,12,328,38*74
$GPGSV,5,3,17,28,27,188,38,29,45,131,35,31,14,213,,32,78,206,40*7A
$GPGSV,5,4,17,36,52,277,33,40,85,353,41,41,58,082,38,49,32,274,*73
$GPGSV,5,5,17,50,10,089,*4A
$GLGSV,3,1,10,65,61,341,35,66,51,230,31,67,02,209,,72,11,018,36*64
$GLGSV,3,2,10,76,17,181,31,77,18,228,17,86,27,092,33,87,31,039,36*6D
$GLGSV,3,3,10,88,03,346,34,,,,38*5A
$GNGLL,0419.64490,S,05540.00195,E,105704.00,A,D*62
$GNRMC,105705.00,A,0419.64465,S,05540.00195,E,0.965,2.58,220525,,,D*69
$GNVTG,2.58,T,,M,0.965,N,1.788,K,D*25
$GNGGA,105705.00,0419.64465,S,05540.00195,E,2,12,0.55,10.0,M,-47.6,M,,0000*40
$GNGSA,A,3,29,10,32,26,23,25,18,28,16,41,27,,1.09,0.55,0.94*14
$GNGSA,A,3,65,86,87,72,66,76,77,,,,,,1.09,0.55,0.94*1F
$GPGSV,5,1,17,10,32,330,42,16,22,281,30,18,24,041,38,23,15,012,40*71
$GPGSV,5,2,17,24,06,075,,25,14,150,34,26,31,251,26,27,12,328,33*70
$GPGSV,5,3,17,28,27,188,37,29,45,131,37,31,14,213,,32,78,206,40*77
$GPGSV,5,4,17,36,52,277,36,40,85,353,42,41,58,082,34,49,32,274,*79
$GPGSV,5,5,17,50,10,089,*4A
$GLGSV,3,1,10,65,60,341,36,66,51,230,30,67,02,209,,72,11,018,32*63
$GLGSV,3,2,10,76,17,181,30,77,18,228,18,86,27,092,30,87,31,039,35*63
$GLGSV,3,3,10,88,03,346,34,,,,40*55
$GNGLL,0419.64465,S,05540.00195,E,105705.00,A,D*69
$GNRMC,105706.00,A,0419.64443,S,05540.00201,E,0.903,12.91,220525,,,D*54
$GNVTG,12.91,T,,M,0.903,N,1.672,K,D*15
$GNGGA,105706.00,0419.64443,S,05540.00201,E,2,12,0.55,9.8,M,-47.6,M,,0000*79
$GNGSA,A,3,29,10,32,26,23,25,18,28,16,41,27,,1.09,0.55,0.94*14
$GNGSA,A,3,65,86,87,72,66,76,77,,,,,,1.09,0.55,0.94*1F
$GPGSV,5,1,17,10,32,330,40,16,22,281,28,18,24,041,38,23,15,012,40*7A
$GPGSV,5,2,17,24,06,075,,25,14,150,37,26,31,251,24,27,12,328,32*70
$GPGSV,5,3,17,28,27,188,37,29,45,131,33,31,14,213,22,32,78,206,41*72
$GPGSV,5,4,17,36,52,277,35,40,85,353,43,41,58,082,37,49,32,274,*78
$GPGSV,5,5,17,50,10,089,*4A
$GLGSV,3,1,10,65,60,341,32,66,52,231,29,67,02,209,,72,11,018,29*67
$GLGSV,3,2,10,76,17,181,32,77,18,228,17,86,27,092,31,87,31,039,36*6C
$GLGSV,3,3,10,88,03,346,34,,,,38*5A
$GNGLL,0419.64443,S,05540.00201,E,105706.00,A,D*60
$GNRMC,105707.00,A,0419.64418,S,05540.00198,E,0.917,2.89,220525,,,D*65
$GNVTG,2.89,T,,M,0.917,N,1.698,K,D*2C
$GNGGA,105707.00,0419.64418,S,05540.00198,E,2,12,0.54,10.0,M,-47.6,M,,0000*44
$GNGSA,A,3,29,10,32,26,23,25,18,28,16,31,41,27,1.06,0.54,0.92*1E
$GNGSA,A,3,65,86,87,72,66,76,77,,,,,,1.06,0.54,0.92*17
$GPGSV,5,1,17,10,32,330,43,16,22,281,32,18,24,041,38,23,15,012,38*7D
$GPGSV,5,2,17,24,06,075,,25,14,150,35,26,31,251,26,27,12,328,38*7A
$GPGSV,5,3,17,28,27,188,36,29,45,131,32,31,14,213,24,32,78,206,41*74
$GPGSV,5,4,17,36,52,277,32,40,85,353,42,41,58,082,36,49,32,274,*7F
$GPGSV,5,5,17,50,10,089,*4A
$GLGSV,3,1,10,65,60,341,36,66,52,231,30,67,02,209,,72,11,018,36*65
$GLGSV,3,2,10,76,17,181,32,77,18,228,15,86,27,092,34,87,31,039,34*69
$GLGSV,3,3,10,88,03,346,36,,,,38*58
$GNGLL,0419.64418,S,05540.00198,E,105707.00,A,D*6C
$GNRMC,105708.00,A,0419.64396,S,05540.00194,E,0.793,0.87,220525,,,D*69
$GNVTG,0.87,T,,M,0.793,N,1.468,K,D*2F
$GNGGA,105708.00,0419.64396,S,05540.00194,E,2,12,0.54,10.0,M,-47.6,M,,0000*46
$GNGSA,A,3,29,10,32,26,23,25,18,28,16,31,41,27,1.06,0.54,0.92*1E
$GNGSA,A,3,65,86,87,72,66,76,77,,,,,,1.06,0.54,0.92*17
$GPGSV,5,1,17,10,32,330,38,16,22,281,31,18,24,041,40,23,15,012,38*7D
$GPGSV,5,2,17,24,06,075,25,25,14,150,37,26,31,251,27,27,12,328,33*75
$GPGSV,5,3,17,28,27,188,38,29,45,131,35,31,14,213,25,32,78,206,41*7C
$GPGSV,5,4,17,36,52,277,35,40,85,353,42,41,58,082,36,49,32,274,*78
$GPGSV,5,5,17,50,10,089,*4A
$GLGSV,3,1,10,65,60,341,34,66,52,231,29,67,02,209,,72,11,018,33*6A
$GLGSV,3,2,10,76,17,181,32,77,18,228,16,86,27,092,34,87,31,039,33*6D
$GLGSV,3,3,10,88,03,346,36,,,,36*56
$GNGLL,0419.64396,S,05540.00194,E,105708.00,A,D*6E
$GNRMC,105709.00,A,0419.64370,S,05540.00193,E,0.925,2.24,220525,,,D*6F
$GNVTG,2.24,T,,M,0.925,N,1.713,K,D*28
$GNGGA,105709.00,0419.64370,S,05540.00193,E,2,12,0.54,10.2,M,-47.6,M,,0000*4A
$GNGSA,A,3,29,10,32,26,23,25,18,28,16,31,41,27,1.06,0.54,0.92*1E
$GNGSA,A,3,65,86,87,72,66,76,77,,,,,,1.06,0.54,0.92*17
$GPGSV,5,1,17,10,32,330,40,16,22,281,34,18,24,041,37,23,15,012,39*76
$GPGSV,5,2,17,24,06,075,23,25,14,150,34,26,31,251,28,27,12,328,32*7E
$GPGSV,5,3,17,28,27,188,36,29,45,131,29,31,14,213,25,32,78,206,41*7F
$GPGSV,5,4,17,36,52,277,35,40,85,353,42,41,58,082,36,49,32,274,*78
$GPGSV,5,5,17,50,10,089,*4A
$GLGSV,3,1,10,65,60,341,36,66,52,231,29,67,02,209,,72,11,018,31*6A
$GLGSV,3,2,10,76,17,181,31,77,18,228,16,86,27,092,37,87,31,039,34*6A
$GLGSV,3,3,10,88,03,346,36,,,,38*58
$GNGLL,0419.64370,S,05540.00193,E,105709.00,A,D*60
$GNRMC,105710.00,A,0419.64347,S,05540.00193,E,0.679,2.55,220525,,,D*63
$GNVTG,2.55,T,,M,0.679,N,1.258,K,D*22
$GNGGA,105710.00,0419.64347,S,05540.00193,E,2,12,0.54,10.2,M,-47.6,M,,0000*46
$GNGSA,A,3,29,10,32,26,23,25,18,28,16,31,41,27,1.06,0.54,0.92*1E
$GNGSA,A,3,65,86,87,72,66,76,77,,,,,,1.06,0.54,0.92*17
$GPGSV,5,1,17,10,32,330,42,16,22,281,28,18,24,041,37,23,15,012,40*77
$GPGSV,5,2,17,24,06,075,,25,14,150,35,26,31,251,27,27,12,328,35*76
$GPGSV,5,3,17,28,27,188,37,29,45,131,31,31,14,213,27,32,78,206,40*74
$GPGSV,5,4,17,36,52,277,34,40,85,353,42,41,58,082,37,49,32,274,*78
$GPGSV,5,5,17,50,10,089,*4A
$GLGSV,3,1,10,65,60,341,38,66,52,231,29,67,02,209,,72,11,018,34*61
$GLGSV,3,2,10,76,17,181,30,77,18,228,15,86,27,092,32,87,31,039,29*61
$GLGSV,3,3,10,88,03,346,36,,,,37*57
$GNGLL,0419.64347,S,05540.00193,E,105710.00,A,D*6C
$GNRMC,105711.00,A,0419.64327,S,05540.00189,E,0.774,352.95,220525,,,D*69
$GNVTG,352.95,T,,M,0.774,N,1.434,K,D*28
$GNGGA,105711.00,0419.64327,S,05540.00189,E,2,12,0.54,10.3,M,-47.6,M,,0000*4B
$GNGSA,A,3,29,10,32,26,23,25,18,28,16,31,41,27,1.06,0.54,0.92*1E
$GNGSA,A,3,65,86,87,72,66,76,77,,,,,,1.06,0.54,0.92*17
$GPGSV,5,1,17,10,32,330,41,16,22,281,29,18,24,041,35,23,15,012,42*75
$GPGSV,5,2,17,24,06,075,,25,14,150,36,26,31,251,27,27,12,328,35*75
$GPGSV,5,3,17,28,27,188,35,29,45,131,34,31,14,213,28,32,78,206,41*7D
$GPGSV,5,4,17,36,52,277,38,40,85,353,43,41,58,082,37,49,32,274,*75
$GPGSV,5,5,17,50,10,089,*4A
$GLGSV,3,1,10,65,60,341,33,66,52,231,29,67,02,209,,72,11,018,34*6A
$GLGSV,3,2,10,76,17,181,29,77,18,228,15,86,27,092,35,87,31,039,31*67
$GLGSV,3,3,10,88,03,346,38,,,,37*59
$GNGLL,0419.64327,S,05540.00189,E,105711.00,A,D*60
$GNRMC,105712.00,A,0419.64297,S,05540.00178,E,1.320,341.95,220525,,,D*68
$GNVTG,341.95,T,,M,1.320,N,2.444,K,D*2A
$GNGGA,105712.00,0419.64297,S,05540.00178,E,2,12,0.54,10.2,M,-47.6,M,,0000*4D
$GNGSA,A,3,29,10,32,26,23,25,18,28,16,31,41,27,1.06,0.54,0.92*1E
$GNGSA,A,3,65,86,87,72,66,76,77,,,,,,1.06,0.54,0.92*17
$GPGSV,5,1,17,10,32,330,43,16,22,281,35,18,24,041,37,23,15,012,41*7B
$GPGSV,5,2,17,24,06,075,,25,14,150,36,26,31,251,25,27,12,328,35*77
$GPGSV,5,3,17,28,27,188,35,29,45,131,34,31,14,213,28,32,78,206,41*7D
$GPGSV,5,4,17,36,52,277,39,40,85,353,43,41,58,082,37,49,32,274,*74
$GPGSV,5,5,17,50,10,089,*4A
$GLGSV,3,1,10,65,60,341,33,66,52,231,23,67,02,209,,72,11,018,34*60
$GLGSV,3,2,10,76,17,181,21,77,18,228,13,86,27,092,32,87,31,039,34*6B
$GLGSV,3,3,10,88,03,346,38,,,,35*5B
$GNGLL,0419.64297,S,05540.00178,E,105712.00,A,D*67
$GNRMC,105713.00,A,0419.64266,S,05540.00168,E,1.033,342.64,220525,,,D*6A
$GNVTG,342.64,T,,M,1.033,N,1.914,K,D*2D
$GNGGA,105713.00,0419.64266,S,05540.00168,E,2,12,0.54,10.3,M,-47.6,M,,0000*42
$GNGSA,A,3,29,10,32,26,23,25,18,28,16,31,41,27,1.06,0.54,0.92*1E
$GNGSA,A,3,65,86,87,72,66,76,77,,,,,,1.06,0.54,0.92*17
$GPGSV,5,1,17,10,32,330,42,16,22,281,26,18,24,041,34,23,15,012,41*7B
$GPGSV,5,2,17,24,06,075,,25,14,150,35,26,31,251,24,27,12,328,33*73
$GPGSV,5,3,17,28,27,188,36,29,45,131,41,31,14,213,19,32,78,206,42*7D
$GPGSV,5,4,17,36,52,277,37,40,85,353,43,41,58,082,37,49,32,274,*7A
$GPGSV,5,5,17,50,10,089,*4A
$GLGSV,3,1,10,65,60,341,40,66,52,231,25,67,02,209,,72,11,018,35*63
$GLGSV,3,2,10,76,17,181,30,77,18,228,13,86,27,092,34,87,31,039,31*68
$GLGSV,3,3,10,88,03,346,34,,,,36*54
$GNGLL,0419.64266,S,05540.00168,E,105713.00,A,D*69
$GNRMC,105714.00,A,0419.64242,S,05540.00169,E,0.761,351.43,220525,,,D*6C
$GNVTG,351.43,T,,M,0.761,N,1.410,K,D*22
$GNGGA,105714.00,0419.64242,S,05540.00169,E,2,12,0.55,10.2,M,-47.6,M,,0000*42
$GNGSA,A,3,29,10,32,23,25,18,28,16,31,41,27,,1.07,0.55,0.92*1A
$GNGSA,A,3,65,86,87,72,66,76,77,,,,,,1.07,0.55,0.92*17
$GPGSV,5,1,17,10,32,330,39,16,22,281,24,18,24,041,31,23,15,012,43*72
$GPGSV,5,2,17,24,06,075,29,25,14,150,36,26,31,251,27,27,12,328,26*7C
$GPGSV,5,3,17,28,27,188,29,29,45,131,33,31,14,213,22,32,78,206,39*72
$GPGSV,5,4,17,36,52,277,37,40,85,353,39,41,58,082,39,49,32,274,*79
$GPGSV,5,5,17,50,10,089,*4A
$GLGSV,3,1,10,65,60,341,36,66,52,231,27,67,02,209,,72,11,018,30*65
$GLGSV,3,2,10,76,17,181,29,77,18,228,13,86,27,092,31,87,31,039,30*64
$GLGSV,3,3,10,88,03,346,36,,,,38*58
$GNGLL,0419.64242,S,05540.00169,E,105714.00,A,D*69
$GNRMC,105715.00,A,0419.64220,S,05540.00166,E,0.827,349.29,220525,,,D*6E
$GNVTG,349.29,T,,M,0.827,N,1.532,K,D*2B
$GNGGA,105715.00,0419.64220,S,05540.00166,E,2,12,0.52,10.3,M,-47.6,M,,0000*4E
$GNGSA,A,3,29,10,32,26,23,25,18,24,28,16,31,41,1.02,0.52,0.88*14
$GNGSA,A,3,65,86,87,72,66,76,77,,,,,,1.02,0.52,0.88*1E
$GPGSV,5,1,17,10,32,330,40,16,22,281,35,18,24,041,31,23,15,012,38*70
$GPGSV,5,2,17,24,06,075,28,25,14,150,35,26,31,251,32,27,12,328,39*74
$GPGSV,5,3,17,28,27,188,34,29,45,131,35,31,14,213,23,32,78,206,38*78
$GPGSV,5,4,17,36,52,277,37,40,85,353,42,41,58,082,36,49,32,274,*7A
$GPGSV,5,5,17,50,10,089,*4A
$GLGSV,3,1,10,65,60,341,36,66,52,231,26,67,02,209,,72,11,018,36*62
$GLGSV,3,2,10,76,17,181,27,77,18,228,13,86,27,092,31,87,31,039,29*62
$GLGSV,3,3,10,88,03,346,36,,,,36*56
$GNGLL,0419.64220,S,05540.00166,E,105715.00,A,D*63
$GNRMC,105716.00,A,0419.64199,S,05540.00166,E,0.646,1.67,220525,,,D*60
$GNVTG,1.67,T,,M,0.646,N,1.196,K,D*2D
$GNGGA,105716.00,0419.64199,S,05540.00166,E,2,12,0.54,10.5,M,-47.6,M,,0000*4C
$GNGSA,A,3,29,10,32,26,23,25,18,24,28,16,31,41,1.04,0.54,0.90*1D
$GNGSA,A,3,65,86,87,72,66,76,,,,,,,1.04,0.54,0.90*17
$GPGSV,5,1,17,10,32,330,40,16,22,281,27,18,24,041,27,23,15,012,40*7B
$GPGSV,5,2,17,24,06,075,28,25,14,150,35,26,31,251,26,27,12,328,33*7B
$GPGSV,5,3,17,28,27,188,31,29,45,131,40,31,14,213,25,32,78,206,42*74
$GPGSV,5,4,17,36,52,277,40,40,85,353,43,41,58,082,36,49,32,274,*7B
$GPGSV,5,5,17,50,10,089,*4A
$GLGSV,3,1,10,65,60,341,36,66,52,231,31,67,02,209,,72,11,018,27*64
$GLGSV,3,2,10,76,17,180,29,77,18,228,09,86,27,092,35,87,31,039,27*6C
$GLGSV,3,3,10,88,03,346,39,,,,36*59
$GNGLL,0419.64199,S,05540.00166,E,105716.00,A,D*61
$GNRMC,105717.00,A,0419.64176,S,05540.00162,E,0.840,354.97,220525,,,D*60
$GNVTG,354.97,T,,M,0.840,N,1.555,K,D*22
$GNGGA,105717.00,0419.64176,S,05540.00162,E,2,12,0.54,10.5,M,-47.6,M,,0000*48
$GNGSA,A,3,29,10,32,26,23,25,18,24,28,16,31,41,1.04,0.54,0.90*1D
$GNGSA,A,3,65,86,87,72,66,76,,,,,,,1.04,0.54,0.90*17
$GPGSV,5,1,17,10,32,330,39,16,22,281,27,18,24,041,28,23,15,012,39*74
$GPGSV,5,2,17,24,06,075,33,25,14,150,36,26,31,251,26,27,12,328,34*75
$GPGSV,5,3,17,28,27,188,31,29,45,131,38,31,14,213,27,32,78,206,40*7B
$GPGSV,5,4,17,36,52,277,38,40,85,353,43,41,58,082,36,49,32,274,*74
$GPGSV,5,5,17,50,10,089,*4A
$GLGSV,3,1,10,65,60,341,37,66,52,231,27,67,02,209,,72,11,018,33*67
$GLGSV,3,2,10,76,17,180,28,77,17,227,09,86,27,092,32,87,31,039,26*6B
$GLGSV,3,3,10,88,03,346,40,,,,38*59
$GNGLL,0419.64176,S,05540.00162,E,105717.00,A,D*65
$GNRMC,105718.00,A,0419.64154,S,05540.00157,E,0.818,346.83,220525,,,D*62
$GNVTG,346.83,T,,M,0.818,N,1.514,K,D*2C
$GNGGA,105718.00,0419.64154,S,05540.00157,E,2,12,0.54,10.7,M,-47.6,M,,0000*43
$GNGSA,A,3,29,10,32,26,23,25,18,24,28,16,31,41,1.04,0.54,0.90*1D
$GNGSA,A,3,65,86,87,72,66,76,,,,,,,1.04,0.54,0.90*17
$GPGSV,5,1,17,10,32,330,43,16,22,281,32,18,24,041,33,23,15,012,35*7B
$GPGSV,5,2,17,24,06,075,31,25,14,150,35,26,31,251,33,27,12,328,36*72
$GPGSV,5,3,17,28,27,188,34,29,45,131,42,31,14,213,28,32,78,206,41*7D
$GPGSV,5,4,17,36,52,277,36,40,85,353,42,41,58,082,37,49,32,274,*7A
$GPGSV,5,5,17,50,10,089,*4A
$GLGSV,3,1,10,65,60,341,36,66,52,231,31,67,02,209,,72,11,018,31*63
$GLGSV,3,2,10,76,17,180,29,77,17,227,08,86,27,092,31,87,31,039,24*6A
$GLGSV,3,3,10,88,03,346,38,,,,34*5A
$GNGLL,0419.64154,S,05540.00157,E,105718.00,A,D*6C
$GNRMC,105719.00,A,0419.64137,S,05540.00151,E,0.597,344.06,220525,,,D*65
$GNVTG,344.06,T,,M,0.597,N,1.105,K,D*2D
$GNGGA,105719.00,0419.64137,S,05540.00151,E,2,12,0.54,10.8,M,-47.6,M,,0000*4E
$GNGSA,A,3,29,10,32,26,23,25,18,24,28,16,31,41,1.04,0.54,0.90*1D
$GNGSA,A,3,65,86,87,72,66,76,77,,,,,,1.04,0.54,0.90*17
$GPGSV,5,1,17,10,32,330,38,16,22,281,35,18,24,041,20,23,15,012,39*7E
$GPGSV,5,2,17,24,06,075,30,25,14,150,38,26,31,251,27,27,12,328,31*7C
$GPGSV,5,3,17,28,27,188,33,29,45,131,41,31,14,213,30,32,78,206,43*72
$GPGSV,5,4,17,36,52,277,38,40,85,353,44,41,58,082,37,49,32,274,*72
$GPGSV,5,5,17,50,10,089,*4A
$GLGSV,3,1,10,65,60,341,35,66,52,231,29,67,02,209,,72,11,018,26*6F
$GLGSV,3,2,10,76,17,180,29,77,17,227,11,86,27,092,26,87,31,039,25*65
$GLGSV,3,3,10,88,03,346,38,,,,33*5D
$GNGLL,0419.64137,S,05540.00151,E,105719.00,A,D*6E
$GNRMC,105720.00,A,0419.64117,S,05540.00141,E,0.910,335.74,220525,,,D*6C
$GNVTG,335.74,T,,M,0.910,N,1.685,K,D*22
$GNGGA,105720.00,0419.64117,S,05540.00141,E,2,12,0.54,10.8,M,-47.6,M,,0000*47
$GNGSA,A,3,29,10,32,26,23,25,18,24,28,16,31,41,1.04,0.54,0.90*1D
$GNGSA,A,3,65,86,87,72,66,76,77,,,,,,1.04,0.54,0.90*17
$GPGSV,5,1,17,10,32,330,42,16,22,281,27,18,24,041,37,23,15,012,34*7B
$GPGSV,5,2,17,24,06,075,31,25,14,150,38,26,31,251,25,27,12,328,33*7D
$GPGSV,5,3,17,28,27,188,28,29,45,131,39,31,14,213,31,32,78,206,41*74
$GPGSV,5,4,17,36,52,277,39,40,85,353,43,41,58,082,34,49,32,274,*77
$GPGSV,5,5,17,50,10,089,*4A
$GLGSV,3,1,10,65,60,341,35,66,52,231,27,67,02,209,,72,11,018,32*64
$GLGSV,3,2,10,76,17,180,28,77,17,227,13,86,27,092,26,87,31,039,26*65
$GLGSV,3,3,10,88,03,346,39,,,,33*5C
$GNGLL,0419.64117,S,05540.00141,E,105720.00,A,D*67
$GNRMC,105721.00,A,0419.64088,S,05540.00126,E,1.301,332.40,220525,,,D*60
$GNVTG,332.40,T,,M,1.301,N,2.409,K,D*2C
$GNGGA,105721.00,0419.64088,S,05540.00126,E,2,12,0.54,10.7,M,-47.6,M,,0000*4F
$GNGSA,A,3,29,10,32,26,23,25,18,24,28,16,31,41,1.04,0.54,0.90*1D
$GNGSA,A,3,65,86,87,72,66,76,77,,,,,,1.04,0.54,0.90*17
$GPGSV,5,1,17,10,32,330,42,16,22,281,35,18,24,041,37,23,15,012,37*7B
$GPGSV,5,2,17,24,06,075,30,25,14,150,37,26,31,251,25,27,12,328,36*76
$GPGSV,5,3,17,28,27,188,37,29,45,131,39,31,14,213,31,32,78,206,41*7A
$GPGSV,5,4,17,36,52,277,31,40,85,353,43,41,58,082,39,49,32,274,*72
$GPGSV,5,5,17,50,10,089,*4A
$GLGSV,3,1,10,65,60,341,36,66,52,231,32,67,02,209,,72,11,018,28*68
$GLGSV,3,2,10,76,17,180,28,77,17,227,10,86,27,092,31,87,31,039,29*6F
$GLGSV,3,3,10,88,03,346,39,,,,32*5D
$GNGLL,0419.64088,S,05540.00126,E,105721.00,A,D*60
$GNRMC,105722.00,A,0419.64061,S,05540.00111,E,1.053,332.89,220525,,,D*61
$GNVTG,332.89,T,,M,1.053,N,1.950,K,D*2F
$GNGGA,105722.00,0419.64061,S,05540.00111,E,2,12,0.54,10.5,M,-47.6,M,,0000*4D
$GNGSA,A,3,29,10,32,26,23,25,18,24,28,16,31,41,1.04,0.54,0.90*1D
$GNGSA,A,3,65,86,87,72,66,76,,,,,,,1.04,0.54,0.90*17
$GPGSV,5,1,17,10,32,330,40,16,22,281,31,18,24,041,34,23,15,012,41*7F
$GPGSV,5,2,17,24,06,075,29,25,14,150,38,26,31,251,25,27,12,328,34*73
$GPGSV,5,3,17,28,27,188,34,29,45,131,39,31,14,213,31,32,78,206,44*7C
$GPGSV,5,4,17,36,52,277,39,40,85,353,44,41,58,082,40,49,32,274,*73
$GPGSV,5,5,17,50,10,089,*4A
$GLGSV,3,1,10,65,60,341,35,66,52,231,32,67,02,209,,72,11,018,28*6B
$GLGSV,3,2,10,76,17,180,27,77,17,227,06,86,27,092,31,87,31,039,29*67
$GLGSV,3,3,10,88,03,346,39,,,,33*5C
$GNGLL,0419.64061,S,05540.00111,E,105722.00,A,D*60
$GNRMC,105723.00,A,0419.64040,S,05540.00107,E,0.762,339.74,220525,,,D*69
$GNVTG,339.74,T,,M,0.762,N,1.411,K,D*2A
$GNGGA,105723.00,0419.64040,S,05540.00107,E,2,12,0.52,10.4,M,-47.6,M,,0000*4F
$GNGSA,A,3,29,10,32,26,23,25,18,24,28,16,31,41,1.02,0.52,0.88*14
$GNGSA,A,3,65,86,87,72,66,76,77,,,,,,1.02,0.52,0.88*1E
$GPGSV,5,1,17,10,32,330,41,16,22,281,25,18,24,041,33,23,15,012,35*7F
$GPGSV,5,2,17,24,06,075,29,25,14,150,35,26,31,251,25,27,12,328,23*78
$GPGSV,5,3,17,28,27,188,34,29,45,131,40,31,14,213,32,32,78,206,44*71
$GPGSV,5,4,17,36,52,277,37,40,85,353,45,41,58,082,38,49,32,274,*73
$GPGSV,5,5,17,50,10,089,*4A
$GLGSV,3,1,10,65,60,341,34,66,52,231,30,67,02,209,,72,11,018,29*69
$GLGSV,3,2,10,76,17,180,28,77,17,227,13,86,27,092,30,87,31,039,28*6C
$GLGSV,3,3,10,88,03,346,38,,,,34*5A
$GNGLL,0419.64040,S,05540.00107,E,105723.00,A,D*65
$GNRMC,105724.00,A,0419.64015,S,05540.00102,E,0.938,339.84,220525,,,D*65
$GNVTG,339.84,T,,M,0.938,N,1.737,K,D*23
$GNGGA,105724.00,0419.64015,S,05540.00102,E,2,12,0.54,10.5,M,-47.6,M,,0000*4A
$GNGSA,A,3,29,10,32,26,23,25,18,24,28,16,31,41,1.04,0.54,0.90*1D
$GNGSA,A,3,65,86,87,72,66,76,77,,,,,,1.04,0.54,0.90*17
$GPGSV,5,1,17,10,32,330,43,16,22,281,35,18,24,041,36,23,15,012,35*79
$GPGSV,5,2,17,24,06,075,30,25,14,150,31,26,31,251,26,27,12,328,35*70
$GPGSV,5,3,17,28,27,188,38,29,45,131,40,31,14,213,31,32,78,206,42*78
$GPGSV,5,4,17,36,52,277,36,40,85,353,43,41,58,082,37,49,32,274,*7B
$GPGSV,5,5,17,50,10,089,*4A
$GLGSV,3,1,10,65,60,341,37,66,52,231,29,67,02,209,,72,11,018,30*6A
$GLGSV,3,2,10,76,17,180,27,77,17,227,12,86,27,092,31,87,31,039,28*63
$GLGSV,3,3,10,88,03,346,38,,,,34*5A
$GNGLL,0419.64015,S,05540.00102,E,105724.00,A,D*67
$GNRMC,105725.00,A,0419.63985,S,05540.00090,E,1.249,336.78,220525,,,D*69
$GNVTG,336.78,T,,M,1.249,N,2.312,K,D*23
$GNGGA,105725.00,0419.63985,S,05540.00090,E,2,12,0.52,10.6,M,-47.6,M,,0000*43
$GNGSA,A,3,29,10,32,26,23,25,18,24,28,16,31,41,1.02,0.52,0.88*14
$GNGSA,A,3,65,86,87,72,66,76,77,,,,,,1.02,0.52,0.88*1E
$GPGSV,5,1,17,10,32,330,42,16,22,281,32,18,24,041,38,23,15,012,36*72
$GPGSV,5,2,17,24,06,075,28,25,14,150,33,26,31,251,32,27,12,328,35*7E
$GPGSV,5,3,17,28,27,188,37,29,45,131,40,31,14,213,29,32,78,206,41*7D
$GPGSV,5,4,17,36,52,277,36,40,85,353,41,41,58,082,38,49,32,274,*76
$GPGSV,5,5,17,50,10,089,*4A
$GLGSV,3,1,10,65,60,341,36,66,52,231,29,67,02,209,,72,11,018,31*6A
$GLGSV,3,2,10,76,17,180,27,77,17,227,12,86,27,092,30,87,31,039,29*63
$GLGSV,3,3,10,88,03,346,39,,,,34*5B
$GNGLL,0419.63985,S,05540.00090,E,105725.00,A,D*6B
$GNRMC,105726.00,A,0419.63965,S,05540.00086,E,0.458,340.27,220525,,,D*6F
$GNVTG,340.27,T,,M,0.458,N,0.848,K,D*29
$GNGGA,105726.00,0419.63965,S,05540.00086,E,2,12,0.52,10.4,M,-47.6,M,,0000*4B
$GNGSA,A,3,29,10,32,26,23,25,18,24,28,16,31,41,1.02,0.52,0.88*14
$GNGSA,A,3,65,86,87,72,66,76,77,,,,,,1.02,0.52,0.88*1E
$GPGSV,5,1,17,10,32,330,34,16,22,281,26,18,24,041,38,23,15,012,39*79
$GPGSV,5,2,17,24,06,075,28,25,14,150,35,26,31,251,27,27,12,328,31*78
$GPGSV,5,3,17,28,27,188,37,29,45,131,38,31,14,213,29,32,78,206,43*70
$GPGSV,5,4,17,36,52,277,40,40,85,353,43,41,58,082,36,49,32,274,*7B
$GPGSV,5,5,17,50,10,089,*4A
$GLGSV,3,1,10,65,60,341,38,66,52,231,30,67,02,209,,72,11,018,30*6D
$GLGSV,3,2,10,76,17,180,27,77,17,227,11,86,27,093,34,87,31,039,31*6C
$GLGSV,3,3,10,88,03,346,36,,,,35*55
$GNGLL,0419.63965,S,05540.00086,E,105726.00,A,D*61
$GNRMC,105727.00,A,0419.63954,S,05540.00088,E,0.266,,220525,,,D*75
$GNVTG,,T,,M,0.266,N,0.493,K,D*34
$GNGGA,105727.00,0419.63954,S,05540.00088,E,2,12,0.52,10.6,M,-47.6,M,,0000*44
$GNGSA,A,3,29,10,32,26,23,25,18,24,28,16,31,41,1.02,0.52,0.88*14
$GNGSA,A,3,65,86,87,72,66,76,77,,,,,,1.02,0.52,0.88*1E
$GPGSV,5,1,17,10,32,330,42,16,22,281,35,18,24,041,36,23,15,012,39*74
$GPGSV,5,2,17,24,06,075,33,25,14,150,31,26,31,251,32,27,12,328,34*77
$GPGSV,5,3,17,28,27,188,36,29,45,131,41,31,14,213,28,32,78,206,40*7D
$GPGSV,5,4,17,36,52,277,32,40,85,353,41,41,58,082,39,49,32,274,*73
$GPGSV,5,5,17,50,10,089,*4A
$GLGSV,3,1,10,65,60,341,38,66,52,231,29,67,02,209,,72,11,018,29*6D
$GLGSV,3,2,10,76,17,180,28,77,17,227,13,86,27,093,23,87,32,040,33*68
$GLGSV,3,3,10,88,03,346,35,,,,34*57
$GNGLL,0419.63954,S,05540.00088,E,105727.00,A,D*6C
$GNRMC,105728.00,A,0419.63941,S,05540.00079,E,0.663,329.54,220525,,,D*66
$GNVTG,329.54,T,,M,0.663,N,1.228,K,D*25
$GNGGA,105728.00,0419.63941,S,05540.00079,E,2,12,0.52,10.9,M,-47.6,M,,0000*4E
$GNGSA,A,3,29,10,32,26,23,25,18,24,28,16,31,41,1.02,0.52,0.88*14
$GNGSA,A,3,65,86,87,72,66,76,77,,,,,,1.02,0.52,0.88*1E
$GPGSV,5,1,17,10,32,330,41,16,22,281,33,18,24,041,35,23,15,012,33*78
$GPGSV,5,2,17,24,06,075,32,25,14,150,31,26,31,251,26,27,12,328,32*75
$GPGSV,5,3,17,28,27,188,37,29,45,131,39,31,14,213,27,32,78,206,42*7E
$GPGSV,5,4,17,36,52,277,39,40,85,353,42,41,58,082,39,49,32,274,*7B
$GPGSV,5,5,17,50,10,089,*4A
$GLGSV,3,1,10,65,60,341,38,66,52,231,31,67,02,209,,72,11,018,32*6E
$GLGSV,3,2,10,76,17,180,28,77,17,227,14,86,27,093,38,87,32,040,30*66
$GLGSV,3,3,10,88,04,347,37,,,,34*53
$GNGLL,0419.63941,S,05540.00079,E,105728.00,A,D*69
$GNRMC,105729.00,A,0419.63923,S,05540.00069,E,0.757,335.33,220525,,,D*68
$GNVTG,335.33,T,,M,0.757,N,1.403,K,D*20
$GNGGA,105729.00,0419.63923,S,05540.00069,E,2,12,0.52,10.9,M,-47.6,M,,0000*4A
$GNGSA,A,3,29,10,32,26,23,25,18,24,28,16,31,41,1.02,0.52,0.88*14
$GNGSA,A,3,65,86,87,72,66,76,77,,,,,,1.02,0.52,0.88*1E
$GPGSV,5,1,17,10,32,330,36,16,22,281,32,18,24,041,37,23,15,012,39*71
$GPGSV,5,2,17,24,06,075,32,25,14,150,32,26,31,251,33,27,12,328,30*70
$GPGSV,5,3,17,28,27,188,36,29,45,131,38,31,14,213,28,32,78,206,40*73
$GPGSV,5,4,17,36,52,277,34,40,85,353,43,41,58,082,38,49,32,274,*76
$GPGSV,5,5,17,50,10,089,*4A
$GLGSV,3,1,10,65,60,341,35,66,52,231,30,67,02,209,,72,11,018,32*62
$GLGSV,3,2,10,76,17,180,27,77,17,227,12,86,27,093,36,87,32,040,30*61
$GLGSV,3,3,10,88,04,347,39,,,,34*5D
$GNGLL,0419.63923,S,05540.00069,E,105729.00,A,D*6D
$GNRMC,105730.00,A,0419.63907,S,05540.00061,E,0.577,332.14,220525,,,D*6C
$GNVTG,332.14,T,,M,0.577,N,1.069,K,D*2A
$GNGGA,105730.00,0419.63907,S,05540.00061,E,2,12,0.52,11.0,M,-47.6,M,,0000*44
$GNGSA,A,3,29,10,32,26,23,25,18,24,28,16,31,41,1.02,0.52,0.88*14
$GNGSA,A,3,65,86,87,72,66,76,77,,,,,,1.02,0.52,0.88*1E
$GPGSV,5,1,17,10,32,330,36,16,22,281,31,18,24,041,36,23,15,012,32*78
$GPGSV,5,2,17,24,06,075,26,25,14,150,32,26,31,251,28,27,12,328,35*7A
$GPGSV,5,3,17,28,27,188,36,29,45,131,39,31,14,213,30,32,78,206,42*79
$GPGSV,5,4,17,36,52,277,37,40,85,353,45,41,58,082,37,49,32,274,*7C
$GPGSV,5,5,17,50,10,089,*4A
$GLGSV,3,1,10,65,60,341,38,66,52,231,32,67,02,209,,72,11,018,30*6F
$GLGSV,3,2,10,76,17,180,27,77,17,227,13,86,27,093,30,87,32,040,32*64
$GLGSV,3,3,10,88,04,347,34,,,,33*57
$GNGLL,0419.63907,S,05540.00061,E,105730.00,A,D*6B
$GNRMC,105731.00,A,0419.63892,S,05540.00047,E,0.735,321.61,220525,,,D*60
$GNVTG,321.61,T,,M,0.735,N,1.361,K,D*25
$GNGGA,105731.00,0419.63892,S,05540.00047,E,2,12,0.52,10.9,M,-47.6,M,,0000*44
$GNGSA,A,3,29,10,32,26,23,25,18,24,28,16,31,41,1.02,0.52,0.88*14
$GNGSA,A,3,65,86,87,72,66,76,77,,,,,,1.02,0.52,0.88*1E
$GPGSV,5,1,17,10,32,330,42,16,22,281,35,18,24,041,37,23,15,012,39*75
$GPGSV,5,2,17,24,06,075,30,25,14,150,32,26,31,251,29,27,12,328,34*7D
$GPGSV,5,3,17,28,27,188,36,29,45,131,38,31,14,213,28,32,78,206,42*71
$GPGSV,5,4,17,36,52,277,39,40,85,353,42,41,58,082,37,49,32,274,*75
$GPGSV,5,5,17,50,10,089,*4A
$GLGSV,3,1,10,65,60,341,38,66,52,231,26,67,02,209,,72,11,018,30*6A
$GLGSV,3,2,10,76,17,180,27,77,17,227,15,86,27,093,31,87,32,040,30*61
$GLGSV,3,3,10,88,04,347,39,,,,34*5D
$GNGLL,0419.63892,S,05540.00047,E,105731.00,A,D*63
$GNRMC,105732.00,A,0419.63876,S,05540.00031,E,0.889,318.43,220525,,,D*6A
$GNVTG,318.43,T,,M,0.889,N,1.647,K,D*26
$GNGGA,105732.00,0419.63876,S,05540.00031,E,2,12,0.52,10.7,M,-47.6,M,,0000*42
$GNGSA,A,3,29,10,32,26,23,25,18,24,28,16,31,41,1.02,0.52,0.88*14
$GNGSA,A,3,65,86,87,72,66,76,77,,,,,,1.02,0.52,0.88*1E
$GPGSV,5,1,17,10,32,330,42,16,22,281,33,18,24,041,37,23,15,012,31*7B
$GPGSV,5,2,17,24,06,075,32,25,14,150,32,26,31,251,28,27,12,328,37*7D
$GPGSV,5,3,17,28,27,188,37,29,45,131,40,31,14,213,28,32,78,206,43*7E
$GPGSV,5,4,17,36,52,277,38,40,85,353,42,41,58,082,36,49,32,274,*75
$GPGSV,5,5,17,50,10,089,*4A
$GLGSV,3,1,10,65,60,341,35,66,52,231,32,67,02,209,,72,11,018,30*62
$GLGSV,3,2,10,76,17,180,28,77,17,227,14,86,27,093,31,87,32,040,28*66
$GLGSV,3,3,10,88,04,347,36,,,,34*52
$GNGLL,0419.63876,S,05540.00031,E,105732.00,A,D*6B
$GNRMC,105733.00,A,0419.63853,S,05540.00017,E,1.024,324.04,220525,,,D*6A
$GNVTG,324.04,T,,M,1.024,N,1.896,K,D*26
$GNGGA,105733.00,0419.63853,S,05540.00017,E,2,12,0.52,10.9,M,-47.6,M,,0000*4E
$GNGSA,A,3,29,10,32,26,23,25,18,24,28,16,31,41,1.02,0.52,0.88*14
$GNGSA,A,3,65,86,87,72,66,76,77,,,,,,1.02,0.52,0.88*1E
$GPGSV,5,1,17,10,32,330,41,16,22,281,33,18,24,041,37,23,15,012,35*7C
$GPGSV,5,2,17,24,06,075,33,25,14,150,30,26,31,251,29,27,12,328,36*7E
$GPGSV,5,3,17,28,27,188,36,29,45,131,38,31,14,213,26,32,78,206,42*7F
$GPGSV,5,4,17,36,52,277,38,40,85,353,42,41,58,082,37,49,32,274,*74
$GPGSV,5,5,17,50,10,089,*4A
$GLGSV,3,1,10,65,60,341,37,66,52,231,31,67,02,209,,72,11,018,32*61
$GLGSV,3,2,10,76,17,180,29,77,17,227,18,86,27,093,30,87,32,040,28*6A
$GLGSV,3,3,10,88,04,347,39,,,,35*5C
$GNGLL,0419.63853,S,05540.00017,E,105733.00,A,D*69
$GNRMC,105734.00,A,0419.63825,S,05540.00001,E,1.123,327.18,220525,,,D*63
$GNVTG,327.18,T,,M,1.123,N,2.079,K,D*24
$GNGGA,105734.00,0419.63825,S,05540.00001,E,2,12,0.54,10.8,M,-47.6,M,,0000*48
$GNGSA,A,3,29,10,32,23,25,18,24,28,16,31,41,27,1.03,0.54,0.88*12
$GNGSA,A,3,65,86,87,72,66,76,77,,,,,,1.03,0.54,0.88*19
$GPGSV,5,1,17,10,32,330,40,16,22,281,24,18,24,041,35,23,15,012,38*74
$GPGSV,5,2,17,24,06,075,32,25,14,150,31,26,31,251,,27,12,328,35*76
$GPGSV,5,3,17,28,27,188,36,29,45,131,40,31,14,213,28,32,78,206,41*7D
$GPGSV,5,4,17,36,52,277,36,40,85,353,41,41,58,082,39,49,32,274,*77
$GPGSV,5,5,17,50,10,089,*4A
$GLGSV,3,1,10,65,60,341,38,66,52,231,27,67,02,209,,72,11,018,31*6A
$GLGSV,3,2,10,76,17,180,29,77,17,227,16,86,27,093,32,87,32,040,27*69
$GLGSV,3,3,10,88,04,347,37,,,,33*54
$GNGLL,0419.63825,S,05540.00001,E,105734.00,A,D*68
$GNRMC,105735.00,A,0419.63798,S,05539.99984,E,1.137,324.13,220525,,,D*6C
$GNVTG,324.13,T,,M,1.137,N,2.106,K,D*20
$GNGGA,105735.00,0419.63798,S,05539.99984,E,2,12,0.52,10.9,M,-47.6,M,,0000*4D
$GNGSA,A,3,29,10,32,26,23,25,18,24,28,16,31,41,1.02,0.52,0.88*14
$GNGSA,A,3,65,86,87,72,66,76,77,,,,,,1.02,0.52,0.88*1E
$GPGSV,5,1,17,10,32,330,43,16,22,281,35,18,24,041,37,23,15,012,37*7A
$GPGSV,5,2,17,24,06,075,30,25,14,150,30,26,31,251,32,27,12,328,31*70
$GPGSV,5,3,17,28,27,188,36,29,45,131,39,31,14,213,28,32,78,206,41*73
$GPGSV,5,4,17,36,52,277,36,40,85,353,41,41,58,082,35,49,32,274,*7B
$GPGSV,5,5,17,50,10,089,*4A
$GLGSV,3,1,10,65,60,341,39,66,52,231,28,67,02,209,,72,11,018,26*62
$GLGSV,3,2,10,76,17,180,29,77,17,227,17,86,27,093,26,87,32,040,28*62
$GLGSV,3,3,10,88,04,347,37,,,,34*53
$GNGLL,0419.63798,S,05539.99984,E,105735.00,A,D*6A
$GNRMC,105736.00,A,0419.63777,S,05539.99967,E,0.801,325.09,220525,,,D*64
$GNVTG,325.09,T,,M,0.801,N,1.483,K,D*2C
$GNGGA,105736.00,0419.63777,S,05539.99967,E,2,12,0.52,10.9,M,-47.6,M,,0000*42
$GNGSA,A,3,29,10,32,26,23,25,18,24,28,16,31,41,1.02,0.52,0.88*14
$GNGSA,A,3,65,86,87,72,66,76,77,,,,,,1.02,0.52,0.88*1E
$GPGSV,5,1,17,10,32,330,37,16,22,281,30,18,24,041,33,23,15,012,33*7C
$GPGSV,5,2,17,24,06,075,23,25,14,150,32,26,31,251,27,27,12,328,35*70
$GPGSV,5,3,17,28,27,188,31,29,45,131,37,31,14,213,28,32,78,206,40*7B
$GPGSV,5,4,17,36,52,277,39,40,85,353,41,41,58,082,37,49,32,274,*76
$GPGSV,5,5,17,50,10,089,*4A
$GLGSV,3,1,10,65,60,341,38,66,52,231,33,67,02,209,,72,11,018,31*6F
$GLGSV,3,2,10,76,17,180,29,77,17,227,10,86,27,093,35,87,32,040,28*67
$GLGSV,3,3,10,88,04,347,36,,,,34*52
$GNGLL,0419.63777,S,05539.99967,E,105736.00,A,D*65
$GNRMC,105737.00,A,0419.63758,S,05539.99961,E,0.651,332.43,220525,,,D*6D
$GNVTG,332.43,T,,M,0.651,N,1.206,K,D*24
$GNGGA,105737.00,0419.63758,S,05539.99961,E,2,12,0.52,10.9,M,-47.6,M,,0000*48
$GNGSA,A,3,29,10,32,26,23,25,18,24,28,16,31,41,1.02,0.52,0.88*14
$GNGSA,A,3,65,86,87,72,66,76,77,,,,,,1.02,0.52,0.88*1E
$GPGSV,5,1,17,10,32,330,39,16,22,281,30,18,24,041,36,23,15,012,38*7C
$GPGSV,5,2,17,24,06,075,31,25,14,150,30,26,31,251,26,27,12,328,26*72
$GPGSV,5,3,17,28,27,188,34,29,45,131,37,31,14,213,28,32,78,206,40*7E
$GPGSV,5,4,17,36,52,277,37,40,85,353,43,41,58,082,36,49,32,274,*7B
$GPGSV,5,5,17,50,10,089,*4A
$GLGSV,3,1,10,65,60,341,37,66,52,231,29,67,02,209,,72,11,018,30*6A
$GLGSV,3,2,10,76,17,180,29,77,17,227,15,86,27,093,31,87,32,040,28*66
$GLGSV,3,3,10,88,04,347,36,,,,34*52
$GNGLL,0419.63758,S,05539.99961,E,105737.00,A,D*6F
$GNRMC,105738.00,A,0419.63735,S,05539.99949,E,0.940,331.78,220525,,,D*67
$GNVTG,331.78,T,,M,0.940,N,1.742,K,D*25
$GNGGA,105738.00,0419.63735,S,05539.99949,E,2,12,0.52,11.1,M,-47.6,M,,0000*4F
$GNGSA,A,3,29,10,32,26,23,25,18,24,28,16,31,41,1.02,0.52,0.88*14
$GNGSA,A,3,65,86,87,72,66,76,77,,,,,,1.02,0.52,0.88*1E
$GPGSV,5,1,17,10,31,331,34,16,22,281,30,18,24,041,34,23,15,012,33*7A
$GPGSV,5,2,17,24,06,075,29,25,14,150,33,26,31,251,27,27,12,328,35*7B
$GPGSV,5,3,17,28,27,188,34,29,45,131,37,31,14,213,33,32,78,206,40*74
$GPGSV,5,4,17,36,52,277,37,40,85,353,41,41,58,082,36,49,32,274,*79
$GPGSV,5,5,17,50,10,089,*4A
$GLGSV,3,1,10,65,60,341,39,66,52,231,34,67,02,209,,72,11,018,31*69
$GLGSV,3,2,10,76,17,180,30,77,17,227,11,86,27,093,35,87,32,040,27*61
$GLGSV,3,3,10,88,04,347,37,,,,35*52
$GNGLL,0419.63735,S,05539.99949,E,105738.00,A,D*61
$GNRMC,105739.00,A,0419.63719,S,05539.99934,E,0.666,322.81,220525,,,D*6D
$GNVTG,322.81,T,,M,0.666,N,1.234,K,D*2E
$GNGGA,105739.00,0419.63719,S,05539.99934,E,2,12,0.52,11.1,M,-47.6,M,,0000*4A
$GNGSA,A,3,29,10,32,26,23,25,18,24,28,16,31,41,1.02,0.52,0.88*14
$GNGSA,A,3,65,86,87,72,66,76,77,,,,,,1.02,0.52,0.88*1E
$GPGSV,5,1,17,10,31,331,34,16,22,281,27,18,24,041,36,23,15,012,38*75
$GPGSV,5,2,17,24,06,075,22,25,14,150,27,26,31,251,33,27,12,328,32*77
$GPGSV,5,3,17,28,27,188,34,29,45,131,39,31,14,213,26,32,78,206,41*7F
$GPGSV,5,4,17,36,52,277,34,40,85,353,42,41,58,082,36,49,32,274,*79
$GPGSV,5,5,17,50,10,089,*4A
$GLGSV,3,1,10,65,60,341,38,66,52,231,30,67,02,209,,72,11,018,30*6D
$GLGSV,3,2,10,76,17,180,30,77,17,227,12,86,27,093,34,87,32,040,33*66
$GLGSV,3,3,10,88,04,347,37,,,,37*50
$GNGLL,0419.63719,S,05539.99934,E,105739.00,A,D*64
$GNRMC,105740.00,A,0419.63712,S,05539.99934,E,0.254,,220525,,,D*79
$GNVTG,,T,,M,0.254,N,0.470,K,D*38
$GNGGA,105740.00,0419.63712,S,05539.99934,E,2,12,0.52,11.2,M,-47.6,M,,0000*4C
$GNGSA,A,3,29,10,32,26,23,25,18,24,28,16,31,41,1.02,0.52,0.88*14
$GNGSA,A,3,65,86,87,72,66,76,77,,,,,,1.02,0.52,0.88*1E
$GPGSV,5,1,17,10,31,331,39,16,22,281,32,18,24,041,36,23,15,012,34*70
$GPGSV,5,2,17,24,06,075,29,25,14,150,29,26,31,251,32,27,12,328,38*79
$GPGSV,5,3,17,28,27,188,34,29,45,131,41,31,14,213,27,32,78,206,42*72
$GPGSV,5,4,17,36,52,277,38,40,85,353,44,41,58,082,38,49,32,274,*7D
$GPGSV,5,5,17,50,10,089,*4A
$GLGSV,3,1,10,65,60,341,38,66,52,231,34,67,02,209,,72,11,018,31*68
$GLGSV,3,2,10,76,17,180,30,77,17,227,16,86,27,093,31,87,32,040,22*67
$GLGSV,3,3,10,88,04,347,34,,,,32*56
$GNGLL,0419.63712,S,05539.99934,E,105740.00,A,D*61
$GNRMC,105741.00,A,0419.63698,S,05539.99934,E,0.553,332.41,220525,,,D*62
$GNVTG,332.41,T,,M,0.553,N,1.024,K,D*25
$GNGGA,105741.00,0419.63698,S,05539.99934,E,2,12,0.52,11.4,M,-47.6,M,,0000*48
$GNGSA,A,3,29,10,32,26,23,25,18,24,28,16,31,41,1.02,0.52,0.88*14
$GNGSA,A,3,65,86,87,72,66,76,77,,,,,,1.02,0.52,0.88*1E
$GPGSV,5,1,17,10,31,331,36,16,22,281,35,18,24,041,38,23,15,012,34*76
$GPGSV,5,2,17,24,06,075,28,25,14,150,29,26,31,251,36,27,12,328,35*71
$GPGSV,5,3,17,28,27,188,34,29,45,131,40,31,14,213,26,32,78,206,42*72
$GPGSV,5,4,17,36,52,277,41,40,85,353,42,41,58,082,36,49,32,274,*7B
$GPGSV,5,5,17,50,10,089,*4A
$GLGSV,3,1,10,65,60,341,38,66,52,231,31,67,02,209,,72,11,018,32*6E
$GLGSV,3,2,10,76,17,180,29,77,17,227,18,86,27,093,31,87,32,040,32*60
$GLGSV,3,3,10,88,04,347,38,,,,33*5B
$GNGLL,0419.63698,S,05539.99934,E,105741.00,A,D*63
$GNRMC,105742.00,A,0419.63678,S,05539.99915,E,1.001,316.19,220525,,,D*64
$GNVTG,316.19,T,,M,1.001,N,1.853,K,D*25
$GNGGA,105742.00,0419.63678,S,05539.99915,E,2,12,0.52,11.4,M,-47.6,M,,0000*46
$GNGSA,A,3,29,10,32,26,23,25,18,24,28,16,31,41,1.02,0.52,0.88*14
$GNGSA,A,3,65,86,87,72,66,76,77,,,,,,1.02,0.52,0.88*1E
$GPGSV,5,1,17,10,31,331,38,16,22,281,35,18,24,041,40,23,15,012,39*7A
$GPGSV,5,2,17,24,06,075,28,25,14,150,31,26,31,251,35,27,12,328,29*76
$GPGSV,5,3,17,28,27,188,33,29,45,131,41,31,14,213,26,32,78,206,41*77
$GPGSV,5,4,17,36,52,277,37,40,85,353,41,41,58,082,40,49,32,274,*78
$GPGSV,5,5,17,50,10,089,*4A
$GLGSV,3,1,10,65,60,341,39,66,52,231,21,67,02,209,,72,11,018,30*6C
$GLGSV,3,2,10,76,17,180,18,77,17,227,18,86,27,093,34,87,32,040,27*63
$GLGSV,3,3,10,88,04,347,36,,,,29*5E
$GNGLL,0419.63678,S,05539.99915,E,105742.00,A,D*6D
$GNRMC,105743.00,A,0419.63661,S,05539.99906,E,0.569,319.48,220525,,,D*6E
$GNVTG,319.48,T,,M,0.569,N,1.054,K,D*2B
$GNGGA,105743.00,0419.63661,S,05539.99906,E,2,12,0.52,11.5,M,-47.6,M,,0000*4C
$GNGSA,A,3,29,10,32,26,23,25,18,24,28,16,31,41,1.02,0.52,0.88*14
$GNGSA,A,3,65,86,87,72,66,76,77,,,,,,1.02,0.52,0.88*1E
$GPGSV,5,1,17,10,31,331,40,16,22,281,36,18,24,041,38,23,15,012,34*74
$GPGSV,5,2,17,24,06,075,31,25,14,150,32,26,31,251,31,27,12,328,37*76
$GPGSV,5,3,17,28,27,188,35,29,45,131,35,31,14,213,29,32,78,206,42*7E
$GPGSV,5,4,17,36,52,277,41,40,85,353,42,41,58,082,38,49,32,274,*75
$GPGSV,5,5,17,50,10,089,*4A
$GLGSV,3,1,10,65,60,341,35,66,52,231,32,67,02,209,,72,11,018,25*66
$GLGSV,3,2,10,76,17,180,24,77,17,227,19,86,27,093,29,87,32,040,27*61
$GLGSV,3,3,10,88,04,347,35,,,,29*5D
$GNGLL,0419.63661,S,05539.99906,E,105743.00,A,D*66
$GNRMC,105744.00,A,0419.63644,S,05539.99888,E,1.141,307.38,220525,,,D*6E
$GNVTG,307.38,T,,M,1.141,N,2.114,K,D*2A
$GNGGA,105744.00,0419.63644,S,05539.99888,E,2,12,0.52,11.6,M,-47.6,M,,0000*48
$GNGSA,A,3,29,10,32,26,23,25,18,24,28,16,31,41,1.02,0.52,0.88*14
$GNGSA,A,3,65,86,87,72,66,76,77,,,,,,1.02,0.52,0.88*1E
$GPGSV,5,1,17,10,31,331,45,16,22,281,32,18,24,041,41,23,15,012,43*7B
$GPGSV,5,2,17,24,06,075,32,25,14,150,32,26,31,251,31,27,12,328,42*77
$GPGSV,5,3,17,28,27,188,35,29,45,131,42,31,14,213,29,32,78,206,42*7E
$GPGSV,5,4,17,36,52,277,40,40,85,353,43,41,58,082,43,49,32,274,*79
$GPGSV,5,5,17,50,10,089,*4A
$GLGSV,3,1,10,65,60,341,35,66,52,231,31,67,02,209,,72,11,018,28*68
$GLGSV,3,2,10,76,17,180,28,77,17,227,18,86,27,093,30,87,32,040,29*6A
$GLGSV,3,3,10,88,04,347,34,,,,30*54
$GNGLL,0419.63644,S,05539.99888,E,105744.00,A,D*61
$GNRMC,105745.00,A,0419.63621,S,05539.99866,E,1.202,313.98,220525,,,D*67
$GNVTG,313.98,T,,M,1.202,N,2.225,K,D*20
$GNGGA,105745.00,0419.63621,S,05539.99866,E,2,12,0.52,11.4,M,-47.6,M,,0000*48
$GNGSA,A,3,29,10,32,26,23,25,18,24,28,16,31,41,1.02,0.52,0.88*14
$GNGSA,A,3,65,86,87,72,66,76,77,,,,,,1.02,0.52,0.88*1E
$GPGSV,5,1,17,10,31,331,45,16,22,281,34,18,24,041,38,23,15,012,39*7E
$GPGSV,5,2,17,24,06,075,31,25,14,150,35,26,31,251,33,27,12,328,42*71
$GPGSV,5,3,17,28,27,188,36,29,45,131,42,31,14,213,32,32,78,206,42*77
$GPGSV,5,4,17,36,52,277,40,40,85,353,43,41,58,082,42,49,32,274,*78
$GPGSV,5,5,17,50,10,089,*4A
$GLGSV,3,1,10,65,60,341,35,66,52,231,30,67,02,209,,72,11,018,30*60
$GLGSV,3,2,10,76,17,180,27,77,17,227,17,86,27,093,31,87,32,040,28*6A
$GLGSV,3,3,10,88,04,347,33,,,,30*53
$GNGLL,0419.63621,S,05539.99866,E,105745.00,A,D*63
$GNRMC,105746.00,A,0419.63602,S,05539.99849,E,0.768,315.83,220525,,,D*6C
$GNVTG,315.83,T,,M,0.768,N,1.422,K,D*26
$GNGGA,105746.00,0419.63602,S,05539.99849,E,2,12,0.52,11.2,M,-47.6,M,,0000*41
$GNGSA,A,3,29,10,32,26,23,25,18,24,28,16,31,41,1.02,0.52,0.88*14
$GNGSA,A,3,65,86,87,72,66,76,77,,,,,,1.02,0.52,0.88*1E
$GPGSV,5,1,17,10,31,331,44,16,22,281,37,18,24,041,39,23,15,012,41*72
$GPGSV,5,2,17,24,06,075,32,25,14,150,30,26,31,251,33,27,12,328,41*74
$GPGSV,5,3,17,28,27,188,38,29,45,131,42,31,14,213,31,32,78,206,44*7C
$GPGSV,5,4,17,36,52,277,38,40,85,353,44,41,58,082,42,49,32,274,*70
$GPGSV,5,5,17,50,10,089,*4A
$GLGSV,3,1,10,65,60,341,35,66,52,231,31,67,02,209,,72,11,018,35*64
$GLGSV,3,2,10,76,17,180,27,77,17,227,16,86,27,093,31,87,32,040,29*6A
$GLGSV,3,3,10,88,04,347,33,,,,31*52
$GNGLL,0419.63602,S,05539.99849,E,105746.00,A,D*6C
$GNRMC,105747.00,A,0419.63578,S,05539.99833,E,1.113,324.70,220525,,,D*6B
$GNVTG,324.70,T,,M,1.113,N,2.061,K,D*23
$GNGGA,105747.00,0419.63578,S,05539.99833,E,2,12,0.52,11.1,M,-47.6,M,,0000*40
$GNGSA,A,3,29,10,32,26,23,25,18,24,28,16,31,41,1.02,0.52,0.88*14
$GNGSA,A,3,65,86,87,72,66,76,77,,,,,,1.02,0.52,0.88*1E
$GPGSV,5,1,17,10,31,331,45,16,22,281,37,18,24,041,40,23,15,012,43*7F
$GPGSV,5,2,17,24,06,075,32,25,14,150,32,26,31,251,36,27,12,328,40*72
$GPGSV,5,3,17,28,27,188,37,29,45,131,42,31,14,213,30,32,78,206,45*73
$GPGSV,5,4,17,36,52,277,37,40,85,353,44,41,58,082,43,49,32,274,*7E
$GPGSV,5,5,17,50,10,089,*4A
$GLGSV,3,1,10,65,60,341,37,66,52,231,29,67,02,209,,72,11,018,34*6E
$GLGSV,3,2,10,76,17,180,28,77,17,227,14,86,27,093,31,87,32,040,29*67
$GLGSV,3,3,10,88,04,347,34,,,,32*56
$GNGLL,0419.63578,S,05539.99833,E,105747.00,A,D*6E
$GNRMC,105748.00,A,0419.63549,S,05539.99817,E,1.236,329.15,220525,,,D*6A
$GNVTG,329.15,T,,M,1.236,N,2.290,K,D*25
$GNGGA,105748.00,0419.63549,S,05539.99817,E,2,12,0.52,11.0,M,-47.6,M,,0000*4A
$GNGSA,A,3,29,10,32,26,23,25,18,24,28,16,31,41,1.02,0.52,0.88*14
$GNGSA,A,3,65,86,87,72,66,76,77,,,,,,1.02,0.52,0.88*1E
$GPGSV,5,1,17,10,31,331,43,16,22,281,40,18,24,041,40,23,15,012,35*78
$GPGSV,5,2,17,24,06,075,31,25,14,150,32,26,31,251,36,27,12,328,40*71
$GPGSV,5,3,17,28,27,188,37,29,45,131,39,31,14,213,30,32,78,206,44*7E
$GPGSV,5,4,17,36,52,277,39,40,85,353,44,41,58,082,42,49,32,274,*71
$GPGSV,5,5,17,50,10,089,*4A
$GLGSV,3,1,10,65,60,341,37,66,52,231,30,67,02,209,,72,11,018,33*61
$GLGSV,3,2,10,76,17,180,28,77,17,227,13,86,27,093,31,87,32,040,29*60
$GLGSV,3,3,10,88,04,347,34,,,,31*55
$GNGLL,0419.63549,S,05539.99817,E,105748.00,A,D*65
$GNRMC,105749.00,A,0419.63531,S,05539.99812,E,0.359,,220525,,,D*7A
$GNVTG,,T,,M,0.359,N,0.664,K,D*33
$GNGGA,105749.00,0419.63531,S,05539.99812,E,2,12,0.52,10.7,M,-47.6,M,,0000*47
$GNGSA,A,3,29,10,32,26,23,25,18,24,28,16,31,41,1.02,0.52,0.88*14
$GNGSA,A,3,65,86,87,72,66,76,77,,,,,,1.02,0.52,0.88*1E
$GPGSV,5,1,17,10,31,331,41,16,22,281,34,18,24,041,39,23,15,012,40*75
$GPGSV,5,2,17,24,06,075,30,25,14,150,31,26,31,251,35,27,12,328,37*70
$GPGSV,5,3,17,28,27,188,37,29,45,131,40,31,14,213,29,32,78,206,44*78
$GPGSV,5,4,17,36,52,277,40,40,85,353,42,41,58,082,38,49,32,274,*74
$GPGSV,5,5,17,50,10,089,*4A
$GLGSV,3,1,10,65,60,341,37,66,52,231,31,67,02,209,,72,11,018,30*63
$GLGSV,3,2,10,76,17,180,29,77,17,227,14,86,27,093,30,87,32,040,29*67
$GLGSV,3,3,10,88,04,347,34,,,,30*54
$GNGLL,0419.63531,S,05539.99812,E,105749.00,A,D*6E
$GNRMC,105750.00,A,0419.63523,S,05539.99818,E,0.332,,220525,,,D*76
$GNVTG,,T,,M,0.332,N,0.615,K,D*38
$GNGGA,105750.00,0419.63523,S,05539.99818,E,2,12,0.52,10.7,M,-47.6,M,,0000*46
$GNGSA,A,3,29,10,32,26,23,25,18,24,28,16,31,41,1.02,0.52,0.88*14
$GNGSA,A,3,65,86,87,72,66,76,77,,,,,,1.02,0.52,0.88*1E
$GPGSV,5,1,17,10,31,331,45,16,22,281,38,18,24,041,39,23,15,012,39*73
$GPGSV,5,2,17,24,06,075,30,25,14,150,31,26,31,251,39,27,12,328,39*72
$GPGSV,5,3,17,28,27,188,37,29,45,131,42,31,14,213,27,32,78,206,44*74
$GPGSV,5,4,17,36,52,277,40,40,85,353,42,41,58,082,42,49,32,274,*79
$GPGSV,5,5,17,50,10,089,*4A
$GLGSV,3,1,10,65,60,341,36,66,52,231,31,67,02,209,,72,11,018,29*6A
$GLGSV,3,2,10,76,17,180,28,77,17,227,14,86,27,093,30,87,32,040,26*69
$GLGSV,3,3,10,88,04,347,33,,,,28*5A
$GNGLL,0419.63523,S,05539.99818,E,105750.00,A,D*6F
$GNRMC,105751.00,A,0419.63504,S,05539.99810,E,1.034,327.82,220525,,,D*6C
$GNVTG,327.82,T,,M,1.034,N,1.915,K,D*20
$GNGGA,105751.00,0419.63504,S,05539.99810,E,2,12,0.52,11.0,M,-47.6,M,,0000*4C
$GNGSA,A,3,29,10,32,26,23,25,18,24,28,16,31,41,1.02,0.52,0.88*14
$GNGSA,A,3,65,86,87,72,66,76,77,,,,,,1.02,0.52,0.88*1E
$GPGSV,5,1,17,10,31,331,42,16,22,281,35,18,24,041,39,23,15,012,36*76
$GPGSV,5,2,17,24,06,075,30,25,14,150,25,26,31,251,35,27,12,328,37*75
$GPGSV,5,3,17,28,27,188,36,29,45,131,42,31,14,213,26,32,78,206,43*73
$GPGSV,5,4,17,36,52,277,40,40,85,353,44,41,58,082,40,49,32,274,*7D
$GPGSV,5,5,17,50,10,089,*4A
$GLGSV,3,1,10,65,60,341,36,66,52,231,30,67,02,209,,72,11,018,29*6B
$GLGSV,3,2,10,76,17,180,27,77,17,227,14,86,27,093,30,87,32,040,24*64
$GLGSV,3,3,10,88,04,347,38,,,,29*50
$GNGLL,0419.63504,S,05539.99810,E,105751.00,A,D*63
