$GNRMC,105910.00,A,0419.56705,S,05540.05704,E,3.544,1.01,220525,,,D*6F
$GNVTG,1.01,T,,M,3.544,N,6.563,K,D*26
$GNGGA,105910.00,0419.56705,S,05540.05704,E,2,12,0.53,10.6,M,-47.6,M,,0000*45
$GNGSA,A,3,29,10,32,26,23,25,18,24,28,16,31,41,1.05,0.53,0.90*1B
$GNGSA,A,3,65,86,87,72,66,76,77,,,,,,1.05,0.53,0.90*11
$GPGSV,5,1,17,10,31,331,39,16,22,280,35,18,24,042,27,23,14,012,31*71
$GPGSV,5,2,17,24,06,074,33,25,13,150,26,26,31,249,33,27,13,328,33*79
$GPGSV,5,3,17,28,28,187,26,29,44,131,39,31,14,212,22,32,79,207,39*77
$GPGSV,5,4,17,36,52,277,34,40,85,353,40,41,58,082,35,49,32,274,*78
$GPGSV,5,5,17,50,10,089,*4A
$GLGSV,3,1,10,65,59,342,25,66,52,232,27,67,03,209,16,72,10,018,17*6F
$GLGSV,3,2,10,76,17,179,24,77,17,226,19,86,27,093,26,87,32,041,19*65
$GLGSV,3,3,10,88,04,347,30,,,,25*54
$GNGLL,0419.56705,S,05540.05704,E,105910.00,A,D*6C
$GNRMC,105911.00,A,0419.56604,S,05540.05700,E,3.593,357.84,220525,,,D*6D
$GNVTG,357.84,T,,M,3.593,N,6.655,K,D*27
$GNGGA,105911.00,0419.56604,S,05540.05700,E,2,12,0.53,10.5,M,-47.6,M,,0000*43
$GNGSA,A,3,29,10,32,26,23,25,18,24,28,16,31,41,1.05,0.53,0.90*1B
$GNGSA,A,3,65,86,87,72,66,76,77,,,,,,1.05,0.53,0.90*11
$GPGSV,5,1,17,10,31,331,37,16,22,280,35,18,24,042,26,23,14,012,26*78
$GPGSV,5,2,17,24,06,074,30,25,13,150,25,26,31,249,28,27,13,328,36*76
$GPGSV,5,3,17,28,28,187,25,29,44,132,39,31,14,212,25,32,79,207,41*7F
$GPGSV,5,4,17,36,52,277,39,40,85,353,41,41,58,082,38,49,32,274,*79
$GPGSV,5,5,17,50,10,089,*4A
$GLGSV,3,1,10,65,59,342,31,66,52,232,36,67,03,209,15,72,10,018,16*68
$GLGSV,3,2,10,76,17,179,23,77,17,226,20,86,27,093,27,87,32,041,18*68
$GLGSV,3,3,10,88,04,347,29,,,,22*5B
$GNGLL,0419.56604,S,05540.05700,E,105911.00,A,D*69
$GNRMC,105912.00,A,0419.56509,S,05540.05696,E,3.305,356.78,220525,,,D*65
$GNVTG,356.78,T,,M,3.305,N,6.120,K,D*29
$GNGGA,105912.00,0419.56509,S,05540.05696,E,2,12,0.53,10.6,M,-47.6,M,,0000*43
$GNGSA,A,3,29,10,32,26,23,25,18,24,28,16,31,41,1.05,0.53,0.90*1B
$GNGSA,A,3,65,86,87,72,66,76,77,,,,,,1.05,0.53,0.90*11
$GPGSV,5,1,17,10,31,331,41,16,22,280,35,18,24,042,37,23,14,012,31*7F
$GPGSV,5,2,17,24,06,074,24,25,13,150,24,26,31,249,42,27,13,328,40*7F
$GPGSV,5,3,17,28,28,187,26,29,44,132,39,31,14,212,27,32,79,207,44*7B
$GPGSV,5,4,17,36,52,277,39,40,85,353,38,41,58,082,35,49,32,274,*7A
$GPGSV,5,5,17,50,10,089,*4A
$GLGSV,3,1,10,65,59,342,33,66,52,232,36,67,03,209,19,72,10,018,15*65
$GLGSV,3,2,10,76,17,179,19,77,17,226,20,86,27,093,28,87,32,041,29*6C
$GLGSV,3,3,10,88,04,347,29,,,,25*5C
$GNGLL,0419.56509,S,05540.05696,E,105912.00,A,D*6A
$GNRMC,105913.00,A,0419.56433,S,05540.05689,E,2.424,354.47,220525,,,D*69
$GNVTG,354.47,T,,M,2.424,N,4.490,K,D*2E
$GNGGA,105913.00,0419.56433,S,05540.05689,E,2,12,0.53,10.4,M,-47.6,M,,0000*46
$GNGSA,A,3,29,10,32,26,23,25,18,24,28,16,31,41,1.05,0.53,0.90*1B
$GNGSA,A,3,65,86,87,72,66,76,77,,,,,,1.05,0.53,0.90*11
$GPGSV,5,1,17,10,31,331,39,16,22,280,40,18,24,042,35,23,14,012,29*79
$GPGSV,5,2,17,24,06,074,31,25,13,150,30,26,31,249,39,27,13,328,33*76
$GPGSV,5,3,17,28,28,187,31,29,44,132,39,31,14,212,36,32,79,207,45*7C
$GPGSV,5,4,17,36,52,277,42,40,85,353,43,41,58,082,40,49,32,274,*78
$GPGSV,5,5,17,50,10,089,*4A
$GLGSV,3,1,10,65,59,342,34,66,52,232,40,67,03,209,30,72,10,018,16*6B
$GLGSV,3,2,10,76,17,179,19,77,17,226,21,86,27,093,23,87,32,041,31*6F
$GLGSV,3,3,10,88,04,347,22,,,,31*52
$GNGLL,0419.56433,S,05540.05689,E,105913.00,A,D*6D
$GNRMC,105914.00,A,0419.56364,S,05540.05681,E,2.264,351.12,220525,,,D*64
$GNVTG,351.12,T,,M,2.264,N,4.194,K,D*28
$GNGGA,105914.00,0419.56364,S,05540.05681,E,2,12,0.53,10.5,M,-47.6,M,,0000*4D
$GNGSA,A,3,29,10,32,26,23,25,18,24,28,16,31,41,1.05,0.53,0.90*1B
$GNGSA,A,3,65,86,87,72,66,76,77,,,,,,1.05,0.53,0.90*11
$GPGSV,5,1,17,10,31,331,39,16,22,280,38,18,24,042,36,23,14,012,30*7D
$GPGSV,5,2,17,24,06,074,37,25,13,150,19,26,31,249,39,27,13,328,37*7F
$GPGSV,5,3,17,28,28,187,31,29,44,132,37,31,14,212,40,32,79,208,43*7A
$GPGSV,5,4,17,36,52,277,39,40,85,353,42,41,58,082,39,49,32,274,*7B
$GPGSV,5,5,17,50,10,089,*4A
$GLGSV,3,1,10,65,59,342,35,66,52,232,40,67,03,209,35,72,10,018,27*6D
$GLGSV,3,2,10,76,17,179,19,77,17,226,27,86,27,093,31,87,32,041,31*6A
$GLGSV,3,3,10,88,04,347,25,,,,30*54
$GNGLL,0419.56364,S,05540.05681,E,105914.00,A,D*67
$GNRMC,105915.00,A,0419.56303,S,05540.05673,E,2.127,350.17,220525,,,D*69
$GNVTG,350.17,T,,M,2.127,N,3.939,K,D*20
$GNGGA,105915.00,0419.56303,S,05540.05673,E,2,12,0.54,10.7,M,-47.6,M,,0000*45
$GNGSA,A,3,29,10,32,26,23,18,24,28,16,31,41,27,1.05,0.54,0.89*16
$GNGSA,A,3,65,86,87,72,66,76,77,,,,,,1.05,0.54,0.89*1E
$GPGSV,5,1,17,10,31,331,38,16,22,280,40,18,24,042,38,23,14,012,31*7C
$GPGSV,5,2,17,24,06,074,33,25,13,150,25,26,31,249,39,27,13,328,25*77
$GPGSV,5,3,17,28,28,187,31,29,44,132,30,31,14,212,39,32,79,208,43*73
$GPGSV,5,4,17,36,52,277,41,40,85,353,42,41,58,082,38,49,32,274,*75
$GPGSV,5,5,17,50,10,089,*4A
$GLGSV,3,1,10,65,59,342,35,66,52,232,42,67,03,209,38,72,10,018,28*6D
$GLGSV,3,2,10,76,17,179,19,77,17,226,25,86,27,093,35,87,32,041,29*65
$GLGSV,3,3,10,88,04,347,23,,,,34*56
$GNGLL,0419.56303,S,05540.05673,E,105915.00,A,D*6A
$GNRMC,105916.00,A,0419.56247,S,05540.05656,E,2.160,345.79,220525,,,D*63
$GNVTG,345.79,T,,M,2.160,N,4.001,K,D*2A
$GNGGA,105916.00,0419.56247,S,05540.05656,E,2,12,0.54,10.9,M,-47.6,M,,0000*4E
$GNGSA,A,3,29,10,32,26,23,18,24,28,16,31,41,27,1.05,0.54,0.89*16
$GNGSA,A,3,65,86,87,72,66,76,77,,,,,,1.05,0.54,0.89*1E
$GPGSV,5,1,17,10,31,331,26,16,22,280,41,18,24,042,37,23,14,012,38*74
$GPGSV,5,2,17,24,06,074,29,25,13,150,25,26,31,249,41,27,13,328,32*75
$GPGSV,5,3,17,28,28,187,26,29,44,132,33,31,14,212,40,32,79,208,44*7F
$GPGSV,5,4,17,36,52,277,40,40,85,353,43,41,58,082,36,49,32,274,*7B
$GPGSV,5,5,17,50,10,089,*4A
$GLGSV,3,1,10,65,59,342,33,66,52,232,43,67,03,209,38,72,10,018,29*6B
$GLGSV,3,2,10,76,17,179,30,77,17,226,31,86,27,093,34,87,32,041,21*62
$GLGSV,3,3,10,88,04,347,26,,,,32*55
$GNGLL,0419.56247,S,05540.05656,E,105916.00,A,D*6F
$GNRMC,105917.00,A,0419.56187,S,05540.05640,E,2.336,344.84,220525,,,D*68
$GNVTG,344.84,T,,M,2.336,N,4.326,K,D*2E
$GNGGA,105917.00,0419.56187,S,05540.05640,E,2,12,0.52,11.0,M,-47.6,M,,0000*49
$GNGSA,A,3,29,10,32,26,23,25,18,24,28,16,31,41,1.02,0.52,0.88*14
$GNGSA,A,3,65,86,87,72,66,76,77,,,,,,1.02,0.52,0.88*1E
$GPGSV,5,1,17,10,31,331,31,16,22,280,39,18,24,042,37,23,14,012,36*73
$GPGSV,5,2,17,24,06,074,29,25,13,150,25,26,31,249,37,27,13,328,31*77
$GPGSV,5,3,17,28,28,187,33,29,44,132,33,31,14,212,42,32,79,208,42*7F
$GPGSV,5,4,17,36,52,277,41,40,85,353,42,41,58,082,34,49,32,274,*79
$GPGSV,5,5,17,50,10,089,*4A
$GLGSV,3,1,10,65,59,342,33,66,52,232,40,67,03,209,39,72,10,018,29*69
$GLGSV,3,2,10,76,17,179,31,77,17,226,31,86,27,093,30,87,32,041,30*67
$GLGSV,3,3,10,88,04,347,29,,,,24*5D
$GNGLL,0419.56187,S,05540.05640,E,105917.00,A,D*66
$GNRMC,105918.00,A,0419.56127,S,05540.05629,E,2.150,345.92,220525,,,D*66
$GNVTG,345.92,T,,M,2.150,N,3.981,K,D*2A
$GNGGA,105918.00,0419.56127,S,05540.05629,E,2,12,0.52,11.0,M,-47.6,M,,0000*43
$GNGSA,A,3,29,10,32,26,23,25,18,24,28,16,31,41,1.02,0.52,0.88*14
$GNGSA,A,3,65,86,87,72,66,76,77,,,,,,1.02,0.52,0.88*1E
$GPGSV,5,1,17,10,31,331,38,16,22,280,39,18,24,042,41,23,14,012,35*78
$GPGSV,5,2,17,24,06,074,28,25,13,150,23,26,31,249,39,27,13,328,24*7A
$GPGSV,5,3,17,28,28,187,34,29,44,132,31,31,14,212,33,32,79,208,43*7D
$GPGSV,5,4,17,36,52,277,38,40,85,353,42,41,58,082,37,49,32,274,*74
$GPGSV,5,5,17,50,10,089,*4A
$GLGSV,3,1,10,65,59,342,32,66,52,232,40,67,03,209,30,72,10,018,28*60
$GLGSV,3,2,10,76,17,179,24,77,17,226,25,86,27,093,30,87,32,041,34*62
$GLGSV,3,3,10,88,04,347,33,,,,31*52
$GNGLL,0419.56127,S,05540.05629,E,105918.00,A,D*6C
$GNRMC,105919.00,A,0419.56085,S,05540.05616,E,1.441,343.40,220525,,,D*6D
$GNVTG,343.40,T,,M,1.441,N,2.668,K,D*2C
$GNGGA,105919.00,0419.56085,S,05540.05616,E,2,12,0.52,10.9,M,-47.6,M,,0000*4F
$GNGSA,A,3,29,10,32,26,23,25,18,24,28,16,31,41,1.02,0.52,0.88*14
$GNGSA,A,3,65,86,87,72,66,76,77,,,,,,1.02,0.52,0.88*1E
$GPGSV,5,1,17,10,31,331,32,16,22,280,37,18,24,042,40,23,14,012,35*7D
$GPGSV,5,2,17,24,06,074,26,25,13,150,29,26,31,249,30,27,13,328,22*71
$GPGSV,5,3,17,28,28,187,37,29,44,132,35,31,14,212,40,32,79,208,43*7E
$GPGSV,5,4,17,36,52,277,40,40,85,353,43,41,58,082,35,49,32,274,*78
$GPGSV,5,5,17,50,10,089,*4A
$GLGSV,3,1,10,65,59,342,28,66,52,232,43,67,03,209,36,72,10,018,26*60
$GLGSV,3,2,10,76,17,179,34,77,17,226,25,86,27,093,28,87,32,041,30*6E
$GLGSV,3,3,10,88,04,347,31,,,,25*55
$GNGLL,0419.56085,S,05540.05616,E,105919.00,A,D*68
$GNRMC,105920.00,A,0419.56045,S,05540.05597,E,1.760,336.29,220525,,,D*6C
$GNVTG,336.29,T,,M,1.760,N,3.260,K,D*2C
$GNGGA,105920.00,0419.56045,S,05540.05597,E,2,12,0.52,10.9,M,-47.6,M,,0000*43
$GNGSA,A,3,29,10,32,26,23,25,18,24,28,16,31,41,1.02,0.52,0.88*14
$GNGSA,A,3,65,86,87,72,66,76,77,,,,,,1.02,0.52,0.88*1E
$GPGSV,5,1,17,10,31,331,39,16,22,280,39,18,24,042,40,23,14,012,36*7B
$GPGSV,5,2,17,24,06,074,26,25,13,150,27,26,31,249,33,27,13,328,34*7B
$GPGSV,5,3,17,28,28,187,37,29,44,132,37,31,14,212,38,32,79,208,43*73
$GPGSV,5,4,17,36,52,277,37,40,85,353,45,41,58,082,35,49,32,274,*7E
$GPGSV,5,5,17,50,10,089,*4A
$GLGSV,3,1,10,65,59,342,34,66,52,232,43,67,03,209,32,72,10,018,27*68
$GLGSV,3,2,10,76,17,179,34,77,17,226,28,86,27,093,28,87,32,041,30*63
$GLGSV,3,3,10,88,04,347,31,,,,33*52
$GNGLL,0419.56045,S,05540.05597,E,105920.00,A,D*64
$GNRMC,105921.00,A,0419.56001,S,05540.05571,E,1.972,330.93,220525,,,D*6F
$GNVTG,330.93,T,,M,1.972,N,3.653,K,D*22
$GNGGA,105921.00,0419.56001,S,05540.05571,E,2,12,0.53,10.8,M,-47.6,M,,0000*4A
$GNGSA,A,3,29,10,32,26,23,25,18,24,28,16,31,41,1.09,0.53,0.95*12
$GNGSA,A,3,65,86,87,72,66,76,77,,,,,,1.09,0.53,0.95*18
$GPGSV,5,1,17,10,31,331,39,16,22,280,38,18,24,042,38,23,14,012,38*7B
$GPGSV,5,2,17,24,06,074,24,25,13,150,30,26,31,249,36,27,13,328,34*7A
$GPGSV,5,3,17,28,28,187,38,29,44,132,35,31,14,212,35,32,79,208,43*73
$GPGSV,5,4,17,36,52,277,37,40,85,353,42,41,58,082,31,49,32,274,*7D
$GPGSV,5,5,17,50,10,089,*4A
$GLGSV,3,1,10,65,59,342,31,66,52,232,43,67,03,209,37,72,10,018,27*68
$GLGSV,3,2,10,76,17,179,34,77,17,226,28,86,27,093,27,87,32,041,32*6E
$GLGSV,3,3,10,88,04,347,31,,,,27*57
$GNGLL,0419.56001,S,05540.05571,E,105921.00,A,D*6D
$GNRMC,105922.00,A,0419.55964,S,05540.05546,E,1.504,329.01,220525,,,D*6F
$GNVTG,329.01,T,,M,1.504,N,2.786,K,D*24
$GNGGA,105922.00,0419.55964,S,05540.05546,E,2,12,0.53,10.5,M,-47.6,M,,0000*49
$GNGSA,A,3,29,10,32,26,23,25,18,24,28,16,31,41,1.09,0.53,0.95*12
$GNGSA,A,3,65,86,87,72,66,76,77,,,,,,1.09,0.53,0.95*18
$GPGSV,5,1,17,10,31,331,35,16,22,280,39,18,24,042,38,23,14,012,39*77
$GPGSV,5,2,17,24,06,074,21,25,13,150,34,26,31,249,38,27,13,328,40*76
$GPGSV,5,3,17,28,28,187,41,29,44,132,26,31,14,212,27,32,79,208,44*7B
$GPGSV,5,4,17,36,52,277,39,40,85,353,43,41,58,082,33,49,32,274,*70
$GPGSV,5,5,17,50,10,089,*4A
$GLGSV,3,1,10,65,59,342,33,66,52,232,42,67,03,209,36,72,10,018,27*6A
$GLGSV,3,2,10,76,17,179,35,77,17,226,33,86,27,093,24,87,32,041,31*65
$GLGSV,3,3,10,88,04,347,25,,,,29*5C
$GNGLL,0419.55964,S,05540.05546,E,105922.00,A,D*63
$GNRMC,105923.00,A,0419.55939,S,05540.05519,E,1.446,316.16,220525,,,D*61
$GNVTG,316.16,T,,M,1.446,N,2.678,K,D*29
$GNGGA,105923.00,0419.55939,S,05540.05519,E,2,12,0.52,10.5,M,-47.6,M,,0000*4B
$GNGSA,A,3,29,10,32,26,23,25,18,24,28,16,31,41,1.02,0.52,0.88*14
$GNGSA,A,3,65,86,87,72,66,76,77,,,,,,1.02,0.52,0.88*1E
$GPGSV,5,1,17,10,31,331,37,16,22,280,37,18,24,042,35,23,14,012,37*78
$GPGSV,5,2,17,24,06,074,20,25,13,150,30,26,31,249,36,27,13,328,41*7C
$GPGSV,5,3,17,28,28,187,38,29,44,132,38,31,14,212,40,32,79,208,44*7B
$GPGSV,5,4,17,36,52,277,38,40,85,353,44,41,58,082,32,49,32,274,*77
$GPGSV,5,5,17,50,10,089,*4A
$GLGSV,3,1,10,65,59,342,33,66,52,232,42,67,03,209,35,72,10,018,27*69
$GLGSV,3,2,10,76,17,179,39,77,17,226,28,86,27,093,20,87,32,041,30*66
$GLGSV,3,3,10,88,04,347,26,,,,28*5E
$GNGLL,0419.55939,S,05540.05519,E,105923.00,A,D*60
$GNRMC,105924.00,A,0419.55902,S,05540.05483,E,2.258,314.98,220525,,,D*62
$GNVTG,314.98,T,,M,2.258,N,4.182,K,D*23
$GNGGA,105924.00,0419.55902,S,05540.05483,E,2,12,0.52,10.7,M,-47.6,M,,0000*44
$GNGSA,A,3,29,10,32,26,23,25,18,24,28,16,31,41,1.02,0.52,0.88*14
$GNGSA,A,3,65,86,87,72,66,76,77,,,,,,1.02,0.52,0.88*1E
$GPGSV,5,1,17,10,31,331,36,16,22,280,34,18,24,042,38,23,14,012,39*79
$GPGSV,5,2,17,24,06,074,20,25,13,150,33,26,31,249,38,27,13,328,34*73
$GPGSV,5,3,17,28,28,187,38,29,44,132,40,31,14,212,38,32,79,208,43*7C
$GPGSV,5,4,17,36,52,277,40,40,85,353,44,41,58,082,36,49,32,274,*7C
$GPGSV,5,5,17,50,10,089,*4A
$GLGSV,3,1,10,65,59,342,33,66,52,232,42,67,03,209,33,72,10,018,28*60
$GLGSV,3,2,10,76,17,179,29,77,17,226,28,86,27,093,19,87,32,041,29*65
$GLGSV,3,3,10,88,04,347,27,,,,29*5E
$GNGLL,0419.55902,S,05540.05483,E,105924.00,A,D*6D
$GNRMC,105925.00,A,0419.55865,S,05540.05445,E,1.933,313.78,220525,,,D*65
$GNVTG,313.78,T,,M,1.933,N,3.581,K,D*2F
$GNGGA,105925.00,0419.55865,S,05540.05445,E,2,12,0.52,10.6,M,-47.6,M,,0000*4E
$GNGSA,A,3,29,10,32,26,23,25,18,24,28,16,31,41,1.02,0.52,0.88*14
$GNGSA,A,3,65,86,87,72,66,76,77,,,,,,1.02,0.52,0.88*1E
$GPGSV,5,1,17,10,31,331,39,16,22,280,38,18,24,042,34,23,14,012,38*77
$GPGSV,5,2,17,24,06,074,18,25,13,150,39,26,31,249,33,27,13,328,37*7A
$GPGSV,5,3,17,28,28,187,31,29,44,132,44,31,14,212,39,32,79,208,44*77
$GPGSV,5,4,17,36,52,277,38,40,85,353,43,41,58,082,36,49,32,274,*74
$GPGSV,5,5,17,50,10,089,*4A
$GLGSV,3,1,10,65,59,342,33,66,52,232,40,67,03,209,35,72,10,018,27*6B
$GLGSV,3,2,10,76,17,179,27,77,17,226,19,86,27,093,20,87,32,041,30*6B
$GLGSV,3,3,10,88,04,347,25,,,,26*53
$GNGLL,0419.55865,S,05540.05445,E,105925.00,A,D*66
$GNRMC,105926.00,A,0419.55835,S,05540.05409,E,1.659,311.63,220525,,,D*60
$GNVTG,311.63,T,,M,1.659,N,3.072,K,D*2D
$GNGGA,105926.00,0419.55835,S,05540.05409,E,2,12,0.55,10.5,M,-47.6,M,,0000*44
$GNGSA,A,3,29,10,32,26,23,25,18,24,28,16,31,41,1.12,0.55,0.97*1C
$GNGSA,A,3,65,86,87,72,66,76,77,,,,,,1.12,0.55,0.97*16
$GPGSV,5,1,17,10,31,331,37,16,22,280,34,18,24,042,32,23,14,012,35*7E
$GPGSV,5,2,17,24,06,074,21,25,13,150,36,26,31,249,35,27,13,328,37*79
$GPGSV,5,3,17,28,28,187,37,29,44,132,41,31,14,212,28,32,79,208,43*73
$GPGSV,5,4,17,36,52,277,37,40,85,353,43,41,58,082,33,49,32,274,*7E
$GPGSV,5,5,17,50,10,089,*4A
$GLGSV,3,1,10,65,59,342,32,66,52,232,38,67,03,209,34,72,10,018,26*65
$GLGSV,3,2,10,76,17,179,29,77,17,226,23,86,27,093,20,87,32,041,30*6C
$GLGSV,3,3,10,88,04,347,26,,,,26*50
$GNGLL,0419.55835,S,05540.05409,E,105926.00,A,D*68
$GNRMC,105927.00,A,0419.55815,S,05540.05373,E,1.444,302.47,220525,,,D*63
$GNVTG,302.47,T,,M,1.444,N,2.675,K,D*27
$GNGGA,105927.00,0419.55815,S,05540.05373,E,2,12,0.55,10.5,M,-47.6,M,,0000*4D
$GNGSA,A,3,29,10,32,26,23,25,18,24,28,16,31,41,1.12,0.55,0.97*1C
$GNGSA,A,3,65,86,87,72,66,76,77,,,,,,1.12,0.55,0.97*16
$GPGSV,5,1,17,10,31,331,42,16,22,280,37,18,24,042,36,23,14,012,38*76
$GPGSV,5,2,17,24,06,074,24,25,13,150,42,26,31,249,38,27,13,328,42*70
$GPGSV,5,3,17,28,28,187,34,29,44,132,46,31,14,212,40,32,79,208,46*7C
$GPGSV,5,4,17,36,52,277,38,40,85,353,45,41,58,082,38,49,32,274,*7C
$GPGSV,5,5,17,50,10,089,*4A
$GLGSV,3,1,10,65,59,342,34,66,52,232,38,67,03,209,34,72,10,018,24*61
$GLGSV,3,2,10,76,17,179,29,77,17,226,27,86,27,093,20,87,32,041,28*61
$GLGSV,3,3,10,88,04,347,25,,,,22*57
$GNGLL,0419.55815,S,05540.05373,E,105927.00,A,D*61
$GNRMC,105928.00,A,0419.55796,S,05540.05335,E,1.654,297.26,220525,,,D*63
$GNVTG,297.26,T,,M,1.654,N,3.063,K,D*2E
$GNGGA,105928.00,0419.55796,S,05540.05335,E,2,12,0.56,10.5,M,-47.6,M,,0000*47
$GNGSA,A,3,29,10,32,26,23,25,18,28,16,31,41,27,1.11,0.56,0.96*1E
$GNGSA,A,3,65,86,87,72,66,76,77,,,,,,1.11,0.56,0.96*17
$GPGSV,5,1,17,10,31,331,43,16,22,280,37,18,24,042,37,23,14,012,37*79
$GPGSV,5,2,17,24,06,074,,25,13,150,36,26,31,249,36,27,13,328,38*76
$GPGSV,5,3,17,28,28,187,40,29,44,132,45,31,14,212,36,32,79,208,48*73
$GPGSV,5,4,17,36,52,277,40,40,85,353,45,41,58,082,38,49,32,274,*73
$GPGSV,5,5,17,50,10,089,*4A
$GLGSV,3,1,10,65,59,342,37,66,52,232,38,67,03,209,32,72,10,018,18*6B
$GLGSV,3,2,10,76,17,179,34,77,17,226,27,86,27,093,25,87,32,041,25*65
$GLGSV,3,3,10,88,04,347,25,,,,15*53
$GNGLL,0419.55796,S,05540.05335,E,105928.00,A,D*68
$GNRMC,105929.00,A,0419.55772,S,05540.05291,E,2.027,298.97,220525,,,D*63
$GNVTG,298.97,T,,M,2.027,N,3.755,K,D*28
$GNGGA,105929.00,0419.55772,S,05540.05291,E,2,12,0.56,10.8,M,-47.6,M,,0000*4E
$GNGSA,A,3,29,10,32,26,23,25,18,28,16,31,41,27,1.11,0.56,0.96*1E
$GNGSA,A,3,65,86,87,72,66,76,77,,,,,,1.11,0.56,0.96*17
$GPGSV,5,1,17,10,31,331,43,16,22,280,41,18,24,042,34,23,14,012,35*79
$GPGSV,5,2,17,24,06,074,25,25,13,150,35,26,31,249,34,27,13,328,34*7C
$GPGSV,5,3,17,28,28,187,40,29,44,132,46,31,14,212,36,32,79,208,46*7E
$GPGSV,5,4,17,36,52,277,40,40,85,353,44,41,58,082,38,49,32,274,*72
$GPGSV,5,5,17,50,10,089,*4A
$GLGSV,3,1,09,65,59,342,35,66,52,232,39,67,03,209,32,72,10,018,19*61
$GLGSV,3,2,09,76,17,179,34,77,17,226,29,86,27,093,28,87,32,041,25*6E
$GLGSV,3,3,09,88,04,347,25*5F
$GNGLL,0419.55772,S,05540.05291,E,105929.00,A,D*6C
$GNRMC,105930.00,A,0419.55742,S,05540.05245,E,2.149,302.26,220525,,,D*60
$GNVTG,302.26,T,,M,2.149,N,3.979,K,D*29
$GNGGA,105930.00,0419.55742,S,05540.05245,E,2,12,0.57,10.5,M,-47.6,M,,0000*40
$GNGSA,A,3,29,10,32,26,23,25,18,28,16,31,27,,1.17,0.57,1.02*10
$GNGSA,A,3,65,86,87,72,66,76,77,,,,,,1.17,0.57,1.02*1C
$GPGSV,5,1,17,10,31,331,43,16,22,280,30,18,24,042,25,23,14,012,28*73
$GPGSV,5,2,17,24,06,074,28,25,13,150,29,26,31,249,38,27,13,328,40*73
$GPGSV,5,3,17,28,28,187,44,29,44,132,45,31,14,212,36,32,79,208,46*79
$GPGSV,5,4,17,36,52,277,40,40,85,353,44,41,58,082,,49,32,274,*79
$GPGSV,5,5,17,50,10,089,*4A
$GLGSV,3,1,09,65,59,342,31,66,52,232,39,67,03,209,31,72,10,018,18*67
$GLGSV,3,2,09,76,17,179,37,77,17,226,30,86,27,093,30,87,32,041,23*6A
$GLGSV,3,3,09,88,04,347,26*5C
$GNGLL,0419.55742,S,05540.05245,E,105930.00,A,D*6E
$GNRMC,105931.00,A,0419.55719,S,05540.05205,E,1.503,300.70,220525,,,D*63
$GNVTG,300.70,T,,M,1.503,N,2.784,K,D*2C
$GNGGA,105931.00,0419.55719,S,05540.05205,E,2,12,0.54,10.5,M,-47.6,M,,0000*48
$GNGSA,A,3,29,10,32,26,23,25,18,24,28,16,31,27,1.12,0.54,0.98*12
$GNGSA,A,3,65,86,87,66,76,77,,,,,,,1.12,0.54,0.98*1D
$GPGSV,5,1,17,10,31,331,45,16,22,280,31,18,24,042,26,23,14,012,27*78
$GPGSV,5,2,17,24,06,074,31,25,13,150,36,26,31,249,35,27,13,328,38*77
$GPGSV,5,3,17,28,28,187,42,29,44,132,44,31,14,212,39,32,79,208,45*72
$GPGSV,5,4,17,36,52,277,40,40,85,353,44,41,58,082,32,49,32,274,*78
$GPGSV,5,5,17,50,10,089,*4A
$GLGSV,3,1,09,65,59,342,32,66,52,232,39,67,03,209,31,72,10,018,*6D
$GLGSV,3,2,09,76,17,179,34,77,17,226,32,86,27,093,35,87,32,041,21*6C
$GLGSV,3,3,09,88,04,347,24*5E
$GNGLL,0419.55719,S,05540.05205,E,105931.00,A,D*65
$GNRMC,105932.00,A,0419.55707,S,05540.05173,E,1.281,295.03,220525,,,D*69
$GNVTG,295.03,T,,M,1.281,N,2.373,K,D*24
$GNGGA,105932.00,0419.55707,S,05540.05173,E,2,12,0.54,10.3,M,-47.6,M,,0000*40
$GNGSA,A,3,29,10,32,26,23,25,18,24,28,16,31,41,1.12,0.54,0.98*12
$GNGSA,A,3,65,86,87,66,76,77,,,,,,,1.12,0.54,0.98*1D
$GPGSV,5,1,17,10,31,331,44,16,22,280,38,18,24,042,33,23,14,012,28*7B
$GPGSV,5,2,17,24,06,074,32,25,13,150,39,26,31,249,36,27,13,328,37*77
$GPGSV,5,3,17,28,28,187,38,29,44,132,44,31,14,212,37,32,79,208,46*72
$GPGSV,5,4,17,36,52,277,38,40,85,353,45,41,58,082,42,49,32,274,*71
$GPGSV,5,5,17,50,10,089,*4A
$GLGSV,3,1,09,65,59,342,32,66,52,232,38,67,03,209,30,72,10,018,*6D
$GLGSV,3,2,09,76,17,179,35,77,17,226,31,86,27,093,31,87,32,041,22*69
$GLGSV,3,3,09,88,04,347,21*5B
$GNGLL,0419.55707,S,05540.05173,E,105932.00,A,D*6B
$GNRMC,105933.00,A,0419.55696,S,05540.05143,E,1.186,292.76,220525,,,D*63
$GNVTG,292.76,T,,M,1.186,N,2.196,K,D*2C
$GNGGA,105933.00,0419.55696,S,05540.05143,E,2,12,0.54,10.2,M,-47.6,M,,0000*4A
$GNGSA,A,3,29,10,32,26,23,25,18,24,28,16,31,41,1.12,0.54,0.98*12
$GNGSA,A,3,65,86,87,66,76,77,,,,,,,1.12,0.54,0.98*1D
$GPGSV,5,1,17,10,31,331,42,16,22,280,30,18,24,042,26,23,14,012,29*70
$GPGSV,5,2,17,24,06,074,32,25,13,150,35,26,31,249,38,27,13,328,36*74
$GPGSV,5,3,17,28,28,187,41,29,44,132,44,31,14,212,40,32,79,208,45*7F
$GPGSV,5,4,17,36,52,277,38,40,85,353,45,41,58,082,40,49,32,274,*73
$GPGSV,5,5,17,50,10,089,*4A
$GLGSV,3,1,09,65,59,342,32,66,52,232,35,67,03,209,29,72,10,018,*68
$GLGSV,3,2,09,76,17,179,38,77,17,226,31,86,27,093,31,87,32,041,20*66
$GLGSV,3,3,09,88,04,347,18*51
$GNGLL,0419.55696,S,05540.05143,E,105933.00,A,D*60
$GNRMC,105934.00,A,0419.55688,S,05540.05119,E,0.886,288.80,220525,,,D*6E
$GNVTG,288.80,T,,M,0.886,N,1.641,K,D*28
$GNGGA,105934.00,0419.55688,S,05540.05119,E,2,12,0.53,10.0,M,-47.6,M,,0000*48
$GNGSA,A,3,29,10,32,26,23,25,18,24,28,16,31,41,1.05,0.53,0.90*1B
$GNGSA,A,3,65,86,87,66,76,77,,,,,,,1.05,0.53,0.90*14
$GPGSV,5,1,17,10,31,331,42,16,22,280,38,18,24,042,29,23,14,012,29*77
$GPGSV,5,2,17,24,06,074,32,25,13,150,38,26,31,249,37,27,13,328,34*74
$GPGSV,5,3,17,28,28,187,40,29,44,132,43,31,14,212,41,32,79,208,47*7A
$GPGSV,5,4,17,36,52,277,39,40,85,353,45,41,58,082,38,49,32,274,*7D
$GPGSV,5,5,17,50,10,089,*4A
$GLGSV,3,1,09,65,59,342,32,66,52,232,37,67,03,209,30,72,10,018,*62
$GLGSV,3,2,09,76,17,179,29,77,17,226,30,86,27,093,32,87,32,041,22*66
$GLGSV,3,3,09,88,04,347,16*5F
$GNGLL,0419.55688,S,05540.05119,E,105934.00,A,D*67
$GNRMC,105935.00,A,0419.55690,S,05540.05092,E,1.036,272.84,220525,,,D*67
$GNVTG,272.84,T,,M,1.036,N,1.919,K,D*29
$GNGGA,105935.00,0419.55690,S,05540.05092,E,2,12,0.53,9.9,M,-47.6,M,,0000*73
$GNGSA,A,3,29,10,32,26,23,25,18,24,28,16,31,41,1.05,0.53,0.90*1B
$GNGSA,A,3,65,86,87,66,76,77,,,,,,,1.05,0.53,0.90*14
$GPGSV,5,1,17,10,31,331,41,16,22,280,33,18,24,042,30,23,14,012,29*77
$GPGSV,5,2,17,24,06,074,34,25,13,150,39,26,31,249,35,27,13,328,32*77
$GPGSV,5,3,17,28,28,187,40,29,44,132,44,31,14,212,39,32,79,208,46*73
$GPGSV,5,4,17,36,52,277,36,40,85,353,45,41,58,082,37,49,32,274,*7D
$GPGSV,5,5,17,50,10,089,*4A
$GLGSV,3,1,09,65,58,342,31,66,52,232,38,67,03,209,30,72,10,018,*6F
$GLGSV,3,2,09,76,17,179,28,77,17,226,29,86,27,093,31,87,32,041,23*6D
$GLGSV,3,3,09,88,04,347,*58
$GNGLL,0419.55690,S,05540.05092,E,105935.00,A,D*6D
$GNRMC,105936.00,A,0419.55688,S,05540.05066,E,0.934,275.70,220525,,,D*60
$GNVTG,275.70,T,,M,0.934,N,1.729,K,D*22
$GNGGA,105936.00,0419.55688,S,05540.05066,E,2,12,0.53,10.0,M,-47.6,M,,0000*43
$GNGSA,A,3,29,10,32,26,23,25,18,24,28,16,31,41,1.05,0.53,0.90*1B
$GNGSA,A,3,65,86,87,66,76,77,,,,,,,1.05,0.53,0.90*14
$GPGSV,5,1,17,10,31,331,41,16,22,280,35,18,24,042,28,23,14,012,29*78
$GPGSV,5,2,17,24,06,074,32,25,13,150,38,26,31,249,36,27,13,328,37*76
$GPGSV,5,3,17,28,28,187,39,29,44,132,44,31,14,212,38,32,79,208,45*7F
$GPGSV,5,4,17,36,52,277,35,40,85,353,45,41,58,082,38,49,32,274,*71
$GPGSV,5,5,17,50,10,089,*4A
$GLGSV,3,1,09,65,58,342,31,66,53,233,36,67,03,209,29,72,10,018,*69
$GLGSV,3,2,09,76,17,179,28,77,17,226,28,86,27,093,35,87,32,041,22*69
$GLGSV,3,3,09,88,04,347,*58
$GNGLL,0419.55688,S,05540.05066,E,105936.00,A,D*6C
$GNRMC,105937.00,A,0419.55676,S,05540.05041,E,0.985,288.64,220525,,,D*68
$GNVTG,288.64,T,,M,0.985,N,1.824,K,D*2D
$GNGGA,105937.00,0419.55676,S,05540.05041,E,2,12,0.53,10.1,M,-47.6,M,,0000*47
$GNGSA,A,3,29,10,32,26,23,25,18,24,28,16,31,41,1.05,0.53,0.90*1B
$GNGSA,A,3,65,86,87,66,76,77,,,,,,,1.05,0.53,0.90*14
$GPGSV,5,1,17,10,31,331,41,16,22,280,30,18,24,042,35,23,14,012,30*79
$GPGSV,5,2,17,24,06,074,32,25,13,150,40,26,31,249,36,27,13,328,32*7C
$GPGSV,5,3,17,28,28,187,39,29,44,132,45,31,14,212,39,32,79,208,45*7F
$GPGSV,5,4,17,36,52,277,38,40,85,353,45,41,58,082,39,49,32,274,*7D
$GPGSV,5,5,17,50,10,089,*4A
$GLGSV,3,1,09,65,58,342,31,66,53,233,36,67,03,210,28,72,10,018,*60
$GLGSV,3,2,09,76,17,179,27,77,17,226,28,86,27,093,29,87,32,041,23*6A
$GLGSV,3,3,09,88,04,347,*58
$GNGLL,0419.55676,S,05540.05041,E,105937.00,A,D*69
$GNRMC,105938.00,A,0419.55664,S,05540.05013,E,1.133,291.56,220525,,,D*6E
$GNVTG,291.56,T,,M,1.133,N,2.099,K,D*2D
$GNGGA,105938.00,0419.55664,S,05540.05013,E,2,12,0.53,10.0,M,-47.6,M,,0000*4D
$GNGSA,A,3,29,10,32,26,23,25,18,24,28,16,31,41,1.05,0.53,0.90*1B
$GNGSA,A,3,65,86,87,66,76,77,,,,,,,1.05,0.53,0.90*14
$GPGSV,5,1,17,10,31,331,42,16,22,280,34,18,24,042,33,23,14,012,30*78
$GPGSV,5,2,17,24,06,074,33,25,13,150,37,26,31,249,32,27,13,328,32*79
$GPGSV,5,3,17,28,28,187,39,29,44,132,44,31,14,212,38,32,79,208,45*7F
$GPGSV,5,4,17,36,52,277,37,40,85,353,45,41,58,082,39,49,32,274,*72
$GPGSV,5,5,17,50,10,089,*4A
$GLGSV,3,1,09,65,58,342,31,66,53,233,36,67,03,210,27,72,10,018,*6F
$GLGSV,3,2,09,76,17,179,27,77,17,226,27,86,27,093,32,87,32,041,23*6F
$GLGSV,3,3,09,88,04,347,*58
$GNGLL,0419.55664,S,05540.05013,E,105938.00,A,D*62
$GNRMC,105939.00,A,0419.55649,S,05540.04980,E,1.394,296.07,220525,,,D*6E
$GNVTG,296.07,T,,M,1.394,N,2.582,K,D*2E
$GNGGA,105939.00,0419.55649,S,05540.04980,E,2,12,0.53,10.1,M,-47.6,M,,0000*40
$GNGSA,A,3,29,10,32,26,23,25,18,24,28,16,31,41,1.05,0.53,0.90*1B
$GNGSA,A,3,65,86,87,66,76,77,,,,,,,1.05,0.53,0.90*14
$GPGSV,5,1,17,10,31,331,39,16,22,280,32,18,24,042,28,23,14,012,28*71
$GPGSV,5,2,17,24,06,074,33,25,13,150,27,26,31,249,36,27,13,328,31*7F
$GPGSV,5,3,17,28,28,187,37,29,44,132,42,31,14,212,34,32,79,208,43*7D
$GPGSV,5,4,17,36,52,277,34,40,85,353,42,41,58,082,29,49,32,274,*77
$GPGSV,5,5,17,50,10,089,*4A
$GLGSV,3,1,09,65,58,342,33,66,53,233,35,67,03,210,26,72,10,018,*6F
$GLGSV,3,2,09,76,17,179,34,77,17,226,23,86,27,093,35,87,32,041,23*6E
$GLGSV,3,3,09,88,04,347,16*5F
$GNGLL,0419.55649,S,05540.04980,E,105939.00,A,D*6E
$GNRMC,105940.00,A,0419.55634,S,05540.04957,E,0.735,299.26,220525,,,D*62
$GNVTG,299.26,T,,M,0.735,N,1.362,K,D*27
$GNGGA,105940.00,0419.55634,S,05540.04957,E,2,12,0.53,9.8,M,-47.6,M,,0000*7F
$GNGSA,A,3,29,10,32,26,23,25,18,24,28,16,31,41,1.05,0.53,0.90*1B
$GNGSA,A,3,65,86,87,66,76,77,,,,,,,1.05,0.53,0.90*14
$GPGSV,5,1,17,10,31,331,40,16,22,280,35,18,24,042,27,23,14,012,29*76
$GPGSV,5,2,17,24,06,074,34,25,13,150,32,26,31,249,35,27,13,328,31*7F
$GPGSV,5,3,17,28,28,187,37,29,44,132,44,31,14,212,38,32,79,208,43*77
$GPGSV,5,4,17,36,52,277,36,40,85,353,42,41,58,082,37,49,32,274,*7A
$GPGSV,5,5,17,50,10,089,*4A
$GLGSV,3,1,09,65,58,342,31,66,53,233,33,67,03,210,26,72,10,018,*6B
$GLGSV,3,2,09,76,17,179,34,77,17,226,25,86,27,093,34,87,32,041,24*6E
$GLGSV,3,3,09,88,04,347,16*5F
$GNGLL,0419.55634,S,05540.04957,E,105940.00,A,D*60
$GNRMC,105941.00,A,0419.55614,S,05540.04926,E,1.572,299.92,220525,,,D*68
$GNVTG,299.92,T,,M,1.572,N,2.912,K,D*26
$GNGGA,105941.00,0419.55614,S,05540.04926,E,2,12,0.53,10.1,M,-47.6,M,,0000*4B
$GNGSA,A,3,29,10,32,26,23,25,18,24,28,16,31,41,1.05,0.53,0.90*1B
$GNGSA,A,3,65,86,87,66,76,77,,,,,,,1.05,0.53,0.90*14
$GPGSV,5,1,17,10,31,331,41,16,22,280,36,18,24,042,29,23,14,012,29*7A
$GPGSV,5,2,17,24,06,074,28,25,13,150,27,26,31,249,34,27,13,328,38*7E
$GPGSV,5,3,17,28,28,187,37,29,44,132,40,31,14,212,30,32,79,208,42*7A
$GPGSV,5,4,17,36,52,277,35,40,85,353,43,41,58,082,35,49,32,274,*7A
$GPGSV,5,5,17,50,10,089,*4A
$GLGSV,3,1,09,65,58,342,32,66,53,233,37,67,03,210,23,72,10,018,*69
$GLGSV,3,2,09,76,17,179,36,77,17,226,24,86,27,093,31,87,32,041,25*69
$GLGSV,3,3,09,88,04,347,13*5A
$GNGLL,0419.55614,S,05540.04926,E,105941.00,A,D*65
$GNRMC,105942.00,A,0419.55593,S,05540.04894,E,1.219,305.20,220525,,,D*68
$GNVTG,305.20,T,,M,1.219,N,2.257,K,D*2B
$GNGGA,105942.00,0419.55593,S,05540.04894,E,2,12,0.53,10.0,M,-47.6,M,,0000*4D
$GNGSA,A,3,29,10,32,26,23,25,18,24,28,16,31,41,1.05,0.53,0.90*1B
$GNGSA,A,3,65,86,87,66,76,77,,,,,,,1.05,0.53,0.90*14
$GPGSV,5,1,17,10,31,331,40,16,22,280,28,18,24,042,29,23,14,012,29*74
$GPGSV,5,2,17,24,06,074,33,25,13,150,36,26,31,249,36,27,13,328,29*76
$GPGSV,5,3,17,28,28,187,34,29,44,132,43,31,14,212,39,32,79,208,42*73
$GPGSV,5,4,17,36,52,277,36,40,85,353,40,41,58,082,36,49,32,274,*79
$GPGSV,5,5,17,50,10,089,*4A
$GLGSV,3,1,09,65,58,342,32,66,53,233,34,67,03,210,25,72,10,018,*6C
$GLGSV,3,2,09,76,17,179,33,77,17,226,26,86,27,093,36,87,32,041,24*68
$GLGSV,3,3,09,88,04,347,12*5B
$GNGLL,0419.55593,S,05540.04894,E,105942.00,A,D*62
$GNRMC,105943.00,A,0419.55568,S,05540.04867,E,1.398,308.52,220525,,,D*61
$GNVTG,308.52,T,,M,1.398,N,2.588,K,D*2E
$GNGGA,105943.00,0419.55568,S,05540.04867,E,2,12,0.53,9.9,M,-47.6,M,,0000*75
$GNGSA,A,3,29,10,32,26,23,25,18,24,28,16,31,41,1.05,0.53,0.90*1B
$GNGSA,A,3,65,86,87,66,76,77,,,,,,,1.05,0.53,0.90*14
$GPGSV,5,1,17,10,31,331,41,16,22,280,29,18,24,042,28,23,14,012,29*75
$GPGSV,5,2,17,24,06,074,29,25,13,150,25,26,31,249,35,27,13,328,33*77
$GPGSV,5,3,17,28,28,187,37,29,44,132,41,31,14,212,34,32,79,208,41*7C
$GPGSV,5,4,17,36,52,277,35,40,85,353,41,41,58,082,32,49,32,274,*7F
$GPGSV,5,5,17,50,10,089,*4A
$GLGSV,3,1,09,65,58,342,30,66,53,233,39,67,03,210,29,72,10,018,*6F
$GLGSV,3,2,09,76,17,179,36,77,17,226,26,86,27,093,34,87,32,041,22*69
$GLGSV,3,3,09,88,04,347,13*5A
$GNGLL,0419.55568,S,05540.04867,E,105943.00,A,D*6B
$GNRMC,105944.00,A,0419.55547,S,05540.04845,E,0.942,312.34,220525,,,D*6C
$GNVTG,312.34,T,,M,0.942,N,1.745,K,D*29
$GNGGA,105944.00,0419.55547,S,05540.04845,E,2,12,0.53,9.8,M,-47.6,M,,0000*7E
$GNGSA,A,3,29,10,32,26,23,25,18,24,28,16,31,41,1.05,0.53,0.90*1B
$GNGSA,A,3,65,86,87,66,76,77,,,,,,,1.05,0.53,0.90*14
$GPGSV,5,1,17,10,31,331,40,16,22,280,34,18,24,042,30,23,14,012,29*71
$GPGSV,5,2,17,24,06,074,34,25,13,150,35,26,31,249,28,27,13,328,30*75
$GPGSV,5,3,17,28,28,187,38,29,44,132,44,31,14,212,37,32,79,208,43*77
$GPGSV,5,4,17,36,52,277,38,40,85,353,41,41,58,082,38,49,32,274,*78
$GPGSV,5,5,17,50,10,089,*4A
$GLGSV,3,1,09,65,58,342,29,66,53,233,35,67,03,210,30,72,10,018,*63
$GLGSV,3,2,09,76,17,179,32,77,17,226,27,86,27,093,31,87,32,041,22*69
$GLGSV,3,3,09,88,04,347,13*5A
$GNGLL,0419.55547,S,05540.04845,E,105944.00,A,D*61
$GNRMC,105945.00,A,0419.55531,S,05540.04821,E,1.158,302.39,220525,,,D*60
$GNVTG,302.39,T,,M,1.158,N,2.144,K,D*23
$GNGGA,105945.00,0419.55531,S,05540.04821,E,2,12,0.53,9.8,M,-47.6,M,,0000*7C
$GNGSA,A,3,29,10,32,26,23,25,18,24,28,16,31,41,1.05,0.53,0.90*1B
$GNGSA,A,3,65,86,87,66,76,77,,,,,,,1.05,0.53,0.90*14
$GPGSV,5,1,17,10,31,331,41,16,22,280,35,18,24,042,29,23,14,012,30*71
$GPGSV,5,2,17,24,06,074,32,25,13,150,38,26,31,249,32,27,13,328,35*70
$GPGSV,5,3,17,28,28,187,39,29,44,132,39,31,14,212,36,32,79,208,44*7A
$GPGSV,5,4,17,36,52,277,35,40,85,353,42,41,58,082,36,49,32,274,*78
$GPGSV,5,5,17,50,10,089,*4A
$GLGSV,3,1,09,65,58,342,31,66,53,233,39,67,03,210,30,72,10,018,*66
$GLGSV,3,2,09,76,17,179,28,77,17,226,28,86,27,093,34,87,32,041,23*69
$GLGSV,3,3,09,88,04,347,12*5B
$GNGLL,0419.55531,S,05540.04821,E,105945.00,A,D*63
$GNRMC,105946.00,A,0419.55516,S,05540.04795,E,1.023,303.88,220525,,,D*60
$GNVTG,303.88,T,,M,1.023,N,1.894,K,D*22
$GNGGA,105946.00,0419.55516,S,05540.04795,E,2,12,0.53,9.7,M,-47.6,M,,0000*75
$GNGSA,A,3,29,10,32,26,23,25,18,24,28,16,31,41,1.05,0.53,0.90*1B
$GNGSA,A,3,65,86,87,66,76,77,,,,,,,1.05,0.53,0.90*14
$GPGSV,5,1,17,10,31,331,41,16,22,280,30,18,24,042,33,23,14,012,29*77
$GPGSV,5,2,17,24,06,074,31,25,13,150,35,26,31,249,33,27,13,328,34*7E
$GPGSV,5,3,17,28,28,187,40,29,44,132,43,31,14,212,38,32,79,208,44*77
$GPGSV,5,4,17,36,52,277,38,40,85,353,41,41,58,082,34,49,32,274,*74
$GPGSV,5,5,17,50,10,089,*4A
$GLGSV,3,1,09,65,58,342,31,66,53,233,36,67,03,210,30,72,10,018,17*6F
$GLGSV,3,2,09,76,17,179,27,77,17,226,31,86,27,093,31,87,32,041,21*69
$GLGSV,3,3,09,88,04,347,12*5B
$GNGLL,0419.55516,S,05540.04795,E,105946.00,A,D*65
$GNRMC,105947.00,A,0419.55500,S,05540.04774,E,0.877,306.70,220525,,,D*63
$GNVTG,306.70,T,,M,0.877,N,1.624,K,D*2D
$GNGGA,105947.00,0419.55500,S,05540.04774,E,2,12,0.56,9.6,M,-47.6,M,,0000*78
$GNGSA,A,3,29,10,32,26,25,18,24,28,16,31,41,27,1.08,0.56,0.93*14
$GNGSA,A,3,65,86,87,66,76,77,,,,,,,1.08,0.56,0.93*1F
$GPGSV,5,1,17,10,31,331,41,16,22,280,27,18,24,042,31,23,14,012,*78
$GPGSV,5,2,17,24,06,074,32,25,13,150,37,26,31,249,32,27,13,328,37*7D
$GPGSV,5,3,17,28,28,187,39,29,44,132,40,31,14,212,39,32,79,208,45*7A
$GPGSV,5,4,17,36,52,277,37,40,85,353,42,41,58,082,36,49,32,274,*7A
$GPGSV,5,5,17,50,10,089,*4A
$GLGSV,3,1,09,65,58,342,30,66,53,233,39,67,03,210,29,72,10,018,15*6B
$GLGSV,3,2,09,76,17,179,31,77,17,226,31,86,27,093,34,87,32,041,22*68
$GLGSV,3,3,09,88,04,347,19*50
$GNGLL,0419.55500,S,05540.04774,E,105947.00,A,D*6C
$GNRMC,105948.00,A,0419.55485,S,05540.04751,E,1.001,306.38,220525,,,D*63
$GNVTG,306.38,T,,M,1.001,N,1.854,K,D*20
$GNGGA,105948.00,0419.55485,S,05540.04751,E,2,12,0.56,9.5,M,-47.6,M,,0000*7F
$GNGSA,A,3,29,10,32,26,25,18,24,28,16,31,41,27,1.08,0.56,0.93*14
$GNGSA,A,3,65,86,87,66,76,77,,,,,,,1.08,0.56,0.93*1F
$GPGSV,5,1,17,10,31,331,43,16,22,280,31,18,24,042,30,23,14,012,22*7C
$GPGSV,5,2,17,24,06,074,31,25,13,150,34,26,31,249,32,27,13,328,37*7D
$GPGSV,5,3,17,28,28,187,37,29,44,132,41,31,14,212,37,32,79,208,45*7B
$GPGSV,5,4,17,36,52,277,37,40,85,353,43,41,58,082,38,49,32,274,*75
$GPGSV,5,5,17,50,10,089,*4A
$GLGSV,3,1,09,65,58,342,31,66,53,233,39,67,03,210,28,72,10,018,10*6E
$GLGSV,3,2,09,76,17,179,37,77,17,226,30,86,27,093,34,87,32,041,22*6F
$GLGSV,3,3,09,88,04,347,22*58
$GNGLL,0419.55485,S,05540.04751,E,105948.00,A,D*68
$GNRMC,105949.00,A,0419.55468,S,05540.04725,E,1.190,303.90,220525,,,D*6C
$GNVTG,303.90,T,,M,1.190,N,2.205,K,D*23
$GNGGA,105949.00,0419.55468,S,05540.04725,E,2,12,0.56,9.6,M,-47.6,M,,0000*7D
$GNGSA,A,3,29,10,32,26,25,18,24,28,16,31,41,27,1.08,0.56,0.93*14
$GNGSA,A,3,65,86,87,66,76,77,,,,,,,1.08,0.56,0.93*1F
$GPGSV,5,1,17,10,31,331,42,16,22,280,24,18,24,042,20,23,14,012,*78
$GPGSV,5,2,17,24,06,074,30,25,13,150,30,26,31,249,34,27,13,328,37*7E
$GPGSV,5,3,17,28,28,187,41,29,44,132,42,31,14,212,35,32,79,208,44*7A
$GPGSV,5,4,17,36,52,277,37,40,85,353,43,41,58,082,32,49,32,274,*7F
$GPGSV,5,5,17,50,10,089,*4A
$GLGSV,3,1,09,65,58,342,31,66,53,233,38,67,03,210,33,72,10,018,09*6D
$GLGSV,3,2,09,76,17,179,37,77,17,226,30,86,27,093,33,87,32,041,22*68
$GLGSV,3,3,09,88,04,347,25*5F
$GNGLL,0419.55468,S,05540.04725,E,105949.00,A,D*69
$GNRMC,105950.00,A,0419.55454,S,05540.04699,E,1.002,302.57,220525,,,D*6D
$GNVTG,302.57,T,,M,1.002,N,1.855,K,D*2F
$GNGGA,105950.00,0419.55454,S,05540.04699,E,2,12,0.56,9.4,M,-47.6,M,,0000*7E
$GNGSA,A,3,29,10,32,26,25,18,24,28,16,31,41,27,1.08,0.56,0.93*14
$GNGSA,A,3,65,86,87,66,76,77,,,,,,,1.08,0.56,0.93*1F
$GPGSV,5,1,17,10,31,331,42,16,22,280,31,18,24,042,23,23,14,012,*7F
$GPGSV,5,2,17,24,06,074,31,25,13,150,30,26,31,249,37,27,13,328,36*7D
$GPGSV,5,3,17,28,28,187,39,29,44,132,43,31,14,212,37,32,79,208,45*77
$GPGSV,5,4,17,36,52,277,37,40,85,353,43,41,58,082,36,49,32,274,*7B
$GPGSV,5,5,17,50,10,089,*4A
$GLGSV,3,1,09,65,58,342,33,66,53,233,40,67,03,210,31,72,10,018,09*62
$GLGSV,3,2,09,76,17,179,33,77,17,226,29,86,27,093,32,87,32,041,21*66
$GLGSV,3,3,09,88,04,347,24*5E
$GNGLL,0419.55454,S,05540.04699,E,105950.00,A,D*68
$GNRMC,105951.00,A,0419.55451,S,05540.04677,E,0.678,288.89,220525,,,D*63
$GNVTG,288.89,T,,M,0.678,N,1.256,K,D*2C
$GNGGA,105951.00,0419.55451,S,05540.04677,E,2,12,0.56,9.3,M,-47.6,M,,0000*7D
$GNGSA,A,3,29,10,32,26,25,18,24,28,16,31,41,27,1.08,0.56,0.93*14
$GNGSA,A,3,65,86,87,66,76,77,,,,,,,1.08,0.56,0.93*1F
$GPGSV,5,1,17,10,31,331,41,16,22,280,31,18,24,042,25,23,14,012,*7A
$GPGSV,5,2,17,24,06,074,32,25,13,150,36,26,31,249,31,27,13,328,36*7E
$GPGSV,5,3,17,28,28,187,37,29,44,132,39,31,14,212,37,32,79,208,45*74
$GPGSV,5,4,17,36,52,277,37,40,85,353,42,41,58,082,36,49,32,274,*7A
$GPGSV,5,5,17,50,10,089,*4A
$GLGSV,3,1,09,65,58,342,33,66,53,233,38,67,03,210,29,72,10,018,09*64
$GLGSV,3,2,09,76,17,179,31,77,17,226,30,86,27,093,34,87,32,041,20*6B
$GLGSV,3,3,09,88,04,347,22*58
$GNGLL,0419.55451,S,05540.04677,E,105951.00,A,D*6C
$GNRMC,105952.00,A,0419.55449,S,05540.04649,E,1.151,280.67,220525,,,D*61
$GNVTG,280.67,T,,M,1.151,N,2.132,K,D*2B
$GNGGA,105952.00,0419.55449,S,05540.04649,E,2,12,0.54,9.4,M,-47.6,M,,0000*7F
$GNGSA,A,3,29,10,32,26,25,18,24,28,16,31,41,27,1.11,0.54,0.97*1A
$GNGSA,A,3,65,86,87,72,66,76,77,,,,,,1.11,0.54,0.97*14
$GPGSV,5,1,17,10,31,331,41,16,22,280,34,18,24,042,30,23,14,012,*7B
$GPGSV,5,2,17,24,06,074,31,25,13,150,35,26,31,249,26,27,13,328,38*76
$GPGSV,5,3,17,28,28,187,39,29,44,132,40,31,14,212,30,32,79,208,44*72
$GPGSV,5,4,17,36,52,277,37,40,85,353,41,41,58,082,30,49,32,274,*7F
$GPGSV,5,5,17,50,10,089,*4A
$GLGSV,3,1,09,65,58,342,33,66,53,233,40,67,03,210,27,72,10,018,12*6F
$GLGSV,3,2,09,76,17,179,27,77,17,226,29,86,27,093,31,87,32,041,20*61
$GLGSV,3,3,09,88,04,347,21*5B
$GNGLL,0419.55449,S,05540.04649,E,105952.00,A,D*6B
$GNRMC,105953.00,A,0419.55437,S,05540.04612,E,1.515,286.38,220525,,,D*6F
$GNVTG,286.38,T,,M,1.515,N,2.805,K,D*2E
$GNGGA,105953.00,0419.55437,S,05540.04612,E,2,12,0.53,9.7,M,-47.6,M,,0000*7D
$GNGSA,A,3,29,10,32,26,25,18,24,28,16,31,41,27,1.04,0.53,0.89*16
$GNGSA,A,3,65,86,87,72,66,76,77,,,,,,1.04,0.53,0.89*18
$GPGSV,5,1,17,10,31,331,39,16,22,280,33,18,24,042,30,23,14,012,*73
$GPGSV,5,2,17,24,06,074,31,25,13,150,34,26,31,249,32,27,13,328,36*7C
$GPGSV,5,3,17,28,28,187,36,29,44,132,40,31,14,212,31,32,79,208,45*7D
$GPGSV,5,4,17,36,52,277,36,40,85,353,43,41,58,082,31,49,32,274,*7D
$GPGSV,5,5,17,50,10,089,*4A
$GLGSV,3,1,09,65,58,342,33,66,53,233,36,67,03,210,26,72,10,018,15*68
$GLGSV,3,2,09,76,17,179,35,77,17,226,28,86,27,093,30,87,32,041,22*60
$GLGSV,3,3,09,88,04,347,18*51
$GNGLL,0419.55437,S,05540.04612,E,105953.00,A,D*6D
$GNRMC,105954.00,A,0419.55413,S,05540.04567,E,1.901,296.79,220525,,,D*62
$GNVTG,296.79,T,,M,1.901,N,3.520,K,D*28
$GNGGA,105954.00,0419.55413,S,05540.04567,E,2,12,0.53,9.7,M,-47.6,M,,0000*7D
$GNGSA,A,3,29,10,32,26,25,18,24,28,16,31,41,27,1.04,0.53,0.89*16
$GNGSA,A,3,65,86,87,72,66,76,77,,,,,,1.04,0.53,0.89*18
$GPGSV,5,1,17,10,31,331,40,16,22,280,34,18,24,042,29,23,14,012,27*77
$GPGSV,5,2,17,24,06,074,34,25,13,150,33,26,31,249,35,27,13,328,32*7D
$GPGSV,5,3,17,28,28,187,36,29,44,132,41,31,14,212,32,32,79,208,45*7F
$GPGSV,5,4,17,36,52,277,37,40,85,353,41,41,58,082,34,49,32,274,*7B
$GPGSV,5,5,17,50,10,089,*4A
$GLGSV,3,1,09,65,58,342,31,66,53,233,36,67,03,210,24,72,10,018,14*69
$GLGSV,3,2,09,76,17,179,26,77,17,226,26,86,27,093,34,87,32,041,25*6F
$GLGSV,3,3,09,88,04,347,19*50
$GNGLL,0419.55413,S,05540.04567,E,105954.00,A,D*6D
$GNRMC,105955.00,A,0419.55399,S,05540.04519,E,1.480,291.83,220525,,,D*69
$GNVTG,291.83,T,,M,1.480,N,2.741,K,D*2A
$GNGGA,105955.00,0419.55399,S,05540.04519,E,2,12,0.52,9.3,M,-47.6,M,,0000*75
$GNGSA,A,3,29,10,32,26,23,25,18,24,28,16,31,41,1.02,0.52,0.88*14
$GNGSA,A,3,65,86,87,72,66,76,77,,,,,,1.02,0.52,0.88*1E
$GPGSV,5,1,17,10,31,331,40,16,22,280,34,18,24,042,30,23,14,012,25*7D
$GPGSV,5,2,17,24,06,074,33,25,13,150,34,26,31,249,33,27,13,328,31*78
$GPGSV,5,3,17,28,28,187,36,29,44,132,41,31,14,212,36,32,79,208,43*7D
$GPGSV,5,4,17,36,52,277,37,40,85,353,39,41,58,082,37,49,32,274,*77
$GPGSV,5,5,17,50,10,089,*4A
$GLGSV,3,1,09,65,58,342,30,66,53,233,35,67,03,210,25,72,10,018,11*6F
$GLGSV,3,2,09,76,17,179,37,77,17,226,26,86,27,093,38,87,32,041,25*63
$GLGSV,3,3,09,88,04,347,18*51
$GNGLL,0419.55399,S,05540.04519,E,105955.00,A,D*60
$GNRMC,105956.00,A,0419.55408,S,05540.04489,E,1.112,270.30,220525,,,D*64
$GNVTG,270.30,T,,M,1.112,N,2.059,K,D*2D
$GNGGA,105956.00,0419.55408,S,05540.04489,E,2,12,0.52,9.5,M,-47.6,M,,0000*77
$GNGSA,A,3,29,10,32,26,23,25,18,24,28,16,31,41,1.02,0.52,0.88*14
$GNGSA,A,3,65,86,87,72,66,76,77,,,,,,1.02,0.52,0.88*1E
$GPGSV,5,1,17,10,31,331,40,16,22,280,34,18,24,042,30,23,14,012,25*7D
$GPGSV,5,2,17,24,06,074,35,25,13,150,39,26,31,249,36,27,13,328,30*77
$GPGSV,5,3,17,28,28,187,36,29,44,132,40,31,14,212,27,32,79,208,45*7A
$GPGSV,5,4,17,36,52,277,37,40,85,353,42,41,58,082,38,49,32,274,*74
$GPGSV,5,5,17,50,10,089,*4A
$GLGSV,3,1,09,65,58,342,30,66,53,233,38,67,03,210,24,72,10,018,11*63
$GLGSV,3,2,09,76,17,179,35,77,17,226,25,86,27,094,38,87,32,041,31*60
$GLGSV,3,3,09,88,04,347,17*5E
$GNGLL,0419.55408,S,05540.04489,E,105956.00,A,D*64
$GNRMC,105957.00,A,0419.55423,S,05540.04463,E,0.969,260.45,220525,,,D*6E
$GNVTG,260.45,T,,M,0.969,N,1.795,K,D*2F
$GNGGA,105957.00,0419.55423,S,05540.04463,E,2,12,0.52,9.5,M,-47.6,M,,0000*7B
$GNGSA,A,3,29,10,32,26,23,25,18,24,28,16,31,41,1.02,0.52,0.88*14
$GNGSA,A,3,65,86,87,72,66,76,77,,,,,,1.02,0.52,0.88*1E
$GPGSV,5,1,17,10,31,331,37,16,22,280,38,18,24,042,25,23,14,012,26*76
$GPGSV,5,2,17,24,06,074,34,25,13,150,36,26,31,249,33,27,13,328,30*7C
$GPGSV,5,3,17,28,28,187,37,29,44,132,42,31,14,212,32,32,79,208,45*7D
$GPGSV,5,4,17,36,52,277,40,40,85,353,40,41,58,082,40,49,32,274,*79
$GPGSV,5,5,17,50,10,089,*4A
$GLGSV,3,1,09,65,58,342,30,66,53,233,35,67,03,210,24,72,10,018,16*69
$GLGSV,3,2,09,76,17,179,37,77,17,226,23,86,27,094,37,87,32,041,24*6F
$GLGSV,3,3,09,88,04,347,17*5E
$GNGLL,0419.55423,S,05540.04463,E,105957.00,A,D*68
$GNRMC,105958.00,A,0419.55430,S,05540.04440,E,0.875,258.78,220525,,,D*6B
$GNVTG,258.78,T,,M,0.875,N,1.620,K,D*29
$GNGGA,105958.00,0419.55430,S,05540.04440,E,2,12,0.53,9.7,M,-47.6,M,,0000*74
$GNGSA,A,3,29,10,32,26,23,25,18,24,28,16,31,41,1.05,0.53,0.90*1B
$GNGSA,A,3,65,86,87,72,66,76,77,,,,,,1.05,0.53,0.90*11
$GPGSV,5,1,17,10,31,331,35,16,22,280,37,18,24,042,31,23,14,012,29*71
$GPGSV,5,2,17,24,06,074,36,25,13,150,36,26,31,249,35,27,13,328,25*7C
$GPGSV,5,3,17,28,28,187,40,29,44,132,45,31,14,212,34,32,79,208,44*7D
$GPGSV,5,4,17,36,52,277,40,40,85,353,43,41,58,082,41,49,32,274,*7B
$GPGSV,5,5,17,50,10,089,*4A
$GLGSV,3,1,09,65,58,342,29,66,53,233,35,67,03,210,25,72,10,018,15*63
$GLGSV,3,2,09,76,17,179,34,77,17,226,24,86,27,094,39,87,32,041,32*62
$GLGSV,3,3,09,88,05,347,16*5E
$GNGLL,0419.55430,S,05540.04440,E,105958.00,A,D*64
$GNRMC,105959.00,A,0419.55441,S,05540.04421,E,0.758,250.96,220525,,,D*63
$GNVTG,250.96,T,,M,0.758,N,1.404,K,D*25
$GNGGA,105959.00,0419.55441,S,05540.04421,E,2,12,0.53,9.7,M,-47.6,M,,0000*74
$GNGSA,A,3,29,10,32,26,23,25,18,24,28,16,31,41,1.05,0.53,0.90*1B
$GNGSA,A,3,65,86,87,72,66,76,77,,,,,,1.05,0.53,0.90*11
$GPGSV,5,1,17,10,31,331,31,16,22,280,37,18,24,042,31,23,14,012,30*7D
$GPGSV,5,2,17,24,06,074,36,25,13,150,36,26,31,249,35,27,13,328,26*7F
$GPGSV,5,3,17,28,28,187,36,29,44,132,44,31,14,212,37,32,79,208,45*7F
$GPGSV,5,4,17,36,52,277,39,40,85,353,41,41,58,082,40,49,32,274,*76
$GPGSV,5,5,17,50,10,089,*4A
$GLGSV,3,1,09,65,58,342,30,66,53,233,33,67,03,210,26,72,10,018,12*69
$GLGSV,3,2,09,76,17,179,35,77,17,226,26,86,27,094,35,87,32,041,32*6D
$GLGSV,3,3,09,88,05,347,15*5D
$GNGLL,0419.55441,S,05540.04421,E,105959.00,A,D*64
$GNRMC,110000.00,A,0419.55457,S,05540.04402,E,0.973,239.47,220525,,,D*60
$GNVTG,239.47,T,,M,0.973,N,1.803,K,D*2A
$GNGGA,110000.00,0419.55457,S,05540.04402,E,2,12,0.53,9.8,M,-47.6,M,,0000*7C
$GNGSA,A,3,29,10,32,26,23,25,18,24,28,16,31,41,1.05,0.53,0.90*1B
$GNGSA,A,3,65,86,87,72,66,76,77,,,,,,1.05,0.53,0.90*11
$GPGSV,5,1,17,10,31,331,33,16,22,280,37,18,24,042,34,23,14,012,31*7B
$GPGSV,5,2,17,24,06,074,36,25,13,150,33,26,31,249,37,27,13,328,27*79
$GPGSV,5,3,17,28,28,187,36,29,44,132,41,31,14,212,35,32,79,208,43*7E
$GPGSV,5,4,17,36,52,277,38,40,85,353,43,41,58,082,44,49,32,274,*71
$GPGSV,5,5,17,50,10,089,*4A
$GLGSV,3,1,09,65,58,342,29,66,53,233,34,67,03,210,25,72,10,018,10*67
$GLGSV,3,2,09,76,17,179,34,77,17,226,28,86,27,094,27,87,32,041,32*61
$GLGSV,3,3,09,88,05,347,17*5F
$GNGLL,0419.55457,S,05540.04402,E,110000.00,A,D*63
$GNRMC,110001.00,A,0419.55472,S,05540.04383,E,0.808,235.64,220525,,,D*68
$GNVTG,235.64,T,,M,0.808,N,1.496,K,D*2A
$GNGGA,110001.00,0419.55472,S,05540.04383,E,2,12,0.53,9.8,M,-47.6,M,,0000*74
$GNGSA,A,3,29,10,32,26,23,25,18,24,28,16,31,41,1.05,0.53,0.90*1B
$GNGSA,A,3,65,86,87,72,66,76,77,,,,,,1.05,0.53,0.90*11
$GPGSV,5,1,17,10,31,331,32,16,22,280,35,18,24,042,33,23,14,012,30*7E
$GPGSV,5,2,17,24,06,074,35,25,13,150,34,26,31,249,35,27,13,328,25*7D
$GPGSV,5,3,17,28,28,187,36,29,44,132,42,31,14,212,26,32,79,208,45*79
$GPGSV,5,4,17,36,52,277,40,40,85,353,42,41,58,082,43,49,32,274,*78
$GPGSV,5,5,17,50,10,089,*4A
$GLGSV,3,1,09,65,58,342,30,66,53,233,34,67,03,210,30,72,10,018,11*6A
$GLGSV,3,2,09,76,17,179,33,77,17,226,27,86,27,094,38,87,32,041,33*66
$GLGSV,3,3,09,88,05,347,18*50
$GNGLL,0419.55472,S,05540.04383,E,110001.00,A,D*6B
$GNRMC,110002.00,A,0419.55498,S,05540.04370,E,1.179,215.38,220525,,,D*66
$GNVTG,215.38,T,,M,1.179,N,2.184,K,D*2A
$GNGGA,110002.00,0419.55498,S,05540.04370,E,2,12,0.52,9.6,M,-47.6,M,,0000*70
$GNGSA,A,3,29,10,32,26,23,25,18,24,28,16,31,41,1.02,0.52,0.88*14
$GNGSA,A,3,65,86,87,72,66,76,77,,,,,,1.02,0.52,0.88*1E
$GPGSV,5,1,17,10,31,331,37,16,22,280,35,18,24,042,33,23,14,012,30*7B
$GPGSV,5,2,17,24,06,074,35,25,13,150,31,26,31,249,35,27,13,328,22*7F
$GPGSV,5,3,17,28,28,187,36,29,44,132,42,31,14,212,31,32,79,208,45*7F
$GPGSV,5,4,17,36,52,277,40,40,85,353,43,41,58,082,43,49,32,274,*79
$GPGSV,5,5,17,50,10,089,*4A
$GLGSV,3,1,09,65,58,342,24,66,53,233,34,67,03,210,29,72,10,018,14*62
$GLGSV,3,2,09,76,17,179,36,77,17,226,24,86,27,094,27,87,32,041,33*6E
$GLGSV,3,3,09,88,05,347,18*50
$GNGLL,0419.55498,S,05540.04370,E,110002.00,A,D*60
$GNRMC,110003.00,A,0419.55533,S,05540.04361,E,1.350,200.97,220525,,,D*6F
$GNVTG,200.97,T,,M,1.350,N,2.500,K,D*2A
$GNGGA,110003.00,0419.55533,S,05540.04361,E,2,12,0.53,9.6,M,-47.6,M,,0000*70
$GNGSA,A,3,29,10,32,26,23,25,18,24,28,16,31,41,1.05,0.53,0.90*1B
$GNGSA,A,3,65,86,87,72,66,76,77,,,,,,1.05,0.53,0.90*11
$GPGSV,5,1,17,10,31,331,31,16,22,280,34,18,24,042,35,23,14,012,31*7B
$GPGSV,5,2,17,24,06,074,35,25,13,150,34,26,31,249,35,27,13,328,21*79
$GPGSV,5,3,17,28,28,187,38,29,44,132,41,31,14,212,35,32,79,208,44*77
$GPGSV,5,4,17,36,52,277,39,40,85,353,41,41,58,082,43,49,32,274,*75
$GPGSV,5,5,17,50,10,089,*4A
$GLGSV,3,1,09,65,58,342,31,66,53,233,34,67,03,210,30,72,10,018,10*6A
$GLGSV,3,2,09,76,17,179,36,77,17,226,22,86,27,094,34,87,32,041,34*6D
$GLGSV,3,3,09,88,05,347,19*51
$GNGLL,0419.55533,S,05540.04361,E,110003.00,A,D*61
$GNRMC,110004.00,A,0419.55554,S,05540.04357,E,0.536,201.28,220525,,,D*6E
$GNVTG,201.28,T,,M,0.536,N,0.993,K,D*2C
$GNGGA,110004.00,0419.55554,S,05540.04357,E,2,12,0.53,9.9,M,-47.6,M,,0000*7C
$GNGSA,A,3,29,10,32,26,23,25,18,24,28,16,31,41,1.05,0.53,0.90*1B
$GNGSA,A,3,65,86,87,72,66,76,77,,,,,,1.05,0.53,0.90*11
$GPGSV,5,1,17,10,31,331,30,16,22,280,34,18,24,042,27,23,14,012,26*7F
$GPGSV,5,2,17,24,06,074,34,25,13,150,28,26,31,249,35,27,13,328,26*72
$GPGSV,5,3,17,28,28,187,32,29,44,132,41,31,14,212,33,32,79,208,41*7E
$GPGSV,5,4,17,36,52,277,39,40,85,353,40,41,58,082,40,49,32,274,*77
$GPGSV,5,5,17,50,10,089,*4A
$GLGSV,3,1,09,65,58,342,30,66,53,233,35,67,03,210,31,72,10,018,16*6D
$GLGSV,3,2,09,76,17,179,32,77,17,226,19,86,27,094,29,87,32,041,33*6A
$GLGSV,3,3,09,88,05,347,16*5E
$GNGLL,0419.55554,S,05540.04357,E,110004.00,A,D*62
$GNRMC,110005.00,A,0419.55558,S,05540.04345,E,0.443,234.90,220525,,,D*66
$GNVTG,234.90,T,,M,0.443,N,0.821,K,D*22
$GNGGA,110005.00,0419.55558,S,05540.04345,E,2,12,0.53,9.8,M,-47.6,M,,0000*73
$GNGSA,A,3,29,10,32,26,23,25,18,24,28,16,31,41,1.05,0.53,0.90*1B
$GNGSA,A,3,65,86,87,72,66,76,77,,,,,,1.05,0.53,0.90*11
$GPGSV,5,1,17,10,31,331,31,16,22,280,34,18,24,042,36,23,14,012,31*78
$GPGSV,5,2,17,24,06,074,36,25,13,150,33,26,31,249,37,27,13,328,26*78
$GPGSV,5,3,17,28,28,187,38,29,44,132,41,31,14,212,34,32,79,208,42*70
$GPGSV,5,4,17,36,52,277,39,40,85,353,41,41,58,082,43,49,32,274,*75
$GPGSV,5,5,17,50,10,089,*4A
$GLGSV,3,1,09,65,58,342,25,66,53,233,31,67,03,210,32,72,10,018,18*60
$GLGSV,3,2,09,76,17,179,35,77,17,226,18,86,27,094,36,87,32,041,32*63
$GLGSV,3,3,09,88,05,347,15*5D
$GNGLL,0419.55558,S,05540.04345,E,110005.00,A,D*6C
$GNRMC,110006.00,A,0419.55565,S,05540.04334,E,0.459,233.42,220525,,,D*6E
$GNVTG,233.42,T,,M,0.459,N,0.850,K,D*27
$GNGGA,110006.00,0419.55565,S,05540.04334,E,2,12,0.52,9.6,M,-47.6,M,,0000*77
$GNGSA,A,3,29,10,32,26,23,25,18,24,28,16,31,41,1.02,0.52,0.88*14
$GNGSA,A,3,65,86,87,72,66,76,77,,,,,,1.02,0.52,0.88*1E
$GPGSV,5,1,17,10,31,331,26,16,22,280,36,18,24,042,38,23,14,012,27*75
$GPGSV,5,2,17,24,06,074,36,25,13,150,36,26,31,249,37,27,13,328,26*7D
$GPGSV,5,3,17,28,28,187,34,29,44,132,41,31,14,212,35,32,79,208,44*7B
$GPGSV,5,4,17,36,52,277,39,40,85,353,42,41,58,082,43,49,32,274,*76
$GPGSV,5,5,17,50,10,089,*4A
$GLGSV,3,1,09,65,58,342,28,66,53,233,34,67,03,210,29,72,10,018,18*62
$GLGSV,3,2,09,76,17,179,31,77,17,226,19,86,27,094,36,87,32,041,37*63
$GLGSV,3,3,09,88,05,347,10*58
$GNGLL,0419.55565,S,05540.04334,E,110006.00,A,D*67
$GNRMC,110007.00,A,0419.55571,S,05540.04321,E,0.534,246.63,220525,,,D*65
$GNVTG,246.63,T,,M,0.534,N,0.989,K,D*29
$GNGGA,110007.00,0419.55571,S,05540.04321,E,2,12,0.52,9.9,M,-47.6,M,,0000*78
$GNGSA,A,3,29,10,32,26,23,25,18,24,28,16,31,41,1.02,0.52,0.88*14
$GNGSA,A,3,65,86,87,72,66,76,77,,,,,,1.02,0.52,0.88*1E
$GPGSV,5,1,17,10,31,331,28,16,22,280,38,18,24,042,33,23,14,012,32*7A
$GPGSV,5,2,17,24,06,074,35,25,13,150,31,26,31,249,38,27,13,328,28*78
$GPGSV,5,3,17,28,28,187,37,29,44,132,39,31,14,212,39,32,79,208,43*7C
$GPGSV,5,4,17,36,52,277,39,40,85,353,41,41,58,082,41,49,32,274,*77
$GPGSV,5,5,17,50,10,089,*4A
$GLGSV,3,1,09,65,58,342,29,66,53,233,36,67,03,210,30,72,10,018,17*66
$GLGSV,3,2,09,76,17,179,34,77,17,226,18,86,27,094,37,87,32,041,30*61
$GLGSV,3,3,09,88,05,347,14*5C
$GNGLL,0419.55571,S,05540.04321,E,110007.00,A,D*67
$GNRMC,110008.00,A,0419.55562,S,05540.04308,E,0.693,287.48,220525,,,D*69
$GNVTG,287.48,T,,M,0.693,N,1.284,K,D*24
$GNGGA,110008.00,0419.55562,S,05540.04308,E,2,12,0.52,10.1,M,-47.6,M,,0000*4E
$GNGSA,A,3,29,10,32,26,23,25,18,24,28,16,31,41,1.02,0.52,0.88*14
$GNGSA,A,3,65,86,87,72,66,76,77,,,,,,1.02,0.52,0.88*1E
$GPGSV,5,1,17,10,31,332,17,16,22,280,37,18,24,042,32,23,14,012,30*79
$GPGSV,5,2,17,24,06,074,35,25,13,150,32,26,31,249,36,27,13,328,27*7A
$GPGSV,5,3,17,28,28,187,39,29,44,132,43,31,14,212,36,32,79,208,43*70
$GPGSV,5,4,17,36,52,277,39,40,85,353,42,41,58,082,43,49,32,274,*76
$GPGSV,5,5,17,50,10,089,*4A
$GLGSV,3,1,09,65,58,342,29,66,53,233,33,67,03,210,31,72,10,018,18*6D
$GLGSV,3,2,09,76,17,179,32,77,17,226,17,86,27,094,34,87,32,041,31*6A
$GLGSV,3,3,09,88,05,347,08*51
$GNGLL,0419.55562,S,05540.04308,E,110008.00,A,D*61
$GNRMC,110009.00,A,0419.55555,S,05540.04291,E,0.742,285.63,220525,,,D*6B
$GNVTG,285.63,T,,M,0.742,N,1.374,K,D*2C
$GNGGA,110009.00,0419.55555,S,05540.04291,E,2,12,0.52,10.1,M,-47.6,M,,0000*4A
$GNGSA,A,3,29,10,32,26,23,25,18,24,28,16,31,41,1.02,0.52,0.88*14
$GNGSA,A,3,65,86,87,72,66,76,77,,,,,,1.02,0.52,0.88*1E
$GPGSV,5,1,17,10,31,332,32,16,22,280,37,18,24,042,27,23,14,012,29*72
$GPGSV,5,2,17,24,06,074,33,25,13,150,35,26,31,249,38,27,13,328,27*75
$GPGSV,5,3,17,28,28,187,38,29,44,132,42,31,14,212,36,32,79,208,44*77
$GPGSV,5,4,17,36,52,277,39,40,85,353,43,41,58,082,43,49,32,274,*77
$GPGSV,5,5,17,50,10,089,*4A
$GLGSV,3,1,09,65,58,342,28,66,53,233,33,67,04,210,32,72,10,018,20*63
$GLGSV,3,2,09,76,17,179,31,77,17,226,22,86,27,094,36,87,33,041,30*6D
$GLGSV,3,3,09,88,05,347,12*5A
$GNGLL,0419.55555,S,05540.04291,E,110009.00,A,D*65
$GNRMC,110010.00,A,0419.55549,S,05540.04272,E,0.782,288.25,220525,,,D*60
$GNVTG,288.25,T,,M,0.782,N,1.449,K,D*26
$GNGGA,110010.00,0419.55549,S,05540.04272,E,2,12,0.52,10.2,M,-47.6,M,,0000*41
$GNGSA,A,3,29,10,32,26,23,25,18,24,28,16,31,41,1.02,0.52,0.88*14
$GNGSA,A,3,65,86,87,72,66,76,77,,,,,,1.02,0.52,0.88*1E
$GPGSV,5,1,17,10,31,332,27,16,22,280,37,18,24,042,33,23,14,012,29*73
$GPGSV,5,2,17,24,06,074,30,25,13,150,32,26,31,249,37,27,13,328,27*7E
$GPGSV,5,3,17,28,28,187,37,29,44,132,40,31,14,212,39,32,79,208,44*75
$GPGSV,5,4,17,36,52,277,40,40,85,353,42,41,58,082,42,49,32,274,*79
$GPGSV,5,5,17,50,10,089,*4A
$GLGSV,3,1,09,65,58,342,29,66,53,233,28,67,04,210,32,72,10,018,18*63
$GLGSV,3,2,09,76,17,179,25,77,17,226,20,86,27,094,30,87,33,041,34*68
$GLGSV,3,3,09,88,05,347,15*5D
$GNGLL,0419.55549,S,05540.04272,E,110010.00,A,D*6D
$GNRMC,110011.00,A,0419.55546,S,05540.04256,E,0.479,286.95,220525,,,D*6A
$GNVTG,286.95,T,,M,0.479,N,0.886,K,D*2A
$GNGGA,110011.00,0419.55546,S,05540.04256,E,2,12,0.52,10.1,M,-47.6,M,,0000*4A
$GNGSA,A,3,29,10,32,26,23,25,18,24,28,16,31,41,1.02,0.52,0.88*14
$GNGSA,A,3,65,86,87,72,66,76,77,,,,,,1.02,0.52,0.88*1E
$GPGSV,5,1,17,10,31,332,30,16,22,280,31,18,24,042,33,23,14,012,29*73
$GPGSV,5,2,17,24,06,074,30,25,13,150,37,26,31,249,35,27,13,328,26*78
$GPGSV,5,3,17,28,28,187,35,29,44,132,38,31,14,212,37,32,79,208,35*70
$GPGSV,5,4,17,36,52,277,30,40,85,353,38,41,58,082,36,49,32,274,*70
$GPGSV,5,5,17,50,10,089,*4A
$GLGSV,3,1,09,65,58,342,18,66,53,233,33,67,04,210,32,72,10,018,17*64
$GLGSV,3,2,09,76,17,179,33,77,17,226,22,86,27,094,33,87,33,041,30*6A
$GLGSV,3,3,09,88,05,347,17*5F
$GNGLL,0419.55546,S,05540.04256,E,110011.00,A,D*65
