$GNRMC,105454.00,A,0419.67641,S,05539.96758,E,3.865,90.24,220525,,,D*5D
$GNVTG,90.24,T,,M,3.865,N,7.157,K,D*15
$GNGGA,105454.00,0419.67641,S,05539.96758,E,2,12,0.52,10.4,M,-47.6,M,,0000*45
$GNGSA,A,3,29,10,32,26,23,25,18,24,28,16,31,41,1.02,0.52,0.88*14
$GNGSA,A,3,65,86,87,72,66,76,77,,,,,,1.02,0.52,0.88*1E
$GPGSV,5,1,17,10,32,329,28,16,21,283,23,18,24,040,27,23,16,011,33*7D
$GPGSV,5,2,17,24,06,076,32,25,15,151,26,26,31,252,21,27,11,328,26*72
$GPGSV,5,3,17,28,27,189,30,29,46,129,29,31,13,213,28,32,77,204,38*7B
$GPGSV,5,4,17,36,52,277,,40,85,353,34,41,58,082,33,49,32,274,*7A
$GPGSV,5,5,17,50,10,089,*4A
$GLGSV,3,1,10,65,61,340,28,66,51,229,22,67,01,209,,72,12,018,32*67
$GLGSV,3,2,10,76,17,181,27,77,18,228,20,86,27,090,33,87,30,038,31*6B
$GLGSV,3,3,10,88,03,345,32,,,,34*53
$GNGLL,0419.67641,S,05539.96758,E,105454.00,A,D*6F
$GNRMC,105455.00,A,0419.67635,S,05539.96855,E,3.447,87.83,220525,,,D*5A
$GNVTG,87.83,T,,M,3.447,N,6.384,K,D*1F
$GNGGA,105455.00,0419.67635,S,05539.96855,E,2,12,0.52,10.3,M,-47.6,M,,0000*42
$GNGSA,A,3,29,10,32,26,23,25,18,24,28,16,31,41,1.02,0.52,0.88*14
$GNGSA,A,3,65,86,87,72,66,76,77,,,,,,1.02,0.52,0.88*1E
$GPGSV,5,1,17,10,32,329,32,16,21,283,25,18,24,040,28,23,16,011,34*78
$GPGSV,5,2,17,24,06,076,31,25,15,151,24,26,31,252,29,27,11,328,30*7C
$GPGSV,5,3,17,28,27,189,31,29,46,129,29,31,13,213,33,32,77,204,39*71
$GPGSV,5,4,17,36,52,277,,40,85,353,41,41,58,082,36,49,32,274,29*76
$GPGSV,5,5,17,50,10,089,*4A
$GLGSV,3,1,10,65,61,340,29,66,51,229,34,67,01,209,,72,12,018,25*67
$GLGSV,3,2,10,76,17,181,32,77,18,228,18,86,27,090,34,87,30,038,37*65
$GLGSV,3,3,10,88,03,345,37,,,,38*5A
$GNGLL,0419.67635,S,05539.96855,E,105455.00,A,D*6F
$GNRMC,105456.00,A,0419.67620,S,05539.96925,E,2.387,82.88,220525,,,D*5F
$GNVTG,82.88,T,,M,2.387,N,4.421,K,D*11
$GNGGA,105456.00,0419.67620,S,05539.96925,E,2,12,0.52,10.6,M,-47.6,M,,0000*46
$GNGSA,A,3,29,10,32,26,23,25,18,24,28,16,31,41,1.02,0.52,0.88*14
$GNGSA,A,3,65,86,87,72,66,76,77,,,,,,1.02,0.52,0.88*1E
$GPGSV,5,1,17,10,32,329,39,16,21,283,24,18,24,040,37,23,16,011,40*7F
$GPGSV,5,2,17,24,06,076,32,25,15,151,31,26,31,252,33,27,11,328,34*74
$GPGSV,5,3,17,28,27,189,36,29,46,129,38,31,13,213,36,32,77,204,43*7E
$GPGSV,5,4,17,36,52,277,,40,85,353,39,41,58,082,40,49,32,274,27*76
$GPGSV,5,5,17,50,10,089,*4A
$GLGSV,3,1,10,65,61,340,36,66,51,229,30,67,01,209,,72,12,018,32*6B
$GLGSV,3,2,10,76,17,181,27,77,18,228,21,86,27,091,37,87,30,038,39*67
$GLGSV,3,3,10,88,03,345,39,,,,35*59
$GNGLL,0419.67620,S,05539.96925,E,105456.00,A,D*6E
$GNRMC,105457.00,A,0419.67604,S,05539.96980,E,1.972,78.92,220525,,,D*5A
$GNVTG,78.92,T,,M,1.972,N,3.653,K,D*1C
$GNGGA,105457.00,0419.67604,S,05539.96980,E,2,12,0.52,10.6,M,-47.6,M,,0000*4E
$GNGSA,A,3,29,10,32,26,23,25,18,24,28,16,31,41,1.02,0.52,0.88*14
$GNGSA,A,3,65,86,87,72,66,76,77,,,,,,1.02,0.52,0.88*1E
$GPGSV,5,1,17,10,32,329,37,16,21,283,23,18,24,040,39,23,16,011,43*7B
$GPGSV,5,2,17,24,06,076,38,25,15,151,24,26,31,252,37,27,11,328,20*7B
$GPGSV,5,3,17,28,27,189,37,29,46,129,36,31,13,213,34,32,77,204,43*73
$GPGSV,5,4,17,36,52,277,,40,85,353,42,41,58,082,42,49,32,274,29*76
$GPGSV,5,5,17,50,10,089,*4A
$GLGSV,3,1,10,65,61,340,34,66,51,229,37,67,01,209,,72,12,018,33*6F
$GLGSV,3,2,10,76,17,181,34,77,18,228,23,86,27,091,37,87,31,039,39*67
$GLGSV,3,3,10,88,03,345,36,,,,39*5A
$GNGLL,0419.67604,S,05539.96980,E,105457.00,A,D*66
$GNRMC,105458.00,A,0419.67594,S,05539.97033,E,1.989,80.36,220525,,,D*52
$GNVTG,80.36,T,,M,1.989,N,3.684,K,D*1B
$GNGGA,105458.00,0419.67594,S,05539.97033,E,2,12,0.52,10.6,M,-47.6,M,,0000*4B
$GNGSA,A,3,29,10,32,26,23,25,18,24,28,16,31,41,1.02,0.52,0.88*14
$GNGSA,A,3,65,86,87,72,66,76,77,,,,,,1.02,0.52,0.88*1E
$GPGSV,5,1,17,10,32,329,34,16,21,283,32,18,24,040,36,23,16,011,37*74
$GPGSV,5,2,17,24,06,076,36,25,15,151,31,26,31,252,40,27,11,328,22*73
$GPGSV,5,3,17,28,27,189,33,29,46,129,41,31,13,213,38,32,77,204,44*7C
$GPGSV,5,4,17,36,52,277,,40,85,353,38,41,58,082,41,49,32,274,35*75
$GPGSV,5,5,17,50,10,089,*4A
$GLGSV,3,1,10,65,61,340,32,66,51,229,37,67,01,209,,72,12,018,32*68
$GLGSV,3,2,10,76,17,181,31,77,18,228,23,86,27,091,39,87,31,039,39*6C
$GLGSV,3,3,10,88,03,346,28,,,,39*56
$GNGLL,0419.67594,S,05539.97033,E,105458.00,A,D*63
$GNRMC,105459.00,A,0419.67580,S,05539.97075,E,1.305,77.78,220525,,,D*58
$GNVTG,77.78,T,,M,1.305,N,2.416,K,D*1F
$GNGGA,105459.00,0419.67580,S,05539.97075,E,2,12,0.52,10.7,M,-47.6,M,,0000*4C
$GNGSA,A,3,29,10,32,26,23,25,18,24,28,16,31,41,1.02,0.52,0.88*14
$GNGSA,A,3,65,86,87,72,66,76,77,,,,,,1.02,0.52,0.88*1E
$GPGSV,5,1,17,10,32,329,24,16,21,283,31,18,24,040,40,23,16,011,34*74
$GPGSV,5,2,17,24,06,076,34,25,15,151,23,26,31,252,38,27,11,328,25*7A
$GPGSV,5,3,17,28,27,189,29,29,46,129,39,31,13,213,36,32,77,204,42*70
$GPGSV,5,4,17,36,52,277,,40,85,353,40,41,58,082,42,49,32,274,37*7B
$GPGSV,5,5,17,50,10,089,*4A
$GLGSV,3,1,10,65,61,340,35,66,51,229,39,67,01,209,,72,12,018,31*62
$GLGSV,3,2,10,76,17,181,32,77,18,228,25,86,27,091,37,87,31,039,36*68
$GLGSV,3,3,10,88,03,346,19,,,,38*55
$GNGLL,0419.67580,S,05539.97075,E,105459.00,A,D*65
$GNRMC,105500.00,A,0419.67572,S,05539.97111,E,1.374,77.76,220525,,,D*53
$GNVTG,77.76,T,,M,1.374,N,2.544,K,D*11
$GNGGA,105500.00,0419.67572,S,05539.97111,E,2,12,0.53,10.5,M,-47.6,M,,0000*4C
$GNGSA,A,3,29,10,32,26,23,25,18,24,28,16,31,41,1.04,0.53,0.90*1A
$GNGSA,A,3,65,86,87,72,66,76,77,,,,,,1.04,0.53,0.90*10
$GPGSV,5,1,17,10,32,329,25,16,21,283,26,18,24,040,34,23,16,011,38*7C
$GPGSV,5,2,17,24,06,076,37,25,15,151,31,26,31,252,38,27,11,328,26*79
$GPGSV,5,3,17,28,27,189,39,29,46,129,41,31,13,213,35,32,77,204,44*7B
$GPGSV,5,4,17,36,52,277,,40,85,353,42,41,58,082,39,49,32,274,37*75
$GPGSV,5,5,17,50,10,089,*4A
$GLGSV,3,1,10,65,61,340,27,66,51,229,36,67,01,209,,72,12,018,26*68
$GLGSV,3,2,10,76,17,181,30,77,18,228,25,86,27,091,41,87,31,039,34*69
$GLGSV,3,3,10,88,03,346,24,,,,38*5B
$GNGLL,0419.67572,S,05539.97111,E,105500.00,A,D*66
$GNRMC,105501.00,A,0419.67574,S,05539.97149,E,1.392,89.44,220525,,,D*51
$GNVTG,89.44,T,,M,1.392,N,2.578,K,D*16
$GNGGA,105501.00,0419.67574,S,05539.97149,E,2,12,0.52,10.5,M,-47.6,M,,0000*47
$GNGSA,A,3,29,10,32,26,23,25,18,24,28,16,31,41,1.02,0.52,0.88*14
$GNGSA,A,3,65,86,87,72,66,76,77,,,,,,1.02,0.52,0.88*1E
$GPGSV,5,1,17,10,32,329,30,16,21,283,33,18,24,040,37,23,16,011,33*74
$GPGSV,5,2,17,24,06,076,36,25,15,151,24,26,31,252,39,27,11,328,30*7A
$GPGSV,5,3,17,28,27,189,34,29,46,129,41,31,13,213,38,32,77,204,43*7C
$GPGSV,5,4,17,36,52,277,,40,85,353,40,41,58,082,41,49,32,274,37*78
$GPGSV,5,5,17,50,10,089,*4A
$GLGSV,3,1,10,65,61,340,34,66,51,229,32,67,01,209,,72,12,018,30*69
$GLGSV,3,2,10,76,17,181,29,77,18,228,24,86,27,091,43,87,31,039,38*6E
$GLGSV,3,3,10,88,03,346,30,,,,37*51
$GNGLL,0419.67574,S,05539.97149,E,105501.00,A,D*6C
$GNRMC,105502.00,A,0419.67578,S,05539.97179,E,0.933,89.19,220525,,,D*55
$GNVTG,89.19,T,,M,0.933,N,1.728,K,D*1A
$GNGGA,105502.00,0419.67578,S,05539.97179,E,2,12,0.52,10.7,M,-47.6,M,,0000*49
$GNGSA,A,3,29,10,32,26,23,25,18,24,28,16,31,41,1.02,0.52,0.88*14
$GNGSA,A,3,65,86,87,72,66,76,77,,,,,,1.02,0.52,0.88*1E
$GPGSV,5,1,17,10,32,329,30,16,21,283,36,18,24,040,38,23,16,011,32*7F
$GPGSV,5,2,17,24,06,076,39,25,15,151,26,26,31,252,37,27,11,328,24*7C
$GPGSV,5,3,17,28,27,189,38,29,46,129,42,31,13,213,34,32,77,204,42*7E
$GPGSV,5,4,17,36,52,277,,40,85,353,41,41,58,082,37,49,32,274,40*78
$GPGSV,5,5,17,50,10,089,*4A
$GLGSV,3,1,10,65,61,340,32,66,51,229,32,67,01,209,,72,12,018,22*6C
$GLGSV,3,2,10,76,17,181,33,77,18,228,25,86,27,091,38,87,31,039,33*63
$GLGSV,3,3,10,88,03,346,23,,,,33*57
$GNGLL,0419.67578,S,05539.97179,E,105502.00,A,D*60
$GNRMC,105503.00,A,0419.67582,S,05539.97207,E,1.027,94.29,220525,,,D*59
$GNVTG,94.29,T,,M,1.027,N,1.902,K,D*1E
$GNGGA,105503.00,0419.67582,S,05539.97207,E,2,12,0.52,10.7,M,-47.6,M,,0000*47
$GNGSA,A,3,29,10,32,26,23,25,18,24,28,16,31,41,1.02,0.52,0.88*14
$GNGSA,A,3,65,86,87,72,66,76,77,,,,,,1.02,0.52,0.88*1E
$GPGSV,5,1,17,10,32,329,23,16,21,283,34,18,24,040,33,23,16,011,26*71
$GPGSV,5,2,17,24,06,076,34,25,15,151,32,26,31,252,37,27,11,328,22*72
$GPGSV,5,3,17,28,27,189,34,29,46,129,40,31,13,213,34,32,77,204,42*70
$GPGSV,5,4,17,36,52,277,,40,85,353,38,41,58,082,40,49,32,274,40*76
$GPGSV,5,5,17,50,10,089,*4A
$GLGSV,3,1,10,65,61,340,32,66,51,229,35,67,01,209,,72,12,018,25*6C
$GLGSV,3,2,10,76,17,181,28,77,18,228,24,86,27,091,35,87,31,039,32*64
$GLGSV,3,3,10,88,03,346,23,,,,28*5D
$GNGLL,0419.67582,S,05539.97207,E,105503.00,A,D*6E
$GNRMC,105504.00,A,0419.67585,S,05539.97234,E,0.838,96.12,220525,,,D*54
$GNVTG,96.12,T,,M,0.838,N,1.553,K,D*1B
$GNGGA,105504.00,0419.67585,S,05539.97234,E,2,12,0.52,10.7,M,-47.6,M,,0000*47
$GNGSA,A,3,29,10,32,26,23,25,18,24,28,16,31,41,1.02,0.52,0.88*14
$GNGSA,A,3,65,86,87,72,66,76,77,,,,,,1.02,0.52,0.88*1E
$GPGSV,5,1,17,10,32,329,25,16,21,283,33,18,24,040,37,23,16,011,28*7A
$GPGSV,5,2,17,24,06,076,39,25,15,151,32,26,31,252,37,27,11,328,25*78
$GPGSV,5,3,17,28,27,189,34,29,46,129,38,31,13,213,38,32,77,204,44*75
$GPGSV,5,4,17,36,52,277,,40,85,353,42,41,58,082,43,49,32,274,40*78
$GPGSV,5,5,17,50,10,089,*4A
$GLGSV,3,1,10,65,61,340,33,66,51,229,36,67,01,209,,72,12,018,26*6D
$GLGSV,3,2,10,76,17,181,32,77,18,228,23,86,27,091,38,87,31,039,40*60
$GLGSV,3,3,10,88,03,346,22,,,,33*56
$GNGLL,0419.67585,S,05539.97234,E,105504.00,A,D*6E
$GNRMC,105505.00,A,0419.67586,S,05539.97253,E,0.690,93.93,220525,,,D*57
$GNVTG,93.93,T,,M,0.690,N,1.278,K,D*15
$GNGGA,105505.00,0419.67586,S,05539.97253,E,2,12,0.52,10.8,M,-47.6,M,,0000*4B
$GNGSA,A,3,29,10,32,26,23,25,18,24,28,16,31,41,1.02,0.52,0.88*14
$GNGSA,A,3,65,86,87,72,66,76,77,,,,,,1.02,0.52,0.88*1E
$GPGSV,5,1,17,10,32,329,27,16,21,283,34,18,24,040,39,23,16,011,29*70
$GPGSV,5,2,17,24,06,076,37,25,15,151,27,26,31,252,36,27,11,328,25*73
$GPGSV,5,3,17,28,27,189,30,29,46,129,41,31,13,213,39,32,77,204,44*7E
$GPGSV,5,4,17,36,52,277,,40,85,353,43,41,58,082,38,49,32,274,41*74
$GPGSV,5,5,17,50,10,089,*4A
$GLGSV,3,1,10,65,61,340,32,66,51,229,33,67,01,209,,72,12,018,27*68
$GLGSV,3,2,10,76,17,181,27,77,18,228,25,86,27,091,36,87,31,039,37*6C
$GLGSV,3,3,10,88,03,346,22,,,,31*54
$GNGLL,0419.67586,S,05539.97253,E,105505.00,A,D*6D
$GNRMC,105506.00,A,0419.67581,S,05539.97264,E,0.459,81.38,220525,,,D*52
$GNVTG,81.38,T,,M,0.459,N,0.850,K,D*11
$GNGGA,105506.00,0419.67581,S,05539.97264,E,2,12,0.52,10.8,M,-47.6,M,,0000*4B
$GNGSA,A,3,29,10,32,26,23,25,18,24,28,16,31,41,1.02,0.52,0.88*14
$GNGSA,A,3,65,86,87,72,66,76,77,,,,,,1.02,0.52,0.88*1E
$GPGSV,5,1,17,10,32,329,27,16,21,283,29,18,24,040,38,23,16,011,20*74
$GPGSV,5,2,17,24,06,076,31,25,15,151,36,26,31,252,36,27,11,328,22*72
$GPGSV,5,3,17,28,27,189,31,29,46,129,43,31,13,213,35,32,77,204,43*76
$GPGSV,5,4,17,36,52,277,,40,85,353,36,41,58,082,40,49,32,274,37*78
$GPGSV,5,5,17,50,10,089,*4A
$GLGSV,3,1,10,65,61,340,27,66,51,229,34,67,01,209,,72,12,018,27*6B
$GLGSV,3,2,10,76,17,181,33,77,18,228,24,86,27,091,32,87,31,039,39*62
$GLGSV,3,3,10,88,03,346,21,,,,33*55
$GNGLL,0419.67581,S,05539.97264,E,105506.00,A,D*6D
$GNRMC,105507.00,A,0419.67581,S,05539.97280,E,0.838,94.59,220525,,,D*51
$GNVTG,94.59,T,,M,0.838,N,1.552,K,D*17
$GNGGA,105507.00,0419.67581,S,05539.97280,E,2,12,0.52,10.7,M,-47.6,M,,0000*4F
$GNGSA,A,3,29,10,32,26,23,25,18,24,28,16,31,41,1.02,0.52,0.88*14
$GNGSA,A,3,65,86,87,72,66,76,77,,,,,,1.02,0.52,0.88*1E
$GPGSV,5,1,17,10,32,329,28,16,21,283,29,18,24,040,31,23,16,011,30*73
$GPGSV,5,2,17,24,06,076,35,25,15,151,37,26,31,252,35,27,11,328,21*77
$GPGSV,5,3,17,28,27,189,32,29,46,129,43,31,13,213,40,32,77,204,43*77
$GPGSV,5,4,17,36,52,277,,40,85,353,33,41,58,082,43,49,32,274,32*7B
$GPGSV,5,5,17,50,10,089,*4A
$GLGSV,3,1,10,65,61,340,28,66,51,229,31,67,01,209,,72,12,018,24*62
$GLGSV,3,2,10,76,17,181,27,77,18,228,23,86,27,091,43,87,31,039,34*6B
$GLGSV,3,3,10,88,03,346,19,,,,33*5E
$GNGLL,0419.67581,S,05539.97280,E,105507.00,A,D*66
$GNRMC,105508.00,A,0419.67580,S,05539.97301,E,0.755,87.71,220525,,,D*5B
$GNVTG,87.71,T,,M,0.755,N,1.399,K,D*1A
$GNGGA,105508.00,0419.67580,S,05539.97301,E,2,12,0.53,10.7,M,-47.6,M,,0000*48
$GNGSA,A,3,29,10,32,26,23,25,18,24,28,16,31,41,1.09,0.53,0.95*12
$GNGSA,A,3,65,86,87,72,66,76,77,,,,,,1.09,0.53,0.95*18
$GPGSV,5,1,17,10,32,330,28,16,21,283,28,18,24,040,33,23,16,011,23*7A
$GPGSV,5,2,17,24,06,076,35,25,15,151,34,26,31,252,31,27,11,328,24*75
$GPGSV,5,3,17,28,27,189,37,29,46,129,43,31,13,213,27,32,77,204,41*71
$GPGSV,5,4,17,36,52,277,,40,85,353,36,41,58,082,37,49,32,274,31*7E
$GPGSV,5,5,17,50,10,089,*4A
$GLGSV,3,1,10,65,61,340,25,66,51,229,34,67,01,209,,72,12,018,23*6D
$GLGSV,3,2,10,76,17,181,27,77,18,228,22,86,27,091,35,87,31,039,34*6B
$GLGSV,3,3,10,88,03,346,17,,,,29*5B
$GNGLL,0419.67580,S,05539.97301,E,105508.00,A,D*60
$GNRMC,105509.00,A,0419.67574,S,05539.97313,E,0.531,,220525,,,D*75
$GNVTG,,T,,M,0.531,N,0.984,K,D*3A
$GNGGA,105509.00,0419.67574,S,05539.97313,E,2,12,0.53,10.6,M,-47.6,M,,0000*40
$GNGSA,A,3,29,10,32,26,23,25,18,24,28,16,31,41,1.09,0.53,0.95*12
$GNGSA,A,3,65,86,87,72,66,76,77,,,,,,1.09,0.53,0.95*18
$GPGSV,5,1,17,10,32,330,26,16,21,283,29,18,24,040,21,23,16,011,29*7C
$GPGSV,5,2,17,24,06,076,34,25,15,151,38,26,31,252,33,27,11,328,22*7C
$GPGSV,5,3,17,28,27,189,35,29,46,129,44,31,13,213,38,32,77,204,43*78
$GPGSV,5,4,17,36,52,277,,40,85,353,36,41,58,082,39,49,32,274,32*73
$GPGSV,5,5,17,50,10,089,*4A
$GLGSV,3,1,10,65,61,340,25,66,51,229,31,67,01,209,,72,12,018,20*6B
$GLGSV,3,2,10,76,17,181,28,77,18,228,22,86,27,091,40,87,31,039,31*63
$GLGSV,3,3,10,88,03,346,18,,,,31*5D
$GNGLL,0419.67574,S,05539.97313,E,105509.00,A,D*69
$GNRMC,105510.00,A,0419.67569,S,05539.97321,E,0.184,,220525,,,D*7A
$GNVTG,,T,,M,0.184,N,0.341,K,D*33
$GNGGA,105510.00,0419.67569,S,05539.97321,E,2,12,0.53,10.7,M,-47.6,M,,0000*44
$GNGSA,A,3,29,10,32,26,23,25,18,24,28,16,31,41,1.09,0.53,0.95*12
$GNGSA,A,3,65,86,87,72,66,76,77,,,,,,1.09,0.53,0.95*18
$GPGSV,5,1,17,10,32,330,25,16,21,283,36,18,24,040,33,23,16,011,28*73
$GPGSV,5,2,17,24,06,076,34,25,15,151,31,26,31,252,35,27,11,328,24*75
$GPGSV,5,3,17,28,27,189,38,29,46,129,46,31,13,213,37,32,77,204,42*79
$GPGSV,5,4,17,36,52,277,,40,85,353,41,41,58,082,42,49,32,274,36*7B
$GPGSV,5,5,17,50,10,089,*4A
$GLGSV,3,1,10,65,61,340,28,66,51,229,33,67,01,209,,72,12,018,24*60
$GLGSV,3,2,10,76,17,181,30,77,18,228,23,86,27,091,29,87,31,039,35*60
$GLGSV,3,3,10,88,03,346,19,,,,30*5D
$GNGLL,0419.67569,S,05539.97321,E,105510.00,A,D*6C
$GNRMC,105511.00,A,0419.67562,S,05539.97328,E,0.437,68.14,220525,,,D*51
$GNVTG,68.14,T,,M,0.437,N,0.809,K,D*1C
$GNGGA,105511.00,0419.67562,S,05539.97328,E,2,12,0.52,10.7,M,-47.6,M,,0000*46
$GNGSA,A,3,29,10,32,26,23,25,18,24,28,16,31,41,1.02,0.52,0.88*14
$GNGSA,A,3,65,86,87,72,66,76,77,,,,,,1.02,0.52,0.88*1E
$GPGSV,5,1,17,10,32,330,34,16,21,283,35,18,24,040,36,23,16,011,26*7B
$GPGSV,5,2,17,24,06,076,37,25,15,151,40,26,31,252,38,27,11,328,25*7C
$GPGSV,5,3,17,28,27,189,35,29,46,129,45,31,13,213,39,32,77,204,41*7A
$GPGSV,5,4,17,36,52,277,,40,85,353,40,41,58,082,41,49,32,274,36*79
$GPGSV,5,5,17,50,10,089,*4A
$GLGSV,3,1,10,65,61,340,28,66,51,229,32,67,01,209,,72,12,018,23*66
$GLGSV,3,2,10,76,17,181,23,77,18,228,23,86,27,091,43,87,31,039,32*69
$GLGSV,3,3,10,88,03,346,21,,,,30*56
$GNGLL,0419.67562,S,05539.97328,E,105511.00,A,D*6F
$GNRMC,105512.00,A,0419.67556,S,05539.97340,E,0.557,67.97,220525,,,D*58
$GNVTG,67.97,T,,M,0.557,N,1.032,K,D*1E
$GNGGA,105512.00,0419.67556,S,05539.97340,E,2,12,0.52,10.8,M,-47.6,M,,0000*43
$GNGSA,A,3,29,10,32,26,23,25,18,24,28,16,31,41,1.02,0.52,0.88*14
$GNGSA,A,3,65,86,87,72,66,76,77,,,,,,1.02,0.52,0.88*1E
$GPGSV,5,1,17,10,32,330,30,16,21,283,35,18,24,040,33,23,16,011,26*7A
$GPGSV,5,2,17,24,06,076,37,25,15,151,35,26,31,252,37,27,11,328,26*72
$GPGSV,5,3,17,28,27,189,38,29,46,129,45,31,13,213,39,32,77,204,43*75
$GPGSV,5,4,17,36,52,277,,40,85,353,39,41,58,082,37,49,32,274,40*77
$GPGSV,5,5,17,50,10,089,*4A
$GLGSV,3,1,10,65,61,340,27,66,51,229,36,67,01,209,,72,12,018,22*6C
$GLGSV,3,2,10,76,17,181,30,77,18,228,24,86,27,091,39,87,31,039,35*66
$GLGSV,3,3,10,88,03,346,22,,,,29*5D
$GNGLL,0419.67556,S,05539.97340,E,105512.00,A,D*65
$GNRMC,105513.00,A,0419.67555,S,05539.97348,E,0.190,,220525,,,D*7C
$GNVTG,,T,,M,0.190,N,0.351,K,D*37
$GNGGA,105513.00,0419.67555,S,05539.97348,E,2,12,0.52,10.8,M,-47.6,M,,0000*49
$GNGSA,A,3,29,10,32,26,23,25,18,24,28,16,31,41,1.02,0.52,0.88*14
$GNGSA,A,3,65,86,87,72,66,76,77,,,,,,1.02,0.52,0.88*1E
$GPGSV,5,1,17,10,32,330,34,16,21,283,36,18,24,040,32,23,16,011,27*7D
$GPGSV,5,2,17,24,06,076,35,25,15,151,39,26,31,252,37,27,11,328,26*7C
$GPGSV,5,3,17,28,27,189,36,29,46,129,43,31,13,213,42,32,77,204,44*76
$GPGSV,5,4,17,36,52,277,,40,85,353,39,41,58,082,41,49,32,274,40*76
$GPGSV,5,5,17,50,10,089,*4A
$GLGSV,3,1,10,65,61,340,28,66,51,229,32,67,01,209,,72,12,018,20*65
$GLGSV,3,2,10,76,17,181,30,77,18,228,23,86,27,091,44,87,31,039,27*68
$GLGSV,3,3,10,88,03,346,22,,,,27*53
$GNGLL,0419.67555,S,05539.97348,E,105513.00,A,D*6F
$GNRMC,105514.00,A,0419.67551,S,05539.97352,E,0.213,,220525,,,D*7C
$GNVTG,,T,,M,0.213,N,0.394,K,D*36
$GNGGA,105514.00,0419.67551,S,05539.97352,E,2,12,0.52,11.1,M,-47.6,M,,0000*49
$GNGSA,A,3,29,10,32,26,23,25,18,24,28,16,31,41,1.02,0.52,0.88*14
$GNGSA,A,3,65,86,87,72,66,76,77,,,,,,1.02,0.52,0.88*1E
$GPGSV,5,1,17,10,32,330,35,16,22,282,34,18,24,040,33,23,16,011,25*7F
$GPGSV,5,2,17,24,06,076,34,25,15,151,34,26,31,252,31,27,11,328,27*77
$GPGSV,5,3,17,28,27,189,33,29,46,129,43,31,13,213,38,32,77,204,44*7E
$GPGSV,5,4,17,36,52,277,,40,85,353,39,41,58,082,40,49,32,274,38*78
$GPGSV,5,5,17,50,10,089,*4A
$GLGSV,3,1,10,65,61,340,30,66,51,229,31,67,01,209,,72,12,018,21*6E
$GLGSV,3,2,10,76,17,181,25,77,18,228,20,86,27,091,41,87,31,039,24*69
$GLGSV,3,3,10,88,03,346,22,,,,26*52
$GNGLL,0419.67551,S,05539.97352,E,105514.00,A,D*67
$GNRMC,105515.00,A,0419.67548,S,05539.97354,E,0.181,,220525,,,D*7B
$GNVTG,,T,,M,0.181,N,0.336,K,D*36
$GNGGA,105515.00,0419.67548,S,05539.97354,E,2,12,0.52,11.1,M,-47.6,M,,0000*46
$GNGSA,A,3,29,10,32,26,23,25,18,24,28,16,31,41,1.02,0.52,0.88*14
$GNGSA,A,3,65,86,87,72,66,76,77,,,,,,1.02,0.52,0.88*1E
$GPGSV,5,1,17,10,32,330,34,16,22,282,36,18,24,040,35,23,16,011,32*7C
$GPGSV,5,2,17,24,06,076,34,25,15,151,39,26,31,252,34,27,11,328,28*70
$GPGSV,5,3,17,28,27,189,36,29,46,129,41,31,13,213,39,32,77,204,43*7F
$GPGSV,5,4,17,36,52,277,,40,85,353,41,41,58,082,39,49,32,274,38*79
$GPGSV,5,5,17,50,10,089,*4A
$GLGSV,3,1,10,65,61,340,31,66,51,229,31,67,01,209,,72,12,018,22*6C
$GLGSV,3,2,10,76,17,181,31,77,18,228,24,86,27,091,36,87,31,039,34*69
$GLGSV,3,3,10,88,03,346,24,,,,27*55
$GNGLL,0419.67548,S,05539.97354,E,105515.00,A,D*68
$GNRMC,105516.00,A,0419.67548,S,05539.97349,E,0.273,,220525,,,D*7A
$GNVTG,,T,,M,0.273,N,0.506,K,D*3D
$GNGGA,105516.00,0419.67548,S,05539.97349,E,2,12,0.52,10.9,M,-47.6,M,,0000*40
$GNGSA,A,3,29,10,32,26,23,25,18,24,28,16,31,41,1.02,0.52,0.88*14
$GNGSA,A,3,65,86,87,72,66,76,77,,,,,,1.02,0.52,0.88*1E
$GPGSV,5,1,17,10,32,330,35,16,22,282,33,18,24,040,35,23,16,011,31*7B
$GPGSV,5,2,17,24,06,076,37,25,15,151,35,26,31,252,35,27,11,328,29*7F
$GPGSV,5,3,17,28,27,189,36,29,46,129,43,31,13,213,39,32,77,204,43*7D
$GPGSV,5,4,17,36,52,277,,40,85,353,41,41,58,082,40,49,32,274,37*78
$GPGSV,5,5,17,50,10,089,*4A
$GLGSV,3,1,10,65,61,340,26,66,51,229,35,67,01,209,,72,12,018,22*6E
$GLGSV,3,2,10,76,17,181,31,77,18,228,24,86,27,091,36,87,31,039,36*6B
$GLGSV,3,3,10,88,03,346,25,,,,27*54
$GNGLL,0419.67548,S,05539.97349,E,105516.00,A,D*67
$GNRMC,105517.00,A,0419.67546,S,05539.97348,E,0.206,,220525,,,D*76
$GNVTG,,T,,M,0.206,N,0.382,K,D*35
$GNGGA,105517.00,0419.67546,S,05539.97348,E,2,12,0.52,10.9,M,-47.6,M,,0000*4E
$GNGSA,A,3,29,10,32,26,23,25,18,24,28,16,31,41,1.02,0.52,0.88*14
$GNGSA,A,3,65,86,87,72,66,76,77,,,,,,1.02,0.52,0.88*1E
$GPGSV,5,1,17,10,32,330,34,16,22,282,32,18,24,040,31,23,16,011,30*7E
$GPGSV,5,2,17,24,06,076,37,25,15,151,37,26,31,252,35,27,11,328,28*7C
$GPGSV,5,3,17,28,27,189,32,29,46,129,38,31,13,213,38,32,77,204,40*77
$GPGSV,5,4,17,36,52,277,,40,85,353,41,41,58,082,42,49,32,274,38*75
$GPGSV,5,5,17,50,10,089,*4A
$GLGSV,3,1,10,65,61,340,30,66,51,229,34,67,01,209,,72,12,018,25*6F
$GLGSV,3,2,10,76,17,181,35,77,18,228,24,86,27,091,38,87,31,039,35*62
$GLGSV,3,3,10,88,03,346,25,,,,27*54
$GNGLL,0419.67546,S,05539.97348,E,105517.00,A,D*69
$GNRMC,105518.00,A,0419.67534,S,05539.97345,E,0.584,15.71,220525,,,D*50
$GNVTG,15.71,T,,M,0.584,N,1.082,K,D*16
$GNGGA,105518.00,0419.67534,S,05539.97345,E,2,12,0.53,11.0,M,-47.6,M,,0000*40
$GNGSA,A,3,29,10,32,26,23,25,18,24,16,31,41,27,1.03,0.53,0.88*1B
$GNGSA,A,3,65,86,87,72,66,76,77,,,,,,1.03,0.53,0.88*1E
$GPGSV,5,1,17,10,32,330,33,16,22,282,34,18,24,040,33,23,16,011,29*75
$GPGSV,5,2,17,24,06,076,33,25,15,151,32,26,31,252,35,27,11,328,27*72
$GPGSV,5,3,17,28,27,189,26,29,46,129,42,31,13,213,38,32,77,204,42*7D
$GPGSV,5,4,17,36,52,277,,40,85,353,41,41,58,082,39,49,32,274,40*76
$GPGSV,5,5,17,50,10,089,*4A
$GLGSV,3,1,10,65,61,340,29,66,51,229,33,67,01,209,,72,12,018,26*63
$GLGSV,3,2,10,76,17,181,27,77,18,228,25,86,27,091,41,87,31,039,31*6A
$GLGSV,3,3,10,88,03,346,25,,,,28*5B
$GNGLL,0419.67534,S,05539.97345,E,105518.00,A,D*6E
$GNRMC,105519.00,A,0419.67524,S,05539.97344,E,0.405,12.87,220525,,,D*57
$GNVTG,12.87,T,,M,0.405,N,0.751,K,D*18
$GNGGA,105519.00,0419.67524,S,05539.97344,E,2,12,0.53,10.8,M,-47.6,M,,0000*48
$GNGSA,A,3,29,10,32,26,23,25,18,24,16,31,41,27,1.03,0.53,0.88*1B
$GNGSA,A,3,65,86,87,72,66,76,77,,,,,,1.03,0.53,0.88*1E
$GPGSV,5,1,17,10,32,330,34,16,22,282,34,18,24,040,29,23,16,011,29*79
$GPGSV,5,2,17,24,06,076,36,25,15,151,40,26,31,252,34,27,11,328,25*71
$GPGSV,5,3,17,28,27,189,26,29,46,129,43,31,13,213,38,32,77,204,43*7D
$GPGSV,5,4,17,36,52,277,,40,85,353,39,41,58,082,39,49,32,274,37*79
$GPGSV,5,5,17,50,10,089,*4A
$GLGSV,3,1,10,65,61,340,30,66,51,229,28,67,01,209,,72,12,018,23*64
$GLGSV,3,2,10,76,17,181,32,77,18,228,26,86,27,091,45,87,31,039,32*6A
$GLGSV,3,3,10,88,03,346,24,,,,27*55
$GNGLL,0419.67524,S,05539.97344,E,105519.00,A,D*6F
$GNRMC,105520.00,A,0419.67520,S,05539.97358,E,0.667,50.22,220525,,,D*5B
$GNVTG,50.22,T,,M,0.667,N,1.235,K,D*11
$GNGGA,105520.00,0419.67520,S,05539.97358,E,2,12,0.52,10.8,M,-47.6,M,,0000*4A
$GNGSA,A,3,29,10,32,26,23,25,18,24,28,16,31,41,1.02,0.52,0.88*14
$GNGSA,A,3,65,86,87,72,66,76,77,,,,,,1.02,0.52,0.88*1E
$GPGSV,5,1,17,10,32,330,33,16,22,282,33,18,24,040,33,23,15,011,27*7F
$GPGSV,5,2,17,24,06,076,38,25,15,151,35,26,31,252,34,27,11,328,23*7B
$GPGSV,5,3,17,28,27,189,24,29,46,129,43,31,13,213,35,32,77,204,43*72
$GPGSV,5,4,17,36,52,277,,40,85,353,42,41,58,082,40,49,32,274,38*74
$GPGSV,5,5,17,50,10,089,*4A
$GLGSV,3,1,10,65,61,340,30,66,51,229,33,67,01,209,,72,12,018,25*68
$GLGSV,3,2,10,76,17,181,19,77,18,228,26,86,27,091,40,87,31,039,32*66
$GLGSV,3,3,10,88,03,346,23,,,,29*5C
$GNGLL,0419.67520,S,05539.97358,E,105520.00,A,D*6C
$GNRMC,105521.00,A,0419.67511,S,05539.97363,E,0.489,24.43,220525,,,D*56
$GNVTG,24.43,T,,M,0.489,N,0.906,K,D*1D
$GNGGA,105521.00,0419.67511,S,05539.97363,E,2,12,0.53,10.9,M,-47.6,M,,0000*41
$GNGSA,A,3,29,10,32,26,23,25,18,24,16,31,41,27,1.03,0.53,0.88*1B
$GNGSA,A,3,65,86,87,72,66,76,77,,,,,,1.03,0.53,0.88*1E
$GPGSV,5,1,17,10,32,330,32,16,22,282,34,18,24,040,33,23,15,011,30*7F
$GPGSV,5,2,17,24,06,076,38,25,15,151,38,26,31,252,33,27,11,328,25*77
$GPGSV,5,3,17,28,27,189,,29,46,129,42,31,13,213,34,32,77,204,42*75
$GPGSV,5,4,17,36,52,277,,40,85,353,40,41,58,082,36,49,32,274,38*77
$GPGSV,5,5,17,50,10,089,*4A
$GLGSV,3,1,10,65,61,340,31,66,51,229,32,67,01,209,,72,12,018,24*69
$GLGSV,3,2,10,76,17,181,34,77,18,228,29,86,27,091,40,87,31,039,35*61
$GLGSV,3,3,10,88,03,346,22,,,,29*5D
$GNGLL,0419.67511,S,05539.97363,E,105521.00,A,D*67
$GNRMC,105522.00,A,0419.67496,S,05539.97355,E,0.735,342.92,220525,,,D*65
$GNVTG,342.92,T,,M,0.735,N,1.361,K,D*2C
$GNGGA,105522.00,0419.67496,S,05539.97355,E,2,12,0.52,10.9,M,-47.6,M,,0000*48
$GNGSA,A,3,29,10,32,26,23,25,18,24,28,16,31,41,1.02,0.52,0.88*14
$GNGSA,A,3,65,86,87,72,66,76,77,,,,,,1.02,0.52,0.88*1E
$GPGSV,5,1,17,10,32,330,36,16,22,282,35,18,24,040,33,23,15,011,30*7A
$GPGSV,5,2,17,24,06,076,32,25,14,151,36,26,31,252,35,27,11,328,23*72
$GPGSV,5,3,17,28,27,189,30,29,46,129,41,31,13,213,26,32,77,204,42*76
$GPGSV,5,4,17,36,52,277,,40,85,353,41,41,58,082,40,49,32,274,38*77
$GPGSV,5,5,17,50,10,089,*4A
$GLGSV,3,1,10,65,61,340,30,66,51,229,33,67,01,209,,72,12,018,22*6F
$GLGSV,3,2,10,76,17,181,29,77,18,228,30,86,27,091,39,87,31,039,34*6A
$GLGSV,3,3,10,88,03,346,23,,,,28*5D
$GNGLL,0419.67496,S,05539.97355,E,105522.00,A,D*6F
$GNRMC,105523.00,A,0419.67481,S,05539.97345,E,0.730,335.96,220525,,,D*62
$GNVTG,335.96,T,,M,0.730,N,1.352,K,D*2D
$GNGGA,105523.00,0419.67481,S,05539.97345,E,2,12,0.52,10.8,M,-47.6,M,,0000*4F
$GNGSA,A,3,29,10,32,26,23,25,18,24,28,16,31,41,1.02,0.52,0.88*14
$GNGSA,A,3,65,86,87,72,66,76,77,,,,,,1.02,0.52,0.88*1E
$GPGSV,5,1,17,10,32,330,33,16,22,282,36,18,24,040,33,23,15,011,29*74
$GPGSV,5,2,17,24,06,076,32,25,14,151,38,26,31,251,30,27,11,328,24*7D
$GPGSV,5,3,17,28,27,189,30,29,46,129,42,31,13,213,30,32,77,204,42*72
$GPGSV,5,4,17,36,52,277,,40,85,353,40,41,58,082,42,49,32,274,38*74
$GPGSV,5,5,17,50,10,089,*4A
$GLGSV,3,1,10,65,61,340,31,66,51,229,34,67,01,209,,72,12,018,20*6B
$GLGSV,3,2,10,76,17,181,33,77,18,228,30,86,27,091,37,87,31,039,33*68
$GLGSV,3,3,10,88,03,346,22,,,,28*5C
$GNGLL,0419.67481,S,05539.97345,E,105523.00,A,D*69
$GNRMC,105524.00,A,0419.67469,S,05539.97344,E,0.409,345.30,220525,,,D*60
$GNVTG,345.30,T,,M,0.409,N,0.758,K,D*20
$GNGGA,105524.00,0419.67469,S,05539.97344,E,2,12,0.52,10.7,M,-47.6,M,,0000*40
$GNGSA,A,3,29,10,32,26,23,25,18,24,28,16,31,41,1.02,0.52,0.88*14
$GNGSA,A,3,65,86,87,72,66,76,77,,,,,,1.02,0.52,0.88*1E
$GPGSV,5,1,17,10,32,330,33,16,22,282,35,18,24,040,33,23,15,011,29*77
$GPGSV,5,2,17,24,06,076,35,25,14,151,39,26,31,251,34,27,11,328,25*7E
$GPGSV,5,3,17,28,27,189,31,29,46,129,42,31,13,213,35,32,77,204,41*75
$GPGSV,5,4,17,36,52,277,,40,85,353,40,41,58,082,40,49,32,274,37*79
$GPGSV,5,5,17,50,10,089,*4A
$GLGSV,3,1,10,65,61,340,31,66,51,229,34,67,01,209,,72,12,018,19*61
$GLGSV,3,2,10,76,17,181,34,77,18,228,30,86,27,091,34,87,31,039,38*67
$GLGSV,3,3,10,88,03,346,22,,,,27*53
$GNGLL,0419.67469,S,05539.97344,E,105524.00,A,D*69
$GNRMC,105525.00,A,0419.67459,S,05539.97341,E,0.465,337.58,220525,,,D*66
$GNVTG,337.58,T,,M,0.465,N,0.862,K,D*27
$GNGGA,105525.00,0419.67459,S,05539.97341,E,2,12,0.52,10.8,M,-47.6,M,,0000*48
$GNGSA,A,3,29,10,32,26,23,25,18,24,28,16,31,41,1.02,0.52,0.88*14
$GNGSA,A,3,65,86,87,72,66,76,77,,,,,,1.02,0.52,0.88*1E
$GPGSV,5,1,17,10,32,330,34,16,22,282,36,18,24,040,33,23,15,011,29*73
$GPGSV,5,2,17,24,06,076,33,25,14,151,38,26,31,251,36,27,11,328,31*7E
$GPGSV,5,3,17,28,27,188,26,29,46,129,42,31,13,213,35,32,77,204,42*71
$GPGSV,5,4,17,36,52,277,,40,85,353,40,41,58,082,36,49,32,274,37*78
$GPGSV,5,5,17,50,10,089,*4A
$GLGSV,3,1,10,65,61,340,30,66,51,229,33,67,01,209,,72,12,018,18*66
$GLGSV,3,2,10,76,17,181,32,77,18,228,30,86,27,091,36,87,31,039,33*68
$GLGSV,3,3,10,88,03,346,24,,,,27*55
$GNGLL,0419.67459,S,05539.97341,E,105525.00,A,D*6E
$GNRMC,105526.00,A,0419.67449,S,05539.97337,E,0.479,336.53,220525,,,D*62
$GNVTG,336.53,T,,M,0.479,N,0.886,K,D*2A
$GNGGA,105526.00,0419.67449,S,05539.97337,E,2,12,0.52,10.9,M,-47.6,M,,0000*4A
$GNGSA,A,3,29,10,32,26,23,25,18,24,28,16,31,41,1.02,0.52,0.88*14
$GNGSA,A,3,65,86,87,72,66,76,77,,,,,,1.02,0.52,0.88*1E
$GPGSV,5,1,17,10,32,330,37,16,22,282,36,18,24,040,32,23,15,011,28*70
$GPGSV,5,2,17,24,06,076,34,25,14,151,40,26,31,251,38,27,11,328,30*79
$GPGSV,5,3,17,28,27,188,30,29,45,130,43,31,13,213,35,32,77,204,42*7C
$GPGSV,5,4,17,36,52,277,,40,85,353,41,41,58,082,36,49,32,274,34*7A
$GPGSV,5,5,17,50,10,089,*4A
$GLGSV,3,1,10,65,61,340,30,66,51,229,34,67,01,209,,72,12,018,20*6A
$GLGSV,3,2,10,76,17,181,33,77,18,228,29,86,27,091,40,87,31,039,29*6B
$GLGSV,3,3,10,88,03,346,23,,,,26*53
$GNGLL,0419.67449,S,05539.97337,E,105526.00,A,D*6D
$GNRMC,105527.00,A,0419.67439,S,05539.97324,E,0.753,314.22,220525,,,D*6B
$GNVTG,314.22,T,,M,0.753,N,1.395,K,D*2F
$GNGGA,105527.00,0419.67439,S,05539.97324,E,2,12,0.53,10.8,M,-47.6,M,,0000*4E
$GNGSA,A,3,29,10,32,26,23,25,18,24,16,31,41,27,1.03,0.53,0.88*1B
$GNGSA,A,3,65,86,87,72,66,76,77,,,,,,1.03,0.53,0.88*1E
$GPGSV,5,1,17,10,32,330,35,16,22,282,36,18,24,040,31,23,15,011,29*70
$GPGSV,5,2,17,24,06,076,24,25,14,151,37,26,31,251,37,27,11,328,30*77
$GPGSV,5,3,17,28,27,188,23,29,45,130,41,31,13,213,35,32,77,204,43*7D
$GPGSV,5,4,17,36,52,277,,40,85,353,42,41,58,082,37,49,32,274,37*7B
$GPGSV,5,5,17,50,10,089,*4A
$GLGSV,3,1,10,65,61,340,29,66,51,229,35,67,01,209,,72,12,018,20*63
$GLGSV,3,2,10,76,17,181,34,77,18,228,29,86,27,091,40,87,31,039,33*67
$GLGSV,3,3,10,88,03,346,22,,,,26*52
$GNGLL,0419.67439,S,05539.97324,E,105527.00,A,D*69
$GNRMC,105528.00,A,0419.67431,S,05539.97320,E,0.301,,220525,,,D*73
$GNVTG,,T,,M,0.301,N,0.557,K,D*3D
$GNGGA,105528.00,0419.67431,S,05539.97320,E,2,12,0.52,10.7,M,-47.6,M,,0000*43
$GNGSA,A,3,29,10,32,26,23,25,18,24,28,16,31,41,1.02,0.52,0.88*14
$GNGSA,A,3,65,86,87,72,66,76,77,,,,,,1.02,0.52,0.88*1E
$GPGSV,5,1,17,10,32,330,37,16,22,282,33,18,24,040,28,23,15,011,29*7F
$GPGSV,5,2,17,24,06,076,37,25,14,151,41,26,31,251,37,27,11,328,30*74
$GPGSV,5,3,17,28,27,188,30,29,45,130,41,31,13,213,34,32,77,204,44*79
$GPGSV,5,4,17,36,52,277,,40,85,353,40,41,58,082,38,49,32,274,35*74
$GPGSV,5,5,17,50,10,089,*4A
$GLGSV,3,1,10,65,61,340,30,66,51,229,35,67,01,209,,72,12,018,21*6A
$GLGSV,3,2,10,76,17,181,35,77,18,228,30,86,27,091,41,87,31,039,29*64
$GLGSV,3,3,10,88,03,346,20,,,,25*53
$GNGLL,0419.67431,S,05539.97320,E,105528.00,A,D*6A
$GNRMC,105529.00,A,0419.67424,S,05539.97314,E,0.479,309.07,220525,,,D*6A
$GNVTG,309.07,T,,M,0.479,N,0.887,K,D*26
$GNGGA,105529.00,0419.67424,S,05539.97314,E,2,12,0.53,10.8,M,-47.6,M,,0000*4F
$GNGSA,A,3,29,10,32,26,23,25,18,24,16,31,41,27,1.03,0.53,0.88*1B
$GNGSA,A,3,65,86,87,72,66,76,77,,,,,,1.03,0.53,0.88*1E
$GPGSV,5,1,17,10,32,330,38,16,22,282,36,18,24,040,32,23,15,011,28*7F
$GPGSV,5,2,17,24,06,076,31,25,14,151,34,26,31,251,37,27,11,328,34*74
$GPGSV,5,3,17,28,27,188,24,29,45,130,42,31,13,213,37,32,77,205,44*7D
$GPGSV,5,4,17,36,52,277,,40,85,353,40,41,58,082,39,49,32,274,36*76
$GPGSV,5,5,17,50,10,089,*4A
$GLGSV,3,1,10,65,61,340,29,66,51,229,37,67,01,209,,72,12,018,22*63
$GLGSV,3,2,10,76,17,181,32,77,18,228,29,86,27,091,36,87,31,039,33*60
$GLGSV,3,3,10,88,03,346,20,,,,24*52
$GNGLL,0419.67424,S,05539.97314,E,105529.00,A,D*68
$GNRMC,105530.00,A,0419.67413,S,05539.97310,E,0.537,340.17,220525,,,D*65
$GNVTG,340.17,T,,M,0.537,N,0.994,K,D*22
$GNGGA,105530.00,0419.67413,S,05539.97310,E,2,12,0.52,10.7,M,-47.6,M,,0000*49
$GNGSA,A,3,29,10,32,26,23,25,18,24,28,16,31,41,1.02,0.52,0.88*14
$GNGSA,A,3,65,86,87,72,66,76,77,,,,,,1.02,0.52,0.88*1E
$GPGSV,5,1,17,10,32,330,36,16,22,282,35,18,24,040,35,23,15,011,28*75
$GPGSV,5,2,17,24,06,076,35,25,14,151,39,26,31,251,35,27,11,328,31*7A
$GPGSV,5,3,17,28,27,188,33,29,45,130,41,31,13,213,34,32,77,205,44*7B
$GPGSV,5,4,17,36,52,277,,40,85,353,40,41,58,082,34,49,32,274,35*78
$GPGSV,5,5,17,50,10,089,*4A
$GLGSV,3,1,10,65,61,340,28,66,51,229,38,67,01,209,,72,12,018,22*6D
$GLGSV,3,2,10,76,17,181,35,77,18,228,29,86,27,091,42,87,31,039,28*6E
$GLGSV,3,3,10,88,03,346,19,,,,23*5F
$GNGLL,0419.67413,S,05539.97310,E,105530.00,A,D*60
$GNRMC,105531.00,A,0419.67401,S,05539.97311,E,0.419,348.05,220525,,,D*60
$GNVTG,348.05,T,,M,0.419,N,0.776,K,D*26
$GNGGA,105531.00,0419.67401,S,05539.97311,E,2,12,0.52,10.6,M,-47.6,M,,0000*4B
$GNGSA,A,3,29,10,32,26,23,25,18,24,28,16,31,41,1.02,0.52,0.88*14
$GNGSA,A,3,65,86,87,72,66,76,77,,,,,,1.02,0.52,0.88*1E
$GPGSV,5,1,17,10,32,330,41,16,22,282,37,18,24,040,30,23,15,011,28*72
$GPGSV,5,2,17,24,06,076,34,25,14,151,41,26,31,251,35,27,11,328,32*77
$GPGSV,5,3,17,28,27,188,32,29,45,130,43,31,13,213,34,32,77,205,44*78
$GPGSV,5,4,17,36,52,277,,40,85,353,41,41,58,082,42,49,32,274,37*7A
$GPGSV,5,5,17,50,10,089,*4A
$GLGSV,3,1,10,65,61,340,30,66,51,229,36,67,01,209,,72,12,018,22*6A
$GLGSV,3,2,10,76,17,181,36,77,18,228,28,86,27,091,31,87,31,039,27*67
$GLGSV,3,3,10,88,03,346,18,,,,23*5E
$GNGLL,0419.67401,S,05539.97311,E,105531.00,A,D*63
$GNRMC,105532.00,A,0419.67391,S,05539.97308,E,0.376,333.74,220525,,,D*61
$GNVTG,333.74,T,,M,0.376,N,0.696,K,D*2D
$GNGGA,105532.00,0419.67391,S,05539.97308,E,2,12,0.52,10.7,M,-47.6,M,,0000*4F
$GNGSA,A,3,29,10,32,26,23,25,18,24,28,16,31,41,1.02,0.52,0.88*14
$GNGSA,A,3,65,86,87,72,66,76,77,,,,,,1.02,0.52,0.88*1E
$GPGSV,5,1,17,10,32,330,40,16,22,282,34,18,24,040,30,23,15,011,28*70
$GPGSV,5,2,17,24,06,076,37,25,14,151,36,26,31,251,39,27,11,328,33*79
$GPGSV,5,3,17,28,27,188,27,29,45,130,43,31,13,213,33,32,77,205,42*7D
$GPGSV,5,4,17,36,52,277,,40,85,353,43,41,58,082,40,49,32,274,37*7A
$GPGSV,5,5,17,50,10,089,*4A
$GLGSV,3,1,10,65,61,340,30,66,51,229,37,67,01,209,,72,12,018,23*6A
$GLGSV,3,2,10,76,17,181,32,77,18,228,27,86,27,091,32,87,31,039,34*6D
$GLGSV,3,3,10,88,03,346,18,,,,25*58
$GNGLL,0419.67391,S,05539.97308,E,105532.00,A,D*66
$GNRMC,105533.00,A,0419.67380,S,05539.97302,E,0.525,334.03,220525,,,D*6D
$GNVTG,334.03,T,,M,0.525,N,0.972,K,D*2F
$GNGGA,105533.00,0419.67380,S,05539.97302,E,2,12,0.52,10.7,M,-47.6,M,,0000*44
$GNGSA,A,3,29,10,32,26,23,25,18,24,28,16,31,41,1.02,0.52,0.88*14
$GNGSA,A,3,65,86,87,72,66,76,77,,,,,,1.02,0.52,0.88*1E
$GPGSV,5,1,17,10,32,330,37,16,22,282,33,18,24,040,21,23,15,011,28*77
$GPGSV,5,2,17,24,06,076,36,25,14,151,39,26,31,251,36,27,11,328,32*79
$GPGSV,5,3,17,28,27,188,25,29,45,130,42,31,13,213,33,32,77,205,44*78
$GPGSV,5,4,17,36,52,277,,40,85,353,40,41,58,082,39,49,32,274,37*77
$GPGSV,5,5,17,50,10,089,*4A
$GLGSV,3,1,10,65,61,340,31,66,51,229,37,67,01,209,,72,12,018,24*6C
$GLGSV,3,2,10,76,17,181,35,77,18,228,27,86,27,091,37,87,31,039,28*62
$GLGSV,3,3,10,88,03,346,16,,,,25*56
$GNGLL,0419.67380,S,05539.97302,E,105533.00,A,D*6D
$GNRMC,105534.00,A,0419.67362,S,05539.97291,E,0.908,328.14,220525,,,D*65
$GNVTG,328.14,T,,M,0.908,N,1.681,K,D*25
$GNGGA,105534.00,0419.67362,S,05539.97291,E,2,12,0.52,10.7,M,-47.6,M,,0000*44
$GNGSA,A,3,29,10,32,26,23,25,18,24,28,16,31,41,1.02,0.52,0.88*14
$GNGSA,A,3,65,86,87,72,66,76,77,,,,,,1.02,0.52,0.88*1E
$GPGSV,5,1,17,10,32,330,39,16,22,282,33,18,24,040,28,23,15,011,29*71
$GPGSV,5,2,17,24,06,076,35,25,14,151,38,26,31,251,37,27,11,328,32*7A
$GPGSV,5,3,17,28,27,188,26,29,45,130,42,31,13,213,33,32,77,205,44*7B
$GPGSV,5,4,17,36,52,277,,40,85,353,41,41,58,082,41,49,32,274,38*76
$GPGSV,5,5,17,50,10,089,*4A
$GLGSV,3,1,10,65,61,340,30,66,51,229,38,67,01,209,,72,12,018,24*62
$GLGSV,3,2,10,76,17,181,34,77,18,228,26,86,27,091,32,87,31,039,27*68
$GLGSV,3,3,10,88,03,346,17,,,,25*57
$GNGLL,0419.67362,S,05539.97291,E,105534.00,A,D*6D
$GNRMC,105535.00,A,0419.67344,S,05539.97281,E,0.752,329.99,220525,,,D*64
$GNVTG,329.99,T,,M,0.752,N,1.393,K,D*26
$GNGGA,105535.00,0419.67344,S,05539.97281,E,2,12,0.52,10.6,M,-47.6,M,,0000*41
$GNGSA,A,3,29,10,32,26,23,25,18,24,28,16,31,41,1.02,0.52,0.88*14
$GNGSA,A,3,65,86,87,72,66,76,77,,,,,,1.02,0.52,0.88*1E
$GPGSV,5,1,17,10,32,330,39,16,22,282,30,18,24,040,27,23,15,011,29*7D
$GPGSV,5,2,17,24,06,076,34,25,14,151,38,26,31,251,36,27,11,328,33*7B
$GPGSV,5,3,17,28,27,188,35,29,45,130,44,31,13,213,33,32,77,205,43*78
$GPGSV,5,4,17,36,52,277,,40,85,353,41,41,58,082,40,49,32,274,36*79
$GPGSV,5,5,17,50,10,089,*4A
$GLGSV,3,1,10,65,61,340,30,66,51,229,40,67,01,209,,72,12,018,22*6B
$GLGSV,3,2,10,76,17,181,37,77,18,228,26,86,27,091,35,87,31,039,25*6E
$GLGSV,3,3,10,88,03,346,18,,,,22*5F
$GNGLL,0419.67344,S,05539.97281,E,105535.00,A,D*69
$GNRMC,105536.00,A,0419.67330,S,05539.97275,E,0.490,331.28,220525,,,D*61
$GNVTG,331.28,T,,M,0.490,N,0.907,K,D*2E
$GNGGA,105536.00,0419.67330,S,05539.97275,E,2,12,0.52,10.7,M,-47.6,M,,0000*4B
$GNGSA,A,3,29,10,32,26,23,25,18,24,28,16,31,41,1.02,0.52,0.88*14
$GNGSA,A,3,65,86,87,72,66,76,77,,,,,,1.02,0.52,0.88*1E
$GPGSV,5,1,17,10,32,330,40,16,22,282,35,18,24,040,17,23,15,011,26*7A
$GPGSV,5,2,17,24,06,076,38,25,14,151,38,26,31,251,36,27,11,328,34*70
$GPGSV,5,3,17,28,27,188,31,29,45,130,43,31,13,213,32,32,77,205,43*7A
$GPGSV,5,4,17,36,52,277,,40,85,353,42,41,58,082,41,49,32,274,39*74
$GPGSV,5,5,17,50,10,089,*4A
$GLGSV,3,1,10,65,61,340,31,66,51,229,38,67,01,209,,72,12,018,21*66
$GLGSV,3,2,10,76,17,181,34,77,18,228,25,86,27,091,40,87,31,039,25*6C
$GLGSV,3,3,10,88,03,346,16,,,,23*50
$GNGLL,0419.67330,S,05539.97275,E,105536.00,A,D*62
$GNRMC,105537.00,A,0419.67310,S,05539.97262,E,0.975,328.80,220525,,,D*68
$GNVTG,328.80,T,,M,0.975,N,1.806,K,D*23
$GNGGA,105537.00,0419.67310,S,05539.97262,E,2,12,0.52,10.8,M,-47.6,M,,0000*41
$GNGSA,A,3,29,10,32,26,23,25,18,24,28,16,31,41,1.02,0.52,0.88*14
$GNGSA,A,3,65,86,87,72,66,76,77,,,,,,1.02,0.52,0.88*1E
$GPGSV,5,1,17,10,32,330,40,16,22,282,31,18,24,040,28,23,15,011,24*70
$GPGSV,5,2,17,24,06,076,38,25,14,151,36,26,31,251,37,27,11,328,32*79
$GPGSV,5,3,17,28,27,188,25,29,45,130,44,31,13,213,32,32,77,205,43*78
$GPGSV,5,4,17,36,52,277,,40,85,353,42,41,58,082,38,49,32,274,38*7B
$GPGSV,5,5,17,50,10,089,*4A
$GLGSV,3,1,10,65,61,340,32,66,51,229,38,67,01,209,,72,12,018,19*6E
$GLGSV,3,2,10,76,17,181,32,77,18,228,26,86,27,091,39,87,31,039,31*62
$GLGSV,3,3,10,88,03,346,13,,,,20*56
$GNGLL,0419.67310,S,05539.97262,E,105537.00,A,D*67
$GNRMC,105538.00,A,0419.67287,S,05539.97241,E,1.183,320.46,220525,,,D*6B
$GNVTG,320.46,T,,M,1.183,N,2.191,K,D*25
$GNGGA,105538.00,0419.67287,S,05539.97241,E,2,12,0.53,10.8,M,-47.6,M,,0000*41
$GNGSA,A,3,29,10,32,26,23,25,18,24,16,31,41,27,1.03,0.53,0.88*1B
$GNGSA,A,3,65,86,87,72,66,76,77,,,,,,1.03,0.53,0.88*1E
$GPGSV,5,1,17,10,32,330,38,16,22,282,31,18,24,040,18,23,15,011,30*79
$GPGSV,5,2,17,24,06,076,35,25,14,151,37,26,31,251,39,27,11,328,27*7F
$GPGSV,5,3,17,28,27,188,23,29,45,130,38,31,13,213,27,32,77,205,42*70
$GPGSV,5,4,17,36,52,277,,40,85,353,42,41,58,082,40,49,32,274,38*74
$GPGSV,5,5,17,50,10,089,*4A
$GLGSV,3,1,10,65,61,340,30,66,51,229,37,67,01,209,,72,12,018,20*69
$GLGSV,3,2,10,76,17,181,35,77,18,228,23,86,27,091,44,87,31,039,30*6B
$GLGSV,3,3,10,88,03,346,17,,,,19*58
$GNGLL,0419.67287,S,05539.97241,E,105538.00,A,D*66
$GNRMC,105539.00,A,0419.67270,S,05539.97223,E,0.756,318.27,220525,,,D*65
$GNVTG,318.27,T,,M,0.756,N,1.400,K,D*28
$GNGGA,105539.00,0419.67270,S,05539.97223,E,2,12,0.52,10.8,M,-47.6,M,,0000*4D
$GNGSA,A,3,29,10,32,26,23,25,18,24,28,16,31,41,1.02,0.52,0.88*14
$GNGSA,A,3,65,86,87,72,66,76,77,,,,,,1.02,0.52,0.88*1E
$GPGSV,5,1,17,10,32,330,38,16,22,282,32,18,24,040,30,23,15,011,28*79
$GPGSV,5,2,17,24,06,076,33,25,14,151,38,26,31,251,36,27,11,328,26*78
$GPGSV,5,3,17,28,27,188,29,29,45,130,41,31,13,213,27,32,77,205,42*74
$GPGSV,5,4,17,36,52,277,,40,85,353,43,41,58,082,37,49,32,274,36*7B
$GPGSV,5,5,17,50,10,089,*4A
$GLGSV,3,1,10,65,61,340,30,66,51,229,37,67,01,209,,72,12,018,21*68
$GLGSV,3,2,10,76,17,181,30,77,18,228,25,86,27,091,39,87,31,039,33*61
$GLGSV,3,3,10,88,03,346,18,,,,21*5C
$GNGLL,0419.67270,S,05539.97223,E,105539.00,A,D*6B
$GNRMC,105540.00,A,0419.67251,S,05539.97214,E,0.843,332.55,220525,,,D*6A
$GNVTG,332.55,T,,M,0.843,N,1.561,K,D*28
$GNGGA,105540.00,0419.67251,S,05539.97214,E,2,12,0.53,10.6,M,-47.6,M,,0000*4B
$GNGSA,A,3,29,10,32,26,23,25,18,24,16,31,41,27,1.03,0.53,0.88*1B
$GNGSA,A,3,65,86,87,72,66,76,77,,,,,,1.03,0.53,0.88*1E
$GPGSV,5,1,17,10,32,330,39,16,22,282,31,18,24,040,22,23,15,011,29*79
$GPGSV,5,2,17,24,06,076,33,25,14,151,40,26,31,251,34,27,11,328,30*72
$GPGSV,5,3,17,28,27,188,,29,45,130,40,31,13,213,34,32,77,205,45*7B
$GPGSV,5,4,17,36,52,277,,40,85,353,42,41,58,082,42,49,32,274,35*7B
$GPGSV,5,5,17,50,10,089,*4A
$GLGSV,3,1,10,65,61,340,30,66,51,229,36,67,01,209,,72,12,018,22*6A
$GLGSV,3,2,10,76,17,181,34,77,18,228,30,86,27,091,36,87,31,039,33*6E
$GLGSV,3,3,10,88,03,346,18,,,,24*59
$GNGLL,0419.67251,S,05539.97214,E,105540.00,A,D*62
$GNRMC,105541.00,A,0419.67237,S,05539.97203,E,0.613,328.45,220525,,,D*6C
$GNVTG,328.45,T,,M,0.613,N,1.136,K,D*2F
$GNGGA,105541.00,0419.67237,S,05539.97203,E,2,12,0.52,10.5,M,-47.6,M,,0000*4E
$GNGSA,A,3,29,10,32,26,23,25,18,24,28,16,31,41,1.02,0.52,0.88*14
$GNGSA,A,3,65,86,87,72,66,76,77,,,,,,1.02,0.52,0.88*1E
$GPGSV,5,1,17,10,32,330,36,16,22,282,30,18,24,040,25,23,15,011,29*70
$GPGSV,5,2,17,24,06,076,32,25,14,151,36,26,31,251,37,27,11,328,29*79
$GPGSV,5,3,17,28,27,188,31,29,45,130,41,31,13,213,33,32,77,205,43*79
$GPGSV,5,4,17,36,52,277,,40,85,353,41,41,58,082,37,49,32,274,37*78
$GPGSV,5,5,17,50,10,089,*4A
$GLGSV,3,1,10,65,61,340,34,66,51,229,37,67,01,209,,72,12,018,24*69
$GLGSV,3,2,10,76,17,181,36,77,18,228,21,86,27,091,41,87,31,039,28*66
$GLGSV,3,3,10,88,03,346,17,,,,23*51
$GNGLL,0419.67237,S,05539.97203,E,105541.00,A,D*65
$GNRMC,105542.00,A,0419.67226,S,05539.97203,E,0.398,352.64,220525,,,D*67
$GNVTG,352.64,T,,M,0.398,N,0.737,K,D*21
$GNGGA,105542.00,0419.67226,S,05539.97203,E,2,12,0.52,10.5,M,-47.6,M,,0000*4D
$GNGSA,A,3,29,10,32,26,23,25,18,24,28,16,31,41,1.02,0.52,0.88*14
$GNGSA,A,3,65,86,87,72,66,76,77,,,,,,1.02,0.52,0.88*1E
$GPGSV,5,1,17,10,32,330,35,16,22,282,29,18,24,040,25,23,15,011,28*7A
$GPGSV,5,2,17,24,06,076,35,25,14,151,42,26,31,251,37,27,11,328,28*7C
$GPGSV,5,3,17,28,27,188,29,29,45,130,43,31,13,213,33,32,77,205,42*73
$GPGSV,5,4,17,36,52,277,,40,85,353,43,41,58,082,37,49,32,274,35*78
$GPGSV,5,5,17,50,10,089,*4A
$GLGSV,3,1,10,65,61,340,35,66,51,229,39,67,01,209,,72,12,018,26*64
$GLGSV,3,2,10,76,17,181,32,77,18,228,23,86,27,091,41,87,31,039,28*60
$GLGSV,3,3,10,88,03,346,18,,,,25*58
$GNGLL,0419.67226,S,05539.97203,E,105542.00,A,D*66
$GNRMC,105543.00,A,0419.67218,S,05539.97207,E,0.335,,220525,,,D*70
$GNVTG,,T,,M,0.335,N,0.621,K,D*38
$GNGGA,105543.00,0419.67218,S,05539.97207,E,2,12,0.52,10.6,M,-47.6,M,,0000*46
$GNGSA,A,3,29,10,32,26,23,25,18,24,28,16,31,41,1.02,0.52,0.88*14
$GNGSA,A,3,65,86,87,72,66,76,77,,,,,,1.02,0.52,0.88*1E
$GPGSV,5,1,17,10,32,330,41,16,22,282,34,18,24,040,31,23,15,011,29*71
$GPGSV,5,2,17,24,06,076,33,25,14,151,39,26,31,251,37,27,11,328,28*76
$GPGSV,5,3,17,28,27,188,29,29,45,130,43,31,13,213,29,32,77,205,44*7E
$GPGSV,5,4,17,36,52,277,,40,85,353,42,41,58,082,42,49,32,274,37*79
$GPGSV,5,5,17,50,10,089,*4A
$GLGSV,3,1,10,65,61,340,30,66,51,229,37,67,01,209,,72,12,018,26*6F
$GLGSV,3,2,10,76,17,181,31,77,18,228,23,86,27,091,34,87,31,039,29*60
$GLGSV,3,3,10,88,03,346,16,,,,24*57
$GNGLL,0419.67218,S,05539.97207,E,105543.00,A,D*6E
$GNRMC,105544.00,A,0419.67203,S,05539.97198,E,0.818,328.44,220525,,,D*6B
$GNVTG,328.44,T,,M,0.818,N,1.515,K,D*2E
$GNGGA,105544.00,0419.67203,S,05539.97198,E,2,12,0.54,10.8,M,-47.6,M,,0000*46
$GNGSA,A,3,29,10,32,26,23,25,18,24,28,16,41,27,1.05,0.54,0.91*1A
$GNGSA,A,3,65,86,87,72,66,76,77,,,,,,1.05,0.54,0.91*17
$GPGSV,5,1,17,10,32,330,41,16,22,282,33,18,24,040,24,23,15,011,27*7C
$GPGSV,5,2,17,24,06,076,34,25,14,151,37,26,31,251,36,27,11,328,30*77
$GPGSV,5,3,17,28,27,188,35,29,45,130,43,31,13,213,,32,77,205,42*7E
$GPGSV,5,4,17,36,52,277,,40,85,353,42,41,58,082,38,49,32,274,37*74
$GPGSV,5,5,17,50,10,089,*4A
$GLGSV,3,1,10,65,61,340,33,66,51,229,39,67,01,209,,72,12,018,25*61
$GLGSV,3,2,10,76,17,181,24,77,18,228,23,86,27,091,39,87,31,039,27*67
$GLGSV,3,3,10,88,03,346,13,,,,25*53
$GNGLL,0419.67203,S,05539.97198,E,105544.00,A,D*66
$GNRMC,105545.00,A,0419.67184,S,05539.97181,E,1.001,324.19,220525,,,D*6B
$GNVTG,324.19,T,,M,1.001,N,1.854,K,D*23
$GNGGA,105545.00,0419.67184,S,05539.97181,E,2,12,0.52,10.7,M,-47.6,M,,0000*4A
$GNGSA,A,3,29,10,32,26,23,25,18,24,28,16,31,41,1.02,0.52,0.88*14
$GNGSA,A,3,65,86,87,72,66,76,77,,,,,,1.02,0.52,0.88*1E
$GPGSV,5,1,17,10,32,330,39,16,22,282,28,18,24,040,23,23,15,011,27*7E
$GPGSV,5,2,17,24,06,076,34,25,14,151,39,26,31,251,35,27,11,328,28*73
$GPGSV,5,3,17,28,27,188,31,29,45,130,44,31,13,213,32,32,77,205,43*7D
$GPGSV,5,4,17,36,52,277,,40,85,353,42,41,58,082,40,49,32,274,37*7B
$GPGSV,5,5,17,50,10,089,*4A
$GLGSV,3,1,10,65,61,340,31,66,51,229,37,67,01,209,,72,12,018,24*6C
$GLGSV,3,2,10,76,17,181,25,77,18,228,25,86,27,091,37,87,31,039,27*6E
$GLGSV,3,3,10,88,03,346,14,,,,24*55
$GNGLL,0419.67184,S,05539.97181,E,105545.00,A,D*63
$GNRMC,105546.00,A,0419.67169,S,05539.97167,E,0.637,322.04,220525,,,D*6B
$GNVTG,322.04,T,,M,0.637,N,1.179,K,D*2D
$GNGGA,105546.00,0419.67169,S,05539.97167,E,2,12,0.52,10.7,M,-47.6,M,,0000*42
$GNGSA,A,3,29,10,32,26,23,25,18,24,28,16,31,41,1.02,0.52,0.88*14
$GNGSA,A,3,65,86,87,72,66,76,77,,,,,,1.02,0.52,0.88*1E
$GPGSV,5,1,17,10,32,330,42,16,22,282,29,18,24,040,25,23,15,011,26*74
$GPGSV,5,2,17,24,06,076,34,25,14,151,37,26,31,251,35,27,11,328,29*7C
$GPGSV,5,3,17,28,27,188,34,29,45,130,44,31,13,213,32,32,77,205,44*7F
$GPGSV,5,4,17,36,52,277,,40,85,353,42,41,58,082,40,49,32,274,39*75
$GPGSV,5,5,17,50,10,089,*4A
$GLGSV,3,1,10,65,61,340,31,66,51,229,39,67,01,209,,72,12,018,24*62
$GLGSV,3,2,10,76,17,181,25,77,18,228,24,86,27,091,43,87,31,039,27*6C
$GLGSV,3,3,10,88,03,346,17,,,,25*57
$GNGLL,0419.67169,S,05539.97167,E,105546.00,A,D*6B
$GNRMC,105547.00,A,0419.67158,S,05539.97161,E,0.410,327.85,220525,,,D*65
$GNVTG,327.85,T,,M,0.410,N,0.759,K,D*23
$GNGGA,105547.00,0419.67158,S,05539.97161,E,2,12,0.52,10.6,M,-47.6,M,,0000*46
$GNGSA,A,3,29,10,32,26,23,25,18,24,28,16,31,41,1.02,0.52,0.88*14
$GNGSA,A,3,65,86,87,72,66,76,77,,,,,,1.02,0.52,0.88*1E
$GPGSV,5,1,17,10,32,330,41,16,22,282,29,18,24,040,30,23,15,011,27*72
$GPGSV,5,2,17,24,06,076,34,25,14,151,39,26,31,251,37,27,11,328,27*7E
$GPGSV,5,3,17,28,27,188,27,29,45,130,40,31,13,213,30,32,77,205,43*7C
$GPGSV,5,4,17,36,52,277,,40,85,353,42,41,58,082,34,49,32,274,38*77
$GPGSV,5,5,17,50,10,089,*4A
$GLGSV,3,1,10,65,61,340,31,66,51,229,39,67,01,209,,72,12,018,24*62
$GLGSV,3,2,10,76,17,181,32,77,18,228,25,86,27,091,39,87,31,039,32*62
$GLGSV,3,3,10,88,03,346,15,,,,25*55
$GNGLL,0419.67158,S,05539.97161,E,105547.00,A,D*6E
$GNRMC,105548.00,A,0419.67146,S,05539.97153,E,0.630,323.78,220525,,,D*62
$GNVTG,323.78,T,,M,0.630,N,1.166,K,D*2E
$GNGGA,105548.00,0419.67146,S,05539.97153,E,2,12,0.52,10.6,M,-47.6,M,,0000*47
$GNGSA,A,3,29,10,32,26,23,25,18,24,28,16,31,41,1.02,0.52,0.88*14
$GNGSA,A,3,65,86,87,72,66,76,77,,,,,,1.02,0.52,0.88*1E
$GPGSV,5,1,17,10,32,330,40,16,22,282,38,18,24,040,29,23,15,011,25*79
$GPGSV,5,2,17,24,06,076,36,25,14,151,31,26,31,251,36,27,11,328,27*75
$GPGSV,5,3,17,28,27,188,33,29,45,130,43,31,13,213,33,32,77,205,44*7E
$GPGSV,5,4,17,36,52,277,,40,85,353,43,41,58,082,34,49,32,274,39*77
$GPGSV,5,5,17,50,10,089,*4A
$GLGSV,3,1,10,65,61,340,33,66,51,229,35,67,01,209,,72,12,018,24*6C
$GLGSV,3,2,10,76,17,181,29,77,18,228,25,86,27,091,40,87,31,039,29*6C
$GLGSV,3,3,10,88,03,346,18,,,,25*58
$GNGLL,0419.67146,S,05539.97153,E,105548.00,A,D*6F
$GNRMC,105549.00,A,0419.67130,S,05539.97146,E,0.602,327.85,220525,,,D*61
$GNVTG,327.85,T,,M,0.602,N,1.116,K,D*2E
$GNGGA,105549.00,0419.67130,S,05539.97146,E,2,12,0.53,10.8,M,-47.6,M,,0000*4C
$GNGSA,A,3,29,10,32,26,25,18,24,28,16,31,41,27,1.04,0.53,0.89*16
$GNGSA,A,3,65,86,87,72,66,76,77,,,,,,1.04,0.53,0.89*18
$GPGSV,5,1,17,10,32,330,39,16,22,282,33,18,24,040,31,23,15,011,25*75
$GPGSV,5,2,17,24,06,076,37,25,14,151,36,26,31,251,38,27,11,328,24*7E
$GPGSV,5,3,17,28,27,188,36,29,45,130,43,31,13,213,30,32,77,205,45*79
$GPGSV,5,4,17,36,52,277,,40,85,353,43,41,58,082,39,49,32,274,39*7A
$GPGSV,5,5,17,50,10,089,*4A
$GLGSV,3,1,10,65,61,340,33,66,51,229,39,67,01,209,,72,12,018,21*65
$GLGSV,3,2,10,76,17,181,34,77,18,228,23,86,27,091,41,87,31,039,26*68
$GLGSV,3,3,10,88,03,346,16,,,,21*52
$GNGLL,0419.67130,S,05539.97146,E,105549.00,A,D*6B
$GNRMC,105550.00,A,0419.67116,S,05539.97126,E,1.117,306.86,220525,,,D*69
$GNVTG,306.86,T,,M,1.117,N,2.069,K,D*26
$GNGGA,105550.00,0419.67116,S,05539.97126,E,2,12,0.53,11.1,M,-47.6,M,,0000*4E
$GNGSA,A,3,29,10,32,26,25,18,24,28,16,31,41,27,1.04,0.53,0.89*16
$GNGSA,A,3,65,86,87,72,66,76,77,,,,,,1.04,0.53,0.89*18
$GPGSV,5,1,17,10,32,330,42,16,22,282,35,18,24,040,31,23,15,011,*78
$GPGSV,5,2,17,24,06,076,35,25,14,151,36,26,31,251,37,27,11,328,31*77
$GPGSV,5,3,17,28,27,188,37,29,45,130,45,31,13,213,30,32,77,205,41*7A
$GPGSV,5,4,17,36,52,277,,40,85,353,45,41,58,082,39,49,32,274,39*7C
$GPGSV,5,5,17,50,10,089,*4A
$GLGSV,3,1,10,65,61,341,31,66,51,229,41,67,01,209,,72,12,018,19*62
$GLGSV,3,2,10,76,17,181,30,77,18,228,24,86,27,091,40,87,31,039,27*6B
$GLGSV,3,3,10,88,03,346,21,,,,19*5D
$GNGLL,0419.67116,S,05539.97126,E,105550.00,A,D*61
$GNRMC,105551.00,A,0419.67096,S,05539.97102,E,1.202,316.05,220525,,,D*6A
$GNVTG,316.05,T,,M,1.202,N,2.226,K,D*22
$GNGGA,105551.00,0419.67096,S,05539.97102,E,2,12,0.53,10.7,M,-47.6,M,,0000*47
$GNGSA,A,3,29,10,32,26,25,18,24,28,16,31,41,27,1.04,0.53,0.89*16
$GNGSA,A,3,65,86,87,72,66,76,77,,,,,,1.04,0.53,0.89*18
$GPGSV,5,1,17,10,32,330,40,16,22,282,32,18,24,040,26,23,15,011,25*7C
$GPGSV,5,2,17,24,06,076,34,25,14,151,40,26,31,251,36,27,11,328,26*70
$GPGSV,5,3,17,28,27,188,39,29,45,130,44,31,13,213,33,32,77,205,44*73
$GPGSV,5,4,17,36,52,277,,40,85,353,42,41,58,082,41,49,32,274,36*7B
$GPGSV,5,5,17,50,10,089,*4A
$GLGSV,3,1,10,65,61,341,30,66,51,230,36,67,01,209,,72,12,018,19*6B
$GLGSV,3,2,10,76,17,181,36,77,18,228,26,86,27,091,44,87,31,039,27*6B
$GLGSV,3,3,10,88,03,346,21,,,,19*5D
$GNGLL,0419.67096,S,05539.97102,E,105551.00,A,D*6F
$GNRMC,105552.00,A,0419.67077,S,05539.97086,E,0.759,317.12,220525,,,D*66
$GNVTG,317.12,T,,M,0.759,N,1.406,K,D*28
$GNGGA,105552.00,0419.67077,S,05539.97086,E,2,12,0.53,10.8,M,-47.6,M,,0000*49
$GNGSA,A,3,29,10,32,26,25,18,24,28,16,31,41,27,1.04,0.53,0.89*16
$GNGSA,A,3,65,86,87,72,66,76,77,,,,,,1.04,0.53,0.89*18
$GPGSV,5,1,17,10,32,330,42,16,22,282,29,18,24,040,27,23,15,011,*72
$GPGSV,5,2,17,24,06,076,37,25,14,151,39,26,31,251,38,27,11,328,31*75
$GPGSV,5,3,17,28,27,188,35,29,45,130,43,31,13,213,27,32,77,205,43*7A
$GPGSV,5,4,17,36,52,277,,40,85,353,44,41,58,082,37,49,32,274,36*7C
$GPGSV,5,5,17,50,10,089,*4A
$GLGSV,3,1,10,65,61,341,30,66,51,230,37,67,02,209,,72,12,018,22*61
$GLGSV,3,2,10,76,17,181,30,77,18,228,27,86,27,091,42,87,31,039,14*6A
$GLGSV,3,3,10,88,03,346,17,,,,28*5A
$GNGLL,0419.67077,S,05539.97086,E,105552.00,A,D*6E
$GNRMC,105553.00,A,0419.67058,S,05539.97073,E,0.971,322.97,220525,,,D*6F
$GNVTG,322.97,T,,M,0.971,N,1.798,K,D*23
$GNGGA,105553.00,0419.67058,S,05539.97073,E,2,12,0.53,10.7,M,-47.6,M,,0000*40
$GNGSA,A,3,29,10,32,26,25,18,24,28,16,31,41,27,1.04,0.53,0.89*16
$GNGSA,A,3,65,86,87,72,66,76,77,,,,,,1.04,0.53,0.89*18
$GPGSV,5,1,17,10,32,330,41,16,22,282,32,18,24,040,32,23,15,011,*7F
$GPGSV,5,2,17,24,06,076,34,25,14,151,40,26,31,251,35,27,11,328,31*75
$GPGSV,5,3,17,28,27,188,36,29,45,130,46,31,13,213,34,32,77,205,43*7E
$GPGSV,5,4,17,36,52,277,,40,85,353,42,41,58,082,34,49,32,274,38*77
$GPGSV,5,5,17,50,10,089,*4A
$GLGSV,3,1,10,65,61,341,30,66,51,230,39,67,02,209,,72,12,018,20*6D
$GLGSV,3,2,10,76,17,181,37,77,18,228,27,86,27,091,36,87,31,039,18*62
$GLGSV,3,3,10,88,03,346,12,,,,26*51
$GNGLL,0419.67058,S,05539.97073,E,105553.00,A,D*68
$GNRMC,105554.00,A,0419.67039,S,05539.97059,E,0.805,321.79,220525,,,D*66
$GNVTG,321.79,T,,M,0.805,N,1.492,K,D*2B
$GNGGA,105554.00,0419.67039,S,05539.97059,E,2,12,0.55,10.6,M,-47.6,M,,0000*4F
$GNGSA,A,3,29,10,32,26,25,18,24,28,16,41,27,,1.07,0.55,0.92*1B
$GNGSA,A,3,65,86,87,72,66,76,77,,,,,,1.07,0.55,0.92*17
$GPGSV,5,1,17,10,32,330,40,16,22,282,33,18,24,040,27,23,15,011,*7B
$GPGSV,5,2,17,24,06,076,34,25,14,151,38,26,31,251,35,27,11,328,25*7F
$GPGSV,5,3,17,28,27,188,36,29,45,130,45,31,13,213,,32,77,205,43*7A
$GPGSV,5,4,17,36,52,277,,40,85,353,42,41,58,082,37,49,32,274,36*7A
$GPGSV,5,5,17,50,10,089,*4A
$GLGSV,3,1,10,65,61,341,30,66,51,230,37,67,02,209,,72,12,018,20*63
$GLGSV,3,2,10,76,17,181,37,77,18,228,26,86,27,091,37,87,31,039,18*62
$GLGSV,3,3,10,88,03,346,07,,,,26*55
$GNGLL,0419.67039,S,05539.97059,E,105554.00,A,D*60
$GNRMC,105555.00,A,0419.67025,S,05539.97054,E,0.436,331.38,220525,,,D*6F
$GNVTG,331.38,T,,M,0.436,N,0.807,K,D*22
$GNGGA,105555.00,0419.67025,S,05539.97054,E,2,12,0.55,10.7,M,-47.6,M,,0000*4F
$GNGSA,A,3,29,10,32,26,25,18,24,28,16,41,27,,1.07,0.55,0.92*1B
$GNGSA,A,3,65,86,87,72,66,76,77,,,,,,1.07,0.55,0.92*17
$GPGSV,5,1,17,10,32,330,41,16,22,282,34,18,24,040,27,23,15,011,27*78
$GPGSV,5,2,17,24,06,076,36,25,14,151,38,26,31,251,37,27,11,328,31*7A
$GPGSV,5,3,17,28,27,188,40,29,45,130,45,31,13,213,27,32,77,205,43*7E
$GPGSV,5,4,17,36,52,277,,40,85,353,42,41,58,082,37,49,32,274,36*7A
$GPGSV,5,5,17,50,10,089,*4A
$GLGSV,3,1,10,65,61,341,30,66,51,230,40,67,02,209,,72,12,018,19*69
$GLGSV,3,2,10,76,17,181,32,77,18,228,25,86,27,091,40,87,31,039,20*6F
$GLGSV,3,3,10,88,03,346,14,,,,26*57
$GNGLL,0419.67025,S,05539.97054,E,105555.00,A,D*61
$GNRMC,105556.00,A,0419.67010,S,05539.97050,E,0.634,331.82,220525,,,D*6F
$GNVTG,331.82,T,,M,0.634,N,1.173,K,D*28
$GNGGA,105556.00,0419.67010,S,05539.97050,E,2,12,0.52,10.8,M,-47.6,M,,0000*46
$GNGSA,A,3,29,10,32,26,23,25,18,24,28,16,31,41,1.02,0.52,0.88*14
$GNGSA,A,3,65,86,87,72,66,76,77,,,,,,1.02,0.52,0.88*1E
$GPGSV,5,1,17,10,32,330,40,16,22,282,33,18,24,040,28,23,15,011,27*71
$GPGSV,5,2,17,24,06,076,32,25,14,151,38,26,31,251,38,27,11,328,32*72
$GPGSV,5,3,17,28,27,188,38,29,45,130,43,31,13,213,26,32,77,205,44*71
$GPGSV,5,4,17,36,52,277,,40,85,353,41,41,58,082,32,49,32,274,35*7F
$GPGSV,5,5,17,50,10,089,*4A
$GLGSV,3,1,10,65,61,341,31,66,51,230,41,67,02,209,,72,12,018,17*67
$GLGSV,3,2,10,76,17,181,34,77,18,228,22,86,27,091,35,87,31,039,21*6D
$GLGSV,3,3,10,88,03,346,09,,,,23*5E
$GNGLL,0419.67010,S,05539.97050,E,105556.00,A,D*60
$GNRMC,105557.00,A,0419.66995,S,05539.97048,E,0.457,340.17,220525,,,D*6F
$GNVTG,340.17,T,,M,0.457,N,0.846,K,D*2B
$GNGGA,105557.00,0419.66995,S,05539.97048,E,2,12,0.52,10.7,M,-47.6,M,,0000*44
$GNGSA,A,3,29,10,32,26,23,25,18,24,28,16,31,41,1.02,0.52,0.88*14
$GNGSA,A,3,65,86,87,72,66,76,77,,,,,,1.02,0.52,0.88*1E
$GPGSV,5,1,17,10,32,330,42,16,22,282,36,18,24,040,28,23,15,011,27*76
$GPGSV,5,2,17,24,06,076,36,25,14,151,40,26,31,251,37,27,11,328,25*70
$GPGSV,5,3,17,28,27,188,35,29,45,130,42,31,13,213,32,32,77,205,43*7F
$GPGSV,5,4,17,36,52,277,,40,85,353,41,41,58,082,37,49,32,274,34*7B
$GPGSV,5,5,17,50,10,089,*4A
$GLGSV,3,1,10,65,61,341,30,66,51,230,39,67,02,209,,72,11,018,16*6B
$GLGSV,3,2,10,76,17,181,36,77,18,228,24,86,27,091,37,87,31,039,29*63
$GLGSV,3,3,10,88,03,346,15,,,,20*50
$GNGLL,0419.66995,S,05539.97048,E,105557.00,A,D*6D
$GNRMC,105558.00,A,0419.66984,S,05539.97047,E,0.396,,220525,,,D*7A
$GNVTG,,T,,M,0.396,N,0.734,K,D*34
$GNGGA,105558.00,0419.66984,S,05539.97047,E,2,12,0.53,10.7,M,-47.6,M,,0000*45
$GNGSA,A,3,29,10,32,26,23,25,18,24,28,16,31,41,1.09,0.53,0.95*12
$GNGSA,A,3,65,86,87,72,66,76,77,,,,,,1.09,0.53,0.95*18
$GPGSV,5,1,17,10,32,330,38,16,22,282,36,18,24,040,21,23,15,011,32*76
$GPGSV,5,2,17,24,06,076,36,25,14,151,39,26,31,251,34,27,11,328,32*7B
$GPGSV,5,3,17,28,27,188,35,29,45,130,43,31,13,213,33,32,77,205,41*7D
$GPGSV,5,4,17,36,52,277,,40,85,353,40,41,58,082,35,49,32,274,36*7A
$GPGSV,5,5,17,50,10,089,*4A
$GLGSV,3,1,10,65,61,341,31,66,51,230,40,67,02,209,,72,11,018,14*66
$GLGSV,3,2,10,76,17,181,35,77,18,228,22,86,27,091,32,87,31,039,19*60
$GLGSV,3,3,10,88,03,346,09,,,,17*59
$GNGLL,0419.66984,S,05539.97047,E,105558.00,A,D*6D
$GNRMC,105559.00,A,0419.66976,S,05539.97045,E,0.227,,220525,,,D*7F
$GNVTG,,T,,M,0.227,N,0.421,K,D*38
$GNGGA,105559.00,0419.66976,S,05539.97045,E,2,12,0.53,10.7,M,-47.6,M,,0000*4B
$GNGSA,A,3,29,10,32,26,23,25,18,24,28,16,31,41,1.09,0.53,0.95*12
$GNGSA,A,3,65,86,87,72,66,76,77,,,,,,1.09,0.53,0.95*18
$GPGSV,5,1,17,10,32,330,36,16,22,282,33,18,24,040,28,23,15,011,31*77
$GPGSV,5,2,17,24,06,076,33,25,14,151,34,26,31,251,36,27,11,328,31*72
$GPGSV,5,3,17,28,27,188,35,29,45,130,36,31,13,213,35,32,77,205,41*79
$GPGSV,5,4,17,36,52,277,,40,85,353,34,41,58,082,28,49,32,274,33*70
$GPGSV,5,5,17,50,10,089,*4A
$GLGSV,3,1,10,65,61,341,29,66,51,230,38,67,02,209,,72,11,018,16*62
$GLGSV,3,2,10,76,17,181,32,77,18,228,25,86,27,091,32,87,31,039,20*6A
$GLGSV,3,3,10,88,03,346,10,,,,19*5F
$GNGLL,0419.66976,S,05539.97045,E,105559.00,A,D*63
