$GNRMC,083206.00,A,0419.73347,S,05539.77714,E,0.305,,220525,,,A*78
$GNVTG,,T,,M,0.305,N,0.565,K,A*3D
$GNGGA,083206.00,0419.73347,S,05539.77714,E,1,12,0.84,15.3,M,-47.6,M,,*40
$GNGSA,A,3,25,23,10,15,12,29,18,26,,,,,1.70,0.84,1.48*1D
$GNGSA,A,3,72,76,75,71,,,,,,,,,1.70,0.84,1.48*1B
$GPGSV,5,1,18,10,42,237,38,12,37,154,22,13,04,063,,15,40,073,33*7E
$GPGSV,5,2,18,18,19,339,16,23,66,309,14,24,17,138,11,25,67,189,22*7A
$GPGSV,5,3,18,26,07,314,16,28,12,248,,29,37,025,29,31,01,269,*7E
$GPGSV,5,4,18,32,13,208,,36,52,277,,40,85,352,,41,58,082,*77
$GPGSV,5,5,18,49,32,274,,50,10,089,*78
$GLGSV,3,1,09,65,30,192,,71,29,045,12,72,66,111,16,75,34,186,17*64
$GLGSV,3,2,09,76,44,268,18,77,13,308,,85,00,067,,86,07,016,*62
$GLGSV,3,3,09,87,02,335,*54
$GNGLL,0419.73347,S,05539.77714,E,083206.00,A,A*65
$GNRMC,083207.00,A,0419.73368,S,05539.77733,E,1.237,,220525,,,A*70
$GNVTG,,T,,M,1.237,N,2.292,K,A*31
$GNGGA,083207.00,0419.73368,S,05539.77733,E,1,12,0.84,16.4,M,-47.6,M,,*4D
$GNGSA,A,3,25,23,10,15,12,29,18,26,,,,,1.70,0.84,1.48*1D
$GNGSA,A,3,72,76,75,71,,,,,,,,,1.70,0.84,1.48*1B
$GPGSV,5,1,18,10,42,237,33,12,37,154,21,13,04,063,,15,40,073,30*75
$GPGSV,5,2,18,18,19,339,14,23,66,309,15,24,17,138,11,25,67,189,21*7A
$GPGSV,5,3,18,26,07,314,15,28,12,248,,29,37,025,28,31,01,269,*7C
$GPGSV,5,4,18,32,13,208,,36,52,277,,40,85,352,,41,58,082,*77
$GPGSV,5,5,18,49,32,274,,50,10,089,*78
$GLGSV,3,1,09,65,30,192,,71,29,045,14,72,66,111,16,75,34,186,10*65
$GLGSV,3,2,09,76,44,268,16,77,13,308,,85,00,067,,86,07,016,*6C
$GLGSV,3,3,09,87,02,335,*54
$GNGLL,0419.73368,S,05539.77733,E,083207.00,A,A*6C
$GNRMC,083208.00,A,0419.73374,S,05539.77739,E,0.038,,220525,,,A*74
$GNVTG,,T,,M,0.038,N,0.070,K,A*31
$GNGGA,083208.00,0419.73374,S,05539.77739,E,1,12,0.91,16.7,M,-47.6,M,,*42
$GNGSA,A,3,25,10,15,12,29,18,24,26,,,,,2.00,0.91,1.78*19
$GNGSA,A,3,72,76,75,71,,,,,,,,,2.00,0.91,1.78*18
$GPGSV,5,1,18,10,42,237,41,12,37,154,23,13,04,063,,15,40,073,37*75
$GPGSV,5,2,18,18,19,339,13,23,66,309,,24,17,138,09,25,67,189,29*78
$GPGSV,5,3,18,26,07,314,17,28,12,248,,29,37,025,32,31,01,269,*75
$GPGSV,5,4,18,32,13,208,,36,52,277,,40,85,352,,41,58,082,*77
$GPGSV,5,5,18,49,32,274,,50,10,089,*78
$GLGSV,3,1,09,65,30,192,,71,29,045,14,72,66,111,14,75,34,186,10*67
$GLGSV,3,2,09,76,44,268,16,77,13,308,,85,00,067,,86,07,016,*6C
$GLGSV,3,3,09,87,02,335,*54
$GNGLL,0419.73374,S,05539.77739,E,083208.00,A,A*64
$GNRMC,083209.00,A,0419.73374,S,05539.77747,E,0.133,,220525,,,A*76
$GNVTG,,T,,M,0.133,N,0.246,K,A*3C
$GNGGA,083209.00,0419.73374,S,05539.77747,E,1,12,0.76,17.7,M,-47.6,M,,*42
$GNGSA,A,3,25,10,15,12,29,18,24,26,,,,,1.56,0.76,1.36*1A
$GNGSA,A,3,72,76,75,71,,,,,,,,,1.56,0.76,1.36*1B
$GPGSV,5,1,18,10,42,237,40,12,37,154,23,13,04,063,17,15,40,073,36*73
$GPGSV,5,2,18,18,19,339,14,23,66,309,22,24,17,138,09,25,67,189,28*7E
$GPGSV,5,3,18,26,07,314,17,28,12,248,,29,37,025,33,31,01,269,19*7C
$GPGSV,5,4,18,32,13,208,,36,52,277,,40,85,352,,41,58,082,*77
$GPGSV,5,5,18,49,32,274,,50,10,089,*78
$GLGSV,3,1,09,65,30,192,,71,29,045,14,72,66,109,14,75,34,186,10*6E
$GLGSV,3,2,09,76,44,268,19,77,13,308,,85,00,067,,86,07,016,*63
$GLGSV,3,3,09,87,02,335,*54
$GNGLL,0419.73374,S,05539.77747,E,083209.00,A,A*6C
$GNRMC,083210.00,A,0419.73375,S,05539.77748,E,0.161,,220525,,,A*77
$GNVTG,,T,,M,0.161,N,0.299,K,A*39
$GNGGA,083210.00,0419.73375,S,05539.77748,E,1,12,0.76,19.3,M,-47.6,M,,*4E
$GNGSA,A,3,25,10,15,12,29,18,24,26,,,,,1.56,0.76,1.36*1A
$GNGSA,A,3,72,76,75,71,,,,,,,,,1.56,0.76,1.36*1B
$GPGSV,5,1,18,10,42,237,38,12,37,154,24,13,04,063,13,15,40,073,35*7C
$GPGSV,5,2,18,18,19,339,14,23,66,309,20,24,17,138,08,25,67,189,26*73
$GPGSV,5,3,18,26,07,314,17,28,12,248,17,29,37,025,29,31,01,269,16*7E
$GPGSV,5,4,18,32,13,208,,36,52,277,,40,85,352,,41,58,082,*77
$GPGSV,5,5,18,49,32,274,,50,10,089,*78
$GLGSV,3,1,09,65,30,192,,71,29,045,14,72,66,109,11,75,34,186,10*6B
$GLGSV,3,2,09,76,44,268,20,77,13,308,,85,00,067,,86,07,016,*69
$GLGSV,3,3,09,87,02,335,*54
$GNGLL,0419.73375,S,05539.77748,E,083210.00,A,A*6A
$GNRMC,083211.00,A,0419.73380,S,05539.77737,E,0.136,,220525,,,A*76
$GNVTG,,T,,M,0.136,N,0.251,K,A*3F
$GNGGA,083211.00,0419.73380,S,05539.77737,E,1,12,0.80,19.5,M,-47.6,M,,*42
$GNGSA,A,3,25,10,15,12,29,18,24,26,,,,,1.60,0.80,1.38*18
$GNGSA,A,3,72,76,75,71,,,,,,,,,1.60,0.80,1.38*19
$GPGSV,5,1,18,10,42,237,40,12,37,154,25,13,04,063,10,15,40,073,37*73
$GPGSV,5,2,18,18,19,339,12,23,66,309,19,24,17,138,08,25,67,189,26*7F
$GPGSV,5,3,18,26,07,314,17,28,12,248,15,29,37,025,29,31,01,269,*7B
$GPGSV,5,4,18,32,13,208,,36,52,277,,40,85,352,,41,58,082,*77
$GPGSV,5,5,18,49,32,274,,50,10,089,*78
$GLGSV,3,1,09,65,30,192,,71,29,045,08,72,66,109,10,75,34,186,12*65
$GLGSV,3,2,09,76,44,268,23,77,13,308,,85,00,067,,86,07,016,*6A
$GLGSV,3,3,09,87,02,335,*54
$GNGLL,0419.73380,S,05539.77737,E,083211.00,A,A*69
$GNRMC,083212.00,A,0419.73401,S,05539.77738,E,0.041,,220525,,,A*75
$GNVTG,,T,,M,0.041,N,0.076,K,A*39
$GNGGA,083212.00,0419.73401,S,05539.77738,E,1,12,0.95,17.1,M,-47.6,M,,*4E
$GNGSA,A,3,25,23,10,15,12,29,18,24,26,,,,2.08,0.95,1.86*15
$GNGSA,A,3,72,76,75,71,,,,,,,,,2.08,0.95,1.86*15
$GPGSV,5,1,18,10,42,237,39,12,37,154,26,13,04,063,09,15,40,073,36*77
$GPGSV,5,2,18,18,19,339,14,23,66,309,21,24,17,138,08,25,67,189,26*72
$GPGSV,5,3,18,26,07,314,17,28,12,248,15,29,37,025,30,31,01,269,*73
$GPGSV,5,4,18,32,13,208,,36,52,277,,40,85,352,,41,58,082,*77
$GPGSV,5,5,18,49,32,274,,50,10,089,*78
$GLGSV,3,1,09,65,30,192,,71,29,045,08,72,66,109,12,75,33,186,13*61
$GLGSV,3,2,09,76,44,268,24,77,13,308,,85,00,067,,86,07,016,*6D
$GLGSV,3,3,09,87,02,335,*54
$GNGLL,0419.73401,S,05539.77738,E,083212.00,A,A*6B
$GNRMC,083213.00,A,0419.73415,S,05539.77742,E,0.054,,220525,,,A*78
$GNVTG,,T,,M,0.054,N,0.101,K,A*3C
$GNGGA,083213.00,0419.73415,S,05539.77742,E,1,12,1.04,16.1,M,-47.6,M,,*4F
$GNGSA,A,3,25,23,10,15,12,29,18,24,26,,,,2.54,1.04,2.32*19
$GNGSA,A,3,76,75,71,,,,,,,,,,2.54,1.04,2.32*1C
$GPGSV,5,1,18,10,42,237,38,12,37,154,26,13,04,063,09,15,40,073,34*74
$GPGSV,5,2,18,18,19,339,12,23,66,309,22,24,17,138,08,25,67,189,24*75
$GPGSV,5,3,18,26,07,314,16,28,12,248,15,29,37,025,29,31,01,269,*7A
$GPGSV,5,4,18,32,13,208,,36,52,277,,40,85,352,,41,58,082,*77
$GPGSV,5,5,18,49,32,274,,50,10,089,*78
$GLGSV,3,1,09,65,30,192,,71,29,045,08,72,66,109,09,75,33,186,13*6B
$GLGSV,3,2,09,76,44,267,24,77,13,308,,85,00,067,,86,07,016,*62
$GLGSV,3,3,09,87,02,335,*54
$GNGLL,0419.73415,S,05539.77742,E,083213.00,A,A*62
$GNRMC,083214.00,A,0419.73421,S,05539.77739,E,0.007,,220525,,,A*72
$GNVTG,,T,,M,0.007,N,0.013,K,A*38
$GNGGA,083214.00,0419.73421,S,05539.77739,E,1,12,0.90,14.2,M,-47.6,M,,*4E
$GNGSA,A,3,25,23,10,15,12,29,18,24,26,,,,1.75,0.90,1.50*12
$GNGSA,A,3,72,76,75,71,,,,,,,,,1.75,0.90,1.50*12
$GPGSV,5,1,18,10,42,237,38,12,37,154,26,13,04,063,08,15,40,073,34*75
$GPGSV,5,2,18,18,19,339,13,23,66,309,22,24,17,138,09,25,67,189,23*72
$GPGSV,5,3,18,26,07,314,20,28,12,248,15,29,37,025,29,31,01,269,*7F
$GPGSV,5,4,18,32,13,208,,36,52,277,,40,85,352,,41,58,082,*77
$GPGSV,5,5,18,49,32,274,,50,10,089,*78
$GLGSV,3,1,09,65,30,192,,71,29,045,08,72,66,109,11,75,33,186,17*66
$GLGSV,3,2,09,76,44,267,24,77,13,307,,85,00,067,,86,07,016,*6D
$GLGSV,3,3,09,87,02,335,*54
$GNGLL,0419.73421,S,05539.77739,E,083214.00,A,A*6E
$GNRMC,083215.00,A,0419.73425,S,05539.77733,E,0.048,,220525,,,A*76
$GNVTG,,T,,M,0.048,N,0.088,K,A*31
$GNGGA,083215.00,0419.73425,S,05539.77733,E,1,12,0.74,12.5,M,-47.6,M,,*4A
$GNGSA,A,3,25,23,10,15,12,29,18,24,26,,,,1.43,0.74,1.22*18
$GNGSA,A,3,72,76,75,71,,,,,,,,,1.43,0.74,1.22*18
$GPGSV,5,1,18,10,42,237,38,12,37,154,27,13,04,063,07,15,40,073,35*7A
$GPGSV,5,2,18,18,19,339,16,23,66,309,24,24,17,138,09,25,67,189,22*70
$GPGSV,5,3,18,26,07,314,21,28,12,248,14,29,37,025,29,31,01,269,*7F
$GPGSV,5,4,18,32,13,208,,36,52,277,,40,85,352,,41,58,082,*77
$GPGSV,5,5,18,49,32,274,,50,10,089,*78
$GLGSV,3,1,09,65,30,192,,71,29,045,08,72,66,109,11,75,33,186,19*68
$GLGSV,3,2,09,76,44,267,25,77,13,307,,85,00,067,,86,07,016,*6C
$GLGSV,3,3,09,87,02,335,*54
$GNGLL,0419.73425,S,05539.77733,E,083215.00,A,A*61
$GNRMC,083216.00,A,0419.73432,S,05539.77728,E,0.032,,220525,,,A*74
$GNVTG,,T,,M,0.032,N,0.059,K,A*30
$GNGGA,083216.00,0419.73432,S,05539.77728,E,1,12,0.74,11.5,M,-47.6,M,,*46
$GNGSA,A,3,25,23,10,15,12,29,18,24,26,,,,1.43,0.74,1.22*18
$GNGSA,A,3,72,76,75,71,,,,,,,,,1.43,0.74,1.22*18
$GPGSV,5,1,18,10,42,237,38,12,37,154,26,13,04,063,07,15,40,073,36*78
$GPGSV,5,2,18,18,19,339,18,23,66,309,25,24,17,138,09,25,67,189,21*7C
$GPGSV,5,3,18,26,07,314,22,28,12,248,15,29,37,025,29,31,01,269,*7D
$GPGSV,5,4,18,32,13,208,,36,52,277,,40,85,352,,41,58,082,*77
$GPGSV,5,5,18,49,32,274,,50,10,089,*78
$GLGSV,3,1,09,65,30,192,,71,29,045,08,72,66,109,11,75,33,186,19*68
$GLGSV,3,2,09,76,44,267,25,77,13,307,,85,00,067,,86,07,016,*6C
$GLGSV,3,3,09,87,02,335,*54
$GNGLL,0419.73432,S,05539.77728,E,083216.00,A,A*6E
$GNRMC,083217.00,A,0419.73430,S,05539.77720,E,0.018,,220525,,,A*77
$GNVTG,,T,,M,0.018,N,0.034,K,A*33
$GNGGA,083217.00,0419.73430,S,05539.77720,E,1,11,0.85,10.1,M,-47.6,M,,*45
$GNGSA,A,3,25,23,10,15,12,29,18,26,,,,,1.78,0.85,1.57*1A
$GNGSA,A,3,76,75,71,,,,,,,,,,1.78,0.85,1.57*19
$GPGSV,5,1,18,10,42,237,38,12,37,154,27,13,04,063,08,15,40,073,37*77
$GPGSV,5,2,18,18,19,339,19,23,66,309,25,24,17,138,,25,67,189,20*75
$GPGSV,5,3,18,26,07,314,23,28,12,248,15,29,37,025,29,31,01,269,*7C
$GPGSV,5,4,18,32,13,208,,36,52,277,,40,85,352,,41,58,082,*77
$GPGSV,5,5,18,49,32,274,,50,10,089,*78
$GLGSV,3,1,09,65,30,192,,71,29,045,10,72,66,109,,75,33,186,19*61
$GLGSV,3,2,09,76,44,267,25,77,13,307,,85,00,067,,86,07,016,*6C
$GLGSV,3,3,09,87,02,335,*54
$GNGLL,0419.73430,S,05539.77720,E,083217.00,A,A*65
$GNRMC,083218.00,A,0419.73421,S,05539.77710,E,0.041,,220525,,,A*77
$GNVTG,,T,,M,0.041,N,0.075,K,A*3A
$GNGGA,083218.00,0419.73421,S,05539.77710,E,1,11,0.85,9.5,M,-47.6,M,,*75
$GNGSA,A,3,25,23,10,15,12,29,18,26,,,,,1.78,0.85,1.57*1A
$GNGSA,A,3,76,75,71,,,,,,,,,,1.78,0.85,1.57*19
$GPGSV,5,1,18,10,42,237,38,12,37,154,27,13,04,063,08,15,40,073,37*77
$GPGSV,5,2,18,18,19,339,18,23,66,309,26,24,17,138,,25,67,189,19*7D
$GPGSV,5,3,18,26,07,314,24,28,12,248,15,29,37,025,30,31,01,269,*73
$GPGSV,5,4,18,32,13,208,,36,52,277,,40,85,352,,41,58,082,*77
$GPGSV,5,5,18,49,32,274,,50,10,089,*78
$GLGSV,3,1,09,65,30,192,,71,29,045,10,72,66,109,,75,33,186,20*6B
$GLGSV,3,2,09,76,44,267,25,77,13,307,,85,00,067,,86,07,016,*6C
$GLGSV,3,3,09,87,02,335,*54
$GNGLL,0419.73421,S,05539.77710,E,083218.00,A,A*69
$GNRMC,083219.00,A,0419.73419,S,05539.77703,E,0.074,,220525,,,A*79
$GNVTG,,T,,M,0.074,N,0.137,K,A*3B
$GNGGA,083219.00,0419.73419,S,05539.77703,E,1,11,0.85,8.5,M,-47.6,M,,*7C
$GNGSA,A,3,25,23,10,15,12,29,18,26,,,,,1.78,0.85,1.57*1A
$GNGSA,A,3,76,75,71,,,,,,,,,,1.78,0.85,1.57*19
$GPGSV,5,1,18,10,42,237,38,12,37,154,26,13,04,063,08,15,40,073,37*76
$GPGSV,5,2,18,18,19,339,15,23,66,309,25,24,17,138,,25,67,189,18*72
$GPGSV,5,3,18,26,07,314,25,28,12,248,14,29,37,025,32,31,01,269,*71
$GPGSV,5,4,18,32,13,208,,36,52,277,,40,85,352,,41,58,082,*77
$GPGSV,5,5,18,49,32,274,,50,10,089,*78
$GLGSV,3,1,09,65,30,192,,71,29,045,14,72,66,109,,75,33,186,20*6F
$GLGSV,3,2,09,76,44,267,22,77,13,307,,85,00,067,,86,07,016,*6B
$GLGSV,3,3,09,87,02,335,*54
$GNGLL,0419.73419,S,05539.77703,E,083219.00,A,A*61
$GNRMC,083220.00,A,0419.73415,S,05539.77697,E,0.079,,220525,,,A*7E
$GNVTG,,T,,M,0.079,N,0.147,K,A*31
$GNGGA,083220.00,0419.73415,S,05539.77697,E,1,10,0.92,8.2,M,-47.6,M,,*76
$GNGSA,A,3,25,23,10,15,12,29,18,26,,,,,1.82,0.92,1.58*16
$GNGSA,A,3,76,75,,,,,,,,,,,1.82,0.92,1.58*13
$GPGSV,5,1,18,10,42,237,38,12,37,154,26,13,04,063,09,15,40,073,37*77
$GPGSV,5,2,18,18,19,339,11,23,66,309,24,24,17,138,,25,67,189,14*7B
$GPGSV,5,3,18,26,07,314,24,28,12,248,15,29,37,025,32,31,01,269,*71
$GPGSV,5,4,18,32,13,208,,36,52,277,,40,85,352,,41,58,082,*77
$GPGSV,5,5,18,49,32,274,,50,10,089,*78
$GLGSV,3,1,09,65,30,192,,71,29,045,,72,66,109,,75,33,186,18*61
$GLGSV,3,2,09,76,44,267,22,77,13,307,,85,00,067,,86,07,016,*6B
$GLGSV,3,3,09,87,02,335,*54
$GNGLL,0419.73415,S,05539.77697,E,083220.00,A,A*6B
$GNRMC,083221.00,A,0419.73415,S,05539.77694,E,0.148,,220525,,,A*7F
$GNVTG,,T,,M,0.148,N,0.274,K,A*31
$GNGGA,083221.00,0419.73415,S,05539.77694,E,1,08,0.95,7.6,M,-47.6,M,,*71
$GNGSA,A,3,23,10,15,12,29,26,,,,,,,2.03,0.95,1.79*16
$GNGSA,A,3,76,75,,,,,,,,,,,2.03,0.95,1.79*1D
$GPGSV,5,1,18,10,42,237,38,12,37,154,26,13,04,063,11,15,40,073,37*7E
$GPGSV,5,2,18,18,19,339,09,23,66,309,22,24,17,138,,25,67,189,10*70
$GPGSV,5,3,18,26,07,314,24,28,12,248,17,29,37,025,30,31,01,269,*71
$GPGSV,5,4,18,32,13,208,,36,52,277,,40,85,352,,41,58,082,*77
$GPGSV,5,5,18,49,32,274,,50,10,089,*78
$GLGSV,3,1,09,65,30,192,,71,29,045,,72,66,109,,75,33,186,18*61
$GLGSV,3,2,09,76,44,267,22,77,13,307,,85,00,067,,86,07,016,*6B
$GLGSV,3,3,09,87,02,335,*54
$GNGLL,0419.73415,S,05539.77694,E,083221.00,A,A*69
$GNRMC,083222.00,A,0419.73417,S,05539.77692,E,0.143,,220525,,,A*73
$GNVTG,,T,,M,0.143,N,0.264,K,A*3B
$GNGGA,083222.00,0419.73417,S,05539.77692,E,1,09,0.92,8.2,M,-47.6,M,,*7B
$GNGSA,A,3,23,10,15,12,29,18,26,,,,,,1.96,0.92,1.73*1D
$GNGSA,A,3,76,75,,,,,,,,,,,1.96,0.92,1.73*1F
$GPGSV,5,1,18,10,42,237,37,12,37,154,24,13,04,063,09,15,40,073,36*7B
$GPGSV,5,2,18,18,19,339,13,23,66,309,23,24,17,138,,25,67,189,19*73
$GPGSV,5,3,18,26,07,314,23,28,12,248,16,29,37,025,30,31,01,269,*77
$GPGSV,5,4,18,32,13,208,,36,52,277,,40,85,352,,41,58,082,*77
$GPGSV,5,5,18,49,32,274,,50,10,089,*78
$GLGSV,3,1,09,65,30,192,,71,29,045,,72,66,109,,75,33,186,15*6C
$GLGSV,3,2,09,76,44,267,22,77,13,307,,85,00,068,,86,07,016,*64
$GLGSV,3,3,09,87,02,335,*54
$GNGLL,0419.73417,S,05539.77692,E,083222.00,A,A*6E
$GNRMC,083223.00,A,0419.73426,S,05539.77693,E,0.113,,220525,,,A*74
$GNVTG,,T,,M,0.113,N,0.210,K,A*3D
$GNGGA,083223.00,0419.73426,S,05539.77693,E,1,09,0.92,7.2,M,-47.6,M,,*76
$GNGSA,A,3,23,10,15,12,29,18,26,,,,,,1.96,0.92,1.73*1D
$GNGSA,A,3,76,75,,,,,,,,,,,1.96,0.92,1.73*1F
$GPGSV,5,1,18,10,42,237,37,12,37,154,25,13,04,063,08,15,40,073,36*7B
$GPGSV,5,2,18,18,19,339,12,23,66,309,22,24,17,138,,25,67,189,20*79
$GPGSV,5,3,18,26,07,314,23,28,12,248,15,29,37,025,30,31,01,269,*74
$GPGSV,5,4,18,32,13,208,,36,52,277,,40,85,352,,41,58,082,*77
$GPGSV,5,5,18,49,32,274,,50,10,089,*78
$GLGSV,3,1,09,65,30,192,,71,29,045,19,72,66,109,,75,33,186,14*65
$GLGSV,3,2,09,76,44,267,21,77,13,307,,85,00,068,,86,08,017,*69
$GLGSV,3,3,09,87,02,335,*54
$GNGLL,0419.73426,S,05539.77693,E,083223.00,A,A*6C
$GNRMC,083224.00,A,0419.73438,S,05539.77697,E,0.407,,220525,,,A*78
$GNVTG,,T,,M,0.407,N,0.754,K,A*38
$GNGGA,083224.00,0419.73438,S,05539.77697,E,1,09,0.92,7.0,M,-47.6,M,,*78
$GNGSA,A,3,23,10,15,12,29,18,26,,,,,,1.96,0.92,1.73*1D
$GNGSA,A,3,76,75,,,,,,,,,,,1.96,0.92,1.73*1F
$GPGSV,5,1,18,10,42,237,38,12,37,154,24,13,04,063,07,15,40,073,35*79
$GPGSV,5,2,18,18,19,339,10,23,66,309,25,24,17,138,,25,67,189,20*7C
$GPGSV,5,3,18,26,07,314,22,28,12,248,12,29,37,025,29,31,01,269,*7A
$GPGSV,5,4,18,32,13,208,,36,52,277,,40,85,352,,41,58,082,*77
$GPGSV,5,5,18,49,32,274,,50,10,089,*78
$GLGSV,3,1,09,65,30,192,,71,29,045,19,72,66,109,,75,33,186,16*67
$GLGSV,3,2,09,76,44,267,20,77,13,307,,85,00,068,,86,08,017,*68
$GLGSV,3,3,09,87,02,336,*57
$GNGLL,0419.73438,S,05539.77697,E,083224.00,A,A*60
$GNRMC,083225.00,A,0419.73439,S,05539.77694,E,0.225,,220525,,,A*7D
$GNVTG,,T,,M,0.225,N,0.417,K,A*3A
$GNGGA,083225.00,0419.73439,S,05539.77694,E,1,10,0.91,6.4,M,-47.6,M,,*75
$GNGSA,A,3,25,23,10,15,12,29,18,26,,,,,1.82,0.91,1.58*15
$GNGSA,A,3,76,75,,,,,,,,,,,1.82,0.91,1.58*10
$GPGSV,5,1,18,10,42,237,38,12,37,154,25,13,04,063,07,15,40,073,35*78
$GPGSV,5,2,18,18,19,339,17,23,66,309,26,24,17,138,,25,67,189,20*78
$GPGSV,5,3,18,26,07,314,22,28,12,248,13,29,37,025,29,31,01,269,*7B
$GPGSV,5,4,18,32,13,208,,36,52,277,,40,85,352,,41,58,082,*77
$GPGSV,5,5,18,49,32,274,,50,10,089,*78
$GLGSV,3,1,09,65,30,192,,71,29,045,19,72,66,109,,75,33,186,18*69
$GLGSV,3,2,09,76,44,267,19,77,13,307,,85,00,068,,86,08,017,*62
$GLGSV,3,3,09,87,02,336,*57
$GNGLL,0419.73439,S,05539.77694,E,083225.00,A,A*63
$GNRMC,083226.00,A,0419.73443,S,05539.77694,E,0.031,,220525,,,A*74
$GNVTG,,T,,M,0.031,N,0.058,K,A*32
$GNGGA,083226.00,0419.73443,S,05539.77694,E,1,11,0.91,5.6,M,-47.6,M,,*7B
$GNGSA,A,3,25,23,10,15,12,29,18,26,,,,,1.82,0.91,1.58*15
$GNGSA,A,3,76,75,71,,,,,,,,,,1.82,0.91,1.58*16
$GPGSV,5,1,18,10,42,237,37,12,37,154,25,13,04,063,07,15,40,073,36*74
$GPGSV,5,2,18,18,19,339,16,23,66,309,26,24,17,138,,25,67,189,19*73
$GPGSV,5,3,18,26,07,314,20,28,12,248,16,29,37,025,29,31,01,269,*7C
$GPGSV,5,4,18,32,13,208,,36,52,277,,40,85,352,,41,58,082,*77
$GPGSV,5,5,18,49,32,274,,50,10,089,*78
$GLGSV,3,1,09,65,30,192,,71,29,045,18,72,66,109,,75,33,186,17*67
$GLGSV,3,2,09,76,44,267,21,77,13,307,,85,00,068,,86,08,017,*69
$GLGSV,3,3,09,87,02,336,*57
$GNGLL,0419.73443,S,05539.77694,E,083226.00,A,A*6D
$GNRMC,083227.00,A,0419.73440,S,05539.77690,E,0.239,,220525,,,A*78
$GNVTG,,T,,M,0.239,N,0.442,K,A*37
$GNGGA,083227.00,0419.73440,S,05539.77690,E,1,11,0.91,5.0,M,-47.6,M,,*7B
$GNGSA,A,3,25,23,10,15,12,29,18,26,,,,,1.82,0.91,1.58*15
$GNGSA,A,3,76,75,71,,,,,,,,,,1.82,0.91,1.58*16
$GPGSV,5,1,18,10,42,237,37,12,37,154,24,13,04,063,08,15,40,073,36*7A
$GPGSV,5,2,18,18,19,339,16,23,66,309,24,24,17,138,,25,67,189,20*7B
$GPGSV,5,3,18,26,07,314,20,28,12,248,18,29,37,025,28,31,01,269,*73
$GPGSV,5,4,18,32,13,208,,36,52,277,,40,85,352,,41,58,082,*77
$GPGSV,5,5,18,49,32,274,,50,10,089,*78
$GLGSV,3,1,09,65,30,192,,71,29,045,20,72,66,109,,75,33,186,18*63
$GLGSV,3,2,09,76,44,267,21,77,13,307,,85,00,068,,86,08,017,*69
$GLGSV,3,3,09,87,02,336,*57
$GNGLL,0419.73440,S,05539.77690,E,083227.00,A,A*6B
$GNRMC,083228.00,A,0419.73433,S,05539.77685,E,0.128,,220525,,,A*74
$GNVTG,,T,,M,0.128,N,0.237,K,A*30
$GNGGA,083228.00,0419.73433,S,05539.77685,E,1,11,0.91,4.8,M,-47.6,M,,*7D
$GNGSA,A,3,25,23,10,15,12,29,18,26,,,,,1.82,0.91,1.58*15
$GNGSA,A,3,76,75,71,,,,,,,,,,1.82,0.91,1.58*16
$GPGSV,5,1,18,10,42,237,37,12,37,154,23,13,04,063,,15,40,073,35*76
$GPGSV,5,2,18,18,19,339,16,23,66,309,24,24,17,138,04,25,67,189,20*7F
$GPGSV,5,3,18,26,07,314,21,28,12,248,19,29,37,025,28,31,01,269,*73
$GPGSV,5,4,18,32,13,208,,36,52,277,,40,85,352,,41,58,082,*77
$GPGSV,5,5,18,49,32,274,,50,10,089,*78
$GLGSV,3,1,09,65,30,192,,71,29,045,20,72,66,109,,75,33,186,19*62
$GLGSV,3,2,09,76,44,267,21,77,13,307,,85,00,068,,86,08,017,*69
$GLGSV,3,3,09,87,02,336,*57
$GNGLL,0419.73433,S,05539.77685,E,083228.00,A,A*64
$GNRMC,083229.00,A,0419.73434,S,05539.77685,E,0.139,,220525,,,A*72
$GNVTG,,T,,M,0.139,N,0.257,K,A*36
$GNGGA,083229.00,0419.73434,S,05539.77685,E,1,11,0.91,4.9,M,-47.6,M,,*7A
$GNGSA,A,3,25,23,10,15,12,29,18,26,,,,,1.82,0.91,1.58*15
$GNGSA,A,3,76,75,71,,,,,,,,,,1.82,0.91,1.58*16
$GPGSV,5,1,18,10,42,237,36,12,37,154,21,13,04,063,,15,40,073,35*75
$GPGSV,5,2,18,18,19,339,16,23,66,309,24,24,17,138,06,25,67,189,18*76
$GPGSV,5,3,18,26,07,314,21,28,12,248,18,29,37,025,29,31,01,269,*73
$GPGSV,5,4,18,32,13,208,,36,52,277,,40,85,352,,41,58,082,*77
$GPGSV,5,5,18,49,32,274,,50,10,089,*78
$GLGSV,3,1,09,65,30,192,,71,29,045,20,72,66,109,,75,33,186,18*63
$GLGSV,3,2,09,76,44,267,19,77,13,307,,85,00,068,,86,08,017,*62
$GLGSV,3,3,09,87,02,336,*57
$GNGLL,0419.73434,S,05539.77685,E,083229.00,A,A*62
$GNRMC,083230.00,A,0419.73431,S,05539.77684,E,0.140,,220525,,,A*70
$GNVTG,,T,,M,0.140,N,0.260,K,A*3C
$GNGGA,083230.00,0419.73431,S,05539.77684,E,1,11,0.91,5.2,M,-47.6,M,,*7C
$GNGSA,A,3,25,23,10,15,12,29,18,26,,,,,1.82,0.91,1.58*15
$GNGSA,A,3,76,75,71,,,,,,,,,,1.82,0.91,1.58*16
$GPGSV,5,1,18,10,42,237,37,12,37,154,20,13,04,063,,15,40,073,35*75
$GPGSV,5,2,18,18,19,339,16,23,66,309,25,24,17,138,08,25,67,189,18*79
$GPGSV,5,3,18,26,07,314,22,28,12,248,16,29,37,025,29,31,01,269,*7E
$GPGSV,5,4,18,32,13,208,,36,52,277,,40,85,352,,41,58,082,*77
$GPGSV,5,5,18,49,32,274,,50,10,089,*78
$GLGSV,3,1,09,65,30,192,,71,29,045,21,72,66,109,,75,33,186,18*62
$GLGSV,3,2,09,76,44,267,20,77,13,307,,85,00,068,,86,08,017,*68
$GLGSV,3,3,09,87,02,336,*57
$GNGLL,0419.73431,S,05539.77684,E,083230.00,A,A*6E
$GNRMC,083231.00,A,0419.73435,S,05539.77689,E,0.412,,220525,,,A*7A
$GNVTG,,T,,M,0.412,N,0.763,K,A*38
$GNGGA,083231.00,0419.73435,S,05539.77689,E,1,12,0.82,5.3,M,-47.6,M,,*74
$GNGSA,A,3,25,23,10,15,12,29,18,24,26,,,,1.55,0.82,1.32*17
$GNGSA,A,3,76,75,71,,,,,,,,,,1.55,0.82,1.32*12
$GPGSV,5,1,18,10,42,237,37,12,37,154,19,13,04,063,,15,39,072,35*70
$GPGSV,5,2,18,18,19,339,14,23,66,309,23,24,17,138,08,25,67,189,19*7C
$GPGSV,5,3,18,26,07,314,21,28,12,248,17,29,37,025,28,31,01,269,*7D
$GPGSV,5,4,18,32,13,208,,36,52,277,,40,85,352,,41,58,082,*77
$GPGSV,5,5,18,49,32,274,,50,10,089,*78
$GLGSV,3,1,09,65,30,192,,71,29,045,21,72,66,109,,75,33,186,19*63
$GLGSV,3,2,09,76,44,267,19,77,13,307,,85,00,068,,86,08,017,*62
$GLGSV,3,3,09,87,02,336,*57
$GNGLL,0419.73435,S,05539.77689,E,083231.00,A,A*66
$GNRMC,083232.00,A,0419.73437,S,05539.77689,E,0.082,,220525,,,A*76
$GNVTG,,T,,M,0.082,N,0.152,K,A*31
$GNGGA,083232.00,0419.73437,S,05539.77689,E,1,12,0.82,4.6,M,-47.6,M,,*71
$GNGSA,A,3,25,23,10,15,12,29,18,24,26,,,,1.55,0.82,1.32*17
$GNGSA,A,3,76,75,71,,,,,,,,,,1.55,0.82,1.32*12
$GPGSV,5,1,18,10,42,237,38,12,37,154,19,13,04,063,,15,39,072,35*7F
$GPGSV,5,2,18,18,19,339,14,23,66,309,23,24,17,138,08,25,67,189,18*7D
$GPGSV,5,3,18,26,07,314,22,28,12,248,17,29,37,025,29,31,01,269,*7F
$GPGSV,5,4,18,32,13,208,,36,52,277,,40,85,352,,41,58,082,*77
$GPGSV,5,5,18,49,32,274,,50,10,089,*78
$GLGSV,3,1,09,65,30,192,,71,29,045,21,72,66,109,,75,33,186,20*69
$GLGSV,3,2,09,76,44,267,16,77,13,307,,85,00,068,,86,08,017,*6D
$GLGSV,3,3,09,87,02,336,*57
$GNGLL,0419.73437,S,05539.77689,E,083232.00,A,A*67
$GNRMC,083233.00,A,0419.73439,S,05539.77691,E,0.058,,220525,,,A*77
$GNVTG,,T,,M,0.058,N,0.107,K,A*36
$GNGGA,083233.00,0419.73439,S,05539.77691,E,1,11,0.91,5.0,M,-47.6,M,,*71
$GNGSA,A,3,25,23,10,15,12,29,18,26,,,,,1.82,0.91,1.58*15
$GNGSA,A,3,76,75,71,,,,,,,,,,1.82,0.91,1.58*16
$GPGSV,5,1,18,10,42,237,37,12,37,154,19,13,04,063,,15,39,072,35*70
$GPGSV,5,2,18,18,19,339,14,23,66,309,23,24,17,138,08,25,67,189,20*76
$GPGSV,5,3,18,26,07,314,23,28,12,248,16,29,37,025,31,31,01,269,*76
$GPGSV,5,4,18,32,13,208,,36,52,277,,40,85,352,,41,58,082,*77
$GPGSV,5,5,18,49,32,274,,50,10,089,*78
$GLGSV,3,1,09,65,30,192,,71,29,045,20,72,66,109,,75,33,186,20*68
$GLGSV,3,2,09,76,44,267,16,77,13,307,,85,00,068,,86,08,017,*6D
$GLGSV,3,3,09,87,02,336,*57
$GNGLL,0419.73439,S,05539.77691,E,083233.00,A,A*61
$GNRMC,083234.00,A,0419.73443,S,05539.77693,E,0.111,,220525,,,A*73
$GNVTG,,T,,M,0.111,N,0.206,K,A*38
$GNGGA,083234.00,0419.73443,S,05539.77693,E,1,12,0.82,4.7,M,-47.6,M,,*7E
$GNGSA,A,3,25,23,10,15,12,29,18,24,26,,,,1.55,0.82,1.32*17
$GNGSA,A,3,76,75,71,,,,,,,,,,1.55,0.82,1.32*12
$GPGSV,5,1,18,10,42,237,39,12,37,154,20,13,04,063,,15,39,072,37*76
$GPGSV,5,2,18,18,19,339,14,23,66,309,24,24,17,138,10,25,67,189,22*7A
$GPGSV,5,3,18,26,07,314,23,28,12,248,14,29,37,025,31,31,01,269,*74
$GPGSV,5,4,18,32,13,208,,36,52,277,,40,85,352,,41,58,082,*77
$GPGSV,5,5,18,49,32,274,,50,10,089,*78
$GLGSV,3,1,09,65,30,192,,71,29,045,19,72,66,109,,75,33,186,20*62
$GLGSV,3,2,09,76,44,267,17,77,13,307,,85,00,068,,86,08,017,*6C
$GLGSV,3,3,09,87,02,336,*57
$GNGLL,0419.73443,S,05539.77693,E,083234.00,A,A*69
$GNRMC,083235.00,A,0419.73447,S,05539.77695,E,0.080,,220525,,,A*79
$GNVTG,,T,,M,0.080,N,0.147,K,A*37
$GNGGA,083235.00,0419.73447,S,05539.77695,E,1,12,0.91,5.0,M,-47.6,M,,*79
$GNGSA,A,3,25,23,10,15,12,29,18,24,26,,,,1.82,0.91,1.58*13
$GNGSA,A,3,76,75,71,,,,,,,,,,1.82,0.91,1.58*16
$GPGSV,5,1,18,10,42,238,37,12,37,154,20,13,04,063,,15,39,072,35*75
$GPGSV,5,2,18,18,19,339,14,23,66,309,23,24,17,138,11,25,67,189,22*7C
$GPGSV,5,3,18,26,07,314,22,28,12,248,13,29,37,025,31,31,01,269,*72
$GPGSV,5,4,18,32,13,208,,36,52,277,,40,85,352,,41,58,082,*77
$GPGSV,5,5,18,49,32,274,,50,10,089,*78
$GLGSV,3,1,09,65,30,192,,71,29,045,19,72,66,109,,75,33,186,21*63
$GLGSV,3,2,09,76,44,267,17,77,13,307,,85,00,068,,86,08,017,*6C
$GLGSV,3,3,09,87,02,336,*57
$GNGLL,0419.73447,S,05539.77695,E,083235.00,A,A*6A
$GNRMC,083236.00,A,0419.73449,S,05539.77698,E,0.079,,220525,,,A*7F
$GNVTG,,T,,M,0.079,N,0.147,K,A*31
$GNGGA,083236.00,0419.73449,S,05539.77698,E,1,12,0.82,5.2,M,-47.6,M,,*79
$GNGSA,A,3,25,23,10,15,12,29,18,24,26,,,,1.55,0.82,1.32*17
$GNGSA,A,3,76,75,71,,,,,,,,,,1.55,0.82,1.32*12
$GPGSV,5,1,18,10,42,238,36,12,37,154,21,13,04,063,,15,39,072,35*75
$GPGSV,5,2,18,18,19,339,14,23,66,309,23,24,17,138,11,25,67,189,22*7C
$GPGSV,5,3,18,26,07,314,22,28,12,248,13,29,37,025,30,31,01,269,*73
$GPGSV,5,4,18,32,13,208,,36,52,277,,40,85,352,,41,58,082,*77
$GPGSV,5,5,18,49,32,274,,50,10,089,*78
$GLGSV,3,1,09,65,30,192,,71,29,045,19,72,66,109,,75,33,186,22*60
$GLGSV,3,2,09,76,44,267,17,77,13,307,,85,00,068,,86,08,017,*6C
$GLGSV,3,3,09,87,02,336,*57
$GNGLL,0419.73449,S,05539.77698,E,083236.00,A,A*6A
$GNRMC,083237.00,A,0419.73457,S,05539.77700,E,0.151,,220525,,,A*7A
$GNVTG,,T,,M,0.151,N,0.280,K,A*32
$GNGGA,083237.00,0419.73457,S,05539.77700,E,1,12,0.82,4.5,M,-47.6,M,,*71
$GNGSA,A,3,25,23,10,15,12,29,18,24,26,,,,1.55,0.82,1.32*17
$GNGSA,A,3,76,75,71,,,,,,,,,,1.55,0.82,1.32*12
$GPGSV,5,1,18,10,42,238,36,12,36,154,22,13,04,063,,15,39,072,35*77
$GPGSV,5,2,18,18,19,339,17,23,66,309,23,24,17,138,12,25,67,189,22*7C
$GPGSV,5,3,18,26,07,314,23,28,12,248,14,29,37,025,30,31,01,269,*75
$GPGSV,5,4,18,32,13,208,,36,52,277,,40,85,352,,41,58,082,*77
$GPGSV,5,5,18,49,32,274,,50,10,089,*78
$GLGSV,3,1,09,65,30,192,,71,29,045,18,72,66,109,,75,33,186,21*62
$GLGSV,3,2,09,76,44,267,17,77,13,307,,85,00,068,,86,08,017,*6C
$GLGSV,3,3,09,87,02,336,*57
$GNGLL,0419.73457,S,05539.77700,E,083237.00,A,A*64
$GNRMC,083238.00,A,0419.73459,S,05539.77702,E,0.041,,220525,,,A*79
$GNVTG,,T,,M,0.041,N,0.075,K,A*3A
$GNGGA,083238.00,0419.73459,S,05539.77702,E,1,12,0.91,5.3,M,-47.6,M,,*77
$GNGSA,A,3,25,23,10,15,12,29,18,24,26,,,,1.82,0.91,1.58*13
$GNGSA,A,3,76,75,71,,,,,,,,,,1.82,0.91,1.58*16
$GPGSV,5,1,18,10,42,238,38,12,36,154,20,13,04,062,,15,39,072,35*7A
$GPGSV,5,2,18,18,19,339,14,23,66,309,22,24,17,138,17,25,67,189,22*7B
$GPGSV,5,3,18,26,07,314,21,28,12,248,14,29,37,025,30,31,01,269,*77
$GPGSV,5,4,18,32,13,208,,36,52,277,,40,85,352,,41,58,082,*77
$GPGSV,5,5,18,49,32,274,,50,10,089,*78
$GLGSV,3,1,09,65,30,192,,71,29,045,17,72,66,109,,75,33,186,21*6D
$GLGSV,3,2,09,76,44,267,18,77,13,307,,85,00,068,,86,08,017,*63
$GLGSV,3,3,09,87,02,336,*57
$GNGLL,0419.73459,S,05539.77702,E,083238.00,A,A*67
$GNRMC,083239.00,A,0419.73470,S,05539.77708,E,0.169,,220525,,,A*72
$GNVTG,,T,,M,0.169,N,0.313,K,A*32
$GNGGA,083239.00,0419.73470,S,05539.77708,E,1,12,0.82,5.1,M,-47.6,M,,*77
$GNGSA,A,3,25,23,10,15,12,29,18,24,26,,,,1.55,0.82,1.32*17
$GNGSA,A,3,76,75,71,,,,,,,,,,1.55,0.82,1.32*12
$GPGSV,5,1,18,10,42,238,37,12,36,154,20,13,04,062,,15,39,072,35*75
$GPGSV,5,2,18,18,19,339,14,23,66,309,21,24,17,138,17,25,67,189,24*7E
$GPGSV,5,3,18,26,07,314,20,28,12,248,14,29,37,025,31,31,01,269,*77
$GPGSV,5,4,18,32,13,208,,36,52,277,,40,85,352,,41,58,082,*77
$GPGSV,5,5,18,49,32,274,,50,10,089,*78
$GLGSV,3,1,09,65,30,192,,71,29,045,16,72,66,109,,75,33,186,21*6C
$GLGSV,3,2,09,76,44,267,18,77,13,307,,85,00,068,,86,08,017,*63
$GLGSV,3,3,09,87,02,336,*57
$GNGLL,0419.73470,S,05539.77708,E,083239.00,A,A*67
$GNRMC,083240.00,A,0419.73484,S,05539.77711,E,0.338,,220525,,,A*79
$GNVTG,,T,,M,0.338,N,0.625,K,A*34
$GNGGA,083240.00,0419.73484,S,05539.77711,E,1,12,0.82,4.5,M,-47.6,M,,*7F
$GNGSA,A,3,25,23,10,15,12,29,18,24,26,,,,1.55,0.82,1.32*17
$GNGSA,A,3,76,75,71,,,,,,,,,,1.55,0.82,1.32*12
$GPGSV,5,1,18,10,42,238,37,12,36,154,19,13,04,062,,15,39,072,35*7F
$GPGSV,5,2,18,18,19,339,14,23,66,309,21,24,17,138,17,25,67,189,25*7F
$GPGSV,5,3,18,26,07,314,20,28,12,248,15,29,37,025,30,31,01,269,*77
$GPGSV,5,4,18,32,13,208,,36,52,277,,40,85,352,,41,58,082,*77
$GPGSV,5,5,18,49,32,274,,50,10,089,*78
$GLGSV,3,1,09,65,30,192,25,71,29,045,16,72,66,109,,75,33,186,21*6B
$GLGSV,3,2,09,76,44,267,19,77,13,307,,85,00,068,,86,08,017,*62
$GLGSV,3,3,09,87,02,336,*57
$GNGLL,0419.73484,S,05539.77711,E,083240.00,A,A*6A
$GNRMC,083241.00,A,0419.73477,S,05539.77704,E,0.166,,220525,,,A*79
$GNVTG,,T,,M,0.166,N,0.307,K,A*38
$GNGGA,083241.00,0419.73477,S,05539.77704,E,1,11,0.79,4.9,M,-47.6,M,,*7D
$GNGSA,A,3,25,23,10,15,12,29,24,26,,,,,1.58,0.79,1.37*12
$GNGSA,A,3,76,75,71,,,,,,,,,,1.58,0.79,1.37*1E
$GPGSV,5,1,18,10,42,238,39,12,36,154,21,13,04,062,,15,39,072,35*7A
$GPGSV,5,2,18,18,19,339,,23,66,309,20,24,17,138,17,25,67,189,23*7D
$GPGSV,5,3,18,26,07,314,21,28,12,248,15,29,37,025,31,31,01,269,*77
$GPGSV,5,4,18,32,13,208,,36,52,277,,40,85,352,,41,58,082,*77
$GPGSV,5,5,18,49,32,274,,50,10,089,*78
$GLGSV,3,1,09,65,30,192,,71,29,045,15,72,66,109,,75,33,186,21*6F
$GLGSV,3,2,09,76,44,267,20,77,13,307,,85,00,068,,86,08,017,*68
$GLGSV,3,3,09,87,02,336,*57
$GNGLL,0419.73477,S,05539.77704,E,083241.00,A,A*63
$GNRMC,083242.00,A,0419.73470,S,05539.77695,E,0.450,,220525,,,A*74
$GNVTG,,T,,M,0.450,N,0.833,K,A*34
$GNGGA,083242.00,0419.73470,S,05539.77695,E,1,11,0.79,4.9,M,-47.6,M,,*70
$GNGSA,A,3,25,23,10,15,12,29,24,26,,,,,1.58,0.79,1.37*12
$GNGSA,A,3,76,75,71,,,,,,,,,,1.58,0.79,1.37*1E
$GPGSV,5,1,18,10,42,238,39,12,36,154,20,13,04,062,,15,39,072,27*78
$GPGSV,5,2,18,18,19,339,,23,66,309,21,24,17,138,17,25,67,189,21*7E
$GPGSV,5,3,18,26,07,314,21,28,12,248,16,29,37,025,34,31,01,269,*71
$GPGSV,5,4,18,32,13,208,,36,52,277,,40,85,352,,41,58,082,*77
$GPGSV,5,5,18,49,32,274,,50,10,089,*78
$GLGSV,3,1,09,65,30,192,,71,29,045,16,72,66,109,,75,33,186,21*6C
$GLGSV,3,2,09,76,44,267,19,77,13,307,,85,00,068,,86,08,017,*62
$GLGSV,3,3,09,87,02,336,*57
$GNGLL,0419.73470,S,05539.77695,E,083242.00,A,A*6E
$GNRMC,083243.00,A,0419.73466,S,05539.77692,E,0.358,,220525,,,A*7A
$GNVTG,,T,,M,0.358,N,0.664,K,A*37
$GNGGA,083243.00,0419.73466,S,05539.77692,E,1,11,0.79,4.0,M,-47.6,M,,*78
$GNGSA,A,3,25,23,10,15,12,29,24,26,,,,,1.58,0.79,1.37*12
$GNGSA,A,3,76,75,71,,,,,,,,,,1.58,0.79,1.37*1E
$GPGSV,5,1,18,10,42,238,38,12,36,154,20,13,04,062,,15,39,072,36*79
$GPGSV,5,2,18,18,19,339,16,23,66,309,22,24,17,138,17,25,67,189,19*71
$GPGSV,5,3,18,26,07,314,21,28,12,248,17,29,37,025,31,31,01,269,*75
$GPGSV,5,4,18,32,13,208,,36,52,277,,40,85,352,,41,58,082,*77
$GPGSV,5,5,18,49,32,274,,50,10,089,*78
$GLGSV,3,1,09,65,30,192,,71,29,045,21,72,66,109,,75,33,186,21*68
$GLGSV,3,2,09,76,44,267,19,77,13,307,20,85,00,068,,86,08,017,*60
$GLGSV,3,3,09,87,02,336,*57
$GNGLL,0419.73466,S,05539.77692,E,083243.00,A,A*6F
$GNRMC,083244.00,A,0419.73458,S,05539.77692,E,0.174,,220525,,,A*7C
$GNVTG,,T,,M,0.174,N,0.322,K,A*3C
$GNGGA,083244.00,0419.73458,S,05539.77692,E,1,11,0.79,4.2,M,-47.6,M,,*70
$GNGSA,A,3,25,23,10,15,12,29,24,26,,,,,1.58,0.79,1.37*12
$GNGSA,A,3,76,75,71,,,,,,,,,,1.58,0.79,1.37*1E
$GPGSV,5,1,18,10,42,238,37,12,36,154,19,13,04,062,,15,39,072,35*7F
$GPGSV,5,2,18,18,19,339,16,23,66,309,21,24,17,138,15,25,67,189,18*71
$GPGSV,5,3,18,26,07,314,20,28,12,248,18,29,37,025,24,31,01,269,*7F
$GPGSV,5,4,18,32,13,208,,36,52,277,,40,85,352,,41,58,082,*77
$GPGSV,5,5,18,49,32,274,,50,10,089,*78
$GLGSV,3,1,09,65,30,192,21,71,29,045,22,72,66,109,,75,33,186,22*6B
$GLGSV,3,2,09,76,44,267,21,77,13,307,19,85,00,068,,86,08,017,*61
$GLGSV,3,3,09,87,02,336,*57
$GNGLL,0419.73458,S,05539.77692,E,083244.00,A,A*65
$GNRMC,083245.00,A,0419.73458,S,05539.77698,E,0.114,,220525,,,A*71
$GNVTG,,T,,M,0.114,N,0.211,K,A*3B
$GNGGA,083245.00,0419.73458,S,05539.77698,E,1,11,0.79,4.0,M,-47.6,M,,*79
$GNGSA,A,3,25,23,10,15,12,29,24,26,,,,,1.58,0.79,1.37*12
$GNGSA,A,3,76,75,71,,,,,,,,,,1.58,0.79,1.37*1E
$GPGSV,5,1,18,10,42,238,37,12,36,154,20,13,04,062,,15,39,072,35*75
$GPGSV,5,2,18,18,19,339,14,23,66,309,20,24,17,138,15,25,67,189,18*72
$GPGSV,5,3,18,26,07,314,21,28,12,248,17,29,37,025,25,31,01,269,*70
$GPGSV,5,4,18,32,13,208,,36,52,277,,40,85,352,,41,58,082,*77
$GPGSV,5,5,18,49,32,274,,50,10,089,*78
$GLGSV,3,1,09,65,30,192,19,71,29,045,22,72,66,109,,75,33,186,22*60
$GLGSV,3,2,09,76,44,267,23,77,13,307,17,85,00,068,,86,08,017,*6D
$GLGSV,3,3,09,87,02,336,*57
$GNGLL,0419.73458,S,05539.77698,E,083245.00,A,A*6E
$GNRMC,083246.00,A,0419.73458,S,05539.77704,E,0.082,,220525,,,A*78
$GNVTG,,T,,M,0.082,N,0.152,K,A*31
$GNGGA,083246.00,0419.73458,S,05539.77704,E,1,11,0.79,4.8,M,-47.6,M,,*76
$GNGSA,A,3,25,23,10,15,12,29,24,26,,,,,1.58,0.79,1.37*12
$GNGSA,A,3,76,75,71,,,,,,,,,,1.58,0.79,1.37*1E
$GPGSV,5,1,18,10,42,238,37,12,36,154,21,13,04,062,,15,39,072,35*74
$GPGSV,5,2,18,18,19,339,13,23,66,309,18,24,17,138,15,25,67,189,19*7F
$GPGSV,5,3,18,26,07,314,23,28,12,248,18,29,37,025,26,31,01,269,*7E
$GPGSV,5,4,18,32,13,208,,36,52,277,,40,85,352,,41,58,082,*77
$GPGSV,5,5,18,49,32,274,,50,10,089,*78
$GLGSV,3,1,09,65,30,192,16,71,29,045,22,72,66,109,,75,33,186,21*6C
$GLGSV,3,2,09,76,44,267,24,77,13,307,17,85,00,068,,86,08,017,*6A
$GLGSV,3,3,09,87,02,336,*57
$GNGLL,0419.73458,S,05539.77704,E,083246.00,A,A*69
$GNRMC,083247.00,A,0419.73468,S,05539.77713,E,0.211,,220525,,,A*74
$GNVTG,,T,,M,0.211,N,0.391,K,A*34
$GNGGA,083247.00,0419.73468,S,05539.77713,E,1,12,0.75,4.8,M,-47.6,M,,*7D
$GNGSA,A,3,25,23,10,15,12,29,18,24,26,,,,1.52,0.75,1.32*18
$GNGSA,A,3,76,75,71,,,,,,,,,,1.52,0.75,1.32*1D
$GPGSV,5,1,18,10,42,238,38,12,36,154,21,13,04,062,,15,39,072,36*78
$GPGSV,5,2,18,18,19,339,14,23,65,310,20,24,17,138,15,25,67,189,20*72
$GPGSV,5,3,18,26,07,314,25,28,12,248,19,29,37,025,28,31,01,269,*77
$GPGSV,5,4,18,32,13,208,,36,52,277,,40,85,352,,41,58,082,*77
$GPGSV,5,5,18,49,32,274,,50,10,089,*78
$GLGSV,3,1,09,65,30,192,14,71,29,045,22,72,66,109,,75,33,186,22*6D
$GLGSV,3,2,09,76,44,267,25,77,13,307,17,85,00,068,,86,08,017,*6B
$GLGSV,3,3,09,87,02,336,*57
$GNGLL,0419.73468,S,05539.77713,E,083247.00,A,A*6D
$GNRMC,083248.00,A,0419.73475,S,05539.77720,E,0.067,,220525,,,A*74
$GNVTG,,T,,M,0.067,N,0.124,K,A*3B
$GNGGA,083248.00,0419.73475,S,05539.77720,E,1,12,0.75,4.4,M,-47.6,M,,*72
$GNGSA,A,3,25,23,10,15,12,29,18,24,26,,,,1.52,0.75,1.32*18
$GNGSA,A,3,76,75,71,,,,,,,,,,1.52,0.75,1.32*1D
$GPGSV,5,1,18,10,42,238,38,12,36,154,22,13,04,062,,15,39,072,36*7B
$GPGSV,5,2,18,18,19,339,14,23,65,310,20,24,17,138,15,25,67,189,21*73
$GPGSV,5,3,18,26,07,314,26,28,12,248,20,29,37,025,28,31,01,269,*7E
$GPGSV,5,4,18,32,13,208,,36,52,277,,40,85,352,,41,58,082,*77
$GPGSV,5,5,18,49,32,274,,50,10,089,*78
$GLGSV,3,1,09,65,30,192,13,71,29,045,23,72,66,109,,75,33,186,23*6A
$GLGSV,3,2,09,76,44,267,26,77,13,307,18,85,00,068,,86,08,017,*67
$GLGSV,3,3,09,87,02,336,*57
$GNGLL,0419.73475,S,05539.77720,E,083248.00,A,A*6E
$GNRMC,083249.00,A,0419.73478,S,05539.77725,E,0.100,,220525,,,A*7D
$GNVTG,,T,,M,0.100,N,0.185,K,A*30
$GNGGA,083249.00,0419.73478,S,05539.77725,E,1,12,0.75,4.4,M,-47.6,M,,*7B
$GNGSA,A,3,25,23,10,15,12,29,18,24,26,,,,1.52,0.75,1.32*18
$GNGSA,A,3,76,75,71,,,,,,,,,,1.52,0.75,1.32*1D
$GPGSV,5,1,18,10,42,238,38,12,36,154,22,13,04,062,,15,39,072,35*78
$GPGSV,5,2,18,18,19,339,14,23,65,310,18,24,17,138,15,25,67,189,19*73
$GPGSV,5,3,18,26,07,314,26,28,12,248,20,29,37,025,28,31,01,269,*7E
$GPGSV,5,4,18,32,13,208,,36,52,277,,40,85,352,,41,58,082,*77
$GPGSV,5,5,18,49,32,274,,50,10,089,*78
$GLGSV,3,1,09,65,30,192,13,71,29,045,22,72,66,109,,75,33,186,23*6B
$GLGSV,3,2,09,76,44,267,26,77,13,307,17,85,00,068,,86,08,017,*68
$GLGSV,3,3,09,87,02,336,*57
$GNGLL,0419.73478,S,05539.77725,E,083249.00,A,A*67
$GNRMC,083250.00,A,0419.73473,S,05539.77729,E,0.120,,220525,,,A*70
$GNVTG,,T,,M,0.120,N,0.223,K,A*3D
$GNGGA,083250.00,0419.73473,S,05539.77729,E,1,11,0.85,5.2,M,-47.6,M,,*7F
$GNGSA,A,3,25,23,10,15,12,29,18,26,,,,,1.78,0.85,1.57*1A
$GNGSA,A,3,76,75,71,,,,,,,,,,1.78,0.85,1.57*19
$GPGSV,5,1,18,10,42,238,37,12,36,154,21,13,04,062,,15,39,072,35*74
$GPGSV,5,2,18,18,19,339,17,23,65,310,17,24,17,138,,25,67,189,19*7B
$GPGSV,5,3,18,26,07,313,26,28,12,248,20,29,37,025,29,31,01,269,*78
$GPGSV,5,4,18,32,13,208,,36,52,277,,40,85,352,,41,58,082,*77
$GPGSV,5,5,18,49,32,274,,50,10,089,*78
$GLGSV,3,1,09,65,30,192,13,71,29,045,23,72,66,109,,75,33,186,24*6D
$GLGSV,3,2,09,76,44,267,26,77,13,307,16,85,00,068,,86,08,017,*69
$GLGSV,3,3,09,87,02,336,*57
$GNGLL,0419.73473,S,05539.77729,E,083250.00,A,A*68
$GNRMC,083251.00,A,0419.73480,S,05539.77735,E,0.126,,220525,,,A*76
$GNVTG,,T,,M,0.126,N,0.233,K,A*3A
$GNGGA,083251.00,0419.73480,S,05539.77735,E,1,11,0.85,5.0,M,-47.6,M,,*7D
$GNGSA,A,3,25,23,10,15,12,29,18,26,,,,,1.78,0.85,1.57*1A
$GNGSA,A,3,76,75,71,,,,,,,,,,1.78,0.85,1.57*19
$GPGSV,5,1,18,10,42,238,38,12,36,154,20,13,04,062,,15,39,072,34*7B
$GPGSV,5,2,18,18,19,339,17,23,65,310,19,24,17,138,17,25,67,189,20*79
$GPGSV,5,3,18,26,07,313,26,28,12,248,20,29,37,025,29,31,01,269,*78
$GPGSV,5,4,18,32,13,208,,36,52,277,,40,85,352,,41,58,082,*77
$GPGSV,5,5,18,49,32,274,,50,10,089,*78
$GLGSV,3,1,09,65,30,192,13,71,29,045,22,72,66,109,,75,33,186,24*6C
$GLGSV,3,2,09,76,44,267,25,77,13,307,17,85,00,068,,86,08,017,*6B
$GLGSV,3,3,09,87,02,336,*57
$GNGLL,0419.73480,S,05539.77735,E,083251.00,A,A*68
$GNRMC,083252.00,A,0419.73488,S,05539.77745,E,0.058,,220525,,,A*72
$GNVTG,,T,,M,0.058,N,0.107,K,A*36
$GNGGA,083252.00,0419.73488,S,05539.77745,E,1,11,0.85,5.1,M,-47.6,M,,*70
$GNGSA,A,3,25,23,10,15,12,29,18,26,,,,,1.78,0.85,1.57*1A
$GNGSA,A,3,76,75,71,,,,,,,,,,1.78,0.85,1.57*19
$GPGSV,5,1,18,10,42,238,38,12,36,154,19,13,04,062,,15,39,072,34*71
$GPGSV,5,2,18,18,19,339,16,23,65,310,20,24,17,138,16,25,67,189,20*73
$GPGSV,5,3,18,26,07,313,26,28,12,247,21,29,37,025,29,31,01,269,*76
$GPGSV,5,4,18,32,13,208,,36,52,277,,40,85,352,,41,58,082,*77
$GPGSV,5,5,18,49,32,274,,50,10,089,*78
$GLGSV,3,1,09,65,30,192,14,71,29,045,21,72,66,109,,75,33,186,24*68
$GLGSV,3,2,09,76,44,267,26,77,13,307,16,85,00,068,,86,08,017,*69
$GLGSV,3,3,09,87,02,336,*57
$GNGLL,0419.73488,S,05539.77745,E,083252.00,A,A*64
$GNRMC,083253.00,A,0419.73496,S,05539.77753,E,0.077,,220525,,,A*76
$GNVTG,,T,,M,0.077,N,0.142,K,A*3A
$GNGGA,083253.00,0419.73496,S,05539.77753,E,1,11,0.85,5.0,M,-47.6,M,,*78
$GNGSA,A,3,25,23,10,15,12,29,18,26,,,,,1.78,0.85,1.57*1A
$GNGSA,A,3,76,75,71,,,,,,,,,,1.78,0.85,1.57*19
$GPGSV,5,1,18,10,42,238,38,12,36,154,18,13,04,062,05,15,39,072,33*72
$GPGSV,5,2,18,18,19,339,17,23,65,310,20,24,17,138,15,25,67,189,19*7B
$GPGSV,5,3,18,26,07,313,26,28,12,247,22,29,38,026,29,31,01,269,*79
$GPGSV,5,4,18,32,13,208,,36,52,277,,40,85,352,,41,58,082,*77
$GPGSV,5,5,18,49,32,274,,50,10,089,*78
$GLGSV,3,1,09,65,30,192,13,71,29,045,21,72,66,109,,75,33,186,24*6F
$GLGSV,3,2,09,76,44,267,26,77,13,307,17,85,00,068,,86,08,017,*68
$GLGSV,3,3,09,87,02,336,*57
$GNGLL,0419.73496,S,05539.77753,E,083253.00,A,A*6D
$GNRMC,083254.00,A,0419.73491,S,05539.77758,E,0.076,,220525,,,A*7C
$GNVTG,,T,,M,0.076,N,0.140,K,A*39
$GNGGA,083254.00,0419.73491,S,05539.77758,E,1,11,0.85,5.7,M,-47.6,M,,*74
$GNGSA,A,3,25,23,10,15,12,29,18,26,,,,,1.78,0.85,1.57*1A
$GNGSA,A,3,76,75,71,,,,,,,,,,1.78,0.85,1.57*19
$GPGSV,5,1,18,10,42,238,37,12,36,154,19,13,04,062,,15,39,072,35*7F
$GPGSV,5,2,18,18,19,339,20,23,65,310,19,24,17,138,14,25,67,189,18*75
$GPGSV,5,3,18,26,07,313,25,28,12,247,21,29,38,026,29,31,01,269,*79
$GPGSV,5,4,18,32,13,208,,36,52,277,,40,85,352,,41,58,082,*77
$GPGSV,5,5,18,49,32,274,,50,10,089,*78
$GLGSV,3,1,09,65,30,192,12,71,29,045,23,72,66,109,,75,33,186,24*6C
$GLGSV,3,2,09,76,44,267,26,77,13,307,15,85,00,068,,86,08,017,*6A
$GLGSV,3,3,09,87,02,336,*57
$GNGLL,0419.73491,S,05539.77758,E,083254.00,A,A*66
$GNRMC,083255.00,A,0419.73500,S,05539.77768,E,0.150,,220525,,,A*72
$GNVTG,,T,,M,0.150,N,0.279,K,A*35
$GNGGA,083255.00,0419.73500,S,05539.77768,E,1,11,0.85,5.7,M,-47.6,M,,*7F
$GNGSA,A,3,25,23,10,15,12,29,18,26,,,,,1.78,0.85,1.57*1A
$GNGSA,A,3,76,75,71,,,,,,,,,,1.78,0.85,1.57*19
$GPGSV,5,1,18,10,42,238,38,12,36,154,21,13,04,062,,15,39,072,35*7B
$GPGSV,5,2,18,18,19,339,22,23,65,310,20,24,17,138,12,25,67,189,17*74
$GPGSV,5,3,18,26,07,313,25,28,12,247,21,29,38,026,30,31,01,269,*71
$GPGSV,5,4,18,32,13,208,,36,52,277,,40,85,352,,41,58,082,*77
$GPGSV,5,5,18,49,32,274,,50,10,089,*78
$GLGSV,3,1,09,65,30,192,11,71,29,045,24,72,66,109,,75,33,186,22*6E
$GLGSV,3,2,09,76,44,267,26,77,13,307,16,85,00,068,,86,08,017,*69
$GLGSV,3,3,09,87,02,336,*57
$GNGLL,0419.73500,S,05539.77768,E,083255.00,A,A*6D
$GNRMC,083256.00,A,0419.73487,S,05539.77767,E,0.229,,220525,,,A*7D
$GNVTG,,T,,M,0.229,N,0.424,K,A*36
$GNGGA,083256.00,0419.73487,S,05539.77767,E,1,12,0.75,6.9,M,-47.6,M,,*7C
$GNGSA,A,3,25,23,10,15,12,29,18,24,26,,,,1.52,0.75,1.32*18
$GNGSA,A,3,76,75,71,,,,,,,,,,1.52,0.75,1.32*1D
$GPGSV,5,1,18,10,42,238,38,12,36,154,21,13,04,062,,15,39,072,35*7B
$GPGSV,5,2,18,18,19,339,21,23,65,310,20,24,17,138,12,25,67,189,20*73
$GPGSV,5,3,18,26,07,313,23,28,12,247,21,29,38,026,30,31,01,269,*77
$GPGSV,5,4,18,32,14,207,,36,52,277,,40,85,352,,41,58,082,*7F
$GPGSV,5,5,18,49,32,274,,50,10,089,*78
$GLGSV,3,1,09,65,30,192,12,71,29,045,24,72,66,109,,75,33,186,22*6D
$GLGSV,3,2,09,76,44,267,27,77,13,307,17,85,00,068,,86,08,017,*69
$GLGSV,3,3,09,87,02,336,*57
$GNGLL,0419.73487,S,05539.77767,E,083256.00,A,A*6F
$GNRMC,083257.00,A,0419.73497,S,05539.77778,E,0.435,,220525,,,A*78
$GNVTG,,T,,M,0.435,N,0.805,K,A*32
$GNGGA,083257.00,0419.73497,S,05539.77778,E,1,12,0.75,7.2,M,-47.6,M,,*78
$GNGSA,A,3,25,23,10,15,12,29,18,24,26,,,,1.52,0.75,1.32*18
$GNGSA,A,3,76,75,71,,,,,,,,,,1.52,0.75,1.32*1D
$GPGSV,5,1,18,10,42,238,38,12,36,154,19,13,04,062,,15,39,072,35*70
$GPGSV,5,2,18,18,19,339,20,23,65,310,19,24,17,138,15,25,67,189,21*7E
$GPGSV,5,3,18,26,07,313,22,28,12,247,21,29,38,026,30,31,01,269,*76
$GPGSV,5,4,18,32,14,207,,36,52,277,,40,85,352,,41,58,082,*7F
$GPGSV,5,5,18,49,32,274,,50,10,089,*78
$GLGSV,3,1,09,65,30,192,16,71,29,045,25,72,66,109,,75,33,186,22*68
$GLGSV,3,2,09,76,44,267,26,77,13,307,16,85,00,068,,86,08,017,*69
$GLGSV,3,3,09,87,02,336,*57
$GNGLL,0419.73497,S,05539.77778,E,083257.00,A,A*61
$GNRMC,083258.00,A,0419.73499,S,05539.77783,E,0.084,,220525,,,A*73
$GNVTG,,T,,M,0.084,N,0.156,K,A*33
$GNGGA,083258.00,0419.73499,S,05539.77783,E,1,12,0.75,7.6,M,-47.6,M,,*79
$GNGSA,A,3,25,23,10,15,12,29,18,24,26,,,,1.52,0.75,1.32*18
$GNGSA,A,3,76,75,71,,,,,,,,,,1.52,0.75,1.32*1D
$GPGSV,5,1,18,10,42,238,37,12,36,154,16,13,04,062,,15,39,072,34*71
$GPGSV,5,2,18,18,19,339,18,23,65,310,19,24,17,138,15,25,67,189,22*76
$GPGSV,5,3,18,26,07,313,22,28,12,247,21,29,38,026,29,31,01,269,*7E
$GPGSV,5,4,18,32,14,207,,36,52,277,,40,85,352,,41,58,082,*7F
$GPGSV,5,5,18,49,32,274,,50,10,089,*78
$GLGSV,3,1,09,65,30,192,15,71,29,045,25,72,66,109,,75,33,186,23*6A
$GLGSV,3,2,09,76,44,267,26,77,13,307,16,85,00,068,,86,08,017,*69
$GLGSV,3,3,09,87,02,336,*57
$GNGLL,0419.73499,S,05539.77783,E,083258.00,A,A*64
$GNRMC,083259.00,A,0419.73499,S,05539.77787,E,0.099,,220525,,,A*7A
$GNVTG,,T,,M,0.099,N,0.183,K,A*37
$GNGGA,083259.00,0419.73499,S,05539.77787,E,1,12,0.75,7.9,M,-47.6,M,,*73
$GNGSA,A,3,25,23,10,15,12,29,18,24,26,,,,1.52,0.75,1.32*18
$GNGSA,A,3,76,75,71,,,,,,,,,,1.52,0.75,1.32*1D
$GPGSV,5,1,18,10,42,238,37,12,36,154,14,13,04,062,,15,39,072,34*73
$GPGSV,5,2,18,18,19,339,19,23,65,310,19,24,17,138,15,25,67,189,22*77
$GPGSV,5,3,18,26,07,313,21,28,12,247,21,29,38,026,29,31,01,269,*7D
$GPGSV,5,4,18,32,14,207,,36,52,277,,40,85,352,,41,58,082,*7F
$GPGSV,5,5,18,49,32,274,,50,10,089,*78
$GLGSV,3,1,09,65,30,192,16,71,29,045,25,72,66,109,,75,33,186,23*69
$GLGSV,3,2,09,76,44,267,26,77,13,307,16,85,00,068,,86,08,017,*69
$GLGSV,3,3,09,87,02,336,*57
$GNGLL,0419.73499,S,05539.77787,E,083259.00,A,A*61
$GNRMC,083300.00,A,0419.73497,S,05539.77792,E,0.120,,220525,,,A*7E
$GNVTG,,T,,M,0.120,N,0.223,K,A*3D
$GNGGA,083300.00,0419.73497,S,05539.77792,E,1,12,0.75,8.4,M,-47.6,M,,*76
$GNGSA,A,3,25,23,10,15,12,29,18,24,26,,,,1.52,0.75,1.32*18
$GNGSA,A,3,76,75,71,,,,,,,,,,1.52,0.75,1.32*1D
$GPGSV,5,1,18,10,42,238,37,12,36,154,12,13,04,062,,15,39,072,34*75
$GPGSV,5,2,18,18,19,339,19,23,65,310,20,24,17,138,12,25,67,189,23*7B
$GPGSV,5,3,18,26,07,313,22,28,12,247,22,29,38,026,29,31,01,269,*7D
$GPGSV,5,4,18,32,14,207,,36,52,277,,40,85,352,,41,58,082,*7F
$GPGSV,5,5,18,49,32,274,,50,10,089,*78
$GLGSV,3,1,09,65,30,192,14,71,29,045,24,72,66,109,,75,33,186,23*6A
$GLGSV,3,2,09,76,44,267,27,77,13,307,16,85,00,068,,86,08,017,*68
$GLGSV,3,3,09,87,02,336,*57
$GNGLL,0419.73497,S,05539.77792,E,083300.00,A,A*66
$GNRMC,083301.00,A,0419.73507,S,05539.77800,E,0.229,,220525,,,A*79
$GNVTG,,T,,M,0.229,N,0.423,K,A*31
$GNGGA,083301.00,0419.73507,S,05539.77800,E,1,10,0.97,8.5,M,-47.6,M,,*74
$GNGSA,A,3,25,23,10,15,29,18,26,,,,,,1.92,0.97,1.66*1C
$GNGSA,A,3,76,75,71,,,,,,,,,,1.92,0.97,1.66*1C
$GPGSV,5,1,18,10,42,238,37,12,36,154,11,13,04,062,,15,39,072,34*76
$GPGSV,5,2,18,18,19,339,17,23,65,310,20,24,17,138,08,25,67,189,24*79
$GPGSV,5,3,18,26,07,313,22,28,12,247,22,29,38,026,30,31,01,269,*75
$GPGSV,5,4,18,32,14,207,,36,52,277,,40,85,352,,41,58,082,*7F
$GPGSV,5,5,18,49,32,274,,50,10,089,*78
$GLGSV,3,1,09,65,30,192,14,71,29,045,25,72,66,109,,75,33,186,23*6B
$GLGSV,3,2,09,76,44,267,28,77,13,307,16,85,00,068,,86,08,017,*67
$GLGSV,3,3,09,87,02,336,*57
$GNGLL,0419.73507,S,05539.77800,E,083301.00,A,A*6B
$GNRMC,083302.00,A,0419.73515,S,05539.77806,E,0.063,,220525,,,A*73
$GNVTG,,T,,M,0.063,N,0.116,K,A*3E
$GNGGA,083302.00,0419.73515,S,05539.77806,E,1,10,0.97,8.3,M,-47.6,M,,*74
$GNGSA,A,3,25,23,10,15,29,18,26,,,,,,1.92,0.97,1.66*1C
$GNGSA,A,3,76,75,71,,,,,,,,,,1.92,0.97,1.66*1C
$GPGSV,5,1,18,10,42,238,37,12,36,154,12,13,04,062,13,15,39,072,34*77
$GPGSV,5,2,18,18,19,339,17,23,65,310,21,24,17,138,09,25,67,189,25*78
$GPGSV,5,3,18,26,07,313,23,28,12,247,22,29,38,026,30,31,01,269,*74
$GPGSV,5,4,18,32,14,207,,36,52,277,,40,85,352,,41,58,082,*7F
$GPGSV,5,5,18,49,32,274,,50,10,089,*78
$GLGSV,3,1,09,65,30,192,14,71,29,045,25,72,66,109,,75,33,186,24*6C
$GLGSV,3,2,09,76,44,267,27,77,13,307,16,85,00,068,,86,08,017,*68
$GLGSV,3,3,09,87,02,336,*57
$GNGLL,0419.73515,S,05539.77806,E,083302.00,A,A*6D
$GNRMC,083303.00,A,0419.73517,S,05539.77808,E,0.266,,220525,,,A*79
$GNVTG,,T,,M,0.266,N,0.494,K,A*36
$GNGGA,083303.00,0419.73517,S,05539.77808,E,1,11,0.85,7.7,M,-47.6,M,,*70
$GNGSA,A,3,25,23,10,15,12,29,18,26,,,,,1.78,0.85,1.57*1A
$GNGSA,A,3,76,75,71,,,,,,,,,,1.78,0.85,1.57*19
$GPGSV,5,1,18,10,42,238,37,12,36,154,13,13,04,062,12,15,39,072,34*77
$GPGSV,5,2,18,18,19,339,19,23,65,310,22,24,17,138,08,25,67,189,26*77
$GPGSV,5,3,18,26,07,313,24,28,12,247,21,29,38,026,30,31,01,269,*70
$GPGSV,5,4,18,32,14,207,,36,52,277,,40,85,352,,41,58,082,*7F
$GPGSV,5,5,18,49,32,274,,50,10,089,*78
$GLGSV,3,1,09,65,30,192,15,71,29,045,25,72,66,109,,75,33,186,24*6D
$GLGSV,3,2,09,76,44,267,28,77,13,307,14,85,00,068,,86,08,017,*65
$GLGSV,3,3,09,87,02,336,*57
$GNGLL,0419.73517,S,05539.77808,E,083303.00,A,A*60
$GNRMC,083304.00,A,0419.73521,S,05539.77812,E,0.207,,220525,,,A*77
$GNVTG,,T,,M,0.207,N,0.382,K,A*31
$GNGGA,083304.00,0419.73521,S,05539.77812,E,1,11,0.85,7.8,M,-47.6,M,,*76
$GNGSA,A,3,25,23,10,15,12,29,18,26,,,,,1.78,0.85,1.57*1A
$GNGSA,A,3,76,75,71,,,,,,,,,,1.78,0.85,1.57*19
$GPGSV,5,1,18,10,42,238,36,12,36,154,13,13,04,062,09,15,39,072,33*7B
$GPGSV,5,2,18,18,19,339,19,23,65,310,22,24,17,138,07,25,67,189,26*78
$GPGSV,5,3,18,26,07,313,25,28,12,247,21,29,38,026,30,31,01,269,*71
$GPGSV,5,4,18,32,14,207,,36,52,277,,40,85,352,,41,58,082,*7F
$GPGSV,5,5,18,49,32,274,,50,10,089,*78
$GLGSV,3,1,09,65,30,192,15,71,29,045,24,72,66,109,17,75,33,186,24*6A
$GLGSV,3,2,09,76,44,267,28,77,13,307,13,85,00,068,,86,08,017,*62
$GLGSV,3,3,09,87,02,336,*57
$GNGLL,0419.73521,S,05539.77812,E,083304.00,A,A*69
$GNRMC,083305.00,A,0419.73532,S,05539.77818,E,0.246,,220525,,,A*7B
$GNVTG,,T,,M,0.246,N,0.456,K,A*3A
$GNGGA,083305.00,0419.73532,S,05539.77818,E,1,11,0.85,7.7,M,-47.6,M,,*70
$GNGSA,A,3,25,23,10,15,12,29,18,26,,,,,1.78,0.85,1.57*1A
$GNGSA,A,3,76,75,71,,,,,,,,,,1.78,0.85,1.57*19
$GPGSV,5,1,18,10,42,238,36,12,36,154,10,13,04,062,08,15,39,072,33*79
$GPGSV,5,2,18,18,19,339,18,23,65,310,22,24,17,138,07,25,67,189,25*7A
$GPGSV,5,3,18,26,07,313,25,28,12,247,20,29,38,026,29,31,01,269,*78
$GPGSV,5,4,18,32,14,207,,36,52,277,,40,85,352,,41,58,082,*7F
$GPGSV,5,5,18,49,32,274,,50,10,089,*78
$GLGSV,3,1,09,65,30,192,15,71,29,045,24,72,66,109,15,75,33,186,24*68
$GLGSV,3,2,09,76,44,267,29,77,13,307,12,85,00,068,,86,08,017,*62
$GLGSV,3,3,09,87,02,336,*57
$GNGLL,0419.73532,S,05539.77818,E,083305.00,A,A*60
$GNRMC,083306.00,A,0419.73537,S,05539.77822,E,0.016,,220525,,,A*73
$GNVTG,,T,,M,0.016,N,0.030,K,A*39
$GNGGA,083306.00,0419.73537,S,05539.77822,E,1,10,0.97,7.6,M,-47.6,M,,*7C
$GNGSA,A,3,25,23,10,15,29,18,26,,,,,,1.92,0.97,1.66*1C
$GNGSA,A,3,76,75,71,,,,,,,,,,1.92,0.97,1.66*1C
$GPGSV,5,1,18,10,42,238,37,12,36,154,09,13,04,062,07,15,39,072,34*78
$GPGSV,5,2,18,18,19,339,19,23,65,310,23,24,17,138,07,25,67,189,25*7A
$GPGSV,5,3,18,26,07,313,24,28,12,247,20,29,38,026,30,31,01,269,*71
$GPGSV,5,4,18,32,14,207,,36,52,277,,40,85,352,,41,58,082,*7F
$GPGSV,5,5,18,49,32,274,,50,10,089,*78
$GLGSV,3,1,09,65,30,192,15,71,29,045,23,72,66,109,15,75,33,186,25*6E
$GLGSV,3,2,09,76,44,267,29,77,13,307,09,85,00,068,,86,08,017,*68
$GLGSV,3,3,09,87,02,336,*57
$GNGLL,0419.73537,S,05539.77822,E,083306.00,A,A*6F
$GNRMC,083307.00,A,0419.73545,S,05539.77827,E,0.058,,220525,,,A*78
$GNVTG,,T,,M,0.058,N,0.107,K,A*36
$GNGGA,083307.00,0419.73545,S,05539.77827,E,1,10,0.96,7.4,M,-47.6,M,,*7E
$GNGSA,A,3,25,23,10,15,29,18,26,,,,,,1.92,0.96,1.66*1D
$GNGSA,A,3,76,75,71,,,,,,,,,,1.92,0.96,1.66*1D
$GPGSV,5,1,18,10,42,238,37,12,36,154,,13,04,062,06,15,39,072,34*70
$GPGSV,5,2,18,18,19,339,20,23,65,310,24,24,17,138,07,25,67,189,25*77
$GPGSV,5,3,18,26,07,313,24,28,12,247,21,29,38,026,30,31,01,269,*70
$GPGSV,5,4,18,32,14,207,,36,52,277,,40,85,352,,41,58,082,*7F
$GPGSV,5,5,18,49,32,274,,50,10,089,*78
$GLGSV,3,1,09,65,30,192,17,71,29,045,24,72,66,109,15,75,33,186,24*6A
$GLGSV,3,2,09,76,44,267,29,77,13,307,10,85,00,068,,86,08,017,*60
$GLGSV,3,3,09,87,02,336,*57
$GNGLL,0419.73545,S,05539.77827,E,083307.00,A,A*6E
$GNRMC,083308.00,A,0419.73550,S,05539.77833,E,0.006,,220525,,,A*7D
$GNVTG,,T,,M,0.006,N,0.011,K,A*3B
$GNGGA,083308.00,0419.73550,S,05539.77833,E,1,12,0.96,7.7,M,-47.6,M,,*71
$GNGSA,A,3,25,23,10,15,29,18,24,26,,,,,1.92,0.96,1.66*1B
$GNGSA,A,3,72,76,75,71,,,,,,,,,1.92,0.96,1.66*18
$GPGSV,5,1,18,10,42,238,37,12,36,154,,13,04,062,11,15,39,072,34*76
$GPGSV,5,2,18,18,19,339,20,23,65,310,24,24,17,138,09,25,67,189,25*79
$GPGSV,5,3,18,26,07,313,24,28,12,247,21,29,38,026,31,31,01,269,*71
$GPGSV,5,4,18,32,14,207,,36,52,277,,40,85,352,,41,58,082,*7F
$GPGSV,5,5,18,49,32,274,,50,10,089,*78
$GLGSV,3,1,09,65,30,192,17,71,29,045,24,72,66,109,15,75,33,186,24*6A
$GLGSV,3,2,09,76,44,267,29,77,13,307,09,85,00,068,,86,08,017,*68
$GLGSV,3,3,09,87,02,336,*57
$GNGLL,0419.73550,S,05539.77833,E,083308.00,A,A*60
$GNRMC,083309.00,A,0419.73556,S,05539.77839,E,0.046,,220525,,,A*74
$GNVTG,,T,,M,0.046,N,0.086,K,A*31
$GNGGA,083309.00,0419.73556,S,05539.77839,E,1,12,0.79,7.3,M,-47.6,M,,*79
$GNGSA,A,3,25,23,10,15,29,18,24,26,,,,,1.54,0.79,1.33*10
$GNGSA,A,3,72,76,75,71,,,,,,,,,1.54,0.79,1.33*13
$GPGSV,5,1,18,10,42,238,36,12,36,154,,13,04,062,11,15,39,072,34*77
$GPGSV,5,2,18,18,19,339,18,23,65,310,23,24,17,138,09,25,67,189,24*74
$GPGSV,5,3,18,26,07,313,23,28,12,247,21,29,38,026,30,31,01,269,*77
$GPGSV,5,4,18,32,14,207,,36,52,277,,40,85,352,,41,58,082,*7F
$GPGSV,5,5,18,49,32,274,,50,10,089,*78
$GLGSV,3,1,09,65,30,192,16,71,29,045,24,72,66,109,13,75,33,186,23*6A
$GLGSV,3,2,09,76,44,266,30,77,13,307,,85,00,068,,86,08,017,*68
$GLGSV,3,3,09,87,02,336,*57
$GNGLL,0419.73556,S,05539.77839,E,083309.00,A,A*6D
$GNRMC,083310.00,A,0419.73558,S,05539.77839,E,0.012,,220525,,,A*73
$GNVTG,,T,,M,0.012,N,0.022,K,A*3E
$GNGGA,083310.00,0419.73558,S,05539.77839,E,1,12,0.79,7.3,M,-47.6,M,,*7F
$GNGSA,A,3,25,23,10,15,29,18,24,26,,,,,1.54,0.79,1.33*10
$GNGSA,A,3,72,76,75,71,,,,,,,,,1.54,0.79,1.33*13
$GPGSV,5,1,18,10,42,238,35,12,36,154,,13,04,062,11,15,39,072,34*74
$GPGSV,5,2,18,18,19,339,18,23,65,310,23,24,17,138,09,25,67,189,25*75
$GPGSV,5,3,18,26,07,313,22,28,12,247,19,29,38,026,29,31,01,269,*75
$GPGSV,5,4,18,32,14,207,,36,52,277,,40,85,352,,41,58,082,*7F
$GPGSV,5,5,18,49,32,274,,50,10,089,*78
$GLGSV,3,1,09,65,30,192,17,71,29,045,24,72,66,109,14,75,33,186,24*6B
$GLGSV,3,2,09,76,44,266,31,77,13,307,,85,00,068,,86,08,017,*69
$GLGSV,3,3,09,87,02,336,*57
$GNGLL,0419.73558,S,05539.77839,E,083310.00,A,A*6B
$GNRMC,083311.00,A,0419.73566,S,05539.77844,E,0.177,,220525,,,A*77
$GNVTG,,T,,M,0.177,N,0.328,K,A*35
$GNGGA,083311.00,0419.73566,S,05539.77844,E,1,11,0.95,6.9,M,-47.6,M,,*73
$GNGSA,A,3,25,23,10,15,29,18,26,,,,,,1.85,0.95,1.59*14
$GNGSA,A,3,72,76,75,71,,,,,,,,,1.85,0.95,1.59*11
$GPGSV,5,1,18,10,42,238,35,12,36,154,,13,04,062,11,15,39,072,34*74
$GPGSV,5,2,18,18,19,339,19,23,65,310,22,24,17,138,09,25,67,189,25*75
$GPGSV,5,3,18,26,07,313,22,28,12,247,19,29,38,026,29,31,01,269,*75
$GPGSV,5,4,18,32,14,207,,36,52,277,,40,85,352,,41,58,082,*7F
$GPGSV,5,5,18,49,32,274,,50,10,089,*78
$GLGSV,3,1,09,65,30,192,17,71,29,045,24,72,66,109,13,75,33,186,25*6D
$GLGSV,3,2,09,76,44,266,30,77,13,307,,85,00,068,,86,08,017,*68
$GLGSV,3,3,09,87,02,336,*57
$GNGLL,0419.73566,S,05539.77844,E,083311.00,A,A*6D
$GNRMC,083312.00,A,0419.73565,S,05539.77845,E,0.087,,220525,,,A*78
$GNVTG,,T,,M,0.087,N,0.160,K,A*35
$GNGGA,083312.00,0419.73565,S,05539.77845,E,1,11,0.95,7.1,M,-47.6,M,,*7B
$GNGSA,A,3,25,23,10,15,29,18,26,,,,,,1.85,0.95,1.59*14
$GNGSA,A,3,72,76,75,71,,,,,,,,,1.85,0.95,1.59*11
$GPGSV,5,1,18,10,42,238,36,12,36,154,,13,04,062,11,15,39,072,35*76
$GPGSV,5,2,18,18,19,339,20,23,65,310,22,24,17,138,09,25,67,189,25*7F
$GPGSV,5,3,18,26,07,313,22,28,12,247,18,29,38,026,29,31,01,269,*74
$GPGSV,5,4,18,32,14,207,,36,52,277,,40,85,352,,41,58,082,*7F
$GPGSV,5,5,18,49,32,274,,50,10,089,*78
$GLGSV,3,1,09,65,30,192,17,71,29,045,25,72,66,109,13,75,33,186,25*6C
$GLGSV,3,2,09,76,44,266,30,77,13,307,,85,00,068,,86,08,017,*68
$GLGSV,3,3,09,87,02,336,*57
$GNGLL,0419.73565,S,05539.77845,E,083312.00,A,A*6C
$GNRMC,083313.00,A,0419.73576,S,05539.77851,E,0.278,,220525,,,A*7C
$GNVTG,,T,,M,0.278,N,0.516,K,A*32
$GNGGA,083313.00,0419.73576,S,05539.77851,E,1,11,0.95,6.4,M,-47.6,M,,*79
$GNGSA,A,3,25,23,10,15,29,18,26,,,,,,1.85,0.95,1.59*14
$GNGSA,A,3,72,76,75,71,,,,,,,,,1.85,0.95,1.59*11
$GPGSV,5,1,18,10,42,238,35,12,36,154,,13,04,062,11,15,39,072,34*74
$GPGSV,5,2,18,18,19,339,20,23,65,310,22,24,17,138,09,25,67,189,25*7F
$GPGSV,5,3,18,26,07,313,21,28,12,247,18,29,38,026,29,31,01,269,*77
$GPGSV,5,4,18,32,14,207,,36,52,277,,40,85,352,,41,58,082,*7F
$GPGSV,5,5,18,49,32,274,,50,10,089,*78
$GLGSV,3,1,09,65,30,192,18,71,29,045,25,72,66,109,12,75,33,186,25*62
$GLGSV,3,2,09,76,44,266,30,77,13,307,,85,00,068,,86,08,017,*68
$GLGSV,3,3,09,87,02,336,*57
$GNGLL,0419.73576,S,05539.77851,E,083313.00,A,A*6A
$GNRMC,083314.00,A,0419.73581,S,05539.77859,E,0.098,,220525,,,A*77
$GNVTG,,T,,M,0.098,N,0.182,K,A*37
$GNGGA,083314.00,0419.73581,S,05539.77859,E,1,10,0.96,6.7,M,-47.6,M,,*7F
$GNGSA,A,3,25,23,10,15,29,18,26,,,,,,1.92,0.96,1.66*1D
$GNGSA,A,3,76,75,71,,,,,,,,,,1.92,0.96,1.66*1D
$GPGSV,5,1,18,10,42,238,36,12,36,154,,13,04,062,12,15,39,072,35*75
$GPGSV,5,2,18,18,19,339,22,23,65,310,23,24,17,138,09,25,67,189,25*7C
$GPGSV,5,3,18,26,07,313,23,28,12,247,20,29,38,026,30,31,01,269,*76
$GPGSV,5,4,18,32,14,207,,36,52,277,,40,85,352,,41,58,082,*7F
$GPGSV,5,5,18,49,32,274,,50,10,089,*78
$GLGSV,3,1,09,65,30,192,19,71,29,045,26,72,66,109,09,75,33,186,25*6A
$GLGSV,3,2,09,76,44,266,30,77,13,307,,85,00,068,,86,08,017,*68
$GLGSV,3,3,09,87,02,336,*57
$GNGLL,0419.73581,S,05539.77859,E,083314.00,A,A*6D
$GNRMC,083315.00,A,0419.73590,S,05539.77866,E,0.187,,220525,,,A*75
$GNVTG,,T,,M,0.187,N,0.347,K,A*33
$GNGGA,083315.00,0419.73590,S,05539.77866,E,1,10,0.96,5.9,M,-47.6,M,,*7F
$GNGSA,A,3,25,23,10,15,29,18,26,,,,,,1.92,0.96,1.66*1D
$GNGSA,A,3,76,75,71,,,,,,,,,,1.92,0.96,1.66*1D
$GPGSV,5,1,18,10,42,238,36,12,36,154,,13,04,062,12,15,39,072,35*75
$GPGSV,5,2,18,18,19,339,23,23,65,310,23,24,17,138,09,25,67,189,24*7C
$GPGSV,5,3,18,26,07,313,24,28,12,247,20,29,38,026,30,31,01,269,*71
$GPGSV,5,4,18,32,14,207,16,36,52,277,,40,85,352,,41,58,082,*78
$GPGSV,5,5,18,49,32,274,,50,10,089,*78
$GLGSV,3,1,09,65,30,192,19,71,29,045,26,72,66,109,09,75,33,186,25*6A
$GLGSV,3,2,09,76,44,266,30,77,13,307,,85,00,068,,86,08,017,*68
$GLGSV,3,3,09,87,02,336,*57
$GNGLL,0419.73590,S,05539.77866,E,083315.00,A,A*60
$GNRMC,083316.00,A,0419.73596,S,05539.77871,E,0.175,,220525,,,A*7B
$GNVTG,,T,,M,0.175,N,0.324,K,A*3B
$GNGGA,083316.00,0419.73596,S,05539.77871,E,1,11,0.96,5.7,M,-47.6,M,,*73
$GNGSA,A,3,25,23,10,15,29,18,26,,,,,,1.92,0.96,1.66*1D
$GNGSA,A,3,72,76,75,71,,,,,,,,,1.92,0.96,1.66*18
$GPGSV,5,1,18,10,42,238,36,12,36,154,16,13,04,062,12,15,39,072,35*72
$GPGSV,5,2,18,18,19,339,24,23,65,310,23,24,17,138,09,25,67,189,25*7A
$GPGSV,5,3,18,26,07,313,24,28,12,247,20,29,38,026,31,31,01,269,*70
$GPGSV,5,4,18,32,14,207,14,36,52,277,,40,85,352,,41,58,082,*7A
$GPGSV,5,5,18,49,32,274,,50,10,089,*78
$GLGSV,3,1,09,65,30,192,19,71,29,045,26,72,66,109,11,75,33,186,25*63
$GLGSV,3,2,09,76,44,266,30,77,13,307,,85,00,068,,86,08,017,*68
$GLGSV,3,3,09,87,02,336,*57
$GNGLL,0419.73596,S,05539.77871,E,083316.00,A,A*63
$GNRMC,083317.00,A,0419.73601,S,05539.77875,E,0.019,,220525,,,A*78
$GNVTG,,T,,M,0.019,N,0.036,K,A*30
$GNGGA,083317.00,0419.73601,S,05539.77875,E,1,10,0.96,5.9,M,-47.6,M,,*74
$GNGSA,A,3,25,23,10,15,29,18,26,,,,,,1.92,0.96,1.66*1D
$GNGSA,A,3,76,75,71,,,,,,,,,,1.92,0.96,1.66*1D
$GPGSV,5,1,18,10,42,238,35,12,36,154,17,13,04,062,12,15,39,072,35*70
$GPGSV,5,2,18,18,19,339,23,23,65,310,23,24,17,138,09,25,67,189,25*7D
$GPGSV,5,3,18,26,07,313,25,28,12,247,19,29,38,026,31,31,01,269,*7B
$GPGSV,5,4,18,32,14,207,10,36,52,277,,40,85,352,,41,58,082,*7E
$GPGSV,5,5,18,49,32,274,,50,10,089,*78
$GLGSV,3,1,09,65,31,192,19,71,29,045,25,72,66,109,12,75,33,186,25*62
$GLGSV,3,2,09,76,44,266,29,77,13,307,,85,00,068,,86,08,017,*60
$GLGSV,3,3,09,87,02,336,*57
$GNGLL,0419.73601,S,05539.77875,E,083317.00,A,A*6B
$GNRMC,083318.00,A,0419.73612,S,05539.77879,E,0.024,,220525,,,A*77
$GNVTG,,T,,M,0.024,N,0.044,K,A*3B
$GNGGA,083318.00,0419.73612,S,05539.77879,E,1,11,0.96,5.4,M,-47.6,M,,*79
$GNGSA,A,3,25,23,10,15,29,18,26,,,,,,1.92,0.96,1.66*1D
$GNGSA,A,3,72,76,75,71,,,,,,,,,1.92,0.96,1.66*18
$GPGSV,5,1,18,10,42,238,36,12,36,154,17,13,04,062,12,15,39,072,35*73
$GPGSV,5,2,18,18,19,339,23,23,65,310,22,24,17,138,09,25,67,189,25*7C
$GPGSV,5,3,18,26,07,313,25,28,12,247,18,29,38,026,31,31,01,269,*7A
$GPGSV,5,4,18,32,14,207,09,36,52,277,,40,85,352,,41,58,082,*76
$GPGSV,5,5,18,49,32,274,,50,10,089,*78
$GLGSV,3,1,09,65,31,192,20,71,29,045,26,72,66,109,11,75,33,186,24*69
$GLGSV,3,2,09,76,44,266,29,77,13,307,,85,00,068,,86,08,017,*60
$GLGSV,3,3,09,87,02,336,*57
$GNGLL,0419.73612,S,05539.77879,E,083318.00,A,A*6A
$GNRMC,083319.00,A,0419.73627,S,05539.77888,E,0.084,,220525,,,A*74
$GNVTG,,T,,M,0.084,N,0.156,K,A*33
$GNGGA,083319.00,0419.73627,S,05539.77888,E,1,10,0.96,5.1,M,-47.6,M,,*74
$GNGSA,A,3,25,23,10,15,29,18,26,,,,,,1.92,0.96,1.66*1D
$GNGSA,A,3,76,75,71,,,,,,,,,,1.92,0.96,1.66*1D
$GPGSV,5,1,18,10,42,238,36,12,36,154,15,13,04,062,12,15,39,072,35*71
$GPGSV,5,2,18,18,19,339,23,23,65,310,22,24,17,138,09,25,67,189,25*7C
$GPGSV,5,3,18,26,07,313,24,28,12,247,18,29,38,026,31,31,01,269,*7B
$GPGSV,5,4,18,32,14,207,11,36,52,277,,40,85,352,,41,58,082,*7F
$GPGSV,5,5,18,49,32,274,,50,10,089,*78
$GLGSV,3,1,09,65,31,192,20,71,29,045,26,72,66,109,09,75,33,186,25*61
$GLGSV,3,2,09,76,44,266,29,77,13,307,,85,00,068,,86,08,017,*60
$GLGSV,3,3,09,87,02,336,*57
$GNGLL,0419.73627,S,05539.77888,E,083319.00,A,A*63
$GNRMC,083320.00,A,0419.73635,S,05539.77898,E,0.186,,220525,,,A*7F
$GNVTG,,T,,M,0.186,N,0.345,K,A*30
$GNGGA,083320.00,0419.73635,S,05539.77898,E,1,10,0.96,5.5,M,-47.6,M,,*78
$GNGSA,A,3,25,23,10,15,29,18,26,,,,,,1.92,0.96,1.66*1D
$GNGSA,A,3,76,75,71,,,,,,,,,,1.92,0.96,1.66*1D
$GPGSV,5,1,18,10,42,238,36,12,36,154,14,13,04,062,12,15,39,072,36*73
