$GNRMC,082821.00,A,0419.73487,S,05539.76615,E,0.235,,220525,,,A*7E
$GNVTG,,T,,M,0.235,N,0.434,K,A*3A
$GNGGA,082821.00,0419.73487,S,05539.76615,E,1,10,0.94,16.3,M,-47.6,M,,*44
$GNGSA,A,3,25,23,10,15,12,29,18,,,,,,2.11,0.94,1.89*11
$GNGSA,A,3,72,76,75,,,,,,,,,,2.11,0.94,1.89*15
$GPGSV,5,1,19,05,00,030,,10,41,235,25,12,38,154,29,13,04,064,11*73
$GPGSV,5,2,19,15,40,075,16,18,19,337,26,23,67,305,21,24,17,140,11*71
$GPGSV,5,3,19,25,69,191,26,26,06,315,29,28,12,250,,29,36,024,27*7F
$GPGSV,5,4,19,31,00,271,,32,12,208,,36,52,277,,40,85,352,*73
$GPGSV,5,5,19,41,58,082,,49,32,274,,50,10,089,*4B
$GLGSV,2,1,08,65,28,192,20,71,30,047,,72,65,115,27,75,35,187,20*67
$GLGSV,2,2,08,76,44,271,27,77,12,309,22,86,07,015,,87,02,334,*60
$GNGLL,0419.73487,S,05539.76615,E,082821.00,A,A*61
$GNRMC,082822.00,A,0419.73478,S,05539.76615,E,0.232,,220525,,,A*7A
$GNVTG,,T,,M,0.232,N,0.429,K,A*31
$GNGGA,082822.00,0419.73478,S,05539.76615,E,1,10,0.94,16.4,M,-47.6,M,,*40
$GNGSA,A,3,25,23,10,15,12,29,18,,,,,,2.11,0.94,1.89*11
$GNGSA,A,3,72,76,75,,,,,,,,,,2.11,0.94,1.89*15
$GPGSV,5,1,19,05,00,030,,10,41,235,26,12,38,154,29,13,04,064,09*79
$GPGSV,5,2,19,15,40,075,15,18,19,337,26,23,67,305,21,24,17,140,09*7B
$GPGSV,5,3,19,25,69,191,31,26,06,315,30,28,12,250,,29,36,024,26*70
$GPGSV,5,4,19,31,00,271,,32,12,208,,36,52,277,27,40,85,352,*76
$GPGSV,5,5,19,41,58,082,,49,32,274,,50,10,089,*4B
$GLGSV,2,1,08,65,28,192,18,71,30,047,18,72,65,115,26,75,35,187,20*64
$GLGSV,2,2,08,76,44,271,26,77,12,309,22,86,07,015,,87,02,334,*61
$GNGLL,0419.73478,S,05539.76615,E,082822.00,A,A*62
$GNRMC,082823.00,A,0419.73457,S,05539.76614,E,0.097,,220525,,,A*7A
$GNVTG,,T,,M,0.097,N,0.180,K,A*3A
$GNGGA,082823.00,0419.73457,S,05539.76614,E,1,10,0.94,16.1,M,-47.6,M,,*48
$GNGSA,A,3,25,23,10,15,12,29,18,,,,,,2.11,0.94,1.89*11
$GNGSA,A,3,72,76,75,,,,,,,,,,2.11,0.94,1.89*15
$GPGSV,5,1,19,05,00,030,,10,41,235,28,12,38,154,29,13,04,064,08*76
$GPGSV,5,2,19,15,40,075,17,18,19,337,26,23,67,305,23,24,17,140,09*7B
$GPGSV,5,3,19,25,69,191,31,26,06,315,30,28,12,250,,29,36,024,27*71
$GPGSV,5,4,19,31,00,271,,32,12,208,,36,52,277,34,40,85,352,*74
$GPGSV,5,5,19,41,58,082,,49,32,274,,50,10,089,*4B
$GLGSV,2,1,08,65,28,192,19,71,30,047,18,72,65,115,27,75,35,187,20*64
$GLGSV,2,2,08,76,44,271,27,77,12,309,22,86,07,015,,87,02,334,*60
$GNGLL,0419.73457,S,05539.76614,E,082823.00,A,A*6F
$GNRMC,082824.00,A,0419.73430,S,05539.76602,E,0.193,,220525,,,A*7E
$GNVTG,,T,,M,0.193,N,0.357,K,A*37
$GNGGA,082824.00,0419.73430,S,05539.76602,E,1,11,0.94,16.0,M,-47.6,M,,*49
$GNGSA,A,3,25,23,10,15,12,29,18,24,,,,,2.11,0.94,1.89*17
$GNGSA,A,3,72,76,75,,,,,,,,,,2.11,0.94,1.89*15
$GPGSV,5,1,19,05,00,030,,10,41,235,28,12,38,154,28,13,04,064,06*79
$GPGSV,5,2,19,15,40,075,22,18,19,337,27,23,67,305,26,24,17,140,11*70
$GPGSV,5,3,19,25,69,191,32,26,06,315,30,28,12,250,,29,36,024,30*74
$GPGSV,5,4,19,31,00,271,,32,12,208,,36,52,277,33,40,85,352,*73
$GPGSV,5,5,19,41,58,082,,49,32,274,,50,10,089,*4B
$GLGSV,2,1,08,65,28,192,19,71,30,047,17,72,65,114,29,75,35,187,21*65
$GLGSV,2,2,08,76,44,271,27,77,12,309,22,86,07,015,,87,02,334,*60
$GNGLL,0419.73430,S,05539.76602,E,082824.00,A,A*6E
$GNRMC,082825.00,A,0419.73411,S,05539.76597,E,0.148,,220525,,,A*75
$GNVTG,,T,,M,0.148,N,0.273,K,A*36
$GNGGA,082825.00,0419.73411,S,05539.76597,E,1,10,0.91,16.7,M,-47.6,M,,*47
$GNGSA,A,3,25,23,10,15,12,29,18,24,,,,,1.78,0.91,1.53*19
$GNGSA,A,3,72,76,,,,,,,,,,,1.78,0.91,1.53*19
$GPGSV,5,1,19,05,00,030,,10,41,235,28,12,38,154,29,13,04,064,05*7B
$GPGSV,5,2,19,15,40,075,24,18,19,337,28,23,67,305,25,24,17,140,11*7A
$GPGSV,5,3,19,25,69,191,30,26,06,315,30,28,12,250,,29,36,024,30*76
$GPGSV,5,4,19,31,00,271,,32,12,208,,36,52,277,32,40,85,352,*72
$GPGSV,5,5,19,41,58,082,,49,32,274,,50,10,089,*4B
$GLGSV,2,1,08,65,28,192,19,71,30,047,18,72,65,114,28,75,35,187,*68
$GLGSV,2,2,08,76,44,271,26,77,12,309,22,86,07,015,,87,02,334,*61
$GNGLL,0419.73411,S,05539.76597,E,082825.00,A,A*63
$GNRMC,082826.00,A,0419.73409,S,05539.76587,E,0.064,,220525,,,A*71
$GNVTG,,T,,M,0.064,N,0.118,K,A*37
$GNGGA,082826.00,0419.73409,S,05539.76587,E,1,10,1.16,16.9,M,-47.6,M,,*4C
$GNGSA,A,3,25,23,10,15,12,29,18,,,,,,2.41,1.16,2.12*1E
$GNGSA,A,3,72,76,71,,,,,,,,,,2.41,1.16,2.12*1E
$GPGSV,5,1,19,05,00,030,,10,41,235,28,12,38,154,28,13,04,064,07*78
$GPGSV,5,2,19,15,40,075,25,18,19,337,29,23,67,305,23,24,17,140,*7C
$GPGSV,5,3,19,25,69,191,31,26,06,315,30,28,12,250,,29,36,024,30*77
$GPGSV,5,4,19,31,00,271,,32,12,208,,36,52,277,31,40,85,352,*71
$GPGSV,5,5,19,41,58,082,,49,32,274,,50,10,089,*4B
$GLGSV,2,1,08,65,28,192,19,71,30,047,17,72,65,114,28,75,35,187,*67
$GLGSV,2,2,08,76,44,271,27,77,12,309,21,86,07,015,,87,02,334,*63
$GNGLL,0419.73409,S,05539.76587,E,082826.00,A,A*68
$GNRMC,082827.00,A,0419.73407,S,05539.76586,E,0.113,,220525,,,A*7E
$GNVTG,,T,,M,0.113,N,0.209,K,A*35
$GNGGA,082827.00,0419.73407,S,05539.76586,E,1,10,1.16,17.1,M,-47.6,M,,*4B
$GNGSA,A,3,25,23,10,15,12,29,18,,,,,,2.41,1.16,2.12*1E
$GNGSA,A,3,72,76,71,,,,,,,,,,2.41,1.16,2.12*1E
$GPGSV,5,1,19,05,00,030,,10,41,235,28,12,38,154,27,13,04,064,07*77
$GPGSV,5,2,19,15,40,075,25,18,19,337,29,23,67,305,19,24,17,140,*75
$GPGSV,5,3,19,25,69,191,31,26,06,315,30,28,12,250,,29,36,024,30*77
$GPGSV,5,4,19,31,00,271,,32,12,208,,36,52,277,32,40,85,352,*72
$GPGSV,5,5,19,41,58,082,,49,32,274,,50,10,089,*4B
$GLGSV,2,1,08,65,28,192,19,71,30,047,19,72,65,114,28,75,35,187,19*61
$GLGSV,2,2,08,76,44,271,28,77,12,309,21,86,07,015,,87,02,334,*6C
$GNGLL,0419.73407,S,05539.76586,E,082827.00,A,A*66
$GNRMC,082828.00,A,0419.73398,S,05539.76585,E,0.046,,220525,,,A*72
$GNVTG,,T,,M,0.046,N,0.085,K,A*32
$GNGGA,082828.00,0419.73398,S,05539.76585,E,1,10,1.16,17.1,M,-47.6,M,,*46
$GNGSA,A,3,25,23,10,15,12,29,18,,,,,,2.41,1.16,2.12*1E
$GNGSA,A,3,72,76,71,,,,,,,,,,2.41,1.16,2.12*1E
$GPGSV,5,1,19,05,00,030,07,10,41,235,29,12,38,154,28,13,04,064,07*7E
$GPGSV,5,2,19,15,40,075,25,18,19,337,28,23,67,305,27,24,17,140,08*71
$GPGSV,5,3,19,25,69,191,31,26,06,315,30,28,12,250,,29,36,024,30*77
$GPGSV,5,4,19,31,00,271,,32,12,208,,36,52,277,33,40,85,352,*73
$GPGSV,5,5,19,41,58,082,,49,32,274,,50,10,089,*4B
$GLGSV,2,1,08,65,28,192,19,71,30,047,19,72,65,114,27,75,35,187,*66
$GLGSV,2,2,08,76,44,270,28,77,12,309,21,86,07,015,,87,02,334,*6D
$GNGLL,0419.73398,S,05539.76585,E,082828.00,A,A*6B
$GNRMC,082829.00,A,0419.73378,S,05539.76577,E,0.126,,220525,,,A*77
$GNVTG,,T,,M,0.126,N,0.234,K,A*3D
$GNGGA,082829.00,0419.73378,S,05539.76577,E,1,10,1.16,17.6,M,-47.6,M,,*43
$GNGSA,A,3,25,23,10,15,12,29,18,,,,,,2.41,1.16,2.11*1D
$GNGSA,A,3,72,76,71,,,,,,,,,,2.41,1.16,2.11*1D
$GPGSV,5,1,19,05,00,030,08,10,41,235,28,12,38,154,28,13,04,064,07*70
$GPGSV,5,2,19,15,40,075,23,18,19,337,27,23,67,305,32,24,17,140,09*7D
$GPGSV,5,3,19,25,69,191,31,26,06,315,29,28,12,250,07,29,36,024,29*70
$GPGSV,5,4,19,31,00,271,,32,12,208,,36,52,277,35,40,85,352,*75
$GPGSV,5,5,19,41,58,082,,49,32,274,,50,10,089,*4B
$GLGSV,2,1,08,65,28,192,18,71,30,047,19,72,65,114,27,75,35,187,22*67
$GLGSV,2,2,08,76,44,270,28,77,12,309,20,86,07,015,,87,02,334,*6C
$GNGLL,0419.73378,S,05539.76577,E,082829.00,A,A*69
$GNRMC,082830.00,A,0419.73363,S,05539.76558,E,0.067,,220525,,,A*7C
$GNVTG,,T,,M,0.067,N,0.124,K,A*3B
$GNGGA,082830.00,0419.73363,S,05539.76558,E,1,10,1.16,18.1,M,-47.6,M,,*44
$GNGSA,A,3,25,23,10,15,12,29,18,,,,,,2.41,1.16,2.11*1D
$GNGSA,A,3,72,76,71,,,,,,,,,,2.41,1.16,2.11*1D
$GPGSV,5,1,19,05,00,030,08,10,41,235,27,12,38,154,28,13,04,064,07*7F
$GPGSV,5,2,19,15,40,075,23,18,19,337,27,23,67,305,31,24,17,140,12*74
$GPGSV,5,3,19,25,69,191,30,26,06,314,29,28,12,250,09,29,36,024,29*7E
$GPGSV,5,4,19,31,00,271,,32,12,208,,36,52,277,34,40,85,352,*74
$GPGSV,5,5,19,41,58,082,,49,32,274,,50,10,089,*4B
$GLGSV,2,1,08,65,28,192,18,71,30,047,18,72,65,114,27,75,35,187,19*6E
$GLGSV,2,2,08,76,44,270,27,77,12,309,20,86,07,015,,87,02,334,*63
$GNGLL,0419.73363,S,05539.76558,E,082830.00,A,A*66
$GNRMC,082831.00,A,0419.73358,S,05539.76531,E,0.135,,220525,,,A*7C
$GNVTG,,T,,M,0.135,N,0.251,K,A*3C
$GNGGA,082831.00,0419.73358,S,05539.76531,E,1,11,1.14,18.5,M,-47.6,M,,*45
$GNGSA,A,3,25,23,10,15,12,29,18,26,,,,,2.02,1.14,1.67*1E
$GNGSA,A,3,72,76,71,,,,,,,,,,2.02,1.14,1.67*1A
$GPGSV,5,1,19,05,00,030,09,10,41,235,27,12,38,154,28,13,04,064,07*7E
$GPGSV,5,2,19,15,40,075,22,18,19,337,27,23,67,305,30,24,17,140,12*74
$GPGSV,5,3,19,25,69,191,29,26,06,314,28,28,12,250,12,29,36,024,28*7C
$GPGSV,5,4,19,31,00,271,,32,12,208,,36,52,277,34,40,85,352,*74
$GPGSV,5,5,19,41,58,082,,49,32,274,,50,10,089,*4B
$GLGSV,2,1,08,65,28,192,16,71,30,047,17,72,65,114,27,75,35,187,20*65
$GLGSV,2,2,08,76,44,270,27,77,12,309,20,86,07,015,,87,02,334,*63
$GNGLL,0419.73358,S,05539.76531,E,082831.00,A,A*60
$GNRMC,082832.00,A,0419.73351,S,05539.76515,E,0.069,,220525,,,A*78
$GNVTG,,T,,M,0.069,N,0.128,K,A*39
$GNGGA,082832.00,0419.73351,S,05539.76515,E,1,12,1.05,19.1,M,-47.6,M,,*4F
$GNGSA,A,3,25,23,10,15,12,29,18,24,26,,,,1.85,1.05,1.53*13
$GNGSA,A,3,72,76,75,71,,,,,,,,,1.85,1.05,1.53*13
$GPGSV,5,1,19,05,00,030,08,10,41,235,28,12,38,154,28,13,04,064,08*7F
$GPGSV,5,2,19,15,40,075,23,18,19,337,27,23,67,305,29,24,17,140,12*7D
$GPGSV,5,3,19,25,69,191,29,26,06,314,28,28,12,250,12,29,36,024,28*7C
$GPGSV,5,4,19,31,00,271,,32,12,208,,36,52,277,34,40,85,352,*74
$GPGSV,5,5,19,41,58,082,,49,32,274,,50,10,089,*4B
$GLGSV,2,1,08,65,28,192,16,71,30,047,16,72,65,114,27,75,35,187,22*66
$GLGSV,2,2,08,76,44,270,27,77,12,309,20,86,07,015,,87,02,334,*63
$GNGLL,0419.73351,S,05539.76515,E,082832.00,A,A*6C
$GNRMC,082833.00,A,0419.73357,S,05539.76505,E,0.100,,220525,,,A*70
$GNVTG,,T,,M,0.100,N,0.185,K,A*30
$GNGGA,082833.00,0419.73357,S,05539.76505,E,1,12,0.91,18.8,M,-47.6,M,,*4D
$GNGSA,A,3,25,23,10,15,12,29,18,24,26,,,,1.52,0.91,1.22*13
$GNGSA,A,3,72,76,75,71,,,,,,,,,1.52,0.91,1.22*13
$GPGSV,5,1,19,05,00,030,08,10,41,235,28,12,38,154,28,13,04,064,08*7F
$GPGSV,5,2,19,15,40,075,25,18,19,337,27,23,67,305,29,24,17,140,13*7A
$GPGSV,5,3,19,25,69,191,29,26,06,314,28,28,12,250,12,29,36,024,28*7C
$GPGSV,5,4,19,31,00,271,,32,12,208,,36,52,277,34,40,85,352,*74
$GPGSV,5,5,19,41,58,082,,49,32,274,,50,10,089,*4B
$GLGSV,2,1,08,65,28,192,16,71,30,047,12,72,65,114,26,75,35,187,21*60
$GLGSV,2,2,08,76,44,270,26,77,12,309,21,86,07,015,,87,02,334,*63
$GNGLL,0419.73357,S,05539.76505,E,082833.00,A,A*6A
$GNRMC,082834.00,A,0419.73349,S,05539.76489,E,0.140,,220525,,,A*79
$GNVTG,,T,,M,0.140,N,0.259,K,A*36
$GNGGA,082834.00,0419.73349,S,05539.76489,E,1,12,1.05,19.1,M,-47.6,M,,*44
$GNGSA,A,3,25,23,10,15,12,29,18,24,26,,,,1.85,1.05,1.53*13
$GNGSA,A,3,72,76,75,,,,,,,,,,1.85,1.05,1.53*15
$GPGSV,5,1,19,05,00,030,08,10,41,235,27,12,38,154,29,13,04,064,08*71
$GPGSV,5,2,19,15,40,075,26,18,19,337,28,23,67,305,29,24,17,140,14*71
$GPGSV,5,3,19,25,69,191,28,26,06,314,28,28,12,250,13,29,36,024,28*7C
$GPGSV,5,4,19,31,00,271,,32,12,208,,36,52,277,34,40,85,352,*74
$GPGSV,5,5,19,41,58,082,,49,32,274,,50,10,089,*4B
$GLGSV,2,1,08,65,28,192,17,71,30,047,09,72,65,114,25,75,35,187,23*6A
$GLGSV,2,2,08,76,44,270,26,77,12,309,22,86,07,015,,87,02,334,*60
$GNGLL,0419.73349,S,05539.76489,E,082834.00,A,A*67
$GNRMC,082835.00,A,0419.73348,S,05539.76475,E,0.196,,220525,,,A*71
$GNVTG,,T,,M,0.196,N,0.363,K,A*35
$GNGGA,082835.00,0419.73348,S,05539.76475,E,1,12,1.05,19.0,M,-47.6,M,,*46
$GNGSA,A,3,25,23,10,15,12,29,18,24,26,,,,1.85,1.05,1.53*13
$GNGSA,A,3,72,76,75,,,,,,,,,,1.85,1.05,1.53*15
$GPGSV,5,1,19,05,00,030,08,10,41,235,26,12,38,154,28,13,04,064,08*71
$GPGSV,5,2,19,15,40,075,26,18,19,337,28,23,67,305,29,24,17,140,15*70
$GPGSV,5,3,19,25,69,191,29,26,06,314,29,28,12,250,13,29,36,024,28*7C
$GPGSV,5,4,19,31,00,271,,32,12,208,,36,52,277,34,40,85,352,*74
$GPGSV,5,5,19,41,58,082,,49,32,274,,50,10,089,*4B
$GLGSV,2,1,08,65,28,192,18,71,30,047,09,72,65,114,25,75,35,187,25*63
$GLGSV,2,2,08,76,44,270,26,77,12,309,21,86,07,015,,87,02,334,*63
$GNGLL,0419.73348,S,05539.76475,E,082835.00,A,A*64
$GNRMC,082836.00,A,0419.73344,S,05539.76463,E,0.110,,220525,,,A*77
$GNVTG,,T,,M,0.110,N,0.203,K,A*3C
$GNGGA,082836.00,0419.73344,S,05539.76463,E,1,12,1.05,19.3,M,-47.6,M,,*4D
$GNGSA,A,3,25,23,10,15,12,29,18,24,26,,,,1.85,1.05,1.53*13
$GNGSA,A,3,72,76,75,,,,,,,,,,1.85,1.05,1.53*15
$GPGSV,5,1,19,05,00,030,11,10,41,235,27,12,38,154,29,13,04,064,08*79
$GPGSV,5,2,19,15,40,075,26,18,19,337,28,23,67,305,29,24,17,140,13*76
$GPGSV,5,3,19,25,69,191,29,26,06,314,28,28,12,250,13,29,36,024,28*7D
$GPGSV,5,4,19,31,00,271,17,32,12,208,,36,52,277,34,40,85,352,*72
$GPGSV,5,5,19,41,58,082,,49,32,274,,50,10,089,*4B
$GLGSV,2,1,08,65,28,192,19,71,30,047,09,72,65,114,25,75,35,187,26*61
$GLGSV,2,2,08,76,44,270,26,77,12,309,21,86,07,015,,87,02,334,*63
$GNGLL,0419.73344,S,05539.76463,E,082836.00,A,A*6C
$GNRMC,082837.00,A,0419.73343,S,05539.76458,E,0.114,,220525,,,A*7D
$GNVTG,,T,,M,0.114,N,0.211,K,A*3B
$GNGGA,082837.00,0419.73343,S,05539.76458,E,1,12,1.05,19.4,M,-47.6,M,,*44
$GNGSA,A,3,25,23,10,15,12,29,18,24,26,,,,1.85,1.05,1.53*13
$GNGSA,A,3,72,76,75,,,,,,,,,,1.85,1.05,1.53*15
$GPGSV,5,1,19,05,00,030,11,10,41,235,28,12,38,154,29,13,04,064,08*76
$GPGSV,5,2,19,15,40,075,26,18,19,337,27,23,67,305,29,24,17,140,14*7E
$GPGSV,5,3,19,25,69,191,29,26,06,314,29,28,12,250,13,29,36,024,28*7C
$GPGSV,5,4,19,31,00,271,17,32,12,208,,36,52,277,34,40,85,352,*72
$GPGSV,5,5,19,41,58,082,,49,32,274,,50,10,089,*4B
$GLGSV,2,1,08,65,28,192,18,71,30,047,14,72,65,114,25,75,35,187,26*6C
$GLGSV,2,2,08,76,44,270,26,77,12,309,21,86,07,015,,87,02,334,*63
$GNGLL,0419.73343,S,05539.76458,E,082837.00,A,A*62
$GNRMC,082838.00,A,0419.73344,S,05539.76449,E,0.092,,220525,,,A*7A
$GNVTG,,T,,M,0.092,N,0.170,K,A*30
$GNGGA,082838.00,0419.73344,S,05539.76449,E,1,12,0.92,19.5,M,-47.6,M,,*42
$GNGSA,A,3,25,23,10,15,12,29,18,24,26,,,,1.76,0.92,1.50*13
$GNGSA,A,3,72,76,75,71,,,,,,,,,1.76,0.92,1.50*13
$GPGSV,5,1,19,05,00,030,09,10,41,235,28,12,38,154,29,13,04,064,10*76
$GPGSV,5,2,19,15,40,075,26,18,19,337,28,23,67,305,29,24,17,140,13*76
$GPGSV,5,3,19,25,69,191,29,26,06,314,28,28,12,250,12,29,36,024,28*7C
$GPGSV,5,4,19,31,00,271,17,32,12,208,,36,52,277,34,40,85,352,*72
$GPGSV,5,5,19,41,58,082,,49,32,274,,50,10,089,*4B
$GLGSV,2,1,08,65,28,192,19,71,30,047,14,72,65,114,25,75,35,187,25*6E
$GLGSV,2,2,08,76,44,270,25,77,12,309,20,86,07,015,,87,02,334,*61
$GNGLL,0419.73344,S,05539.76449,E,082838.00,A,A*6A
$GNRMC,082839.00,A,0419.73343,S,05539.76443,E,0.119,,220525,,,A*74
$GNVTG,,T,,M,0.119,N,0.221,K,A*35
$GNGGA,082839.00,0419.73343,S,05539.76443,E,1,12,0.92,19.5,M,-47.6,M,,*4E
$GNGSA,A,3,25,23,10,15,12,29,18,24,26,,,,1.76,0.92,1.50*13
$GNGSA,A,3,72,76,75,71,,,,,,,,,1.76,0.92,1.50*13
$GPGSV,5,1,19,05,00,030,09,10,41,235,28,12,38,154,28,13,04,064,10*77
$GPGSV,5,2,19,15,40,075,27,18,19,337,27,23,67,305,29,24,17,140,13*78
$GPGSV,5,3,19,25,69,191,30,26,06,314,27,28,12,250,13,29,36,024,27*75
$GPGSV,5,4,19,31,00,271,17,32,12,208,,36,52,277,34,40,85,352,*72
$GPGSV,5,5,19,41,58,082,,49,32,274,,50,10,089,*4B
$GLGSV,2,1,08,65,28,192,19,71,30,047,14,72,65,114,23,75,35,187,26*6B
$GLGSV,2,2,08,76,44,270,25,77,12,309,21,86,07,015,,87,02,334,*60
$GNGLL,0419.73343,S,05539.76443,E,082839.00,A,A*66
$GNRMC,082840.00,A,0419.73336,S,05539.76447,E,0.061,,220525,,,A*72
$GNVTG,,T,,M,0.061,N,0.113,K,A*39
$GNGGA,082840.00,0419.73336,S,05539.76447,E,1,12,0.86,19.4,M,-47.6,M,,*42
$GNGSA,A,3,25,23,10,15,12,29,18,24,26,,,,1.72,0.86,1.50*12
$GNGSA,A,3,72,76,75,71,,,,,,,,,1.72,0.86,1.50*12
$GPGSV,5,1,19,05,00,030,10,10,41,235,28,12,38,154,28,13,04,064,10*7F
$GPGSV,5,2,19,15,40,075,26,18,19,337,27,23,67,305,30,24,17,140,13*71
$GPGSV,5,3,19,25,69,191,31,26,06,314,27,28,12,250,12,29,36,024,27*75
$GPGSV,5,4,19,31,00,271,17,32,12,208,,36,52,277,34,40,85,352,*72
$GPGSV,5,5,19,41,58,082,,49,32,274,,50,10,089,*4B
$GLGSV,2,1,08,65,28,192,17,71,30,047,14,72,65,114,22,75,35,187,25*67
$GLGSV,2,2,08,76,44,270,24,77,12,309,22,86,07,015,,87,02,334,*62
$GNGLL,0419.73336,S,05539.76447,E,082840.00,A,A*6E
$GNRMC,082841.00,A,0419.73330,S,05539.76452,E,0.012,,220525,,,A*75
$GNVTG,,T,,M,0.012,N,0.022,K,A*3E
$GNGGA,082841.00,0419.73330,S,05539.76452,E,1,12,0.92,19.3,M,-47.6,M,,*43
$GNGSA,A,3,25,23,10,15,12,29,18,24,26,,,,1.77,0.92,1.51*13
$GNGSA,A,3,72,76,75,71,,,,,,,,,1.77,0.92,1.51*13
$GPGSV,5,1,19,05,00,030,11,10,41,235,29,12,38,154,28,13,04,064,*7E
$GPGSV,5,2,19,15,40,075,26,18,19,337,26,23,67,305,30,24,17,140,13*70
$GPGSV,5,3,19,25,69,191,31,26,06,314,28,28,12,250,12,29,36,024,26*7B
$GPGSV,5,4,19,31,00,271,16,32,12,208,,36,52,277,34,40,85,352,*73
$GPGSV,5,5,19,41,58,082,,49,32,274,,50,10,089,*4B
$GLGSV,2,1,08,65,28,192,17,71,30,047,09,72,65,114,22,75,35,187,25*6B
$GLGSV,2,2,08,76,44,270,24,77,12,309,21,86,07,015,,87,02,334,*61
$GNGLL,0419.73330,S,05539.76452,E,082841.00,A,A*6D
$GNRMC,082842.00,A,0419.73324,S,05539.76459,E,0.049,,220525,,,A*76
$GNVTG,,T,,M,0.049,N,0.090,K,A*39
$GNGGA,082842.00,0419.73324,S,05539.76459,E,1,12,0.86,19.2,M,-47.6,M,,*4A
$GNGSA,A,3,25,23,10,15,12,29,18,24,26,,,,1.72,0.86,1.50*12
$GNGSA,A,3,72,76,75,71,,,,,,,,,1.72,0.86,1.50*12
$GPGSV,5,1,19,05,00,030,11,10,41,235,29,12,38,154,28,13,04,064,*7E
$GPGSV,5,2,19,15,40,075,25,18,19,337,26,23,67,305,29,24,17,140,15*7D
$GPGSV,5,3,19,25,69,191,31,26,06,314,28,28,12,250,09,29,36,024,25*72
$GPGSV,5,4,19,31,00,271,16,32,12,208,,36,52,277,34,40,85,352,*73
$GPGSV,5,5,19,41,58,082,,49,32,274,,50,10,089,*4B
$GLGSV,2,1,08,65,28,192,16,71,30,047,09,72,65,114,21,75,35,187,25*69
$GLGSV,2,2,08,76,44,270,24,77,12,309,22,86,07,015,,87,02,334,*62
$GNGLL,0419.73324,S,05539.76459,E,082842.00,A,A*60
$GNRMC,082843.00,A,0419.73320,S,05539.76477,E,0.017,,220525,,,A*74
$GNVTG,,T,,M,0.017,N,0.031,K,A*39
$GNGGA,082843.00,0419.73320,S,05539.76477,E,1,12,0.86,19.1,M,-47.6,M,,*40
$GNGSA,A,3,25,23,10,15,12,29,18,24,26,,,,1.72,0.86,1.50*12
$GNGSA,A,3,72,76,75,71,,,,,,,,,1.72,0.86,1.50*12
$GPGSV,5,1,19,05,00,030,11,10,41,235,29,12,38,154,29,13,04,064,*7F
$GPGSV,5,2,19,15,40,075,28,18,19,337,26,23,67,305,20,24,17,140,15*79
$GPGSV,5,3,19,25,69,191,33,26,06,314,30,28,12,250,09,29,36,024,26*7A
$GPGSV,5,4,19,31,00,271,16,32,12,208,,36,52,277,32,40,85,352,*75
$GPGSV,5,5,19,41,58,082,,49,32,274,,50,10,089,*4B
$GLGSV,2,1,08,65,28,192,18,71,30,047,10,72,65,114,22,75,35,187,24*6D
$GLGSV,2,2,08,76,44,270,25,77,12,309,21,86,07,015,,87,02,334,*60
$GNGLL,0419.73320,S,05539.76477,E,082843.00,A,A*69
$GNRMC,082844.00,A,0419.73318,S,05539.76503,E,0.164,,220525,,,A*7F
$GNVTG,,T,,M,0.164,N,0.304,K,A*39
$GNGGA,082844.00,0419.73318,S,05539.76503,E,1,12,0.86,18.3,M,-47.6,M,,*4D
$GNGSA,A,3,25,23,10,15,12,29,18,24,26,,,,1.72,0.86,1.50*12
$GNGSA,A,3,72,76,75,71,,,,,,,,,1.72,0.86,1.50*12
$GPGSV,5,1,19,05,00,030,,10,41,235,30,12,38,154,28,13,04,064,*76
$GPGSV,5,2,19,15,40,075,31,18,19,337,27,23,67,305,18,24,17,140,15*7B
$GPGSV,5,3,19,25,69,191,34,26,06,314,31,28,12,250,11,29,36,024,26*75
$GPGSV,5,4,19,31,00,271,17,32,12,208,,36,52,277,32,40,85,352,*74
$GPGSV,5,5,19,41,58,082,,49,32,274,,50,10,089,*4B
$GLGSV,2,1,08,65,28,192,19,71,30,047,10,72,65,114,23,75,35,187,21*68
$GLGSV,2,2,08,76,44,270,23,77,12,309,21,86,07,015,,87,02,334,*66
$GNGLL,0419.73318,S,05539.76503,E,082844.00,A,A*67
$GNRMC,082845.00,A,0419.73311,S,05539.76522,E,0.071,,220525,,,A*71
$GNVTG,,T,,M,0.071,N,0.132,K,A*3B
$GNGGA,082845.00,0419.73311,S,05539.76522,E,1,12,0.86,18.0,M,-47.6,M,,*45
$GNGSA,A,3,25,23,10,15,12,29,18,24,26,,,,1.72,0.86,1.49*1A
$GNGSA,A,3,72,76,75,71,,,,,,,,,1.72,0.86,1.49*1A
$GPGSV,5,1,19,05,00,030,,10,41,235,30,12,38,154,28,13,04,064,*76
$GPGSV,5,2,19,15,40,075,31,18,19,337,27,23,67,305,15,24,17,140,14*77
$GPGSV,5,3,19,25,69,191,34,26,06,314,31,28,12,250,12,29,36,024,26*76
$GPGSV,5,4,19,31,00,271,19,32,12,208,,36,52,277,32,40,85,352,*7A
$GPGSV,5,5,19,41,58,082,,49,32,274,,50,10,089,*4B
$GLGSV,2,1,08,65,28,192,19,71,30,047,10,72,65,114,24,75,35,187,18*65
$GLGSV,2,2,08,76,44,270,24,77,12,309,20,86,07,015,,87,02,334,*60
$GNGLL,0419.73311,S,05539.76522,E,082845.00,A,A*6C
$GNRMC,082846.00,A,0419.73305,S,05539.76552,E,0.125,,220525,,,A*70
$GNVTG,,T,,M,0.125,N,0.231,K,A*3B
$GNGGA,082846.00,0419.73305,S,05539.76552,E,1,12,0.86,17.6,M,-47.6,M,,*4D
$GNGSA,A,3,25,23,10,15,12,29,18,26,,,,,1.72,0.86,1.49*1C
$GNGSA,A,3,72,76,75,71,,,,,,,,,1.72,0.86,1.49*1A
$GPGSV,5,1,19,05,00,030,,10,41,235,30,12,38,154,28,13,04,064,*76
$GPGSV,5,2,19,15,40,075,31,18,19,337,26,23,67,305,17,24,17,140,*71
$GPGSV,5,3,19,25,69,191,34,26,06,314,30,28,12,250,12,29,36,024,26*77
$GPGSV,5,4,19,31,00,271,19,32,12,208,,36,52,277,31,40,85,352,*79
$GPGSV,5,5,19,41,58,082,,49,32,274,,50,10,089,*4B
$GLGSV,2,1,08,65,28,192,19,71,30,047,10,72,65,114,24,75,35,187,17*6A
$GLGSV,2,2,08,76,44,270,25,77,12,309,20,86,07,015,,87,02,334,*61
$GNGLL,0419.73305,S,05539.76552,E,082846.00,A,A*6D
$GNRMC,082847.00,A,0419.73298,S,05539.76568,E,0.099,,220525,,,A*7B
$GNVTG,,T,,M,0.099,N,0.182,K,A*36
$GNGGA,082847.00,0419.73298,S,05539.76568,E,1,12,0.92,17.5,M,-47.6,M,,*46
$GNGSA,A,3,25,23,10,15,12,29,18,26,,,,,1.77,0.92,1.51*15
$GNGSA,A,3,72,76,75,71,,,,,,,,,1.77,0.92,1.51*13
$GPGSV,5,1,19,05,00,030,,10,41,235,30,12,38,154,30,13,04,064,07*78
$GPGSV,5,2,19,15,40,075,31,18,19,337,26,23,67,305,19,24,17,140,16*78
$GPGSV,5,3,19,25,69,191,34,26,06,314,31,28,12,250,12,29,36,024,26*76
$GPGSV,5,4,19,31,00,271,19,32,12,208,,36,52,277,31,40,85,352,*79
$GPGSV,5,5,19,41,58,082,,49,32,274,,50,10,089,*4B
$GLGSV,2,1,08,65,28,192,19,71,30,047,14,72,65,114,25,75,35,187,18*60
$GLGSV,2,2,08,76,44,270,25,77,12,309,19,86,07,015,,87,02,334,*6B
$GNGLL,0419.73298,S,05539.76568,E,082847.00,A,A*60
$GNRMC,082848.00,A,0419.73295,S,05539.76584,E,0.168,,220525,,,A*74
$GNVTG,,T,,M,0.168,N,0.311,K,A*31
$GNGGA,082848.00,0419.73295,S,05539.76584,E,1,12,0.86,17.2,M,-47.6,M,,*44
$GNGSA,A,3,25,23,10,15,12,29,18,26,,,,,1.72,0.86,1.49*1C
$GNGSA,A,3,72,76,75,71,,,,,,,,,1.72,0.86,1.49*1A
$GPGSV,5,1,19,05,00,030,,10,41,235,30,12,38,154,30,13,04,064,07*78
$GPGSV,5,2,19,15,40,075,31,18,19,337,26,23,67,305,19,24,17,140,16*78
$GPGSV,5,3,19,25,69,191,34,26,06,314,30,28,12,250,12,29,37,024,26*76
$GPGSV,5,4,19,31,00,271,19,32,12,208,,36,52,277,31,40,85,352,*79
$GPGSV,5,5,19,41,58,082,,49,32,274,,50,10,089,*4B
$GLGSV,2,1,08,65,28,192,18,71,30,047,14,72,65,114,25,75,35,187,20*6A
$GLGSV,2,2,08,76,44,270,25,77,12,309,19,86,07,015,,87,02,334,*6B
$GNGLL,0419.73295,S,05539.76584,E,082848.00,A,A*60
$GNRMC,082849.00,A,0419.73293,S,05539.76593,E,0.109,,220525,,,A*72
$GNVTG,,T,,M,0.109,N,0.201,K,A*36
$GNGGA,082849.00,0419.73293,S,05539.76593,E,1,12,0.86,17.0,M,-47.6,M,,*47
$GNGSA,A,3,25,23,10,15,12,29,18,26,,,,,1.72,0.86,1.49*1C
$GNGSA,A,3,72,76,75,71,,,,,,,,,1.72,0.86,1.49*1A
$GPGSV,5,1,19,05,00,030,,10,41,235,30,12,38,154,30,13,04,064,08*77
$GPGSV,5,2,19,15,40,075,30,18,19,337,26,23,67,305,20,24,17,140,14*71
$GPGSV,5,3,19,25,69,191,33,26,06,314,31,28,12,250,12,29,37,024,26*70
$GPGSV,5,4,19,31,00,271,20,32,12,208,,36,52,277,30,40,85,352,*72
$GPGSV,5,5,19,41,58,082,,49,32,274,,50,10,089,*4B
$GLGSV,2,1,08,65,28,192,18,71,30,047,13,72,65,114,26,75,35,187,23*6D
$GLGSV,2,2,08,76,44,270,26,77,12,309,20,86,07,015,,87,02,334,*62
$GNGLL,0419.73293,S,05539.76593,E,082849.00,A,A*61
$GNRMC,082850.00,A,0419.73289,S,05539.76599,E,0.121,,220525,,,A*71
$GNVTG,,T,,M,0.121,N,0.223,K,A*3C
$GNGGA,082850.00,0419.73289,S,05539.76599,E,1,11,0.92,17.0,M,-47.6,M,,*48
$GNGSA,A,3,25,23,10,15,12,29,18,26,,,,,1.77,0.92,1.51*15
$GNGSA,A,3,72,76,75,,,,,,,,,,1.77,0.92,1.51*15
$GPGSV,5,1,19,05,00,030,,10,41,236,31,12,38,154,30,13,04,064,08*75
$GPGSV,5,2,19,15,40,075,28,18,19,337,25,23,67,305,21,24,17,140,14*7A
$GPGSV,5,3,19,25,69,191,32,26,06,314,30,28,12,250,12,29,37,024,26*70
$GPGSV,5,4,19,31,00,271,20,32,12,208,,36,52,277,32,40,85,352,*70
$GPGSV,5,5,19,41,58,082,,49,32,274,,50,10,089,*4B
$GLGSV,2,1,08,65,28,192,15,71,30,047,,72,65,114,25,75,35,187,22*60
$GLGSV,2,2,08,76,44,270,27,77,12,309,20,86,07,015,,87,02,334,*63
$GNGLL,0419.73289,S,05539.76599,E,082850.00,A,A*68
$GNRMC,082851.00,A,0419.73280,S,05539.76607,E,0.135,,220525,,,A*78
$GNVTG,,T,,M,0.135,N,0.250,K,A*3D
$GNGGA,082851.00,0419.73280,S,05539.76607,E,1,12,0.81,17.1,M,-47.6,M,,*44
$GNGSA,A,3,25,23,10,15,12,29,18,24,26,,,,1.46,0.81,1.22*17
$GNGSA,A,3,72,76,75,,,,,,,,,,1.46,0.81,1.22*11
$GPGSV,5,1,19,05,00,030,,10,41,236,31,12,38,154,29,13,04,064,06*73
$GPGSV,5,2,19,15,40,075,27,18,19,337,23,23,67,305,23,24,17,140,17*72
$GPGSV,5,3,19,25,69,191,32,26,06,314,30,28,12,250,11,29,37,024,26*73
$GPGSV,5,4,19,31,00,271,21,32,12,208,,36,52,277,32,40,85,352,*71
$GPGSV,5,5,19,41,58,082,,49,32,274,,50,10,089,*4B
$GLGSV,2,1,08,65,28,192,,71,30,047,,72,65,114,25,75,35,187,22*64
$GLGSV,2,2,08,76,44,270,27,77,12,309,22,86,07,015,,87,02,334,*61
$GNGLL,0419.73280,S,05539.76607,E,082851.00,A,A*64
$GNRMC,082852.00,A,0419.73269,S,05539.76611,E,0.081,,220525,,,A*75
$GNVTG,,T,,M,0.081,N,0.150,K,A*30
$GNGGA,082852.00,0419.73269,S,05539.76611,E,1,12,0.81,17.3,M,-47.6,M,,*45
$GNGSA,A,3,25,23,10,15,12,29,18,24,26,,,,1.46,0.81,1.22*17
$GNGSA,A,3,72,76,75,,,,,,,,,,1.46,0.81,1.22*11
$GPGSV,5,1,19,05,00,030,,10,41,236,32,12,38,154,28,13,04,064,05*72
$GPGSV,5,2,19,15,40,075,27,18,19,337,23,23,67,305,26,24,17,140,16*76
$GPGSV,5,3,19,25,69,191,32,26,06,314,30,28,12,250,09,29,37,024,25*79
$GPGSV,5,4,19,31,00,271,21,32,12,208,,36,52,277,32,40,85,352,*71
$GPGSV,5,5,19,41,58,082,,49,32,274,,50,10,089,*4B
$GLGSV,2,1,08,65,28,192,,71,30,047,,72,65,114,25,75,35,187,21*67
$GLGSV,2,2,08,76,44,270,27,77,12,309,22,86,07,015,,87,02,334,*61
$GNGLL,0419.73269,S,05539.76611,E,082852.00,A,A*67
$GNRMC,082853.00,A,0419.73257,S,05539.76614,E,0.070,,220525,,,A*72
$GNVTG,,T,,M,0.070,N,0.129,K,A*30
$GNGGA,082853.00,0419.73257,S,05539.76614,E,1,12,0.81,17.7,M,-47.6,M,,*48
$GNGSA,A,3,25,23,10,15,12,29,18,24,26,,,,1.46,0.81,1.22*17
$GNGSA,A,3,72,76,75,,,,,,,,,,1.46,0.81,1.22*11
$GPGSV,5,1,19,05,00,030,,10,41,236,32,12,38,154,29,13,04,063,04*75
$GPGSV,5,2,19,15,40,075,27,18,19,337,25,23,67,305,27,24,17,140,16*71
$GPGSV,5,3,19,25,69,191,33,26,06,314,29,28,12,250,08,29,37,024,24*70
$GPGSV,5,4,19,31,00,271,20,32,12,208,,36,52,277,33,40,85,352,*71
$GPGSV,5,5,19,41,58,082,,49,32,274,,50,10,089,*4B
$GLGSV,2,1,08,65,28,192,,71,30,047,05,72,65,114,24,75,35,187,20*62
$GLGSV,2,2,08,76,44,270,26,77,12,309,23,86,07,015,,87,02,334,*61
$GNGLL,0419.73257,S,05539.76614,E,082853.00,A,A*6E
$GNRMC,082854.00,A,0419.73251,S,05539.76618,E,0.120,,220525,,,A*7B
$GNVTG,,T,,M,0.120,N,0.223,K,A*3D
$GNGGA,082854.00,0419.73251,S,05539.76618,E,1,12,0.81,18.0,M,-47.6,M,,*4D
$GNGSA,A,3,25,23,10,15,12,29,18,24,26,,,,1.46,0.81,1.22*17
$GNGSA,A,3,72,76,75,,,,,,,,,,1.46,0.81,1.22*11
$GPGSV,5,1,19,05,00,030,,10,41,236,32,12,38,154,29,13,04,063,04*75
$GPGSV,5,2,19,15,40,075,28,18,19,337,25,23,67,305,27,24,17,140,16*7E
$GPGSV,5,3,19,25,68,190,32,26,06,314,29,28,12,250,,29,37,024,23*7E
$GPGSV,5,4,19,31,00,271,20,32,12,208,,36,52,277,33,40,85,352,*71
$GPGSV,5,5,19,41,58,082,,49,32,274,,50,10,089,*4B
$GLGSV,2,1,08,65,28,192,,71,30,047,10,72,65,114,23,75,35,187,19*6B
$GLGSV,2,2,08,76,44,270,28,77,12,309,22,86,07,015,,87,02,334,*6E
$GNGLL,0419.73251,S,05539.76618,E,082854.00,A,A*63
$GNRMC,082855.00,A,0419.73247,S,05539.76627,E,0.183,,220525,,,A*78
$GNVTG,,T,,M,0.183,N,0.340,K,A*30
$GNGGA,082855.00,0419.73247,S,05539.76627,E,1,12,0.81,18.1,M,-47.6,M,,*46
$GNGSA,A,3,25,23,10,15,12,29,18,24,26,,,,1.46,0.81,1.22*17
$GNGSA,A,3,72,76,75,,,,,,,,,,1.46,0.81,1.22*11
$GPGSV,5,1,19,05,00,030,14,10,41,236,32,12,38,154,29,13,04,063,04*70
$GPGSV,5,2,19,15,40,074,28,18,19,337,24,23,67,305,28,24,17,140,17*70
$GPGSV,5,3,19,25,68,190,32,26,06,314,29,28,12,250,,29,37,024,22*7F
$GPGSV,5,4,19,31,00,271,20,32,12,208,,36,52,277,32,40,85,352,*70
$GPGSV,5,5,19,41,58,082,,49,32,274,,50,10,089,*4B
$GLGSV,2,1,08,65,28,192,,71,30,047,13,72,65,114,23,75,35,187,19*68
$GLGSV,2,2,08,76,44,270,28,77,12,309,21,86,07,015,,87,02,334,*6D
$GNGLL,0419.73247,S,05539.76627,E,082855.00,A,A*69
$GNRMC,082856.00,A,0419.73248,S,05539.76638,E,0.082,,220525,,,A*7A
$GNVTG,,T,,M,0.082,N,0.152,K,A*31
$GNGGA,082856.00,0419.73248,S,05539.76638,E,1,12,0.81,18.0,M,-47.6,M,,*45
$GNGSA,A,3,25,23,10,15,12,29,18,24,26,,,,1.46,0.81,1.22*17
$GNGSA,A,3,72,76,75,,,,,,,,,,1.46,0.81,1.22*11
$GPGSV,5,1,19,05,00,030,13,10,41,236,33,12,38,154,29,13,04,063,10*73
$GPGSV,5,2,19,15,40,074,29,18,19,337,25,23,67,305,29,24,17,140,18*7E
$GPGSV,5,3,19,25,68,190,33,26,06,314,29,28,12,250,,29,37,024,24*78
$GPGSV,5,4,19,31,00,271,21,32,12,208,,36,52,277,33,40,85,352,*70
$GPGSV,5,5,19,41,58,082,,49,32,274,,50,10,089,*4B
$GLGSV,2,1,08,65,28,192,,71,30,047,16,72,65,114,23,75,35,187,22*65
$GLGSV,2,2,08,76,44,270,29,77,12,309,21,86,07,015,,87,02,334,*6C
$GNGLL,0419.73248,S,05539.76638,E,082856.00,A,A*6B
$GNRMC,082857.00,A,0419.73253,S,05539.76651,E,0.137,,220525,,,A*71
$GNVTG,,T,,M,0.137,N,0.254,K,A*3B
$GNGGA,082857.00,0419.73253,S,05539.76651,E,1,12,0.81,17.5,M,-47.6,M,,*4B
$GNGSA,A,3,25,23,10,15,12,29,18,24,26,,,,1.46,0.81,1.22*17
$GNGSA,A,3,72,76,75,71,,,,,,,,,1.46,0.81,1.22*17
$GPGSV,5,1,19,05,00,030,12,10,41,236,32,12,38,154,28,13,04,063,10*72
$GPGSV,5,2,19,15,40,074,30,18,19,337,25,23,67,305,29,24,17,140,17*79
$GPGSV,5,3,19,25,68,190,34,26,06,314,28,28,12,250,,29,37,024,25*7F
$GPGSV,5,4,19,31,00,271,21,32,12,208,,36,52,277,33,40,85,352,*70
$GPGSV,5,5,19,41,58,082,,49,32,274,,50,10,089,*4B
$GLGSV,2,1,08,65,28,192,,71,30,047,17,72,65,114,23,75,35,187,22*64
$GLGSV,2,2,08,76,44,270,30,77,12,309,21,86,07,015,,87,02,334,*64
$GNGLL,0419.73253,S,05539.76651,E,082857.00,A,A*6F
$GNRMC,082858.00,A,0419.73255,S,05539.76667,E,0.133,,220525,,,A*79
$GNVTG,,T,,M,0.133,N,0.246,K,A*3C
$GNGGA,082858.00,0419.73255,S,05539.76667,E,1,12,0.81,17.0,M,-47.6,M,,*42
$GNGSA,A,3,25,23,10,15,12,29,18,24,26,,,,1.46,0.81,1.22*17
$GNGSA,A,3,72,76,75,71,,,,,,,,,1.46,0.81,1.22*17
$GPGSV,5,1,19,05,00,030,13,10,41,236,30,12,38,154,28,13,04,063,10*71
$GPGSV,5,2,19,15,40,074,29,18,19,338,24,23,67,305,29,24,17,140,16*7E
$GPGSV,5,3,19,25,68,190,34,26,06,314,28,28,12,250,,29,37,024,23*79
$GPGSV,5,4,19,31,00,271,22,32,12,208,,36,52,277,33,40,85,352,*73
$GPGSV,5,5,19,41,58,082,,49,32,274,,50,10,089,*4B
$GLGSV,2,1,08,65,28,192,,71,30,047,18,72,65,114,23,75,35,187,22*6B
$GLGSV,2,2,08,76,44,270,29,77,12,309,21,86,07,015,,87,02,334,*6C
$GNGLL,0419.73255,S,05539.76667,E,082858.00,A,A*63
$GNRMC,082859.00,A,0419.73255,S,05539.76680,E,0.078,,220525,,,A*7F
$GNVTG,,T,,M,0.078,N,0.144,K,A*33
$GNGGA,082859.00,0419.73255,S,05539.76680,E,1,12,0.81,16.7,M,-47.6,M,,*4C
$GNGSA,A,3,25,23,10,15,12,29,18,24,26,,,,1.46,0.81,1.22*17
$GNGSA,A,3,72,76,75,71,,,,,,,,,1.46,0.81,1.22*17
$GPGSV,5,1,19,05,00,030,,10,41,236,30,12,38,154,26,13,04,063,10*7D
$GPGSV,5,2,19,15,40,074,30,18,19,338,24,23,67,305,31,24,17,140,14*7D
$GPGSV,5,3,19,25,68,190,34,26,06,314,29,28,12,250,,29,37,024,20*7B
$GPGSV,5,4,19,31,00,271,22,32,12,208,,36,52,277,33,40,85,352,*73
$GPGSV,5,5,19,41,58,082,,49,32,274,,50,10,089,*4B
$GLGSV,2,1,08,65,28,192,,71,30,047,20,72,65,114,23,75,35,187,22*60
$GLGSV,2,2,08,76,44,270,27,77,12,309,21,86,07,015,,87,02,334,*62
$GNGLL,0419.73255,S,05539.76680,E,082859.00,A,A*6B
$GNRMC,082900.00,A,0419.73255,S,05539.76694,E,0.021,,220525,,,A*7B
$GNVTG,,T,,M,0.021,N,0.039,K,A*34
$GNGGA,082900.00,0419.73255,S,05539.76694,E,1,12,0.81,16.4,M,-47.6,M,,*47
$GNGSA,A,3,25,23,10,15,12,29,18,24,26,,,,1.46,0.81,1.22*17
$GNGSA,A,3,72,76,75,71,,,,,,,,,1.46,0.81,1.22*17
$GPGSV,5,1,19,05,00,030,,10,41,236,32,12,38,154,26,13,04,063,10*7F
$GPGSV,5,2,19,15,40,074,30,18,19,338,23,23,67,305,30,24,17,140,13*7C
$GPGSV,5,3,19,25,68,190,34,26,06,314,29,28,12,250,,29,37,024,18*70
$GPGSV,5,4,19,31,00,271,23,32,12,208,,36,52,277,32,40,85,352,*73
$GPGSV,5,5,19,41,58,082,,49,32,274,,50,10,089,*4B
$GLGSV,2,1,08,65,28,192,,71,30,047,20,72,65,114,21,75,35,187,21*61
$GLGSV,2,2,08,76,44,270,26,77,12,309,22,86,07,015,,87,02,334,*60
$GNGLL,0419.73255,S,05539.76694,E,082900.00,A,A*63
$GNRMC,082901.00,A,0419.73256,S,05539.76707,E,0.157,,220525,,,A*72
$GNVTG,,T,,M,0.157,N,0.290,K,A*35
$GNGGA,082901.00,0419.73256,S,05539.76707,E,1,12,0.81,16.3,M,-47.6,M,,*49
$GNGSA,A,3,25,23,10,15,12,29,18,24,26,,,,1.46,0.81,1.22*17
$GNGSA,A,3,72,76,75,71,,,,,,,,,1.46,0.81,1.22*17
$GPGSV,5,1,19,05,00,030,,10,41,236,32,12,38,154,27,13,04,063,10*7E
$GPGSV,5,2,19,15,40,074,30,18,19,338,23,23,67,305,30,24,17,140,13*7C
$GPGSV,5,3,19,25,68,190,34,26,06,314,29,28,12,250,,29,37,024,23*78
$GPGSV,5,4,19,31,00,271,24,32,12,208,,36,52,277,32,40,85,352,*74
$GPGSV,5,5,19,41,58,082,,49,32,274,,50,10,089,*4B
$GLGSV,2,1,08,65,28,192,,71,30,047,20,72,65,114,21,75,35,187,22*62
$GLGSV,2,2,08,76,44,270,27,77,12,309,22,86,07,015,,87,02,334,*61
$GNGLL,0419.73256,S,05539.76707,E,082901.00,A,A*6A
$GNRMC,082902.00,A,0419.73254,S,05539.76720,E,0.140,,220525,,,A*70
$GNVTG,,T,,M,0.140,N,0.259,K,A*36
$GNGGA,082902.00,0419.73254,S,05539.76720,E,1,12,0.81,16.1,M,-47.6,M,,*4F
$GNGSA,A,3,25,23,10,15,12,29,18,24,26,,,,1.46,0.81,1.22*17
$GNGSA,A,3,72,76,75,71,,,,,,,,,1.46,0.81,1.22*17
$GPGSV,5,1,19,05,00,030,,10,41,236,32,12,38,154,27,13,04,063,15*7B
$GPGSV,5,2,19,15,40,074,29,18,19,338,22,23,66,306,21,24,17,140,15*71
$GPGSV,5,3,19,25,68,190,32,26,06,314,30,28,12,250,,29,37,024,23*76
$GPGSV,5,4,19,31,00,271,25,32,12,208,,36,52,277,32,40,85,352,*75
$GPGSV,5,5,19,41,58,082,,49,32,274,,50,10,089,*4B
$GLGSV,2,1,08,65,28,192,,71,30,047,20,72,65,114,22,75,35,187,21*62
$GLGSV,2,2,08,76,44,270,27,77,12,309,21,86,07,015,,87,02,334,*62
$GNGLL,0419.73254,S,05539.76720,E,082902.00,A,A*6E
$GNRMC,082903.00,A,0419.73246,S,05539.76739,E,0.024,,220525,,,A*79
$GNVTG,,T,,M,0.024,N,0.045,K,A*3A
$GNGGA,082903.00,0419.73246,S,05539.76739,E,1,12,0.81,16.1,M,-47.6,M,,*45
$GNGSA,A,3,25,23,10,15,12,29,18,24,26,,,,1.46,0.81,1.22*17
$GNGSA,A,3,72,76,75,71,,,,,,,,,1.46,0.81,1.22*17
$GPGSV,5,1,19,05,00,030,,10,41,236,35,12,38,154,27,13,04,063,15*7C
$GPGSV,5,2,19,15,40,074,33,18,19,338,22,23,66,306,24,24,17,139,15*71
$GPGSV,5,3,19,25,68,190,34,26,06,314,30,28,12,250,,29,37,024,26*75
$GPGSV,5,4,19,31,00,271,26,32,12,208,,36,52,277,29,40,85,352,*7C
$GPGSV,5,5,19,41,58,082,,49,32,274,,50,10,089,*4B
$GLGSV,2,1,08,65,28,192,,71,30,047,22,72,65,114,23,75,35,187,19*6A
$GLGSV,2,2,08,76,44,270,27,77,12,309,20,86,07,015,,87,02,334,*63
$GNGLL,0419.73246,S,05539.76739,E,082903.00,A,A*64
$GNRMC,082904.00,A,0419.73245,S,05539.76749,E,0.027,,220525,,,A*79
$GNVTG,,T,,M,0.027,N,0.051,K,A*3C
$GNGGA,082904.00,0419.73245,S,05539.76749,E,1,12,0.81,15.9,M,-47.6,M,,*4D
$GNGSA,A,3,25,23,10,15,12,29,18,24,26,,,,1.46,0.81,1.22*17
$GNGSA,A,3,72,76,75,71,,,,,,,,,1.46,0.81,1.22*17
$GPGSV,5,1,19,05,00,030,,10,41,236,33,12,38,154,28,13,04,063,15*75
$GPGSV,5,2,19,15,40,074,33,18,19,338,25,23,66,306,25,24,17,139,15*77
$GPGSV,5,3,19,25,68,190,34,26,06,314,30,28,12,250,,29,37,024,27*74
$GPGSV,5,4,19,31,00,271,26,32,12,208,,36,52,277,28,40,85,352,*7D
$GPGSV,5,5,19,41,58,082,,49,32,274,,50,10,089,*4B
$GLGSV,2,1,08,65,28,192,,71,30,047,24,72,65,114,22,75,35,187,19*6D
$GLGSV,2,2,08,76,44,270,28,77,12,309,20,86,07,015,,87,02,334,*6C
$GNGLL,0419.73245,S,05539.76749,E,082904.00,A,A*67
$GNRMC,082905.00,A,0419.73247,S,05539.76761,E,0.058,,220525,,,A*78
$GNVTG,,T,,M,0.058,N,0.107,K,A*36
$GNGGA,082905.00,0419.73247,S,05539.76761,E,1,12,0.81,15.8,M,-47.6,M,,*45
$GNGSA,A,3,25,23,10,15,12,29,18,24,26,,,,1.46,0.81,1.22*17
$GNGSA,A,3,72,76,75,71,,,,,,,,,1.46,0.81,1.22*17
$GPGSV,5,1,19,05,00,030,,10,41,236,33,12,38,154,28,13,04,063,15*75
$GPGSV,5,2,19,15,40,074,33,18,19,338,27,23,66,306,26,24,17,139,13*70
$GPGSV,5,3,19,25,68,190,33,26,06,314,30,28,12,250,,29,37,024,27*73
$GPGSV,5,4,19,31,00,271,25,32,12,208,,36,52,277,28,40,85,352,*7E
$GPGSV,5,5,19,41,58,082,,49,32,274,,50,10,089,*4B
$GLGSV,2,1,08,65,28,192,,71,30,047,25,72,65,114,23,75,35,187,20*67
$GLGSV,2,2,08,76,44,270,27,77,12,309,20,86,07,015,,87,02,334,*63
$GNGLL,0419.73247,S,05539.76761,E,082905.00,A,A*6E
$GNRMC,082906.00,A,0419.73253,S,05539.76770,E,0.080,,220525,,,A*7B
$GNVTG,,T,,M,0.080,N,0.148,K,A*38
$GNGGA,082906.00,0419.73253,S,05539.76770,E,1,12,0.81,15.8,M,-47.6,M,,*43
$GNGSA,A,3,25,23,10,15,12,29,18,24,26,,,,1.46,0.81,1.22*17
$GNGSA,A,3,72,76,75,71,,,,,,,,,1.46,0.81,1.22*17
$GPGSV,5,1,19,05,00,030,,10,41,236,33,12,38,154,27,13,04,063,15*7A
$GPGSV,5,2,19,15,40,074,33,18,19,338,28,23,66,306,26,24,17,139,12*7E
$GPGSV,5,3,19,25,68,190,34,26,06,314,31,28,12,250,,29,37,024,28*7A
$GPGSV,5,4,19,31,00,271,26,32,12,208,,36,52,277,27,40,85,352,*72
$GPGSV,5,5,19,41,58,082,,49,32,274,,50,10,089,*4B
$GLGSV,2,1,08,65,28,192,,71,30,047,25,72,65,114,23,75,35,187,20*67
$GLGSV,2,2,08,76,44,270,27,77,12,309,21,86,07,015,,87,02,334,*62
$GNGLL,0419.73253,S,05539.76770,E,082906.00,A,A*68
$GNRMC,082907.00,A,0419.73258,S,05539.76779,E,0.071,,220525,,,A*76
$GNVTG,,T,,M,0.071,N,0.131,K,A*38
$GNGGA,082907.00,0419.73258,S,05539.76779,E,1,12,0.81,15.9,M,-47.6,M,,*41
$GNGSA,A,3,25,23,10,15,12,29,18,24,26,,,,1.46,0.81,1.22*17
$GNGSA,A,3,72,76,75,71,,,,,,,,,1.46,0.81,1.22*17
$GPGSV,5,1,19,05,00,030,,10,41,236,32,12,38,154,28,13,04,063,15*74
$GPGSV,5,2,19,15,40,074,33,18,19,338,28,23,66,306,27,24,17,139,14*79
$GPGSV,5,3,19,25,68,190,34,26,06,314,31,28,12,249,,29,37,024,28*72
$GPGSV,5,4,19,31,00,271,26,32,12,208,,36,52,277,27,40,85,352,*72
$GPGSV,5,5,19,41,58,082,,49,32,274,,50,10,089,*4B
$GLGSV,2,1,08,65,28,192,,71,30,047,26,72,65,114,24,75,35,187,19*69
$GLGSV,2,2,08,76,44,270,26,77,12,309,21,86,07,015,,87,02,334,*63
$GNGLL,0419.73258,S,05539.76779,E,082907.00,A,A*6B
$GNRMC,082908.00,A,0419.73265,S,05539.76788,E,0.122,,220525,,,A*7E
$GNVTG,,T,,M,0.122,N,0.227,K,A*3B
$GNGGA,082908.00,0419.73265,S,05539.76788,E,1,12,0.81,15.7,M,-47.6,M,,*40
$GNGSA,A,3,25,23,10,15,12,29,18,24,26,,,,1.46,0.81,1.22*17
$GNGSA,A,3,72,76,75,71,,,,,,,,,1.46,0.81,1.22*17
$GPGSV,5,1,19,05,00,030,,10,41,236,33,12,38,154,28,13,04,063,*71
$GPGSV,5,2,19,15,40,074,33,18,19,338,28,23,66,306,26,24,17,139,14*78
$GPGSV,5,3,19,25,68,190,34,26,06,314,31,28,12,249,,29,37,024,26*7C
$GPGSV,5,4,19,31,00,271,25,32,12,208,,36,52,277,27,40,85,352,*71
$GPGSV,5,5,19,41,58,082,,49,32,274,,50,10,089,*4B
$GLGSV,2,1,08,65,28,192,,71,30,047,26,72,65,114,24,75,35,187,18*68
$GLGSV,2,2,08,76,44,270,25,77,12,309,20,86,07,015,,87,02,334,*61
$GNGLL,0419.73265,S,05539.76788,E,082908.00,A,A*64
$GNRMC,082909.00,A,0419.73264,S,05539.76799,E,0.038,,220525,,,A*74
$GNVTG,,T,,M,0.038,N,0.070,K,A*31
$GNGGA,082909.00,0419.73264,S,05539.76799,E,1,12,0.75,15.8,M,-47.6,M,,*44
$GNGSA,A,3,25,23,10,15,12,29,18,24,26,,,,1.43,0.75,1.21*1A
$GNGSA,A,3,72,76,75,71,,,,,,,,,1.43,0.75,1.21*1A
$GPGSV,5,1,19,05,00,030,,10,41,236,33,12,38,154,29,13,04,063,*70
$GPGSV,5,2,19,15,40,074,32,18,19,338,28,23,66,306,26,24,17,139,12*7F
$GPGSV,5,3,19,25,68,190,34,26,06,314,30,28,12,249,,29,37,024,26*7D
$GPGSV,5,4,19,31,00,271,26,32,12,208,,36,52,277,28,40,85,352,*7D
$GPGSV,5,5,19,41,58,082,,49,32,274,,50,10,089,*4B
$GLGSV,2,1,08,65,28,192,,71,30,047,25,72,65,114,23,75,35,187,19*6D
$GLGSV,2,2,08,76,44,270,24,77,12,309,21,86,07,015,,87,02,334,*61
$GNGLL,0419.73264,S,05539.76799,E,082909.00,A,A*64
$GNRMC,082910.00,A,0419.73261,S,05539.76809,E,0.048,,220525,,,A*78
$GNVTG,,T,,M,0.048,N,0.089,K,A*30
$GNGGA,082910.00,0419.73261,S,05539.76809,E,1,12,0.75,15.9,M,-47.6,M,,*4E
$GNGSA,A,3,25,23,10,15,12,29,18,24,26,,,,1.43,0.75,1.21*1A
$GNGSA,A,3,72,76,75,71,,,,,,,,,1.43,0.75,1.21*1A
$GPGSV,5,1,19,05,00,030,,10,41,236,33,12,38,154,31,13,04,063,*79
$GPGSV,5,2,19,15,40,074,33,18,19,338,29,23,66,306,26,24,17,139,13*7E
$GPGSV,5,3,19,25,68,190,34,26,06,314,30,28,12,249,,29,37,024,27*7C
$GPGSV,5,4,19,31,00,270,26,32,12,208,,36,52,277,27,40,85,352,*73
$GPGSV,5,5,19,41,58,082,,49,32,274,,50,10,089,*4B
$GLGSV,2,1,08,65,28,192,,71,30,047,24,72,65,114,24,75,35,187,17*65
$GLGSV,2,2,08,76,44,270,24,77,12,309,21,86,07,015,,87,02,334,*61
$GNGLL,0419.73261,S,05539.76809,E,082910.00,A,A*6F
$GNRMC,082911.00,A,0419.73264,S,05539.76819,E,0.114,,220525,,,A*75
$GNVTG,,T,,M,0.114,N,0.212,K,A*38
$GNGGA,082911.00,0419.73264,S,05539.76819,E,1,12,0.75,15.7,M,-47.6,M,,*45
$GNGSA,A,3,25,23,10,15,12,29,18,24,26,,,,1.43,0.75,1.21*1A
$GNGSA,A,3,72,76,75,71,,,,,,,,,1.43,0.75,1.21*1A
$GPGSV,5,1,19,05,00,030,,10,41,236,33,12,38,154,30,13,04,063,*78
$GPGSV,5,2,19,15,40,074,33,18,19,338,28,23,66,306,28,24,17,139,16*74
$GPGSV,5,3,19,25,68,190,34,26,06,314,30,28,12,249,,29,37,024,27*7C
$GPGSV,5,4,19,31,00,270,27,32,13,208,,36,52,277,28,40,85,352,*7C
$GPGSV,5,5,19,41,58,082,,49,32,274,,50,10,089,*4B
$GLGSV,2,1,08,65,28,192,,71,30,047,25,72,65,114,24,75,35,187,17*64
$GLGSV,2,2,08,76,44,270,25,77,12,309,22,86,07,015,,87,02,334,*63
$GNGLL,0419.73264,S,05539.76819,E,082911.00,A,A*6A
$GNRMC,082912.00,A,0419.73267,S,05539.76828,E,0.100,,220525,,,A*72
$GNVTG,,T,,M,0.100,N,0.185,K,A*30
$GNGGA,082912.00,0419.73267,S,05539.76828,E,1,12,0.75,15.7,M,-47.6,M,,*47
$GNGSA,A,3,25,23,10,15,12,29,18,24,26,,,,1.43,0.75,1.21*1A
$GNGSA,A,3,72,76,75,71,,,,,,,,,1.43,0.75,1.21*1A
$GPGSV,5,1,19,05,00,030,,10,41,236,34,12,38,154,30,13,04,063,*7F
$GPGSV,5,2,19,15,40,074,33,18,19,338,28,23,66,306,28,24,17,139,16*74
$GPGSV,5,3,19,25,68,190,35,26,06,314,30,28,12,249,,29,37,024,25*7F
$GPGSV,5,4,19,31,00,270,26,32,13,208,,36,52,277,28,40,85,352,*7D
$GPGSV,5,5,19,41,58,082,,49,32,274,,50,10,089,*4B
$GLGSV,2,1,08,65,28,192,,71,30,047,24,72,65,114,24,75,35,187,17*65
$GLGSV,2,2,08,76,44,270,26,77,12,309,21,86,07,015,,87,02,334,*63
$GNGLL,0419.73267,S,05539.76828,E,082912.00,A,A*68
$GNRMC,082913.00,A,0419.73265,S,05539.76836,E,0.051,,220525,,,A*7B
$GNVTG,,T,,M,0.051,N,0.094,K,A*34
$GNGGA,082913.00,0419.73265,S,05539.76836,E,1,12,0.75,15.8,M,-47.6,M,,*44
$GNGSA,A,3,25,23,10,15,12,29,18,24,26,,,,1.43,0.75,1.21*1A
$GNGSA,A,3,72,76,75,71,,,,,,,,,1.43,0.75,1.21*1A
$GPGSV,5,1,19,05,00,030,,10,41,236,34,12,38,154,30,13,04,063,*7F
$GPGSV,5,2,19,15,40,074,33,18,19,338,27,23,66,306,27,24,17,139,15*77
$GPGSV,5,3,19,25,68,190,35,26,06,314,31,28,12,249,,29,37,024,25*7E
$GPGSV,5,4,19,31,00,270,26,32,13,208,,36,52,277,29,40,85,352,*7C
$GPGSV,5,5,19,41,58,082,,49,32,274,,50,10,089,*4B
$GLGSV,2,1,08,65,28,192,,71,30,047,23,72,65,114,23,75,35,187,17*65
$GLGSV,2,2,08,76,44,270,26,77,12,309,20,86,07,015,,87,02,334,*62
$GNGLL,0419.73265,S,05539.76836,E,082913.00,A,A*64
$GNRMC,082914.00,A,0419.73264,S,05539.76845,E,0.070,,220525,,,A*7A
$GNVTG,,T,,M,0.070,N,0.129,K,A*30
$GNGGA,082914.00,0419.73264,S,05539.76845,E,1,12,0.75,15.9,M,-47.6,M,,*47
$GNGSA,A,3,25,23,10,15,12,29,18,24,26,,,,1.43,0.75,1.21*1A
$GNGSA,A,3,72,76,75,71,,,,,,,,,1.43,0.75,1.21*1A
$GPGSV,5,1,19,05,00,030,,10,41,236,34,12,38,154,30,13,04,063,*7F
$GPGSV,5,2,19,15,40,074,32,18,19,338,28,23,66,306,26,24,17,139,14*79
$GPGSV,5,3,19,25,68,190,35,26,06,314,31,28,12,249,,29,37,024,26*7D
$GPGSV,5,4,19,31,00,270,27,32,13,208,,36,52,277,29,40,85,352,*7D
$GPGSV,5,5,19,41,58,082,,49,32,274,,50,10,089,*4B
$GLGSV,2,1,08,65,28,192,,71,30,047,22,72,65,114,23,75,35,187,18*6B
$GLGSV,2,2,08,76,44,270,27,77,12,309,20,86,07,015,,87,02,334,*63
$GNGLL,0419.73264,S,05539.76845,E,082914.00,A,A*66
$GNRMC,082915.00,A,0419.73268,S,05539.76853,E,0.083,,220525,,,A*7C
$GNVTG,,T,,M,0.083,N,0.154,K,A*36
$GNGGA,082915.00,0419.73268,S,05539.76853,E,1,12,0.75,15.8,M,-47.6,M,,*4C
$GNGSA,A,3,25,23,10,15,12,29,18,24,26,,,,1.43,0.75,1.21*1A
$GNGSA,A,3,72,76,75,71,,,,,,,,,1.43,0.75,1.21*1A
$GPGSV,5,1,19,05,00,030,,10,41,236,35,12,38,154,30,13,04,063,*7E
$GPGSV,5,2,19,15,40,074,31,18,19,338,28,23,66,306,27,24,17,139,14*7B
$GPGSV,5,3,19,25,68,190,35,26,06,314,30,28,12,249,,29,37,024,26*7C
$GPGSV,5,4,19,31,00,270,26,32,13,208,,36,52,277,30,40,85,352,*74
$GPGSV,5,5,19,41,58,082,,49,32,274,,50,10,089,*4B
$GLGSV,2,1,08,65,28,192,,71,30,047,22,72,65,114,23,75,35,187,19*6A
$GLGSV,2,2,08,76,44,270,27,77,12,309,20,86,07,015,,87,02,334,*63
$GNGLL,0419.73268,S,05539.76853,E,082915.00,A,A*6C
$GNRMC,082916.00,A,0419.73272,S,05539.76862,E,0.066,,220525,,,A*7D
$GNVTG,,T,,M,0.066,N,0.123,K,A*3D
$GNGGA,082916.00,0419.73272,S,05539.76862,E,1,12,0.75,15.9,M,-47.6,M,,*47
$GNGSA,A,3,25,23,10,15,12,29,18,24,26,,,,1.43,0.75,1.21*1A
$GNGSA,A,3,72,76,75,71,,,,,,,,,1.43,0.75,1.21*1A
$GPGSV,5,1,19,05,00,030,,10,41,236,34,12,38,154,29,13,04,063,*77
$GPGSV,5,2,19,15,40,074,31,18,19,338,28,23,66,306,27,24,17,139,12*7D
$GPGSV,5,3,19,25,68,190,34,26,06,314,30,28,12,249,,29,37,024,25*7E
$GPGSV,5,4,19,31,00,270,25,32,13,208,,36,52,277,30,40,85,352,*77
$GPGSV,5,5,19,41,58,082,,49,32,274,,50,10,089,*4B
$GLGSV,2,1,08,65,28,192,,71,30,047,23,72,65,114,24,75,35,187,19*6C
$GLGSV,2,2,08,76,44,270,28,77,12,309,20,86,07,015,,87,02,334,*6C
$GNGLL,0419.73272,S,05539.76862,E,082916.00,A,A*66
$GNRMC,082917.00,A,0419.73276,S,05539.76872,E,0.109,,220525,,,A*71
$GNVTG,,T,,M,0.109,N,0.201,K,A*36
$GNGGA,082917.00,0419.73276,S,05539.76872,E,1,12,0.75,15.7,M,-47.6,M,,*4D
$GNGSA,A,3,25,23,10,15,12,29,18,24,26,,,,1.43,0.75,1.21*1A
$GNGSA,A,3,72,76,75,71,,,,,,,,,1.43,0.75,1.21*1A
$GPGSV,5,1,19,05,00,030,,10,41,236,35,12,38,154,30,13,04,063,*7E
$GPGSV,5,2,19,15,40,074,31,18,19,338,26,23,66,306,28,24,17,139,12*7C
$GPGSV,5,3,19,25,68,190,35,26,06,314,30,28,12,249,,29,37,024,25*7F
$GPGSV,5,4,19,31,00,270,25,32,13,208,,36,52,277,29,40,85,352,*7F
$GPGSV,5,5,19,41,58,082,,49,32,274,,50,10,089,*4B
$GLGSV,2,1,08,65,28,192,,71,30,047,22,72,65,114,25,75,35,187,21*67
$GLGSV,2,2,08,76,44,270,28,77,12,309,20,86,07,015,,87,02,334,*6C
$GNGLL,0419.73276,S,05539.76872,E,082917.00,A,A*62
$GNRMC,082918.00,A,0419.73276,S,05539.76877,E,0.023,,220525,,,A*72
$GNVTG,,T,,M,0.023,N,0.043,K,A*3B
$GNGGA,082918.00,0419.73276,S,05539.76877,E,1,12,0.85,15.6,M,-47.6,M,,*49
$GNGSA,A,3,25,23,10,15,12,29,18,26,,,,,1.72,0.85,1.49*1F
$GNGSA,A,3,72,76,75,71,,,,,,,,,1.72,0.85,1.49*19
$GPGSV,5,1,19,05,00,030,,10,41,236,34,12,38,154,30,13,04,063,15*7B
$GPGSV,5,2,19,15,40,074,31,18,19,338,25,23,66,306,28,24,17,139,08*74
$GPGSV,5,3,19,25,68,190,35,26,06,314,30,28,12,249,,29,37,024,25*7F
$GPGSV,5,4,19,31,00,270,25,32,13,208,,36,52,277,30,40,85,352,*77
$GPGSV,5,5,19,41,58,082,,49,32,274,,50,10,089,*4B
$GLGSV,2,1,08,65,28,192,,71,30,047,22,72,65,114,24,75,35,187,19*6D
$GLGSV,2,2,08,76,44,270,27,77,12,309,20,86,07,015,,87,02,334,*63
$GNGLL,0419.73276,S,05539.76877,E,082918.00,A,A*68
$GNRMC,082919.00,A,0419.73277,S,05539.76881,E,0.092,,220525,,,A*71
$GNVTG,,T,,M,0.092,N,0.171,K,A*31
$GNGGA,082919.00,0419.73277,S,05539.76881,E,1,12,0.85,15.6,M,-47.6,M,,*40
$GNGSA,A,3,25,23,10,15,12,29,18,26,,,,,1.72,0.85,1.49*1F
$GNGSA,A,3,72,76,75,71,,,,,,,,,1.72,0.85,1.49*19
$GPGSV,5,1,19,05,00,030,,10,41,236,34,12,38,154,29,13,04,063,13*75
$GPGSV,5,2,19,15,40,074,30,18,19,338,26,23,66,306,29,24,17,139,08*77
$GPGSV,5,3,19,25,68,190,35,26,06,314,31,28,12,249,,29,37,024,26*7D
$GPGSV,5,4,19,31,00,270,25,32,13,208,,36,52,277,30,40,85,352,*77
$GPGSV,5,5,19,41,58,082,,49,32,274,,50,10,089,*4B
$GLGSV,2,1,08,65,28,192,,71,30,047,22,72,65,114,24,75,35,187,20*67
$GLGSV,2,2,08,76,44,270,26,77,12,309,20,86,07,015,,87,02,334,*62
$GNGLL,0419.73277,S,05539.76881,E,082919.00,A,A*61
$GNRMC,082920.00,A,0419.73279,S,05539.76887,E,0.071,,220525,,,A*7E
$GNVTG,,T,,M,0.071,N,0.131,K,A*38
$GNGGA,082920.00,0419.73279,S,05539.76887,E,1,12,0.85,15.5,M,-47.6,M,,*41
$GNGSA,A,3,25,23,10,15,12,29,18,26,,,,,1.72,0.85,1.49*1F
$GNGSA,A,3,72,76,75,71,,,,,,,,,1.72,0.85,1.49*19
$GPGSV,5,1,19,05,00,030,,10,41,236,34,12,38,154,30,13,04,063,11*7F
$GPGSV,5,2,19,15,40,074,30,18,19,338,26,23,66,306,29,24,17,139,08*77
$GPGSV,5,3,19,25,68,190,35,26,06,314,31,28,12,249,,29,37,024,25*7E
$GPGSV,5,4,19,31,00,270,25,32,13,208,,36,52,277,30,40,85,352,*77
$GPGSV,5,5,19,41,58,082,,49,32,274,,50,10,089,*4B
$GLGSV,2,1,08,65,28,192,,71,30,047,23,72,65,114,24,75,35,187,21*67
$GLGSV,2,2,08,76,44,270,26,77,12,309,20,86,07,015,,87,02,334,*62
$GNGLL,0419.73279,S,05539.76887,E,082920.00,A,A*63
$GNRMC,082921.00,A,0419.73278,S,05539.76892,E,0.072,,220525,,,A*79
$GNVTG,,T,,M,0.072,N,0.134,K,A*3E
$GNGGA,082921.00,0419.73278,S,05539.76892,E,1,12,0.85,15.5,M,-47.6,M,,*45
$GNGSA,A,3,25,23,10,15,12,29,18,26,,,,,1.72,0.85,1.49*1F
$GNGSA,A,3,72,76,75,71,,,,,,,,,1.72,0.85,1.49*19
$GPGSV,5,1,19,05,00,030,,10,41,236,34,12,38,154,31,13,04,063,12*7D
$GPGSV,5,2,19,15,40,074,31,18,19,338,24,23,66,306,29,24,17,139,08*74
$GPGSV,5,3,19,25,68,190,35,26,06,314,30,28,12,249,,29,37,024,26*7C
$GPGSV,5,4,19,31,00,270,24,32,13,208,,36,52,277,29,40,85,352,*7E
$GPGSV,5,5,19,41,58,082,,49,32,274,,50,10,089,*4B
$GLGSV,2,1,08,65,28,192,,71,30,047,23,72,65,114,24,75,35,187,21*67
$GLGSV,2,2,08,76,44,270,25,77,12,309,21,86,07,015,,87,02,334,*60
$GNGLL,0419.73278,S,05539.76892,E,082921.00,A,A*67
$GNRMC,082922.00,A,0419.73273,S,05539.76896,E,0.107,,220525,,,A*76
$GNVTG,,T,,M,0.107,N,0.198,K,A*3B
$GNGGA,082922.00,0419.73273,S,05539.76896,E,1,12,0.85,15.3,M,-47.6,M,,*4F
$GNGSA,A,3,25,23,10,15,12,29,18,26,,,,,1.72,0.85,1.49*1F
$GNGSA,A,3,72,76,75,71,,,,,,,,,1.72,0.85,1.49*19
$GPGSV,5,1,19,05,00,030,,10,41,236,34,12,38,154,31,13,04,063,09*77
$GPGSV,5,2,19,15,40,074,30,18,19,338,22,23,66,306,29,24,17,139,08*73
$GPGSV,5,3,19,25,68,190,35,26,06,314,30,28,12,249,,29,37,024,26*7C
$GPGSV,5,4,19,31,00,270,22,32,13,208,,36,52,277,29,40,85,352,*78
$GPGSV,5,5,19,41,58,082,,49,32,274,,50,10,089,*4B
$GLGSV,2,1,08,65,28,192,,71,30,047,25,72,65,114,24,75,35,187,21*61
$GLGSV,2,2,08,76,44,270,24,77,12,309,22,86,07,015,,87,02,334,*62
$GNGLL,0419.73273,S,05539.76896,E,082922.00,A,A*6B
$GNRMC,082923.00,A,0419.73268,S,05539.76903,E,0.105,,220525,,,A*72
$GNVTG,,T,,M,0.105,N,0.194,K,A*35
$GNGGA,082923.00,0419.73268,S,05539.76903,E,1,12,0.85,15.2,M,-47.6,M,,*48
$GNGSA,A,3,25,23,10,15,12,29,18,26,,,,,1.72,0.85,1.49*1F
$GNGSA,A,3,72,76,75,71,,,,,,,,,1.72,0.85,1.49*19
$GPGSV,5,1,19,05,00,030,,10,41,236,35,12,38,154,31,13,04,063,08*77
$GPGSV,5,2,19,15,40,074,28,18,19,338,23,23,66,306,29,24,17,139,08*7B
$GPGSV,5,3,19,25,68,190,35,26,06,314,30,28,12,249,,29,37,024,25*7F
$GPGSV,5,4,19,31,00,270,21,32,13,208,,36,52,277,29,40,85,352,*7B
$GPGSV,5,5,19,41,58,082,,49,32,274,,50,10,089,*4B
$GLGSV,2,1,08,65,28,192,,71,30,047,24,72,65,114,24,75,35,187,21*60
$GLGSV,2,2,08,76,44,270,23,77,12,309,22,86,07,015,,87,02,334,*65
$GNGLL,0419.73268,S,05539.76903,E,082923.00,A,A*6D
$GNRMC,082924.00,A,0419.73270,S,05539.76909,E,0.077,,220525,,,A*72
$GNVTG,,T,,M,0.077,N,0.143,K,A*3B
$GNGGA,082924.00,0419.73270,S,05539.76909,E,1,12,0.85,15.0,M,-47.6,M,,*4E
$GNGSA,A,3,25,23,10,15,12,29,18,26,,,,,1.72,0.85,1.49*1F
$GNGSA,A,3,72,76,75,71,,,,,,,,,1.72,0.85,1.49*19
$GPGSV,5,1,19,05,00,030,,10,41,236,34,12,38,154,31,13,04,063,07*79
$GPGSV,5,2,19,15,40,074,27,18,19,338,22,23,66,306,29,24,17,139,08*75
$GPGSV,5,3,19,25,68,190,35,26,06,314,31,28,12,249,,29,37,024,26*7D
$GPGSV,5,4,19,31,00,270,21,32,13,208,,36,52,277,29,40,85,352,*7B
$GPGSV,5,5,19,41,58,082,,49,32,274,,50,10,089,*4B
$GLGSV,2,1,08,65,28,192,,71,30,047,23,72,65,114,24,75,35,187,22*64
$GLGSV,2,2,08,76,44,270,24,77,12,309,22,86,07,015,,87,02,334,*62
$GNGLL,0419.73270,S,05539.76909,E,082924.00,A,A*69
$GNRMC,082925.00,A,0419.73267,S,05539.76915,E,0.084,,220525,,,A*74
$GNVTG,,T,,M,0.084,N,0.155,K,A*30
$GNGGA,082925.00,0419.73267,S,05539.76915,E,1,12,0.85,15.0,M,-47.6,M,,*44
$GNGSA,A,3,25,23,10,15,12,29,18,26,,,,,1.72,0.85,1.49*1F
$GNGSA,A,3,72,76,75,71,,,,,,,,,1.72,0.85,1.49*19
$GPGSV,5,1,19,05,00,030,,10,41,236,34,12,38,154,31,13,04,063,07*79
$GPGSV,5,2,19,15,40,074,26,18,19,338,22,23,66,306,28,24,17,139,08*75
$GPGSV,5,3,19,25,68,190,35,26,06,314,31,28,12,249,,29,37,024,26*7D
$GPGSV,5,4,19,31,00,270,21,32,13,208,,36,52,277,29,40,85,352,*7B
$GPGSV,5,5,19,41,58,082,,49,32,274,,50,10,089,*4B
$GLGSV,2,1,08,65,28,192,,71,30,047,25,72,65,114,23,75,35,187,22*65
$GLGSV,2,2,08,76,44,270,25,77,12,309,21,86,07,015,,87,02,334,*60
$GNGLL,0419.73267,S,05539.76915,E,082925.00,A,A*63
$GNRMC,082926.00,A,0419.73266,S,05539.76918,E,0.085,,220525,,,A*7A
$GNVTG,,T,,M,0.085,N,0.158,K,A*3C
$GNGGA,082926.00,0419.73266,S,05539.76918,E,1,12,0.85,14.9,M,-47.6,M,,*43
$GNGSA,A,3,25,23,10,15,12,29,18,26,,,,,1.72,0.85,1.49*1F
$GNGSA,A,3,72,76,75,71,,,,,,,,,1.72,0.85,1.49*19
$GPGSV,5,1,19,05,00,030,,10,41,236,35,12,38,154,30,13,04,063,07*79
$GPGSV,5,2,19,15,40,074,26,18,19,338,22,23,66,306,28,24,17,139,08*75
$GPGSV,5,3,19,25,68,190,35,26,06,314,30,28,12,249,,29,37,024,26*7C
$GPGSV,5,4,19,31,00,270,21,32,13,208,,36,52,277,29,40,85,352,*7B
$GPGSV,5,5,19,41,58,082,,49,32,274,,50,10,089,*4B
$GLGSV,2,1,08,65,28,192,,71,30,047,24,72,65,114,22,75,35,187,22*65
$GLGSV,2,2,08,76,44,270,25,77,12,309,21,86,07,015,,87,02,334,*60
$GNGLL,0419.73266,S,05539.76918,E,082926.00,A,A*6C
$GNRMC,082927.00,A,0419.73265,S,05539.76923,E,0.025,,220525,,,A*7A
$GNVTG,,T,,M,0.025,N,0.045,K,A*3B
$GNGGA,082927.00,0419.73265,S,05539.76923,E,1,12,0.85,14.7,M,-47.6,M,,*47
$GNGSA,A,3,25,23,10,15,12,29,18,26,,,,,1.72,0.85,1.49*1F
$GNGSA,A,3,72,76,75,71,,,,,,,,,1.72,0.85,1.49*19
$GPGSV,5,1,19,05,00,030,,10,41,236,35,12,38,154,29,13,04,063,07*71
$GPGSV,5,2,19,15,40,074,26,18,19,338,23,23,66,306,27,24,17,139,08*7B
$GPGSV,5,3,19,25,68,190,36,26,06,314,30,28,12,249,,29,37,024,27*7E
$GPGSV,5,4,19,31,00,270,21,32,13,208,,36,52,277,29,40,85,352,*7B
$GPGSV,5,5,19,41,58,082,,49,32,274,,50,10,089,*4B
$GLGSV,2,1,08,65,28,192,,71,30,047,25,72,65,114,21,75,35,187,22*67
$GLGSV,2,2,08,76,44,270,24,77,12,309,21,86,07,015,,87,02,334,*61
$GNGLL,0419.73265,S,05539.76923,E,082927.00,A,A*66
$GNRMC,082928.00,A,0419.73267,S,05539.76927,E,0.071,,220525,,,A*72
$GNVTG,,T,,M,0.071,N,0.132,K,A*3B
$GNGGA,082928.00,0419.73267,S,05539.76927,E,1,12,0.85,14.5,M,-47.6,M,,*4C
$GNGSA,A,3,25,23,10,15,12,29,18,26,,,,,1.72,0.85,1.49*1F
$GNGSA,A,3,72,76,75,71,,,,,,,,,1.72,0.85,1.49*19
$GPGSV,5,1,19,05,00,030,,10,41,236,35,12,38,154,30,13,04,063,07*79
$GPGSV,5,2,19,15,40,074,25,18,19,338,22,23,66,306,27,24,17,139,08*79
$GPGSV,5,3,19,25,68,190,35,26,06,314,30,28,12,249,,29,37,024,28*72
$GPGSV,5,4,19,31,00,270,22,32,13,208,,36,52,277,29,40,85,352,*78
$GPGSV,5,5,19,41,58,082,,49,32,274,,50,10,089,*4B
$GLGSV,2,1,08,65,28,192,21,71,30,047,25,72,65,114,20,75,35,187,21*66
$GLGSV,2,2,08,76,44,270,23,77,12,309,22,86,07,015,,87,02,334,*65
$GNGLL,0419.73267,S,05539.76927,E,082928.00,A,A*6F
$GNRMC,082929.00,A,0419.73266,S,05539.76932,E,0.089,,220525,,,A*71
$GNVTG,,T,,M,0.089,N,0.164,K,A*3F
$GNGGA,082929.00,0419.73266,S,05539.76932,E,1,12,0.85,14.4,M,-47.6,M,,*49
$GNGSA,A,3,25,23,10,15,12,29,18,26,,,,,1.72,0.85,1.49*1F
$GNGSA,A,3,72,76,75,71,,,,,,,,,1.72,0.85,1.49*19
$GPGSV,5,1,19,05,00,030,,10,41,236,35,12,38,154,30,13,04,063,07*79
$GPGSV,5,2,19,15,40,074,24,18,19,338,23,23,66,306,26,24,17,139,08*78
$GPGSV,5,3,19,25,68,190,36,26,06,314,31,28,12,249,,29,37,024,28*70
$GPGSV,5,4,19,31,00,270,21,32,13,208,,36,52,277,28,40,85,352,*7A
$GPGSV,5,5,19,41,58,082,,49,32,274,,50,10,089,*4B
$GLGSV,2,1,08,65,28,192,21,71,30,047,25,72,65,114,20,75,35,187,20*67
$GLGSV,2,2,08,76,44,270,23,77,12,309,22,86,07,015,,87,02,334,*65
$GNGLL,0419.73266,S,05539.76932,E,082929.00,A,A*6B
$GNRMC,082930.00,A,0419.73262,S,05539.76934,E,0.045,,220525,,,A*7B
$GNVTG,,T,,M,0.045,N,0.083,K,A*37
$GNGGA,082930.00,0419.73262,S,05539.76934,E,1,12,0.85,14.3,M,-47.6,M,,*44
$GNGSA,A,3,25,23,10,15,12,29,18,26,,,,,1.72,0.85,1.49*1F
$GNGSA,A,3,72,76,75,71,,,,,,,,,1.72,0.85,1.49*19
$GPGSV,5,1,19,05,00,030,,10,41,236,36,12,38,154,30,13,04,063,07*7A
$GPGSV,5,2,19,15,40,074,23,18,19,338,21,23,66,306,26,24,17,139,08*7D
$GPGSV,5,3,19,25,68,190,36,26,06,314,30,28,12,249,,29,37,024,28*71
$GPGSV,5,4,19,31,00,270,21,32,13,208,,36,52,277,28,40,85,352,*7A
$GPGSV,5,5,19,41,58,082,,49,32,274,,50,10,089,*4B
$GLGSV,2,1,08,65,28,192,20,71,30,047,26,72,65,114,19,75,35,187,19*65
$GLGSV,2,2,08,76,44,270,23,77,12,309,22,86,07,015,,87,02,334,*65
$GNGLL,0419.73262,S,05539.76934,E,082930.00,A,A*61
$GNRMC,082931.00,A,0419.73260,S,05539.76936,E,0.006,,220525,,,A*7D
$GNVTG,,T,,M,0.006,N,0.010,K,A*3A
$GNGGA,082931.00,0419.73260,S,05539.76936,E,1,12,0.85,14.2,M,-47.6,M,,*44
$GNGSA,A,3,25,23,10,15,12,29,18,26,,,,,1.72,0.85,1.49*1F
$GNGSA,A,3,72,76,75,71,,,,,,,,,1.72,0.85,1.49*19
$GPGSV,5,1,19,05,00,030,,10,41,236,35,12,38,154,30,13,04,063,07*79
$GPGSV,5,2,19,15,40,074,23,18,19,338,23,23,66,306,26,24,17,139,08*7F
$GPGSV,5,3,19,25,68,190,36,26,06,314,31,28,12,249,,29,37,024,27*7F
$GPGSV,5,4,19,31,00,270,20,32,13,208,,36,52,277,28,40,85,352,*7B
$GPGSV,5,5,19,41,58,082,,49,32,274,,50,10,089,*4B
$GLGSV,2,1,08,65,28,192,21,71,30,047,26,72,65,114,18,75,35,187,18*64
$GLGSV,2,2,08,76,44,270,22,77,12,309,22,86,07,015,,87,02,334,*64
$GNGLL,0419.73260,S,05539.76936,E,082931.00,A,A*60
$GNRMC,082932.00,A,0419.73258,S,05539.76941,E,0.030,,220525,,,A*70
$GNVTG,,T,,M,0.030,N,0.055,K,A*3E
$GNGGA,082932.00,0419.73258,S,05539.76941,E,1,12,0.85,14.1,M,-47.6,M,,*4F
$GNGSA,A,3,25,23,10,15,12,29,18,26,,,,,1.72,0.85,1.49*1F
$GNGSA,A,3,72,76,75,71,,,,,,,,,1.72,0.85,1.49*19
$GPGSV,5,1,19,05,00,030,,10,41,236,35,12,38,154,30,13,04,063,07*79
$GPGSV,5,2,19,15,40,074,22,18,19,338,24,23,66,306,27,24,17,139,08*78
$GPGSV,5,3,19,25,68,190,36,26,06,314,31,28,12,249,,29,37,024,27*7F
$GPGSV,5,4,19,31,00,270,19,32,13,208,,36,52,277,29,40,85,352,*70
$GPGSV,5,5,19,41,58,082,,49,32,274,,50,10,089,*4B
$GLGSV,2,1,08,65,29,192,20,71,30,047,26,72,65,114,18,75,35,187,16*6A
$GLGSV,2,2,08,76,44,270,22,77,12,309,22,86,07,015,,87,02,334,*64
$GNGLL,0419.73258,S,05539.76941,E,082932.00,A,A*68
$GNRMC,082933.00,A,0419.73256,S,05539.76942,E,0.058,,220525,,,A*72
$GNVTG,,T,,M,0.058,N,0.107,K,A*36
$GNGGA,082933.00,0419.73256,S,05539.76942,E,1,12,0.85,13.9,M,-47.6,M,,*4C
$GNGSA,A,3,25,23,10,15,12,29,18,26,,,,,1.72,0.85,1.49*1F
$GNGSA,A,3,72,76,75,71,,,,,,,,,1.72,0.85,1.49*19
$GPGSV,5,1,19,05,00,030,,10,41,236,35,12,38,154,31,13,04,063,07*78
$GPGSV,5,2,19,15,40,074,21,18,19,338,23,23,66,306,27,24,17,139,08*7C
$GPGSV,5,3,19,25,68,190,36,26,06,314,30,28,12,249,,29,37,024,26*7F
$GPGSV,5,4,19,31,00,270,18,32,13,208,,36,52,277,28,40,85,352,*70
$GPGSV,5,5,19,41,58,082,,49,32,274,,50,10,089,*4B
$GLGSV,2,1,08,65,29,192,20,71,30,047,25,72,65,114,18,75,35,187,15*6A
$GLGSV,2,2,08,76,44,270,22,77,12,309,21,86,07,015,,87,02,334,*67
$GNGLL,0419.73256,S,05539.76942,E,082933.00,A,A*64
$GNRMC,082934.00,A,0419.73254,S,05539.76947,E,0.080,,220525,,,A*77
$GNVTG,,T,,M,0.080,N,0.147,K,A*37
$GNGGA,082934.00,0419.73254,S,05539.76947,E,1,12,0.85,13.7,M,-47.6,M,,*42
$GNGSA,A,3,25,23,10,15,12,29,18,26,,,,,1.72,0.85,1.49*1F
$GNGSA,A,3,72,76,75,71,,,,,,,,,1.72,0.85,1.49*19
$GPGSV,5,1,19,05,00,030,,10,41,236,35,12,38,154,32,13,04,063,07*7B
$GPGSV,5,2,19,15,40,074,20,18,19,338,24,23,66,306,27,24,17,139,08*7A
$GPGSV,5,3,19,25,68,190,36,26,06,314,30,28,12,249,,29,37,024,25*7C
$GPGSV,5,4,19,31,00,270,19,32,13,208,,36,52,277,29,40,85,352,*70
$GPGSV,5,5,19,41,58,082,,49,32,274,,50,10,089,*4B
$GLGSV,2,1,08,65,29,192,20,71,30,047,25,72,65,114,18,75,35,187,15*6A
$GLGSV,2,2,08,76,44,270,22,77,12,309,20,86,07,015,,87,02,334,*66
$GNGLL,0419.73254,S,05539.76947,E,082934.00,A,A*64
$GNRMC,082935.00,A,0419.73249,S,05539.76951,E,0.082,,220525,,,A*7F
$GNVTG,,T,,M,0.082,N,0.151,K,A*32
$GNGGA,082935.00,0419.73249,S,05539.76951,E,1,12,0.85,13.6,M,-47.6,M,,*49
$GNGSA,A,3,25,23,10,15,12,29,18,26,,,,,1.72,0.85,1.49*1F
$GNGSA,A,3,72,76,75,71,,,,,,,,,1.72,0.85,1.49*19
$GPGSV,5,1,19,05,00,030,,10,41,236,35,12,38,154,32,13,04,063,07*7B
$GPGSV,5,2,19,15,40,074,19,18,19,338,23,23,66,306,28,24,17,139,08*78
$GPGSV,5,3,19,25,68,190,35,26,06,314,29,28,12,249,,29,37,024,26*74
$GPGSV,5,4,19,31,00,270,18,32,13,208,,36,52,277,29,40,85,352,*71
$GPGSV,5,5,19,41,58,082,,49,32,274,,50,10,089,*4B
$GLGSV,2,1,08,65,29,192,19,71,30,047,24,72,65,114,18,75,35,187,15*61
$GLGSV,2,2,08,76,44,270,21,77,12,309,19,86,07,015,,87,02,334,*6F
$GNGLL,0419.73249,S,05539.76951,E,082935.00,A,A*6E
$GNRMC,082936.00,A,0419.73243,S,05539.76951,E,0.040,,220525,,,A*78
$GNVTG,,T,,M,0.040,N,0.073,K,A*3D
$GNGGA,082936.00,0419.73243,S,05539.76951,E,1,12,0.85,13.6,M,-47.6,M,,*40
$GNGSA,A,3,25,23,10,15,12,29,18,26,,,,,1.72,0.85,1.49*1F
