$GNRMC,125350.00,A,0419.89511,S,05539.79744,E,0.153,,260525,,,D*7C
$GNVTG,,T,,M,0.153,N,0.283,K,D*36
$GNGGA,125350.00,0419.89511,S,05539.79744,E,2,12,0.76,25.6,M,-47.6,M,,0000*4C
$GNGSA,A,3,28,27,31,32,18,26,08,,,,,,1.54,0.76,1.34*12
$GNGSA,A,3,84,70,71,73,85,80,,,,,,,1.54,0.76,1.34*17
$GPGSV,5,1,17,02,03,332,,04,08,226,,08,23,303,31,10,13,023,*7B
$GPGSV,5,2,17,16,24,217,19,18,29,113,26,23,01,061,,26,29,187,18*7F
$GPGSV,5,3,17,27,55,274,34,28,60,109,27,31,53,167,29,32,35,007,34*73
$GPGSV,5,4,17,36,52,277,33,40,84,353,34,41,58,082,,49,32,274,*7B
$GPGSV,5,5,17,50,10,089,*4A
$GLGSV,3,1,10,70,28,329,14,71,30,274,21,72,05,231,,73,21,169,14*6D
$GLGSV,3,2,10,74,04,211,,80,15,114,21,83,38,136,20,84,65,034,22*65
$GLGSV,3,3,10,85,22,346,31,,,,36*5F
$GNGLL,0419.89511,S,05539.79744,E,125350.00,A,D*64
$GNRMC,125351.00,A,0419.89511,S,05539.79744,E,0.220,,260525,,,D*7A
$GNVTG,,T,,M,0.220,N,0.407,K,D*3B
$GNGGA,125351.00,0419.89511,S,05539.79744,E,2,12,0.72,25.5,M,-47.6,M,,0000*4A
$GNGSA,A,3,28,27,31,32,18,26,16,08,,,,,1.52,0.72,1.33*10
$GNGSA,A,3,84,71,73,85,80,,,,,,,,1.52,0.72,1.33*15
$GPGSV,5,1,17,02,03,332,,04,08,226,,08,23,303,35,10,13,023,*7F
$GPGSV,5,2,17,16,24,217,18,18,29,113,24,23,01,061,,26,29,187,17*73
$GPGSV,5,3,17,27,55,274,37,28,60,109,32,31,53,167,28,32,35,007,37*76
$GPGSV,5,4,17,36,52,277,33,40,84,353,36,41,58,082,,49,32,274,*79
$GPGSV,5,5,17,50,10,089,*4A
$GLGSV,3,1,10,70,28,329,10,71,30,274,18,72,05,231,,73,21,169,18*6F
$GLGSV,3,2,10,74,04,211,,80,15,114,19,83,38,136,19,84,65,034,21*67
$GLGSV,3,3,10,85,22,346,30,,,,36*5E
$GNGLL,0419.89511,S,05539.79744,E,125351.00,A,D*65
$GNRMC,125352.00,A,0419.89503,S,05539.79741,E,0.078,,260525,,,D*70
$GNVTG,,T,,M,0.078,N,0.144,K,D*36
$GNGGA,125352.00,0419.89503,S,05539.79741,E,2,12,0.71,25.7,M,-47.6,M,,0000*4E
$GNGSA,A,3,28,27,31,32,18,26,16,08,,,,,1.51,0.71,1.33*10
$GNGSA,A,3,84,83,71,73,85,80,,,,,,,1.51,0.71,1.33*1E
$GPGSV,5,1,17,02,03,332,,04,08,226,,08,23,303,38,10,13,023,*72
$GPGSV,5,2,17,16,24,217,19,18,29,113,26,23,01,061,,26,29,187,19*7E
$GPGSV,5,3,17,27,55,274,39,28,60,109,34,31,53,167,28,32,35,007,39*70
$GPGSV,5,4,17,36,52,277,37,40,84,353,38,41,58,082,,49,32,274,*73
$GPGSV,5,5,17,50,10,089,*4A
$GLGSV,3,1,10,70,28,329,08,71,30,274,17,72,05,231,,73,21,169,11*60
$GLGSV,3,2,10,74,04,211,,80,15,114,18,83,38,136,18,84,65,034,21*67
$GLGSV,3,3,10,85,22,346,31,,,,38*51
$GNGLL,0419.89503,S,05539.79741,E,125352.00,A,D*60
$GNRMC,125353.00,A,0419.89494,S,05539.79742,E,0.128,,260525,,,D*79
$GNVTG,,T,,M,0.128,N,0.237,K,D*35
$GNGGA,125353.00,0419.89494,S,05539.79742,E,2,12,0.77,25.8,M,-47.6,M,,0000*4A
$GNGSA,A,3,28,27,31,32,18,26,08,,,,,,1.55,0.77,1.35*13
$GNGSA,A,3,84,83,71,73,85,80,,,,,,,1.55,0.77,1.35*1A
$GPGSV,5,1,17,02,03,332,,04,08,226,,08,23,302,39,10,13,023,*72
$GPGSV,5,2,17,16,24,217,,18,29,113,27,23,01,061,,26,29,187,21*7C
$GPGSV,5,3,17,27,55,274,38,28,60,109,30,31,53,167,26,32,35,007,41*74
$GPGSV,5,4,17,36,52,277,40,40,84,353,41,41,58,082,33,49,32,274,*7D
$GPGSV,5,5,17,50,10,089,*4A
$GLGSV,3,1,10,70,28,329,10,71,30,274,16,72,05,231,,73,21,169,16*6F
$GLGSV,3,2,10,74,04,211,,80,15,114,18,83,38,136,19,84,65,034,21*66
$GLGSV,3,3,10,85,22,346,29,,,,39*59
$GNGLL,0419.89494,S,05539.79742,E,125353.00,A,D*6D
$GPGSV,5,2,17,16,24,217,21,18,29,113,25,23,01,061,,26,29,187,16*79
$GPGSV,5,3,17,27,55,274,36,28,60,109,30,31,53,167,23,32,35,007,37*7E
$GPGSV,5,4,17,36,52,277,37,40,84,353,33,41,58,082,27,49,32,274,*7D
$GPGSV,5,5,17,50,10,089,*4A
$GLGSV,3,1,10,70,28,329,11,71,30,274,16,72,05,231,,73,21,169,18*60
$GLGSV,3,2,10,74,04,211,,80,15,114,11,83,38,136,15,84,65,034,21*63
$GLGSV,3,3,10,85,22,346,29,,,,33*53
$GNGLL,0419.89486,S,05539.79732,E,125358.00,A,D*62
$GNRMC,125401.00,A,0419.89484,S,05539.79719,E,0.101,,260525,,,D*7D
$GNVTG,,T,,M,0.101,N,0.187,K,D*36
$GNGGA,125401.00,0419.89484,S,05539.79719,E,2,12,0.75,27.3,M,-47.6,M,,0000*4E
$GNGSA,A,3,28,27,31,32,18,26,16,08,,,,,1.53,0.75,1.34*11
$GNGSA,A,3,84,83,70,71,73,85,80,,,,,,1.53,0.75,1.34*18
$GPGSV,5,1,17,02,03,332,,04,08,226,,08,23,302,38,10,13,024,*74
$GPGSV,5,2,17,16,24,217,20,18,29,113,27,23,01,061,,26,29,187,20*7F
$GPGSV,5,3,17,27,55,274,36,28,60,109,31,31,53,167,27,32,35,007,42*79
$GPGSV,5,4,17,36,52,277,33,40,84,353,39,41,58,082,,49,32,274,*76
$GPGSV,5,5,17,50,10,089,*4A
$GLGSV,3,1,10,70,28,329,19,71,30,274,21,72,05,231,,73,21,169,15*61
$GLGSV,3,2,10,74,04,211,,80,15,114,08,83,38,136,21,84,65,034,21*6C
$GLGSV,3,3,10,85,22,346,26,,,,36*59
$GNGLL,0419.89484,S,05539.79719,E,125401.00,A,D*62
$GNRMC,125402.00,A,0419.89487,S,05539.79718,E,0.043,,260525,,,D*7B
$GNVTG,,T,,M,0.043,N,0.080,K,D*37
$GNGGA,125402.00,0419.89487,S,05539.79718,E,2,12,0.75,27.1,M,-47.6,M,,0000*4D
$GNGSA,A,3,28,27,31,32,18,26,16,08,,,,,1.53,0.75,1.34*11
$GNGSA,A,3,84,83,70,71,73,85,80,,,,,,1.53,0.75,1.34*18
$GPGSV,5,1,17,02,03,332,,04,08,226,,08,23,302,38,10,13,024,*74
$GPGSV,5,2,17,16,24,217,19,18,29,113,28,23,01,061,,26,29,187,20*7A
$GPGSV,5,3,17,27,55,274,36,28,60,109,30,31,53,167,25,32,35,007,43*7B
$GPGSV,5,4,17,36,52,277,35,40,84,353,39,41,58,082,,49,32,274,*70
$GPGSV,5,5,17,50,10,089,*4A
$GLGSV,3,1,10,70,28,329,23,71,30,274,21,72,05,231,,73,21,169,15*68
$GLGSV,3,2,10,74,04,211,,80,15,114,08,83,38,136,17,84,65,034,22*6A
$GLGSV,3,3,10,85,22,346,27,,,,39*57
$GNGLL,0419.89487,S,05539.79718,E,125402.00,A,D*63
$GNRMC,125403.00,A,0419.89486,S,05539.79718,E,0.055,,260525,,,D*7C
$GNVTG,,T,,M,0.055,N,0.103,K,D*3A
$GNGGA,125403.00,0419.89486,S,05539.79718,E,2,12,0.81,27.2,M,-47.6,M,,0000*45
$GNGSA,A,3,28,27,31,32,18,26,16,08,,,,,1.74,0.81,1.53*1E
$GNGSA,A,3,84,83,70,71,73,85,80,,,,,,1.74,0.81,1.53*17
$GPGSV,5,1,17,02,03,332,,04,08,226,,08,23,302,38,10,13,024,*74
$GPGSV,5,2,17,16,24,217,20,18,29,114,28,23,01,061,,26,29,187,20*77
$GPGSV,5,3,17,27,55,274,37,28,60,109,32,31,53,167,25,32,35,007,42*79
$GPGSV,5,4,17,36,52,277,36,40,84,353,39,41,58,082,32,49,32,274,*72
$GPGSV,5,5,17,50,10,089,*4A
$GLGSV,3,1,10,70,28,329,25,71,30,274,20,72,05,231,,73,21,169,15*6F
$GLGSV,3,2,10,74,04,211,,80,15,114,10,83,38,136,18,84,65,034,21*6F
$GLGSV,3,3,10,85,22,346,26,,,,39*56
$GNGLL,0419.89486,S,05539.79718,E,125403.00,A,D*63
$GNRMC,125404.00,A,0419.89487,S,05539.79716,E,0.083,,260525,,,D*7F
$GNVTG,,T,,M,0.083,N,0.154,K,D*33
$GNGGA,125404.00,0419.89487,S,05539.79716,E,2,12,0.75,27.1,M,-47.6,M,,0000*45
$GNGSA,A,3,28,27,31,32,18,26,08,,,,,,1.53,0.75,1.34*16
$GNGSA,A,3,84,83,70,71,73,85,80,,,,,,1.53,0.75,1.34*18
$GPGSV,5,1,17,02,03,332,,04,08,226,,08,23,302,39,10,13,024,23*74
$GPGSV,5,2,17,16,24,217,,18,29,114,28,23,01,061,,26,29,187,21*74
$GPGSV,5,3,17,27,55,274,35,28,60,109,32,31,53,167,27,32,35,007,42*79
$GPGSV,5,4,17,36,52,277,34,40,84,353,39,41,58,082,30,49,32,274,*72
$GPGSV,5,5,17,50,10,089,*4A
$GLGSV,3,1,10,70,28,329,25,71,30,274,20,72,05,231,,73,21,169,15*6F
$GLGSV,3,2,10,74,04,211,,80,15,114,08,83,38,136,16,84,65,034,21*68
$GLGSV,3,3,10,85,22,346,31,,,,39*50
$GNGLL,0419.89487,S,05539.79716,E,125404.00,A,D*6B
$GNRMC,125405.00,A,0419.89489,S,05539.79716,E,0.041,,260525,,,D*7E
$GNVTG,,T,,M,0.041,N,0.077,K,D*3D
$GNGGA,125405.00,0419.89489,S,05539.79716,E,2,12,0.75,27.1,M,-47.6,M,,0000*4A
$GNGSA,A,3,28,27,31,32,18,26,08,,,,,,1.53,0.75,1.34*16
$GNGSA,A,3,84,83,70,71,73,85,80,,,,,,1.53,0.75,1.34*18
$GPGSV,5,1,17,02,03,332,,04,08,226,,08,23,302,36,10,13,024,22*7A
$GPGSV,5,2,17,16,24,217,,18,29,114,28,23,01,061,,26,29,187,20*75
$GPGSV,5,3,17,27,55,274,36,28,60,109,31,31,53,167,29,32,35,007,42*77
$GPGSV,5,4,17,36,52,277,35,40,84,353,41,41,58,082,30,49,32,274,*7C
$GPGSV,5,5,17,50,10,089,*4A
$GLGSV,3,1,10,70,28,329,24,71,30,274,18,72,05,231,,73,21,169,16*66
$GLGSV,3,2,10,74,04,211,,80,15,114,17,83,38,136,17,84,65,034,22*64
$GLGSV,3,3,10,85,22,346,30,,,,38*50
$GNGLL,0419.89489,S,05539.79716,E,125405.00,A,D*64
$GNRMC,125408.00,A,0419.89492,S,05539.79708,E,0.045,,260525,,,D*72
$GNVTG,,T,,M,0.045,N,0.084,K,D*35
$GNGGA,125408.00,0419.89492,S,05539.79708,E,2,12,0.69,27.4,M,-47.6,M,,0000*4A
$GNGSA,A,3,28,27,31,32,18,26,08,10,,,,,1.42,0.69,1.24*1B
$GNGSA,A,3,84,83,70,71,73,85,80,,,,,,1.42,0.69,1.24*14
$GPGSV,5,1,17,02,03,332,,04,08,226,,08,23,302,38,10,13,024,25*73
$GPGSV,5,2,17,16,24,217,,18,29,114,24,23,01,062,,26,29,187,21*7B
$GPGSV,5,3,17,27,55,273,39,28,60,109,33,31,53,167,32,32,35,007,43*76
$GPGSV,5,4,17,36,52,277,38,40,84,353,42,41,58,082,32,49,32,274,*70
$GPGSV,5,5,17,50,10,089,*4A
$GLGSV,3,1,10,70,28,329,23,71,30,274,23,72,05,231,,73,21,169,15*6A
$GLGSV,3,2,10,74,04,211,,80,15,114,15,83,38,136,16,84,65,034,24*61
$GLGSV,3,3,10,85,22,346,17,,,,38*55
$GNGLL,0419.89492,S,05539.79708,E,125408.00,A,D*6C
$GNRMC,125409.00,A,0419.89497,S,05539.79706,E,0.115,,260525,,,D*7C
$GNVTG,,T,,M,0.115,N,0.213,K,D*3D
$GNGGA,125409.00,0419.89497,S,05539.79706,E,2,12,0.69,27.3,M,-47.6,M,,0000*47
$GNGSA,A,3,28,27,31,32,18,26,08,10,,,,,1.42,0.69,1.24*1B
$GNGSA,A,3,84,83,70,71,73,85,80,,,,,,1.42,0.69,1.24*14
$GPGSV,5,1,17,02,03,332,,04,08,226,,08,23,302,38,10,13,024,25*73
$GPGSV,5,2,17,16,24,217,,18,29,114,24,23,01,062,,26,29,187,21*7B
$GPGSV,5,3,17,27,55,273,39,28,60,109,33,31,53,167,31,32,35,007,42*74
$GPGSV,5,4,17,36,52,277,40,40,84,353,43,41,58,082,35,49,32,274,*79
$GPGSV,5,5,17,50,10,089,*4A
$GLGSV,3,1,10,70,28,329,25,71,30,274,24,72,05,231,,73,21,169,15*6B
$GLGSV,3,2,10,74,04,211,,80,15,114,15,83,38,136,20,84,65,034,25*65
$GLGSV,3,3,10,85,22,346,22,,,,40*5C
$GNGLL,0419.89497,S,05539.79706,E,125409.00,A,D*66
$GNRMC,125410.00,A,0419.89495,S,05539.79704,E,0.059,,260525,,,D*7D
$GNVTG,,T,,M,0.059,N,0.109,K,D*3C
$GNGGA,125410.00,0419.89495,S,05539.79704,E,2,12,0.69,27.7,M,-47.6,M,,0000*4B
$GNGSA,A,3,28,27,31,32,18,26,08,10,,,,,1.42,0.69,1.24*1B
$GNGSA,A,3,84,83,70,71,73,85,80,,,,,,1.42,0.69,1.24*14
$GPGSV,5,1,17,02,03,332,,04,08,226,,08,23,302,38,10,13,024,23*75
$GPGSV,5,2,17,16,24,217,,18,29,114,23,23,01,062,,26,29,186,21*7D
$GPGSV,5,3,17,27,55,273,39,28,60,109,33,31,53,167,31,32,35,007,40*76
$GPGSV,5,4,17,36,52,277,40,40,84,353,42,41,58,082,35,49,32,274,*78
$GPGSV,5,5,17,50,10,089,*4A
$GLGSV,3,1,10,70,28,329,25,71,30,274,25,72,05,231,,73,21,169,13*6C
$GLGSV,3,2,10,74,04,211,,80,15,114,19,83,38,136,20,84,65,034,26*6A
$GLGSV,3,3,10,85,22,346,25,,,,39*55
$GNGLL,0419.89495,S,05539.79704,E,125410.00,A,D*6E
$GNRMC,125411.00,A,0419.89505,S,05539.79708,E,0.213,,260525,,,D*74
$GNVTG,,T,,M,0.213,N,0.394,K,D*36
$GNGGA,125411.00,0419.89505,S,05539.79708,E,2,12,0.69,27.4,M,-47.6,M,,0000*4D
$GNGSA,A,3,28,27,31,32,18,26,08,10,,,,,1.42,0.69,1.24*1B
$GNGSA,A,3,84,83,70,71,73,85,80,,,,,,1.42,0.69,1.24*14
$GPGSV,5,1,17,02,03,332,,04,08,226,,08,23,302,38,10,13,024,22*74
$GPGSV,5,2,17,16,24,217,,18,29,114,23,23,01,062,,26,29,186,21*7D
$GPGSV,5,3,17,27,55,273,37,28,60,109,33,31,53,167,30,32,35,007,42*7B
$GPGSV,5,4,17,36,52,277,39,40,84,353,42,41,58,082,35,49,32,274,*76
$GPGSV,5,5,17,50,10,089,*4A
$GLGSV,3,1,10,70,28,329,26,71,30,274,26,72,05,231,,73,21,169,15*6A
$GLGSV,3,2,10,74,04,211,,80,15,114,18,83,38,136,19,84,65,034,26*61
$GLGSV,3,3,10,85,22,346,26,,,,39*56
$GNGLL,0419.89505,S,05539.79708,E,125411.00,A,D*6B
$GNRMC,125412.00,A,0419.89509,S,05539.79710,E,0.167,,260525,,,D*72
$GNVTG,,T,,M,0.167,N,0.309,K,D*32
$GNGGA,125412.00,0419.89509,S,05539.79710,E,2,12,0.69,27.5,M,-47.6,M,,0000*4A
$GNGSA,A,3,28,27,31,32,18,26,08,10,,,,,1.42,0.69,1.24*1B
$GNGSA,A,3,84,83,70,71,73,85,80,,,,,,1.42,0.69,1.24*14
$GPGSV,5,1,17,02,03,332,,04,08,226,,08,23,302,38,10,13,024,21*77
$GPGSV,5,2,17,16,24,217,,18,29,114,23,23,01,062,,26,29,186,20*7C
$GPGSV,5,3,17,27,55,273,37,28,60,107,33,31,53,167,31,32,35,007,42*74
$GPGSV,5,4,17,36,52,277,39,40,84,353,42,41,58,082,35,49,32,274,*76
$GPGSV,5,5,17,50,10,089,*4A
$GLGSV,3,1,10,70,28,329,26,71,30,274,28,72,05,231,,73,21,169,15*64
$GLGSV,3,2,10,74,04,211,,80,15,114,18,83,38,136,18,84,65,034,26*60
$GLGSV,3,3,10,85,22,346,26,,,,39*56
$GNGLL,0419.89509,S,05539.79710,E,125412.00,A,D*6D
$GNRMC,125413.00,A,0419.89512,S,05539.79713,E,0.126,,260525,,,D*7F
$GNVTG,,T,,M,0.126,N,0.232,K,D*3E
$GNRMC,125415.00,A,0419.89512,S,05539.79712,E,0.076,,260525,,,D*7C
$GNVTG,,T,,M,0.076,N,0.141,K,D*3D
$GNGGA,125415.00,0419.89512,S,05539.79712,E,2,12,0.69,28.3,M,-47.6,M,,0000*4C
$GNGSA,A,3,28,27,31,32,18,26,08,10,,,,,1.42,0.69,1.24*1B
$GNGSA,A,3,84,83,70,71,73,85,80,,,,,,1.42,0.69,1.24*14
$GPGSV,5,1,17,02,03,332,,04,08,226,,08,23,302,38,10,13,024,24*72
$GNRMC,125416.00,A,0419.89517,S,05539.79713,E,0.092,,260525,,,D*71
$GNVTG,,T,,M,0.092,N,0.170,K,D*35
$GNGGA,125416.00,0419.89517,S,05539.79713,E,2,12,0.69,28.3,M,-47.6,M,,0000*4B
$GNGSA,A,3,28,27,31,32,18,26,08,10,,,,,1.42,0.69,1.24*1B
$GNGSA,A,3,84,83,70,71,73,85,80,,,,,,1.42,0.69,1.24*14
$GPGSV,5,1,17,02,03,332,,04,08,226,,08,23,302,38,10,13,024,22*74
$GPGSV,5,2,17,16,24,217,,18,29,114,24,23,01,062,,26,29,186,21*7A
$GPGSV,5,3,17,27,55,273,39,28,60,107,34,31,54,167,29,32,34,007,42*72
$GPGSV,5,4,17,36,52,277,39,40,84,353,43,41,58,082,35,49,32,274,*77
$GPGSV,5,5,17,50,10,089,*4A
$GLGSV,3,1,10,70,28,329,27,71,30,274,27,72,05,231,,73,21,169,17*68
$GLGSV,3,2,10,74,04,211,,80,15,114,18,83,38,136,18,84,65,034,26*60
$GLGSV,3,3,10,85,22,346,29,,,,38*58
$GNGLL,0419.89517,S,05539.79713,E,125416.00,A,D*65
$GNRMC,125417.00,A,0419.89516,S,05539.79712,E,0.050,,260525,,,D*7E
$GNVTG,,T,,M,0.050,N,0.093,K,D*37
$GNGGA,125417.00,0419.89516,S,05539.79712,E,2,12,0.75,28.6,M,-47.6,M,,0000*42
$GNGSA,A,3,28,27,31,32,18,26,08,,,,,,1.53,0.75,1.34*16
$GNGSA,A,3,84,83,70,71,73,85,80,,,,,,1.53,0.75,1.34*18
$GPGSV,5,1,17,02,03,332,,04,08,226,,08,23,302,38,10,13,024,*74
$GPGSV,5,2,17,16,24,217,,18,29,114,22,23,01,062,,26,29,186,20*7D
$GPGSV,5,3,17,27,55,273,39,28,60,107,35,31,54,167,30,32,34,007,43*7A
$GPGSV,5,4,17,36,52,277,39,40,84,353,43,41,58,082,35,49,32,274,*77
$GPGSV,5,5,17,50,10,089,*4A
$GLGSV,3,1,10,70,28,329,27,71,30,274,27,72,05,231,,73,21,169,18*67
$GLGSV,3,2,10,74,04,211,,80,15,114,16,83,38,136,17,84,65,034,25*62
$GLGSV,3,3,10,85,22,346,29,,,,38*58
$GNGLL,0419.89516,S,05539.79712,E,125417.00,A,D*64
$GNRMC,125419.00,A,0419.89521,S,05539.79713,E,0.059,,260525,,,D*7C
$GNVTG,,T,,M,0.059,N,0.110,K,D*34
$GNGGA,125419.00,0419.89521,S,05539.79713,E,2,12,0.75,28.9,M,-47.6,M,,0000*46
$GNGSA,A,3,28,27,31,32,18,26,08,,,,,,1.53,0.75,1.34*16
$GNGSA,A,3,84,83,70,71,73,85,80,,,,,,1.53,0.75,1.34*18
$GPGSV,5,1,17,02,03,332,,04,08,226,,08,23,302,38,10,13,024,*74
$GPGSV,5,2,17,16,24,217,,18,29,114,20,23,01,062,,26,29,186,21*7E
$GPGSV,5,3,17,27,55,273,38,28,60,107,34,31,54,167,29,32,34,007,43*72
$GPGSV,5,4,17,36,52,277,39,40,84,353,43,41,58,082,35,49,32,274,*77
$GPGSV,5,5,17,50,10,089,*4A
$GLGSV,3,1,10,70,28,329,27,71,30,274,25,72,05,231,,73,21,169,16*6B
$GLGSV,3,2,10,74,04,211,,80,15,114,17,83,38,136,18,84,65,034,26*6F
$GLGSV,3,3,10,85,22,346,29,,,,38*58
$GNGLL,0419.89521,S,05539.79713,E,125419.00,A,D*6F
$GNRMC,125421.00,A,0419.89526,S,05539.79714,E,0.176,,260525,,,D*7B
$GNVTG,,T,,M,0.176,N,0.325,K,D*3C
$GNGGA,125421.00,0419.89526,S,05539.79714,E,2,12,0.75,29.0,M,-47.6,M,,0000*45
$GNGSA,A,3,28,27,31,32,18,26,08,,,,,,1.53,0.75,1.34*16
$GNGSA,A,3,84,83,70,71,73,85,80,,,,,,1.53,0.75,1.34*18
$GPGSV,5,1,17,02,03,332,,04,08,226,,08,23,302,37,10,13,024,*7B
$GPGSV,5,2,17,16,24,217,,18,29,114,21,23,01,062,,26,29,186,22*7C
$GPGSV,5,3,17,27,55,273,38,28,60,107,34,31,54,167,30,32,34,007,42*7B
$GPGSV,5,4,17,36,52,277,39,40,84,353,42,41,58,082,33,49,32,274,*70
$GPGSV,5,5,17,50,10,089,*4A
$GLGSV,3,1,10,70,28,329,27,71,30,274,26,72,05,231,,73,21,169,17*69
$GLGSV,3,2,10,74,04,211,,80,15,114,16,83,38,136,15,84,65,034,25*60
$GLGSV,3,3,10,85,22,346,29,,,,38*58
$GNGLL,0419.89526,S,05539.79714,E,125421.00,A,D*64
$GNRMC,125422.00,A,0419.89531,S,05539.79715,E,0.143,,260525,,,D*79
$GNVTG,,T,,M,0.143,N,0.265,K,D*3F
$GNGGA,125422.00,0419.89531,S,05539.79715,E,2,12,0.75,29.0,M,-47.6,M,,0000*41
$GNGSA,A,3,28,27,31,32,18,26,08,,,,,,1.53,0.75,1.34*16
$GNGSA,A,3,84,83,70,71,73,85,80,,,,,,1.53,0.75,1.34*18
$GPGSV,5,1,17,02,03,332,,04,08,226,,08,23,302,37,10,13,024,*7B
$GPGSV,5,2,17,16,24,217,21,18,29,114,21,23,01,062,,26,29,186,21*7C
$GPGSV,5,3,17,27,55,273,37,28,60,107,35,31,54,167,29,32,34,007,43*7C
$GPGSV,5,4,17,36,52,277,39,40,84,353,42,41,58,082,32,49,32,274,*71
$GPGSV,5,5,17,50,10,089,*4A
$GLGSV,3,1,10,70,28,329,27,71,30,274,26,72,05,231,,73,21,169,17*69
$GLGSV,3,2,10,74,04,211,,80,15,114,15,83,38,136,16,84,65,034,25*60
$GLGSV,3,3,10,85,22,346,30,,,,37*5F
$GNGLL,0419.89531,S,05539.79715,E,125422.00,A,D*60
$GNRMC,125423.00,A,0419.89530,S,05539.79713,E,0.036,,260525,,,D*7C
$GNVTG,,T,,M,0.036,N,0.066,K,D*3D
$GNGGA,125423.00,0419.89530,S,05539.79713,E,2,12,0.75,29.4,M,-47.6,M,,0000*43
$GNGSA,A,3,28,27,31,32,18,26,08,,,,,,1.53,0.75,1.34*16
$GNGSA,A,3,84,83,70,71,73,85,80,,,,,,1.53,0.75,1.34*18
$GPGSV,5,1,17,02,03,332,,04,08,226,,08,23,302,37,10,13,024,*7B
$GPGSV,5,2,17,16,24,217,22,18,29,114,22,23,01,062,,26,29,186,20*7D
$GPGSV,5,3,17,27,55,273,38,28,60,107,35,31,54,167,30,32,34,007,43*7B
$GPGSV,5,4,17,36,52,277,39,40,84,353,42,41,58,082,31,49,32,274,*72
$GPGSV,5,5,17,50,10,089,*4A
$GLGSV,3,1,10,70,28,329,27,71,30,274,27,72,05,231,,73,21,169,17*68
$GLGSV,3,2,10,74,04,211,,80,15,114,17,83,38,136,15,84,65,034,25*61
$GLGSV,3,3,10,85,22,346,31,,,,37*5E
$GNGLL,0419.89530,S,05539.79713,E,125423.00,A,D*66
$GNRMC,125424.00,A,0419.89536,S,05539.79714,E,0.131,,260525,,,D*7C
$GNVTG,,T,,M,0.131,N,0.243,K,D*3E
$GNGGA,125424.00,0419.89536,S,05539.79714,E,2,12,0.75,29.3,M,-47.6,M,,0000*42
$GNGSA,A,3,28,27,31,32,18,26,08,,,,,,1.53,0.75,1.34*16
$GNGSA,A,3,84,83,70,71,73,85,80,,,,,,1.53,0.75,1.34*18
$GPGSV,5,1,17,02,03,332,,04,08,226,,08,23,302,36,10,13,024,*7A
$GPGSV,5,2,17,16,24,217,,18,29,114,23,23,01,062,,26,29,186,22*7E
$GPGSV,5,3,17,27,55,273,38,28,60,107,35,31,54,167,29,32,34,007,43*73
$GPGSV,5,4,17,36,52,277,39,40,84,353,42,41,58,082,31,49,32,274,*72
$GPGSV,5,5,17,50,10,089,*4A
$GLGSV,3,1,10,70,28,329,28,71,30,274,28,72,05,231,,73,21,169,17*68
$GLGSV,3,2,10,74,04,211,,80,15,114,16,83,38,136,15,84,65,034,25*60
$GLGSV,3,3,10,85,22,346,32,,,,37*5D
$GNGLL,0419.89536,S,05539.79714,E,125424.00,A,D*60
$GNRMC,125425.00,A,0419.89541,S,05539.79714,E,0.079,,260525,,,D*70
$GNVTG,,T,,M,0.079,N,0.146,K,D*35
$GNGGA,125425.00,0419.89541,S,05539.79714,E,2,12,0.79,29.3,M,-47.6,M,,0000*4F
$GNGSA,A,3,28,27,31,32,18,26,08,,,,,,1.61,0.79,1.41*19
$GNGSA,A,3,84,83,70,71,85,80,,,,,,,1.61,0.79,1.41*13
$GPGSV,5,1,17,02,03,332,,04,08,226,,08,23,302,36,10,13,024,*7A
$GPGSV,5,2,17,16,24,217,,18,29,114,25,23,01,062,,26,29,186,22*78
$GPGSV,5,3,17,27,55,273,38,28,60,107,35,31,54,167,30,32,34,007,43*7B
$GPGSV,5,4,17,36,52,277,40,40,84,353,42,41,58,082,31,49,32,274,*7C
$GPGSV,5,5,17,50,10,089,*4A
$GLGSV,3,1,10,70,28,329,28,71,30,274,27,72,05,231,,73,21,169,*61
$GLGSV,3,2,10,74,04,211,,80,15,114,16,83,38,136,14,84,65,034,25*61
$GLGSV,3,3,10,85,22,346,32,,,,37*5D
$GNGLL,0419.89541,S,05539.79714,E,125425.00,A,D*61
$GNRMC,125430.00,A,0419.89547,S,05539.79705,E,0.281,,260525,,,D*77
$GNVTG,,T,,M,0.281,N,0.521,K,D*35
$GNGGA,125430.00,0419.89547,S,05539.79705,E,2,11,0.87,29.9,M,-47.6,M,,0000*45
$GNGSA,A,3,28,27,32,18,26,08,,,,,,,1.97,0.87,1.76*17
$GNGSA,A,3,84,83,70,71,85,,,,,,,,1.97,0.87,1.76*17
$GPGSV,5,1,17,02,03,332,,04,08,226,,08,23,302,37,10,13,024,*7B
$GPGSV,5,2,17,16,24,217,,18,29,114,21,23,01,062,,26,29,186,11*7C
$GPGSV,5,3,17,27,55,273,40,28,60,107,32,31,54,167,,32,34,007,42*71
$GPGSV,5,4,17,36,52,277,40,40,84,353,44,41,58,082,32,49,32,274,*79
$GPGSV,5,5,17,50,10,089,*4A
$GLGSV,3,1,10,70,28,329,27,71,30,274,27,72,05,231,,73,21,169,*6E
$GLGSV,3,2,10,74,04,211,,80,15,114,08,83,38,136,14,84,65,034,23*68
$GLGSV,3,3,10,85,22,346,33,,,,36*5D
$GNGLL,0419.89547,S,05539.79705,E,125430.00,A,D*63
$GNRMC,125431.00,A,0419.89548,S,05539.79705,E,0.157,,260525,,,D*71
$GNVTG,,T,,M,0.157,N,0.290,K,D*30
$GNGGA,125431.00,0419.89548,S,05539.79705,E,2,11,0.87,29.9,M,-47.6,M,,0000*4B
$GNGSA,A,3,28,27,32,18,26,08,,,,,,,1.97,0.87,1.76*17
$GNGSA,A,3,84,83,70,71,85,,,,,,,,1.97,0.87,1.76*17
$GPGSV,5,1,17,02,03,332,,04,08,226,,08,23,302,38,10,13,024,*74
$GPGSV,5,2,17,16,24,217,,18,29,114,18,23,01,062,,26,29,186,13*74
$GPGSV,5,3,17,27,55,273,40,28,60,107,25,31,54,167,22,32,34,007,42*77
$GPGSV,5,4,17,36,52,277,41,40,84,353,43,41,58,082,33,49,32,274,*7E
$GPGSV,5,5,17,50,10,089,*4A
$GLGSV,3,1,10,70,28,329,26,71,30,274,28,72,05,231,,73,21,169,*60
$GLGSV,3,2,10,74,04,211,,80,15,114,08,83,38,136,14,84,65,034,22*69
$GLGSV,3,3,10,85,22,346,34,,,,36*5A
$GNGLL,0419.89548,S,05539.79705,E,125431.00,A,D*6D
$GNRMC,125432.00,A,0419.89550,S,05539.79710,E,0.074,,260525,,,D*7F
$GNVTG,,T,,M,0.074,N,0.137,K,D*3E
$GNGGA,125432.00,0419.89550,S,05539.79710,E,2,12,0.82,29.8,M,-47.6,M,,0000*42
$GNGSA,A,3,28,27,31,32,18,26,08,,,,,,1.69,0.82,1.47*13
$GNGSA,A,3,84,83,70,71,85,80,,,,,,,1.69,0.82,1.47*19
$GPGSV,5,1,17,02,03,332,,04,08,226,,08,23,302,38,10,13,024,*74
$GPGSV,5,2,17,16,24,217,,18,29,114,19,23,01,062,,26,29,186,13*75
$GPGSV,5,3,17,27,55,273,40,28,60,107,32,31,54,167,23,32,34,007,41*73
$GPGSV,5,4,17,36,52,277,40,40,84,353,42,41,58,082,28,49,32,274,*74
$GPGSV,5,5,17,50,10,089,*4A
$GLGSV,3,1,10,70,28,329,26,71,30,274,29,72,05,231,,73,21,169,*61
$GLGSV,3,2,10,74,04,211,,80,15,114,10,83,38,136,11,84,65,034,22*65
$GLGSV,3,3,10,85,22,346,34,,,,36*5A
$GNGLL,0419.89550,S,05539.79710,E,125432.00,A,D*63
$GNRMC,125435.00,A,0419.89537,S,05539.79706,E,0.094,,260525,,,D*70
$GNVTG,,T,,M,0.094,N,0.175,K,D*36
$GNGGA,125435.00,0419.89537,S,05539.79706,E,2,12,0.78,29.8,M,-47.6,M,,0000*46
$GNGSA,A,3,28,27,31,32,18,26,08,,,,,,1.48,0.78,1.26*12
$GNGSA,A,3,84,83,70,71,85,80,,,,,,,1.48,0.78,1.26*18
$GPGSV,5,1,17,02,03,332,,04,08,226,,08,23,302,37,10,13,024,*7B
$GPGSV,5,2,17,16,24,217,,18,29,114,22,23,01,062,,26,29,186,19*77
$GPGSV,5,3,17,27,55,273,38,28,60,107,35,31,54,167,31,32,34,007,42*7B
$GPGSV,5,4,17,36,52,277,38,40,84,353,41,41,58,082,33,49,32,274,*72
$GPGSV,5,5,17,50,10,089,*4A
$GLGSV,3,1,10,70,28,329,27,71,30,274,25,72,05,231,,73,21,169,*6C
$GLGSV,3,2,10,74,04,211,,80,15,114,10,83,38,136,12,84,65,034,24*60
$GLGSV,3,3,10,85,22,346,30,,,,36*5E
$GNGLL,0419.89537,S,05539.79706,E,125435.00,A,D*62
$GNRMC,125436.00,A,0419.89533,S,05539.79701,E,0.056,,260525,,,D*7E
$GNVTG,,T,,M,0.056,N,0.104,K,D*3E
$GNGGA,125436.00,0419.89533,S,05539.79701,E,2,12,0.78,29.8,M,-47.6,M,,0000*46
$GNGSA,A,3,28,27,31,32,18,26,08,,,,,,1.48,0.78,1.26*12
$GNGSA,A,3,84,83,70,71,85,80,,,,,,,1.48,0.78,1.26*18
$GPGSV,5,1,17,02,03,332,,04,08,226,,08,23,302,36,10,13,024,*7A
$GPGSV,5,2,17,16,24,217,,18,29,114,22,23,01,062,,26,29,186,19*77
$GPGSV,5,3,17,27,55,273,38,28,60,107,35,31,54,167,31,32,34,007,41*78
$GPGSV,5,4,17,36,52,277,39,40,84,353,41,41,58,082,31,49,32,274,*71
$GPGSV,5,5,17,50,10,089,*4A
$GLGSV,3,1,10,70,28,329,27,71,30,274,23,72,05,231,,73,21,169,*6A
$GLGSV,3,2,10,74,04,211,,80,15,114,09,83,38,136,10,84,65,034,24*6A
$GLGSV,3,3,10,85,22,346,30,,,,35*5D
$GNGLL,0419.89533,S,05539.79701,E,125436.00,A,D*62
$GNRMC,125439.00,A,0419.89533,S,05539.79701,E,0.168,,260525,,,D*7D
$GNVTG,,T,,M,0.168,N,0.312,K,D*37
$GNGGA,125439.00,0419.89533,S,05539.79701,E,2,12,0.78,29.8,M,-47.6,M,,0000*49
$GNGSA,A,3,28,27,31,32,18,26,08,,,,,,1.48,0.78,1.26*12
$GNGSA,A,3,84,83,70,71,85,80,,,,,,,1.48,0.78,1.26*18
$GPGSV,5,1,17,02,03,332,,04,08,226,,08,23,302,39,10,13,024,*75
$GPGSV,5,2,17,16,24,217,,18,29,114,26,23,01,062,,26,29,186,19*73
$GPGSV,5,3,17,27,55,273,39,28,60,107,34,31,54,167,31,32,34,007,44*7D
$GPGSV,5,4,17,36,52,277,38,40,84,353,41,41,58,082,31,49,32,274,*70
$GPGSV,5,5,17,50,10,089,*4A
$GLGSV,3,1,10,70,28,329,25,71,30,274,17,72,05,231,,73,21,169,*6F
$GLGSV,3,2,10,74,04,211,,80,15,114,09,83,38,136,10,84,65,034,24*6A
$GLGSV,3,3,10,85,22,346,33,,,,37*5C
$GNGLL,0419.89533,S,05539.79701,E,125439.00,A,D*6D
$GNRMC,125440.00,A,0419.89527,S,05539.79698,E,0.058,,260525,,,D*75
$GNVTG,,T,,M,0.058,N,0.106,K,D*32
$GNGGA,125440.00,0419.89527,S,05539.79698,E,2,12,0.81,30.0,M,-47.6,M,,0000*45
$GNGSA,A,3,28,27,31,32,18,26,08,,,,,,1.58,0.81,1.36*14
$GNGSA,A,3,84,83,70,71,85,80,,,,,,,1.58,0.81,1.36*1E
$GPGSV,5,1,17,02,03,332,,04,08,226,,08,23,302,38,10,13,024,*74
$GPGSV,5,2,17,16,24,217,20,18,29,114,26,23,01,062,,26,29,186,21*7A
$GPGSV,5,3,17,27,55,273,40,28,60,107,35,31,54,167,33,32,34,007,44*70
$GPGSV,5,4,17,36,52,277,39,40,84,353,41,41,58,082,31,49,32,274,*71
$GPGSV,5,5,17,50,10,089,*4A
$GLGSV,3,1,10,70,28,329,26,71,30,274,19,72,05,231,,73,21,169,*62
$GLGSV,3,2,10,74,04,211,,80,15,114,09,83,38,136,10,84,65,034,24*6A
$GLGSV,3,3,10,85,22,346,33,,,,36*5D
$GNGLL,0419.89527,S,05539.79698,E,125440.00,A,D*67
$GNRMC,125441.00,A,0419.89522,S,05539.79696,E,0.092,,260525,,,D*79
$GNVTG,,T,,M,0.092,N,0.171,K,D*34
$GNGGA,125441.00,0419.89522,S,05539.79696,E,2,12,0.79,30.2,M,-47.6,M,,0000*4A
$GNGSA,A,3,28,27,31,32,18,26,08,,,,,,1.61,0.79,1.40*18
$GNGSA,A,3,84,83,70,71,85,80,,,,,,,1.61,0.79,1.40*12
$GPGSV,5,1,17,02,03,332,,04,08,226,,08,23,302,35,10,13,024,*79
$GPGSV,5,2,17,16,24,217,21,18,29,114,25,23,01,062,,26,29,186,20*79
$GPGSV,5,3,17,27,55,273,40,28,60,107,35,31,54,167,32,32,34,007,41*74
$GPGSV,5,4,17,36,52,277,38,40,84,353,42,41,58,082,30,49,32,274,*72
$GPGSV,5,5,17,50,10,089,*4A
$GLGSV,3,1,10,70,28,329,26,71,30,274,20,72,05,231,,73,21,169,*68
$GLGSV,3,2,10,74,04,211,,80,15,114,09,83,38,136,19,84,65,034,23*64
$GLGSV,3,3,10,85,22,346,33,,,,37*5C
$GNGLL,0419.89522,S,05539.79696,E,125441.00,A,D*6D
$GNRMC,125442.00,A,0419.89517,S,05539.79693,E,0.059,,260525,,,D*7E
$GNVTG,,T,,M,0.059,N,0.110,K,D*34
$GNGGA,125442.00,0419.89517,S,05539.79693,E,2,12,0.78,30.3,M,-47.6,M,,0000*4A
$GNGSA,A,3,28,27,31,32,18,26,08,,,,,,1.48,0.78,1.26*12
$GNGSA,A,3,84,83,70,71,85,80,,,,,,,1.48,0.78,1.26*18
$GPGSV,5,1,17,02,03,332,,04,08,226,,08,23,302,36,10,13,024,*7A
$GPGSV,5,2,17,16,24,217,,18,29,114,24,23,01,062,,26,29,186,17*7F
$GPGSV,5,3,17,27,55,273,39,28,60,107,36,31,54,167,33,32,34,007,41*78
$GPGSV,5,4,17,36,52,277,38,40,84,353,42,41,58,082,31,49,32,274,*73
$GPGSV,5,5,17,50,10,089,*4A
$GLGSV,3,1,10,70,28,329,27,71,30,274,22,72,05,231,,73,21,169,*6B
$GLGSV,3,2,10,74,04,211,,80,15,114,10,83,38,136,17,84,65,034,24*65
$GLGSV,3,3,10,85,22,346,34,,,,37*5B
$GNGLL,0419.89517,S,05539.79693,E,125442.00,A,D*6D
$GNRMC,125443.00,A,0419.89519,S,05539.79693,E,0.167,,260525,,,D*7D
$GNVTG,,T,,M,0.167,N,0.309,K,D*32
$GNGGA,125443.00,0419.89519,S,05539.79693,E,2,12,0.78,30.0,M,-47.6,M,,0000*46
$GNGSA,A,3,28,27,31,32,18,26,08,,,,,,1.48,0.78,1.26*12
$GNGSA,A,3,84,83,70,71,85,80,,,,,,,1.48,0.78,1.26*18
$GPGSV,5,1,17,02,03,332,,04,08,226,,08,23,302,36,10,13,024,*7A
$GPGSV,5,2,17,16,24,217,,18,29,114,24,23,01,062,,26,29,186,14*7C
$GPGSV,5,3,17,27,55,273,39,28,60,107,35,31,54,167,32,32,34,007,40*7B
$GPGSV,5,4,17,36,52,277,37,40,84,353,42,41,58,082,31,49,32,274,*7C
$GPGSV,5,5,17,50,10,089,*4A
$GLGSV,3,1,10,70,28,329,27,71,30,275,23,72,05,231,,73,21,169,*6B
$GLGSV,3,2,10,74,04,211,,80,15,114,16,83,38,136,13,84,65,034,24*67
$GLGSV,3,3,10,85,22,346,34,,,,37*5B
$GNGLL,0419.89519,S,05539.79693,E,125443.00,A,D*62
$GNRMC,125444.00,A,0419.89522,S,05539.79695,E,0.203,,260525,,,D*75
$GNVTG,,T,,M,0.203,N,0.375,K,D*38
$GNGGA,125444.00,0419.89522,S,05539.79695,E,2,12,0.78,29.8,M,-47.6,M,,0000*4F
$GNGSA,A,3,28,27,31,32,18,26,08,,,,,,1.48,0.78,1.26*12
$GNGSA,A,3,84,83,70,71,85,80,,,,,,,1.48,0.78,1.26*18
$GPGSV,5,1,17,02,03,332,,04,08,226,,08,23,302,36,10,13,024,*7A
$GPGSV,5,2,17,16,24,217,,18,29,114,25,23,01,062,,26,29,186,11*78
$GPGSV,5,3,17,27,55,273,39,28,60,107,35,31,54,167,31,32,34,007,41*79
$GPGSV,5,4,17,36,52,277,37,40,84,353,42,41,58,082,33,49,32,274,*7E
$GPGSV,5,5,17,50,10,089,*4A
$GLGSV,3,1,10,70,28,329,27,71,30,275,24,72,05,231,,73,21,169,*6C
$GLGSV,3,2,10,74,04,211,,80,15,114,11,83,38,136,16,84,65,034,24*65
$GLGSV,3,3,10,85,22,346,33,,,,37*5C
$GNGLL,0419.89522,S,05539.79695,E,125444.00,A,D*6B
$GNRMC,125452.00,A,0419.89513,S,05539.79713,E,0.120,,260525,,,D*7D
$GNVTG,,T,,M,0.120,N,0.222,K,D*39
$GNGGA,125452.00,0419.89513,S,05539.79713,E,2,12,0.81,28.3,M,-47.6,M,,0000*49
$GNGSA,A,3,28,27,31,32,18,26,08,,,,,,1.73,0.81,1.53*1E
$GNRMC,125453.00,A,0419.89514,S,05539.79715,E,0.170,,260525,,,D*78
$GNVTG,,T,,M,0.170,N,0.314,K,D*38
$GNGGA,125453.00,0419.89514,S,05539.79715,E,2,12,0.73,28.1,M,-47.6,M,,0000*46
$GNGSA,A,3,28,27,31,32,18,26,08,,,,,,1.43,0.73,1.22*16
$GNGSA,A,3,84,83,70,71,73,85,80,,,,,,1.43,0.73,1.22*18
$GPGSV,5,1,17,02,03,332,,04,08,226,,08,23,302,38,10,13,024,*74
$GPGSV,5,2,17,16,24,217,,18,29,114,23,23,01,062,,26,29,186,17*78
$GPGSV,5,3,17,27,55,273,42,28,60,107,34,31,54,167,34,32,34,007,43*73
$GPGSV,5,4,17,36,52,277,40,40,84,353,42,41,58,082,33,49,32,274,*7E
$GPGSV,5,5,17,50,10,089,*4A
$GLGSV,3,1,10,70,28,329,26,71,30,275,24,72,05,231,,73,21,169,17*6B
$GLGSV,3,2,10,74,05,210,,80,15,114,08,83,38,136,16,84,65,034,23*6A
$GLGSV,3,3,10,85,22,346,32,,,,37*5D
$GNGLL,0419.89514,S,05539.79715,E,125453.00,A,D*61
$GNRMC,125454.00,A,0419.89515,S,05539.79717,E,0.079,,260525,,,D*74
$GNVTG,,T,,M,0.079,N,0.146,K,D*35
$GNGGA,125454.00,0419.89515,S,05539.79717,E,2,12,0.73,27.9,M,-47.6,M,,0000*45
$GNGSA,A,3,28,27,31,32,18,26,08,,,,,,1.43,0.73,1.22*16
$GNGSA,A,3,84,83,70,71,73,85,80,,,,,,1.43,0.73,1.22*18
$GPGSV,5,1,17,02,03,332,,04,08,226,,08,23,302,37,10,13,024,*7B
$GPGSV,5,2,17,16,24,217,,18,29,114,22,23,01,062,,26,29,186,16*78
$GPGSV,5,3,17,27,55,273,41,28,60,107,34,31,54,167,33,32,34,007,42*76
$GPGSV,5,4,17,36,52,277,40,40,84,353,42,41,58,082,34,49,32,274,*79
$GPGSV,5,5,17,50,10,089,*4A
$GLGSV,3,1,10,70,28,329,26,71,30,275,26,72,05,231,,73,21,169,17*69
$GLGSV,3,2,10,74,05,210,,80,15,114,09,83,38,136,13,84,65,034,24*69
$GLGSV,3,3,10,85,22,346,32,,,,37*5D
$GNGLL,0419.89515,S,05539.79717,E,125454.00,A,D*65
$GNRMC,125456.00,A,0419.89510,S,05539.79720,E,0.157,,260525,,,D*7A
$GNVTG,,T,,M,0.157,N,0.291,K,D*31
$GNGGA,125456.00,0419.89510,S,05539.79720,E,2,12,0.73,27.7,M,-47.6,M,,0000*48
$GNGSA,A,3,28,27,31,32,18,26,08,,,,,,1.43,0.73,1.22*16
$GNGSA,A,3,84,83,70,71,73,85,80,,,,,,1.43,0.73,1.22*18
$GPGSV,5,1,17,02,03,332,,04,08,226,,08,23,302,37,10,13,024,*7B
$GPGSV,5,2,17,16,24,217,,18,29,114,19,23,01,062,,26,29,186,15*73
$GPGSV,5,3,17,27,55,273,41,28,60,107,34,31,54,167,33,32,34,007,42*76
$GPGSV,5,4,17,36,52,277,39,40,84,353,43,41,58,082,33,49,32,274,*71
$GPGSV,5,5,17,50,10,089,*4A
$GLGSV,3,1,10,70,28,329,26,71,30,275,26,72,05,231,,73,21,169,17*69
$GLGSV,3,2,10,74,05,210,,80,15,114,10,83,38,137,13,84,66,035,23*65
$GLGSV,3,3,10,85,22,346,33,,,,37*5C
$GNGLL,0419.89510,S,05539.79720,E,125456.00,A,D*66
$GNGLL,0419.89509,S,05539.79722,E,125457.00,A,D*6D
$GNRMC,125506.00,A,0419.89496,S,05539.79728,E,0.140,,260525,,,D*7F
$GNVTG,,T,,M,0.140,N,0.260,K,D*39
$GNGGA,125506.00,0419.89496,S,05539.79728,E,2,12,0.75,27.0,M,-47.6,M,,0000*4A
$GNGSA,A,3,28,27,31,32,26,08,,,,,,,1.44,0.75,1.23*1F
$GNGSA,A,3,84,83,70,71,73,85,80,,,,,,1.44,0.75,1.23*18
$GPGSV,5,1,17,02,04,332,,04,08,226,,08,23,302,36,10,13,024,*7D
$GPGSV,5,2,17,16,24,217,,18,29,114,08,23,01,062,,26,29,186,21*74
$GPGSV,5,3,17,27,55,273,41,28,60,107,33,31,54,167,32,32,34,007,43*71
$GNRMC,125507.00,A,0419.89499,S,05539.79730,E,0.029,,260525,,,D*76
$GNVTG,,T,,M,0.029,N,0.054,K,D*32
$GNGGA,125507.00,0419.89499,S,05539.79730,E,2,12,0.81,26.7,M,-47.6,M,,0000*40
$GNGSA,A,3,28,27,31,32,18,26,08,,,,,,1.54,0.81,1.31*1F
$GNGSA,A,3,84,83,70,71,73,85,80,,,,,,1.54,0.81,1.31*11
$GPGSV,5,1,17,02,04,332,,04,08,226,,08,23,302,36,10,13,024,*7D
$GPGSV,5,2,17,16,24,217,,18,29,114,09,23,01,062,,26,29,186,22*76
$GPGSV,5,3,17,27,55,273,41,28,60,107,32,31,54,167,31,32,34,007,42*72
$GPGSV,5,4,17,36,52,277,39,40,84,353,43,41,58,082,34,49,32,274,*76
$GPGSV,5,5,17,50,10,089,*4A
$GLGSV,3,1,10,70,28,329,24,71,30,275,29,72,05,231,,73,21,169,17*64
$GLGSV,3,2,10,74,05,210,,80,15,114,11,83,38,137,13,84,66,035,24*63
$GLGSV,3,3,10,85,23,346,33,,,,37*5D
$GNGLL,0419.89499,S,05539.79730,E,125507.00,A,D*62
$GNRMC,125508.00,A,0419.89498,S,05539.79729,E,0.049,,260525,,,D*76
$GNVTG,,T,,M,0.049,N,0.091,K,D*3D
$GNGGA,125508.00,0419.89498,S,05539.79729,E,2,12,0.73,26.5,M,-47.6,M,,0000*49
$GNGSA,A,3,28,27,31,32,18,26,08,,,,,,1.43,0.73,1.22*16
$GNGSA,A,3,84,83,70,71,73,85,80,,,,,,1.43,0.73,1.22*18
$GPGSV,5,1,17,02,04,332,,04,08,226,,08,24,302,38,10,13,024,*74
$GPGSV,5,2,17,16,24,217,,18,29,114,09,23,01,062,,26,29,186,21*75
$GPGSV,5,3,17,27,55,273,43,28,60,107,33,31,54,167,34,32,34,007,44*72
$GPGSV,5,4,17,36,52,277,39,40,84,353,45,41,58,082,35,49,32,274,*71
$GPGSV,5,5,17,50,10,089,*4A
$GLGSV,3,1,10,70,28,329,22,71,30,275,29,72,05,231,,73,21,169,15*60
$GLGSV,3,2,10,74,05,210,,80,15,114,10,83,38,137,16,84,66,035,23*60
$GLGSV,3,3,10,85,23,346,30,,,,34*5D
$GNGLL,0419.89498,S,05539.79729,E,125508.00,A,D*64
$GNRMC,125509.00,A,0419.89497,S,05539.79730,E,0.176,,260525,,,D*7D
$GNVTG,,T,,M,0.176,N,0.326,K,D*3F
$GNGGA,125509.00,0419.89497,S,05539.79730,E,2,12,0.73,26.2,M,-47.6,M,,0000*48
$GNGSA,A,3,28,27,31,32,18,26,08,,,,,,1.43,0.73,1.22*16
$GNGSA,A,3,84,83,70,71,73,85,80,,,,,,1.43,0.73,1.22*18
$GPGSV,5,1,17,02,04,332,,04,08,226,,08,24,302,38,10,13,024,*74
$GPGSV,5,2,17,16,24,217,,18,29,114,09,23,01,062,,26,29,186,23*77
$GPGSV,5,3,17,27,55,273,42,28,60,107,35,31,54,167,33,32,34,007,44*72
$GPGSV,5,4,17,36,52,277,39,40,84,353,45,41,58,082,36,49,32,274,*72
$GPGSV,5,5,17,50,10,089,*4A
$GLGSV,3,1,10,70,28,329,23,71,30,275,29,72,05,231,,73,21,169,12*66
$GLGSV,3,2,10,74,05,210,,80,15,114,14,83,38,137,18,84,66,035,23*6A
$GLGSV,3,3,10,85,23,346,33,,,,33*59
$GNGLL,0419.89497,S,05539.79730,E,125509.00,A,D*62
$GNRMC,125510.00,A,0419.89500,S,05539.79730,E,0.159,,260525,,,D*77
$GNVTG,,T,,M,0.159,N,0.295,K,D*3B
$GNGGA,125510.00,0419.89500,S,05539.79730,E,2,12,0.78,25.9,M,-47.6,M,,0000*4C
$GNGSA,A,3,28,27,31,32,18,26,08,,,,,,1.48,0.78,1.26*12
$GNGSA,A,3,84,83,70,71,85,80,,,,,,,1.48,0.78,1.26*18
$GPGSV,5,1,17,02,04,332,,04,08,226,,08,24,302,37,10,13,024,*7B
$GPGSV,5,2,17,16,24,217,,18,29,114,09,23,01,062,,26,29,186,23*77
$GPGSV,5,3,17,27,55,273,42,28,60,107,34,31,54,167,33,32,34,007,43*74
$GPGSV,5,4,17,36,52,277,39,40,84,353,44,41,58,082,37,49,32,274,*72
$GPGSV,5,5,17,50,10,089,*4A
$GLGSV,3,1,10,70,28,329,23,71,30,275,28,72,05,231,,73,21,169,10*65
$GLGSV,3,2,10,74,05,210,,80,15,114,11,83,38,137,16,84,66,035,24*66
$GLGSV,3,3,10,85,23,346,33,,,,34*5E
$GNGLL,0419.89500,S,05539.79730,E,125510.00,A,D*65
$GNRMC,125511.00,A,0419.89500,S,05539.79734,E,0.127,,260525,,,D*7B
$GNVTG,,T,,M,0.127,N,0.235,K,D*38
$GNGGA,125511.00,0419.89500,S,05539.79734,E,2,12,0.73,25.7,M,-47.6,M,,0000*4C
$GNGSA,A,3,28,27,31,32,18,26,08,,,,,,1.43,0.73,1.22*16
$GNGSA,A,3,84,83,70,71,73,85,80,,,,,,1.43,0.73,1.22*18
$GPGSV,5,1,17,02,04,332,,04,08,226,,08,24,302,37,10,13,024,*7B
$GPGSV,5,2,17,16,24,217,,18,29,114,09,23,01,062,,26,29,186,22*76
$GPGSV,5,3,17,27,55,273,43,28,60,107,34,31,54,167,33,32,34,007,43*75
$GPGSV,5,4,17,36,52,277,39,40,84,353,44,41,58,082,37,49,32,274,*72
$GPGSV,5,5,17,50,10,089,*4A
$GLGSV,3,1,10,70,28,329,24,71,30,275,29,72,05,231,,73,21,169,12*61
$GLGSV,3,2,10,74,05,210,,80,15,114,09,83,38,137,18,84,66,035,25*60
$GLGSV,3,3,10,85,23,346,34,,,,35*58
$GNGLL,0419.89500,S,05539.79734,E,125511.00,A,D*60
$GNRMC,125512.00,A,0419.89498,S,05539.79737,E,0.106,,260525,,,D*78
$GNVTG,,T,,M,0.106,N,0.197,K,D*30
$GNGGA,125512.00,0419.89498,S,05539.79737,E,2,12,0.73,25.8,M,-47.6,M,,0000*43
$GNGSA,A,3,28,27,31,32,18,26,08,,,,,,1.43,0.73,1.22*16
$GNGSA,A,3,84,83,70,71,73,85,80,,,,,,1.43,0.73,1.22*18
$GPGSV,5,1,17,02,04,332,,04,08,226,,08,24,302,37,10,13,024,*7B
$GPGSV,5,2,17,16,24,217,,18,29,114,09,23,01,062,,26,29,186,23*77
$GPGSV,5,3,17,27,55,273,43,28,60,107,35,31,54,167,33,32,34,007,42*75
$GPGSV,5,4,17,36,52,277,39,40,84,353,44,41,58,082,38,49,32,274,*7D
$GPGSV,5,5,17,50,10,089,*4A
$GLGSV,3,1,10,70,28,329,25,71,30,275,29,72,05,231,,73,21,169,10*62
$GLGSV,3,2,10,74,05,210,,80,15,114,11,83,38,137,18,84,66,035,26*6A
$GLGSV,3,3,10,85,23,346,34,,,,36*5B
$GNGLL,0419.89498,S,05539.79737,E,125512.00,A,D*60
$GNRMC,125513.00,A,0419.89500,S,05539.79742,E,0.097,,260525,,,D*72
$GNVTG,,T,,M,0.097,N,0.180,K,D*3F
$GNGGA,125513.00,0419.89500,S,05539.79742,E,2,12,0.79,25.8,M,-47.6,M,,0000*4A
$GNGSA,A,3,28,27,31,32,18,26,08,,,,,,1.49,0.79,1.26*12
$GNGSA,A,3,84,83,70,71,73,85,80,,,,,,1.49,0.79,1.26*1C
$GPGSV,5,1,17,02,04,332,,04,08,226,,08,24,302,37,10,13,024,*7B
$GPGSV,5,2,17,16,24,217,,18,29,114,14,23,01,062,,26,29,186,22*7A
$GPGSV,5,3,17,27,55,273,42,28,60,107,36,31,54,167,34,32,34,007,42*70
$GPGSV,5,4,17,36,52,277,39,40,84,353,44,41,58,082,38,49,32,274,*7D
$GPGSV,5,5,17,50,10,089,*4A
$GLGSV,3,1,10,70,28,329,25,71,30,275,30,72,05,231,,73,21,169,16*6C
$GLGSV,3,2,10,74,05,210,,80,15,114,11,83,38,137,17,84,66,035,27*64
$GLGSV,3,3,10,85,23,346,34,,,,37*5A
$GNGLL,0419.89500,S,05539.79742,E,125513.00,A,D*63
$GNRMC,125514.00,A,0419.89498,S,05539.79744,E,0.022,,260525,,,D*7D
$GNVTG,,T,,M,0.022,N,0.040,K,D*3C
$GNGGA,125514.00,0419.89498,S,05539.79744,E,2,12,0.73,25.9,M,-47.6,M,,0000*40
$GNGSA,A,3,28,27,31,32,18,26,08,,,,,,1.43,0.73,1.22*16
$GNGSA,A,3,84,83,70,71,73,85,80,,,,,,1.43,0.73,1.22*18
$GPGSV,5,1,17,02,04,332,,04,08,226,,08,24,302,36,10,13,024,*7A
$GPGSV,5,2,17,16,24,217,,18,29,114,15,23,01,062,,26,29,186,22*7B
$GPGSV,5,3,17,27,55,273,42,28,60,107,36,31,54,167,35,32,34,007,42*71
$GPGSV,5,4,17,36,52,277,40,40,84,353,43,41,58,082,37,49,32,274,*7B
$GPGSV,5,5,17,50,10,089,*4A
$GLGSV,3,1,10,70,28,329,24,71,30,275,28,72,05,231,,73,21,169,15*67
$GLGSV,3,2,10,74,05,210,,80,15,114,10,83,38,137,17,84,66,035,27*65
$GLGSV,3,3,10,85,23,346,33,,,,36*5C
$GNGLL,0419.89498,S,05539.79744,E,125514.00,A,D*62
$GNRMC,125515.00,A,0419.89500,S,05539.79744,E,0.110,,260525,,,D*7C
$GNVTG,,T,,M,0.110,N,0.204,K,D*3E
$GNGGA,125515.00,0419.89500,S,05539.79744,E,2,12,0.73,25.7,M,-47.6,M,,0000*4F
$GNGSA,A,3,28,27,31,32,18,26,08,,,,,,1.43,0.73,1.22*16
$GNGSA,A,3,84,83,70,71,73,85,80,,,,,,1.43,0.73,1.22*18
$GPGSV,5,1,17,02,04,332,,04,08,226,,08,24,302,36,10,13,024,*7A
$GPGSV,5,2,17,16,24,217,,18,29,114,14,23,01,062,,26,29,186,22*7A
$GPGSV,5,3,17,27,55,273,42,28,60,107,35,31,54,167,35,32,34,007,43*73
$GPGSV,5,4,17,36,52,277,39,40,84,353,44,41,58,082,37,49,32,274,*72
$GPGSV,5,5,17,50,10,089,*4A
$GLGSV,3,1,10,70,28,329,24,71,30,275,28,72,05,231,,73,21,169,09*6A
$GLGSV,3,2,10,74,05,210,,80,15,114,07,83,38,137,18,84,66,035,27*6C
$GLGSV,3,3,10,85,23,346,34,,,,35*58
$GNGLL,0419.89500,S,05539.79744,E,125515.00,A,D*63
$GNRMC,125516.00,A,0419.89505,S,05539.79744,E,0.083,,260525,,,D*71
$GNVTG,,T,,M,0.083,N,0.153,K,D*34
$GNGGA,125516.00,0419.89505,S,05539.79744,E,2,12,0.79,25.5,M,-47.6,M,,0000*41
$GNGSA,A,3,28,27,31,32,18,26,08,,,,,,1.53,0.79,1.31*1F
$GNGSA,A,3,84,83,70,71,73,85,80,,,,,,1.53,0.79,1.31*11
$GPGSV,5,2,17,16,24,216,,18,29,114,13,23,01,062,,26,29,186,22*7C
$GPGSV,5,3,17,27,55,273,44,28,60,107,34,31,54,167,34,32,34,007,42*74
$GPGSV,5,4,17,36,52,277,41,40,84,353,44,41,58,082,36,49,32,274,*7C
$GPGSV,5,5,17,50,10,089,*4A
$GLGSV,3,1,10,70,28,329,23,71,30,275,27,72,05,231,,73,21,169,20*69
$GLGSV,3,2,10,74,05,210,,80,15,114,13,83,38,137,18,84,66,035,27*69
$GLGSV,3,3,10,85,23,346,34,,,,36*5B
$GNGLL,0419.89505,S,05539.79744,E,125516.00,A,D*65
$GLGSV,3,2,10,74,05,210,,80,15,114,08,83,38,137,17,84,66,035,27*6C
$GLGSV,3,3,10,85,23,346,31,,,,34*5C
$GNGLL,0419.89510,S,05539.79746,E,125517.00,A,D*62
$GNRMC,125518.00,A,0419.89515,S,05539.79747,E,0.162,,260525,,,D*73
$GNVTG,,T,,M,0.162,N,0.299,K,D*3F
$GNGGA,125518.00,0419.89515,S,05539.79747,E,2,12,0.76,25.0,M,-47.6,M,,0000*47
$GNGSA,A,3,28,27,31,32,18,26,08,,,,,,1.50,0.76,1.30*12
$GNGSA,A,3,84,83,70,71,73,85,,,,,,,1.50,0.76,1.30*14
$GPGSV,5,1,17,02,04,332,,04,08,226,,08,24,302,33,10,13,024,*7F
$GPGSV,5,2,17,16,24,216,,18,28,114,14,23,01,062,,26,29,186,21*79
$GPGSV,5,3,17,27,55,273,41,28,60,107,31,31,54,167,34,32,34,007,43*75
$GPGSV,5,4,17,36,52,277,39,40,84,353,45,41,58,082,36,49,32,274,*72
$GPGSV,5,5,17,50,10,089,*4A
$GLGSV,3,1,10,70,28,329,24,71,30,275,28,72,05,231,,73,21,169,17*65
$GLGSV,3,2,10,74,05,210,,80,15,114,07,83,38,137,14,84,66,035,26*61
$GLGSV,3,3,10,85,23,346,34,,,,35*58
$GNGLL,0419.89515,S,05539.79747,E,125518.00,A,D*69
$GNRMC,125519.00,A,0419.89520,S,05539.79746,E,0.096,,260525,,,D*7F
$GNVTG,,T,,M,0.096,N,0.177,K,D*36
$GNGGA,125519.00,0419.89520,S,05539.79746,E,2,12,0.79,24.7,M,-47.6,M,,0000*48
$GNGSA,A,3,28,27,31,32,18,26,08,,,,,,1.53,0.79,1.31*1F
$GNGSA,A,3,84,83,70,71,73,85,80,,,,,,1.53,0.79,1.31*11
$GPGSV,5,1,17,02,04,332,,04,08,226,,08,24,302,34,10,13,024,*78
$GPGSV,5,2,17,16,24,216,,18,28,114,10,23,01,062,,26,29,186,22*7E
$GPGSV,5,3,17,27,55,273,41,28,60,107,31,31,54,167,34,32,34,007,43*75
$GPGSV,5,4,17,36,52,277,39,40,84,353,45,41,58,082,37,49,32,274,*73
$GPGSV,5,5,17,50,10,089,*4A
$GLGSV,3,1,10,70,28,329,25,71,30,275,30,72,05,231,,73,21,169,16*6C
$GLGSV,3,2,10,74,05,210,,80,15,114,09,83,38,137,14,84,66,035,26*6F
$GLGSV,3,3,10,85,23,346,34,,,,34*59
$GNGLL,0419.89520,S,05539.79746,E,125519.00,A,D*6F
$GNRMC,125520.00,A,0419.89522,S,05539.79748,E,0.073,,260525,,,D*72
$GNVTG,,T,,M,0.073,N,0.135,K,D*3B
$GNGGA,125520.00,0419.89522,S,05539.79748,E,2,12,0.73,24.8,M,-47.6,M,,0000*4B
$GNGSA,A,3,28,27,31,32,18,26,08,,,,,,1.43,0.73,1.22*16
$GNGSA,A,3,84,83,70,71,73,85,80,,,,,,1.43,0.73,1.22*18
$GPGSV,5,1,17,02,04,332,,04,08,226,,08,24,302,34,10,13,024,*78
$GPGSV,5,2,17,16,24,216,,18,28,114,15,23,01,062,,26,29,186,23*7A
$GPGSV,5,3,17,27,55,273,42,28,60,107,31,31,54,167,29,32,34,007,43*7A
$GPGSV,5,4,17,36,52,277,40,40,84,353,44,41,58,082,37,49,32,274,*7C
$GPGSV,5,5,17,50,10,089,*4A
$GLGSV,3,1,10,70,28,329,25,71,30,275,31,72,05,231,,73,21,169,15*6E
$GLGSV,3,2,10,74,05,210,,80,15,114,12,83,38,137,13,84,66,035,26*62
$GLGSV,3,3,10,85,23,346,34,,,,34*59
$GNGLL,0419.89522,S,05539.79748,E,125520.00,A,D*69
$GNRMC,125521.00,A,0419.89529,S,05539.79752,E,0.080,,260525,,,D*7F
$GNVTG,,T,,M,0.080,N,0.148,K,D*3D
$GNGGA,125521.00,0419.89529,S,05539.79752,E,2,12,0.73,24.5,M,-47.6,M,,0000*47
$GNGSA,A,3,28,27,31,32,18,26,08,,,,,,1.43,0.73,1.22*16
$GNGSA,A,3,84,83,70,71,73,85,80,,,,,,1.43,0.73,1.22*18
$GPGSV,5,1,17,02,04,332,,04,08,226,,08,24,302,34,10,13,024,*78
$GPGSV,5,2,17,16,24,216,,18,28,114,18,23,01,062,,26,29,186,23*77
$GPGSV,5,3,17,27,55,273,42,28,60,107,31,31,54,167,29,32,34,007,43*7A
$GPGSV,5,4,17,36,52,277,40,40,84,353,44,41,58,082,38,49,32,274,*73
$GPGSV,5,5,17,50,10,089,*4A
$GLGSV,3,1,10,70,28,329,25,71,30,275,31,72,05,231,,73,21,169,16*6D
$GLGSV,3,2,10,74,05,210,,80,15,114,13,83,38,137,12,84,66,035,25*61
$GLGSV,3,3,10,85,23,346,35,,,,34*58
$GNGLL,0419.89529,S,05539.79752,E,125521.00,A,D*68
$GNRMC,125522.00,A,0419.89535,S,05539.79757,E,0.060,,260525,,,D*7A
$GNVTG,,T,,M,0.060,N,0.110,K,D*3E
$GNGGA,125522.00,0419.89535,S,05539.79757,E,2,12,0.73,24.3,M,-47.6,M,,0000*4A
$GNGSA,A,3,28,27,31,32,18,26,08,,,,,,1.43,0.73,1.22*16
$GNGSA,A,3,84,83,70,71,73,85,80,,,,,,1.43,0.73,1.22*18
$GPGSV,5,1,17,02,04,332,,04,08,226,,08,24,302,34,10,13,024,*78
$GPGSV,5,2,17,16,24,216,,18,28,114,10,23,01,062,,26,29,186,25*79
$GPGSV,5,3,17,27,55,273,41,28,60,107,32,31,54,167,28,32,34,007,43*7B
$GPGSV,5,4,17,36,52,277,40,40,84,353,44,41,58,082,38,49,32,274,*73
$GPGSV,5,5,17,50,10,089,*4A
$GLGSV,3,1,10,70,28,329,25,71,30,275,30,72,05,231,,73,21,169,16*6C
$GLGSV,3,2,10,74,05,210,,80,15,114,10,83,38,137,14,84,66,035,25*64
$GLGSV,3,3,10,85,23,346,34,,,,34*59
$GNGLL,0419.89535,S,05539.79757,E,125522.00,A,D*63
$GNRMC,125523.00,A,0419.89542,S,05539.79761,E,0.028,,260525,,,D*72
$GNVTG,,T,,M,0.028,N,0.051,K,D*36
$GNGGA,125523.00,0419.89542,S,05539.79761,E,2,12,0.75,24.1,M,-47.6,M,,0000*4A
$GNGSA,A,3,28,27,31,32,18,26,08,,,,,,1.53,0.75,1.33*11
$GNGSA,A,3,84,83,70,71,73,85,80,,,,,,1.53,0.75,1.33*1F
$GPGSV,5,1,17,02,04,332,,04,08,226,,08,24,302,35,10,13,024,*79
$GPGSV,5,2,17,16,24,216,,18,28,114,16,23,01,062,,26,29,186,25*7F
$GPGSV,5,3,17,27,55,273,43,28,60,107,32,31,54,167,29,32,34,007,44*7F
$GPGSV,5,4,17,36,52,277,41,40,84,353,45,41,58,082,39,49,32,274,*72
$GPGSV,5,5,17,50,10,089,*4A
$GLGSV,3,1,10,70,28,329,24,71,30,275,30,72,05,231,,73,21,169,17*6C
$GLGSV,3,2,10,74,05,210,,80,15,114,19,83,38,137,13,84,66,035,24*6B
$GLGSV,3,3,10,85,23,346,34,,,,35*58
$GNGLL,0419.89542,S,05539.79761,E,125523.00,A,D*67
$GNRMC,125525.00,A,0419.89564,S,05539.79770,E,0.038,,260525,,,D*71
$GNVTG,,T,,M,0.038,N,0.071,K,D*35
$GNGGA,125525.00,0419.89564,S,05539.79770,E,2,12,0.91,23.4,M,-47.6,M,,0000*40
$GNGSA,A,3,28,27,31,32,26,08,,,,,,,1.87,0.91,1.64*19
$GNGSA,A,3,84,83,70,71,73,85,,,,,,,1.87,0.91,1.64*16
$GPGSV,5,1,17,02,04,332,,04,08,226,,08,24,302,37,10,13,024,*7B
$GPGSV,5,2,17,16,24,216,25,18,28,114,07,23,01,062,,26,29,185,22*7C
$GPGSV,5,3,17,27,55,273,44,28,60,107,31,31,54,167,29,32,34,007,44*7B
$GPGSV,5,4,17,36,52,277,43,40,84,353,44,41,58,082,39,49,32,274,*71
$GPGSV,5,5,17,50,10,089,*4A
$GLGSV,3,1,10,70,28,329,23,71,30,275,28,72,05,231,,73,21,169,17*62
$GLGSV,3,2,10,74,05,210,,80,15,114,06,83,38,137,14,84,66,035,24*62
$GLGSV,3,3,10,85,23,346,35,,,,36*5A
$GNGLL,0419.89564,S,05539.79770,E,125525.00,A,D*65
$GNRMC,125526.00,A,0419.89574,S,05539.79776,E,0.051,,260525,,,D*7A
$GNVTG,,T,,M,0.051,N,0.094,K,D*31
$GNGGA,125526.00,0419.89574,S,05539.79776,E,2,12,0.91,22.9,M,-47.6,M,,0000*48
$GNGSA,A,3,28,27,31,32,26,08,,,,,,,1.87,0.91,1.64*19
$GNGSA,A,3,84,83,70,71,73,85,,,,,,,1.87,0.91,1.64*16
$GPGSV,5,1,17,02,04,332,,04,08,226,,08,24,302,37,10,13,024,*7B
$GPGSV,5,2,17,16,24,216,,18,28,114,09,23,01,062,,26,29,185,20*77
$GPGSV,5,3,17,27,55,272,43,28,60,107,31,31,54,167,29,32,34,007,43*7A
$GPGSV,5,4,17,36,52,277,42,40,84,353,44,41,58,082,37,49,32,274,*7E
$GPGSV,5,5,17,50,10,089,*4A
$GLGSV,3,1,10,70,28,329,23,71,30,275,28,72,05,231,,73,21,169,15*60
$GLGSV,3,2,10,74,05,210,,80,15,114,08,83,38,137,14,84,66,035,25*6D
$GLGSV,3,3,10,85,23,346,33,,,,34*5E
$GNGLL,0419.89574,S,05539.79776,E,125526.00,A,D*61
$GNRMC,125527.00,A,0419.89574,S,05539.79775,E,0.168,,260525,,,D*73
$GNVTG,,T,,M,0.168,N,0.312,K,D*37
$GNGGA,125527.00,0419.89574,S,05539.79775,E,2,12,0.76,22.9,M,-47.6,M,,0000*43
$GNGSA,A,3,28,27,31,32,18,26,08,,,,,,1.50,0.76,1.30*12
$GNGSA,A,3,84,83,70,71,73,85,,,,,,,1.50,0.76,1.30*14
$GPGSV,5,1,17,02,04,332,,04,08,226,,08,24,302,37,10,13,024,*7B
$GPGSV,5,2,17,16,24,216,,18,28,114,12,23,01,062,,26,29,185,21*7C
$GPGSV,5,3,17,27,55,272,43,28,60,106,32,31,54,167,31,32,34,007,44*76
$GPGSV,5,4,17,36,52,277,42,40,84,353,44,41,58,082,37,49,32,274,*7E
$GPGSV,5,5,17,50,10,089,*4A
$GLGSV,3,1,10,70,28,329,23,71,30,275,28,72,05,231,,73,21,169,14*61
$GLGSV,3,2,10,74,05,210,,80,15,114,09,83,38,137,14,84,66,035,25*6C
$GLGSV,3,3,10,85,23,346,33,,,,33*59
$GNGLL,0419.89574,S,05539.79775,E,125527.00,A,D*63
$GNRMC,125528.00,A,0419.89577,S,05539.79776,E,0.134,,260525,,,D*75
$GNVTG,,T,,M,0.134,N,0.248,K,D*30
$GNGGA,125528.00,0419.89577,S,05539.79776,E,2,12,0.73,22.8,M,-47.6,M,,0000*48
$GNGSA,A,3,28,27,31,32,18,26,08,,,,,,1.43,0.73,1.22*16
$GNGSA,A,3,84,83,70,71,73,85,80,,,,,,1.43,0.73,1.22*18
$GPGSV,5,1,17,02,04,332,,04,08,226,,08,24,302,38,10,13,024,*74
$GPGSV,5,2,17,16,24,216,,18,28,114,14,23,01,062,,26,29,185,22*79
$GPGSV,5,3,17,27,55,272,42,28,60,106,32,31,54,167,31,32,34,007,44*77
$GPGSV,5,4,17,36,52,277,42,40,84,353,44,41,58,082,37,49,32,274,*7E
$GPGSV,5,5,17,50,10,089,*4A
$GLGSV,3,1,10,70,28,329,23,71,30,275,28,72,05,231,,73,21,169,09*6D
$GLGSV,3,2,10,74,05,210,,80,15,114,11,83,38,137,15,84,66,035,25*64
$GLGSV,3,3,10,85,23,346,33,,,,34*5E
$GNGLL,0419.89577,S,05539.79776,E,125528.00,A,D*6C
$GNRMC,125529.00,A,0419.89583,S,05539.79778,E,0.112,,260525,,,D*75
$GNVTG,,T,,M,0.112,N,0.208,K,D*30
$GNGGA,125529.00,0419.89583,S,05539.79778,E,2,12,0.76,22.5,M,-47.6,M,,0000*44
$GNGSA,A,3,28,27,31,32,18,26,08,,,,,,1.50,0.76,1.30*12
$GNGSA,A,3,84,83,70,71,73,85,,,,,,,1.50,0.76,1.30*14
$GPGSV,5,1,17,02,04,332,,04,08,226,,08,24,302,39,10,13,024,*75
$GPGSV,5,2,17,16,24,216,,18,28,114,12,23,01,062,,26,29,185,22*7F
$GPGSV,5,3,17,27,55,272,42,28,60,106,32,31,54,167,30,32,34,007,44*76
$GPGSV,5,4,17,36,52,277,42,40,84,353,44,41,58,082,36,49,32,274,*7F
$GPGSV,5,5,17,50,10,089,*4A
$GLGSV,3,1,10,70,28,329,23,71,30,275,28,72,05,231,,73,21,169,08*6C
$GLGSV,3,2,10,74,05,210,,80,15,114,10,83,38,137,14,84,66,035,26*67
$GLGSV,3,3,10,85,23,346,32,,,,34*5F
$GNGLL,0419.89583,S,05539.79778,E,125529.00,A,D*68
$GNRMC,125530.00,A,0419.89588,S,05539.79779,E,0.059,,260525,,,D*79
$GNVTG,,T,,M,0.059,N,0.110,K,D*34
$GNGGA,125530.00,0419.89588,S,05539.79779,E,2,12,0.73,22.4,M,-47.6,M,,0000*42
$GNGSA,A,3,28,27,31,32,18,26,08,,,,,,1.43,0.73,1.22*16
$GNGSA,A,3,84,83,70,71,73,85,80,,,,,,1.43,0.73,1.22*18
$GPGSV,5,1,17,02,04,332,,04,08,226,,08,24,302,39,10,13,024,*75
$GPGSV,5,2,17,16,24,216,,18,28,114,12,23,01,062,,26,29,185,22*7F
$GPGSV,5,3,17,27,55,272,43,28,60,106,31,31,54,166,31,32,34,007,44*74
$GPGSV,5,4,17,36,52,277,43,40,84,353,44,41,58,082,36,49,32,274,*7E
$GPGSV,5,5,17,50,10,089,*4A
$GLGSV,3,1,10,70,28,329,23,71,30,275,28,72,05,231,,73,21,169,13*66
$GLGSV,3,2,10,74,05,210,,80,15,114,12,83,38,137,13,84,66,035,26*62
$GLGSV,3,3,10,85,23,346,32,,,,34*5F
$GNGLL,0419.89588,S,05539.79779,E,125530.00,A,D*6A
$GNRMC,125531.00,A,0419.89583,S,05539.79774,E,0.100,,260525,,,D*73
$GNVTG,,T,,M,0.100,N,0.185,K,D*35
$GNGGA,125531.00,0419.89583,S,05539.79774,E,2,12,0.73,22.5,M,-47.6,M,,0000*44
$GNGSA,A,3,28,27,31,32,18,26,08,,,,,,1.43,0.73,1.22*16
$GNGSA,A,3,84,83,70,71,73,85,80,,,,,,1.43,0.73,1.22*18
$GPGSV,5,1,17,02,04,332,,04,08,226,,08,24,302,39,10,13,024,*75
$GPGSV,5,2,17,16,24,216,,18,28,114,11,23,01,062,,26,29,185,22*7C
$GPGSV,5,3,17,27,55,272,41,28,60,106,32,31,54,166,33,32,34,007,44*77
$GPGSV,5,4,17,36,52,277,43,40,84,353,44,41,58,082,36,49,32,274,*7E
$GPGSV,5,5,17,50,10,089,*4A
$GLGSV,3,1,10,70,28,329,23,71,30,275,29,72,05,231,,73,21,169,12*66
$GNRMC,125532.00,A,0419.89574,S,05539.79768,E,0.070,,260525,,,D*73
$GNVTG,,T,,M,0.070,N,0.130,K,D*3D
$GNGGA,125532.00,0419.89574,S,05539.79768,E,2,12,0.73,22.7,M,-47.6,M,,0000*40
$GNGSA,A,3,28,27,31,32,18,26,08,,,,,,1.43,0.73,1.22*16
$GNGSA,A,3,84,83,70,71,73,85,80,,,,,,1.43,0.73,1.22*18
$GPGSV,5,1,17,02,04,332,,04,08,226,,08,24,302,39,10,13,024,*75
$GPGSV,5,2,17,16,24,216,,18,28,114,16,23,01,062,,26,29,185,21*78
$GPGSV,5,3,17,27,55,272,40,28,60,106,33,31,54,166,33,32,34,007,42*71
$GPGSV,5,4,17,36,52,277,40,40,84,353,44,41,58,082,38,49,32,274,*73
$GPGSV,5,5,17,50,10,089,*4A
$GLGSV,3,1,10,70,28,329,22,71,30,275,31,72,05,231,,73,21,169,12*6E
$GLGSV,3,2,10,74,05,210,,80,15,114,11,83,38,137,11,84,66,035,27*62
$GLGSV,3,3,10,85,23,346,33,,,,34*5E
$GNGLL,0419.89574,S,05539.79768,E,125532.00,A,D*6B
$GNRMC,125533.00,A,0419.89581,S,05539.79770,E,0.067,,260525,,,D*77
$GNVTG,,T,,M,0.067,N,0.124,K,D*3E
$GNGGA,125533.00,0419.89581,S,05539.79770,E,2,12,0.73,22.6,M,-47.6,M,,0000*43
$GNGSA,A,3,28,27,31,32,18,26,08,,,,,,1.43,0.73,1.22*16
$GNGSA,A,3,84,83,70,71,73,85,80,,,,,,1.43,0.73,1.22*18
$GPGSV,5,1,17,02,04,332,,04,08,226,,08,24,302,39,10,13,024,*75
$GPGSV,5,2,17,16,24,216,,18,28,114,11,23,01,062,,26,29,185,20*7E
$GPGSV,5,3,17,27,55,272,42,28,60,106,34,31,54,166,29,32,34,007,41*7C
$GPGSV,5,4,17,36,52,277,40,40,84,353,44,41,58,082,38,49,32,274,*73
$GPGSV,5,5,17,50,10,089,*4A
$GLGSV,3,1,10,70,28,329,22,71,30,275,30,72,05,231,,73,21,169,11*6C
$GLGSV,3,2,10,74,05,210,,80,15,114,17,83,38,137,13,84,66,035,27*66
$GLGSV,3,3,10,85,23,346,31,,,,35*5D
$GNGLL,0419.89581,S,05539.79770,E,125533.00,A,D*69
$GNRMC,125534.00,A,0419.89588,S,05539.79775,E,0.050,,260525,,,D*78
$GNVTG,,T,,M,0.050,N,0.092,K,D*36
$GNGGA,125534.00,0419.89588,S,05539.79775,E,2,12,0.79,22.4,M,-47.6,M,,0000*40
$GNGSA,A,3,28,27,31,32,26,08,,,,,,,1.49,0.79,1.26*1B
$GNGSA,A,3,84,83,70,71,73,85,80,,,,,,1.49,0.79,1.26*1C
$GPGSV,5,1,17,02,04,332,,04,08,226,,08,24,302,38,10,13,024,*74
$GPGSV,5,2,17,16,24,216,,18,28,114,08,23,01,062,,26,29,185,20*76
$GPGSV,5,3,17,27,55,272,41,28,60,106,34,31,54,166,30,32,34,007,41*77
$GPGSV,5,4,17,36,52,277,40,40,84,353,44,41,58,082,38,49,32,274,*73
$GPGSV,5,5,17,50,10,089,*4A
$GLGSV,3,1,10,70,28,329,22,71,30,275,29,72,05,231,,73,21,169,11*64
$GLGSV,3,2,10,74,05,210,,80,15,114,11,83,38,137,14,84,66,035,28*68
$GLGSV,3,3,10,85,23,346,30,,,,34*5D
$GNGLL,0419.89588,S,05539.79775,E,125534.00,A,D*62
$GNRMC,125535.00,A,0419.89597,S,05539.79779,E,0.091,,260525,,,D*76
$GNVTG,,T,,M,0.091,N,0.168,K,D*3F
$GNGGA,125535.00,0419.89597,S,05539.79779,E,2,12,0.75,22.2,M,-47.6,M,,0000*49
$GNGSA,A,3,28,27,31,32,26,08,,,,,,,1.44,0.75,1.22*1E
$GNGSA,A,3,84,83,70,71,73,85,80,,,,,,1.44,0.75,1.22*19
$GPGSV,5,1,17,02,04,332,,04,08,226,,08,24,302,38,10,13,024,*74
$GPGSV,5,2,17,16,24,216,,18,28,114,08,23,01,062,,26,29,185,21*77
$GPGSV,5,3,17,27,55,272,41,28,60,106,34,31,54,166,30,32,34,007,41*77
$GPGSV,5,4,17,36,52,277,40,40,84,353,44,41,58,082,38,49,32,274,*73
$GPGSV,5,5,17,50,10,089,*4A
$GLGSV,3,1,10,70,28,329,23,71,30,275,29,72,05,231,,73,21,169,11*65
$GLGSV,3,2,10,74,05,210,,80,15,114,19,83,38,137,16,84,66,035,29*63
$GLGSV,3,3,10,85,23,346,31,,,,35*5D
$GNGLL,0419.89597,S,05539.79779,E,125535.00,A,D*61
$GNRMC,125536.00,A,0419.89610,S,05539.79783,E,0.160,,260525,,,D*73
$GNVTG,,T,,M,0.160,N,0.297,K,D*33
$GNGGA,125536.00,0419.89610,S,05539.79783,E,2,12,0.75,21.7,M,-47.6,M,,0000*45
$GNGSA,A,3,28,27,31,32,18,26,08,,,,,,1.53,0.75,1.33*11
$GNGSA,A,3,84,83,70,71,73,85,80,,,,,,1.53,0.75,1.33*1F
$GPGSV,5,1,17,02,04,332,,04,08,226,,08,24,302,38,10,13,024,22*74
$GPGSV,5,2,17,16,24,216,,18,28,114,10,23,01,062,,26,29,185,21*7E
$GPGSV,5,3,17,27,55,272,40,28,60,106,34,31,54,166,30,32,34,007,40*77
$GPGSV,5,4,17,36,52,277,38,40,84,353,44,41,58,082,38,49,32,274,*7C
$GPGSV,5,5,17,50,10,089,*4A
$GLGSV,3,1,10,70,28,329,24,71,30,275,30,72,05,231,,73,21,169,11*6A
$GLGSV,3,2,10,74,05,210,,80,15,114,15,83,38,137,18,84,66,035,30*69
$GLGSV,3,3,10,85,23,346,32,,,,36*5D
$GNGLL,0419.89610,S,05539.79783,E,125536.00,A,D*6B
$GNRMC,125537.00,A,0419.89617,S,05539.79787,E,0.105,,260525,,,D*72
$GNVTG,,T,,M,0.105,N,0.194,K,D*30
$GNGGA,125537.00,0419.89617,S,05539.79787,E,2,12,0.75,21.5,M,-47.6,M,,0000*45
$GNGSA,A,3,28,27,31,32,18,26,08,,,,,,1.53,0.75,1.33*11
$GNGSA,A,3,84,83,70,71,73,85,80,,,,,,1.53,0.75,1.33*1F
$GPGSV,5,1,17,02,04,332,,04,08,226,,08,24,302,38,10,13,024,23*75
$GPGSV,5,2,17,16,24,216,,18,28,114,16,23,01,062,,26,29,185,21*78
$GPGSV,5,3,17,27,55,272,40,28,60,106,34,31,54,166,30,32,34,007,40*77
$GPGSV,5,4,17,36,52,277,39,40,84,353,45,41,58,082,37,49,32,274,*73
$GPGSV,5,5,17,50,10,089,*4A
$GLGSV,3,1,10,70,28,329,23,71,30,275,29,72,05,231,,73,21,169,12*66
$GLGSV,3,2,10,74,05,210,,80,15,114,12,83,38,137,18,84,66,035,29*66
$GLGSV,3,3,10,85,23,346,31,,,,35*5D
$GNGLL,0419.89617,S,05539.79787,E,125537.00,A,D*69
$GNRMC,125538.00,A,0419.89625,S,05539.79791,E,0.118,,260525,,,D*77
$GNVTG,,T,,M,0.118,N,0.219,K,D*3A
$GNGGA,125538.00,0419.89625,S,05539.79791,E,2,12,0.75,21.2,M,-47.6,M,,0000*4B
$GNGSA,A,3,28,27,31,32,18,26,08,10,,,,,1.53,0.75,1.33*10
$GNGSA,A,3,84,83,70,71,73,85,80,,,,,,1.53,0.75,1.33*1F
$GPGSV,5,1,17,02,04,332,,04,08,226,,08,24,302,38,10,13,024,23*75
$GPGSV,5,2,17,16,24,216,,18,28,114,17,23,01,062,,26,29,185,21*79
$GPGSV,5,3,17,27,55,272,40,28,60,106,35,31,54,166,29,32,34,007,40*7E
$GPGSV,5,4,17,36,52,277,39,40,84,353,44,41,58,082,37,49,32,274,*72
$GPGSV,5,5,17,50,10,089,*4A
$GLGSV,3,1,10,70,28,329,23,71,30,275,28,72,05,231,,73,21,169,12*67
$GLGSV,3,2,10,74,05,210,,80,15,114,15,83,38,137,17,84,66,035,29*6E
$GLGSV,3,3,10,85,23,346,30,,,,35*5C
$GNGLL,0419.89625,S,05539.79791,E,125538.00,A,D*60
$GNRMC,125539.00,A,0419.89634,S,05539.79795,E,0.081,,260525,,,D*73
$GNVTG,,T,,M,0.081,N,0.149,K,D*3D
$GNGGA,125539.00,0419.89634,S,05539.79795,E,2,12,0.70,20.9,M,-47.6,M,,0000*41
$GNGSA,A,3,28,27,31,32,18,26,08,10,,,,,1.42,0.70,1.24*13
$GNGSA,A,3,84,83,70,71,73,85,80,,,,,,1.42,0.70,1.24*1C
$GPGSV,5,1,17,02,04,332,,04,08,226,,08,24,302,38,10,13,024,24*72
$GPGSV,5,2,17,16,24,216,,18,28,114,17,23,01,062,,26,29,185,20*78
$GPGSV,5,3,17,27,55,272,40,28,60,106,35,31,54,166,30,32,34,007,40*76
$GPGSV,5,4,17,36,52,277,39,40,84,353,44,41,58,082,37,49,32,274,*72
$GPGSV,5,5,17,50,10,089,*4A
$GLGSV,3,1,10,70,28,329,23,71,30,275,27,72,05,231,,73,21,169,16*6C
$GLGSV,3,2,10,74,05,210,,80,15,114,16,83,38,137,16,84,66,035,29*6C
$GLGSV,3,3,10,85,23,346,32,,,,38*53
$GNGLL,0419.89634,S,05539.79795,E,125539.00,A,D*65
$GNRMC,125541.00,A,0419.89648,S,05539.79801,E,0.038,,260525,,,D*77
$GNVTG,,T,,M,0.038,N,0.071,K,D*35
$GNGGA,125541.00,0419.89648,S,05539.79801,E,2,12,0.79,20.4,M,-47.6,M,,0000*43
$GNGSA,A,3,28,27,31,32,18,26,08,10,,,,,1.56,0.79,1.35*1F
$GNGSA,A,3,84,83,70,71,73,85,80,,,,,,1.56,0.79,1.35*10
$GPGSV,5,1,17,02,04,332,,04,08,226,,08,24,302,38,10,13,024,26*70
$GPGSV,5,2,17,16,24,216,,18,28,114,18,23,01,062,,26,29,185,20*77
$GPGSV,5,3,17,27,55,272,37,28,60,106,36,31,54,166,28,32,34,007,40*7C
$GPGSV,5,4,17,36,52,277,37,40,84,353,44,41,58,082,36,49,32,274,*7D
$GPGSV,5,5,17,50,10,089,*4A
$GLGSV,3,1,10,70,28,329,23,71,30,275,26,72,05,231,,73,21,169,17*6C
$GLGSV,3,2,10,74,05,210,,80,15,114,20,83,38,137,19,84,66,035,28*67
$GLGSV,3,3,10,85,23,346,33,,,,35*5F
$GNGLL,0419.89648,S,05539.79801,E,125541.00,A,D*63
$GNRMC,125542.00,A,0419.89653,S,05539.79800,E,0.040,,260525,,,D*70
$GNVTG,,T,,M,0.040,N,0.074,K,D*3F
$GNGGA,125542.00,0419.89653,S,05539.79800,E,2,12,0.74,20.3,M,-47.6,M,,0000*41
$GNGSA,A,3,28,27,31,32,18,26,08,10,,,,,1.45,0.74,1.25*11
$GNGSA,A,3,84,70,71,73,85,80,,,,,,,1.45,0.74,1.25*15
$GNRMC,125543.00,A,0419.89658,S,05539.79800,E,0.026,,260525,,,D*7A
$GNVTG,,T,,M,0.026,N,0.049,K,D*31
$GNGGA,125543.00,0419.89658,S,05539.79800,E,2,12,0.74,20.2,M,-47.6,M,,0000*4A
$GNGSA,A,3,28,27,31,32,18,26,08,10,,,,,1.45,0.74,1.25*11
$GNGSA,A,3,84,70,71,73,85,80,,,,,,,1.45,0.74,1.25*15
$GPGSV,5,1,17,02,04,332,,04,08,226,,08,24,302,37,10,13,024,26*7F
$GPGSV,5,2,17,16,24,216,,18,28,114,18,23,01,062,,26,29,185,18*7C
$GPGSV,5,3,17,27,55,272,38,28,60,106,34,31,54,166,29,32,34,007,41*71
$GPGSV,5,4,17,36,52,277,36,40,84,353,45,41,58,082,37,49,32,274,*7C
$GPGSV,5,5,17,50,10,089,*4A
$GLGSV,3,1,10,70,28,329,23,71,30,275,28,72,05,231,,73,21,169,18*6D
$GLGSV,3,2,10,74,05,210,,80,15,114,16,83,38,137,20,84,66,035,27*67
$GLGSV,3,3,10,85,23,346,34,,,,36*5B
$GNGLL,0419.89658,S,05539.79800,E,125543.00,A,D*61
$GNRMC,125544.00,A,0419.89662,S,05539.79799,E,0.049,,260525,,,D*72
$GNVTG,,T,,M,0.049,N,0.090,K,D*3C
$GNGGA,125544.00,0419.89662,S,05539.79799,E,2,12,0.74,20.2,M,-47.6,M,,0000*4B
$GNGSA,A,3,28,27,31,32,18,26,08,10,,,,,1.45,0.74,1.25*11
$GNGSA,A,3,84,70,71,73,85,80,,,,,,,1.45,0.74,1.25*15
$GPGSV,5,1,17,02,04,332,,04,08,226,,08,24,302,37,10,13,024,26*7F
$GPGSV,5,2,17,16,24,216,,18,28,114,18,23,01,062,,26,29,185,16*72
$GPGSV,5,3,17,27,55,272,38,28,60,106,34,31,54,166,31,32,34,007,41*78
$GPGSV,5,4,17,36,52,277,37,40,84,353,45,41,58,082,37,49,32,274,*7D
$GPGSV,5,5,17,50,10,089,*4A
$GLGSV,3,1,10,70,28,329,24,71,30,275,28,72,05,231,,73,21,169,09*6A
$GLGSV,3,2,10,74,05,210,,80,15,114,17,83,38,137,20,84,66,035,28*69
$GLGSV,3,3,10,85,23,346,33,,,,36*5C
$GNGLL,0419.89662,S,05539.79799,E,125544.00,A,D*60
$GNRMC,125545.00,A,0419.89666,S,05539.79799,E,0.128,,260525,,,D*71
$GNVTG,,T,,M,0.128,N,0.237,K,D*35
$GNGGA,125545.00,0419.89666,S,05539.79799,E,2,12,0.74,20.1,M,-47.6,M,,0000*4D
$GNGSA,A,3,28,27,31,32,18,26,08,10,,,,,1.45,0.74,1.25*11
$GNGSA,A,3,84,70,71,73,85,80,,,,,,,1.45,0.74,1.25*15
$GPGSV,5,1,17,02,04,332,,04,08,226,,08,24,302,35,10,13,024,26*7D
$GPGSV,5,2,17,16,24,216,,18,28,114,18,23,01,062,,26,29,185,16*72
$GPGSV,5,3,17,27,55,272,37,28,60,106,34,31,54,166,31,32,34,007,40*76
$GPGSV,5,4,17,36,52,277,36,40,84,353,43,41,58,082,37,49,32,274,*7A
$GPGSV,5,5,17,50,10,089,*4A
$GLGSV,3,1,10,70,28,329,24,71,30,275,29,72,05,231,,73,21,169,13*60
$GLGSV,3,2,10,74,05,210,,80,15,114,17,83,38,137,17,84,66,035,28*6D
$GLGSV,3,3,10,85,23,346,33,,,,36*5C
$GNGLL,0419.89666,S,05539.79799,E,125545.00,A,D*65
$GNRMC,125546.00,A,0419.89668,S,05539.79800,E,0.093,,260525,,,D*72
$GNVTG,,T,,M,0.093,N,0.173,K,D*37
