$GNRMC,124421.00,A,0419.88575,S,05539.76729,E,0.038,,260525,,,A*72
$GNVTG,,T,,M,0.038,N,0.070,K,A*31
$GNGGA,124421.00,0419.88575,S,05539.76729,E,1,12,0.81,31.7,M,-47.6,M,,*44
$GNGSA,A,3,28,27,31,32,18,08,10,,,,,,1.49,0.81,1.25*13
$GNGSA,A,3,84,83,70,71,73,85,80,,,,,,1.49,0.81,1.25*18
$GPGSV,5,1,17,02,00,330,,04,05,223,,08,21,306,31,10,13,020,32*77
$GPGSV,5,4,17,36,52,277,36,40,84,353,38,41,58,082,,49,32,274,*72
$GPGSV,5,5,17,50,10,089,*4A
$GLGSV,3,1,10,70,32,324,21,71,31,267,34,72,03,226,,73,19,174,16*6F
$GLGSV,3,2,10,74,03,215,,80,14,120,34,83,42,130,24,84,60,028,24*65
$GNGLL,0419.88575,S,05539.76729,E,124421.00,A,A*66
$GNRMC,124422.00,A,0419.88574,S,05539.76729,E,0.050,,260525,,,A*7E
$GNRMC,124423.00,A,0419.88572,S,05539.76730,E,0.054,,260525,,,A*75
$GNVTG,,T,,M,0.054,N,0.100,K,A*3D
$GNGGA,124423.00,0419.88572,S,05539.76730,E,1,12,0.81,31.8,M,-47.6,M,,*46
$GNGSA,A,3,28,27,31,32,18,08,10,,,,,,1.49,0.81,1.25*13
$GNGSA,A,3,84,83,70,71,73,85,80,,,,,,1.49,0.81,1.25*18
$GPGSV,5,1,17,02,00,330,,04,05,223,,08,21,306,31,10,13,020,32*77
$GPGSV,5,2,17,16,24,221,,18,30,108,42,23,01,058,,26,28,191,*77
$GPGSV,5,3,17,27,54,281,40,28,59,117,35,31,50,171,35,32,38,006,38*74
$GPGSV,5,4,17,36,52,277,39,40,84,353,43,41,58,082,,49,32,274,*71
$GPGSV,5,5,17,50,10,089,*4A
$GLGSV,3,1,10,70,32,324,19,71,31,267,38,72,03,226,,73,19,174,11*6F
$GLGSV,3,2,10,74,03,215,,80,14,120,34,83,42,130,23,84,60,028,20*66
$GLGSV,3,3,10,85,17,346,38,,,,39*5F
$GNGLL,0419.88572,S,05539.76730,E,124423.00,A,A*6B
$GNRMC,124424.00,A,0419.88570,S,05539.76731,E,0.051,,260525,,,A*74
$GNVTG,,T,,M,0.051,N,0.094,K,A*34
$GNGGA,124424.00,0419.88570,S,05539.76731,E,1,12,0.81,31.8,M,-47.6,M,,*42
$GNGSA,A,3,28,27,31,32,18,08,10,,,,,,1.49,0.81,1.25*13
$GNGSA,A,3,84,83,70,71,73,85,80,,,,,,1.49,0.81,1.25*18
$GPGSV,5,1,17,02,00,330,19,04,05,223,,08,21,306,25,10,13,020,32*7A
$GPGSV,5,2,17,16,24,221,,18,30,108,41,23,01,058,,26,28,191,*74
$GPGSV,5,3,17,27,54,281,40,28,59,117,35,31,50,171,32,32,38,006,38*73
$GPGSV,5,4,17,36,52,277,40,40,84,353,43,41,58,082,,49,32,274,*7F
$GPGSV,5,5,17,50,10,089,*4A
$GLGSV,3,1,10,70,32,324,21,71,31,267,37,72,03,226,,73,19,174,11*6B
$GLGSV,3,2,10,74,03,215,,80,14,120,34,83,42,130,31,84,60,028,21*64
$GLGSV,3,3,10,85,17,346,37,,,,39*50
$GNGLL,0419.88570,S,05539.76731,E,124424.00,A,A*6F
$GNRMC,124426.00,A,0419.88564,S,05539.76736,E,0.056,,260525,,,A*73
$GNVTG,,T,,M,0.056,N,0.104,K,A*3B
$GNGGA,124426.00,0419.88564,S,05539.76736,E,1,12,0.81,32.0,M,-47.6,M,,*49
$GNGSA,A,3,28,27,31,32,18,08,10,,,,,,1.49,0.81,1.25*13
$GNGSA,A,3,84,83,70,71,73,85,80,,,,,,1.49,0.81,1.25*18
$GPGSV,5,1,17,02,00,330,,04,05,223,,08,21,306,28,10,13,020,29*75
$GPGSV,5,2,17,16,24,221,,18,30,108,42,23,01,058,,26,28,191,*77
$GPGSV,5,3,17,27,54,281,39,28,59,117,31,31,50,171,35,32,38,006,39*7F
$GPGSV,5,4,17,36,52,277,39,40,84,353,42,41,58,082,,49,32,274,*70
$GPGSV,5,5,17,50,10,089,*4A
$GLGSV,3,1,10,70,32,324,21,71,31,267,35,72,03,226,,73,19,174,14*6C
$GLGSV,3,2,10,74,03,215,,80,14,120,34,83,42,130,28,84,60,028,23*6E
$GLGSV,3,3,10,85,17,346,37,,,,38*51
$GNGLL,0419.88564,S,05539.76736,E,124426.00,A,A*6F
$GNRMC,124428.00,A,0419.88569,S,05539.76734,E,0.059,,260525,,,A*7D
$GNVTG,,T,,M,0.059,N,0.110,K,A*31
$GNGGA,124428.00,0419.88569,S,05539.76734,E,1,12,0.72,32.0,M,-47.6,M,,*44
$GNGSA,A,3,28,27,31,32,18,08,10,,,,,,1.37,0.72,1.16*16
$GNGSA,A,3,84,83,70,71,73,85,80,,,,,,1.37,0.72,1.16*1D
$GPGSV,5,1,17,02,00,330,,04,05,223,,08,21,306,30,10,13,020,32*76
$GPGSV,5,2,17,16,24,221,,18,30,108,42,23,01,058,,26,28,191,17*71
$GPGSV,5,3,17,27,54,281,37,28,59,117,23,31,50,171,40,32,38,006,40*7E
$GPGSV,5,4,17,36,52,277,35,40,84,353,41,41,58,082,,49,32,274,*7F
$GPGSV,5,5,17,50,10,089,*4A
$GLGSV,3,1,10,70,32,324,21,71,31,267,33,72,03,226,,73,19,174,14*6A
$GLGSV,3,2,10,74,03,215,,80,14,120,34,83,42,131,28,84,60,028,22*6E
$GLGSV,3,3,10,85,17,346,39,,,,37*50
$GNGLL,0419.88569,S,05539.76734,E,124428.00,A,A*6E
$GNRMC,124429.00,A,0419.88567,S,05539.76735,E,0.012,,260525,,,A*7C
$GNVTG,,T,,M,0.012,N,0.022,K,A*3E
$GNGGA,124429.00,0419.88567,S,05539.76735,E,1,12,0.82,31.9,M,-47.6,M,,*4F
$GNGSA,A,3,28,27,31,32,18,08,10,,,,,,1.59,0.82,1.37*12
$GNGSA,A,3,84,83,70,71,73,85,80,,,,,,1.59,0.82,1.37*19
$GPGSV,5,1,17,02,00,330,,04,05,223,,08,21,306,29,10,13,020,32*7E
$GPGSV,5,2,17,16,24,221,,18,30,108,43,23,01,058,,26,28,191,15*72
$GPGSV,5,3,17,27,54,281,39,28,59,117,23,31,50,171,39,32,38,006,40*7E
$GPGSV,5,4,17,36,52,277,37,40,84,353,40,41,58,082,,49,32,274,*7C
$GPGSV,5,5,17,50,10,089,*4A
$GLGSV,3,1,10,70,32,324,22,71,31,267,34,72,03,226,,73,19,174,16*6C
$GLGSV,3,2,10,74,03,215,,80,14,120,34,83,42,131,28,84,60,028,22*6E
$GLGSV,3,3,10,85,17,346,37,,,,39*50
$GNGLL,0419.88567,S,05539.76735,E,124429.00,A,A*60
$GNRMC,124430.00,A,0419.88565,S,05539.76736,E,0.074,,260525,,,A*75
$GNVTG,,T,,M,0.074,N,0.138,K,A*34
$GNGGA,124430.00,0419.88565,S,05539.76736,E,1,12,0.73,31.9,M,-47.6,M,,*48
$GNGSA,A,3,28,27,31,32,18,08,10,,,,,,1.48,0.73,1.29*13
$GNGSA,A,3,84,83,70,71,73,85,80,,,,,,1.48,0.73,1.29*18
$GPGSV,5,1,17,02,00,330,,04,05,223,,08,21,306,31,10,13,020,31*74
$GPGSV,5,2,17,16,24,221,,18,30,108,43,23,01,058,,26,28,191,13*74
$GPGSV,5,3,17,27,54,281,39,28,59,117,21,31,50,171,39,32,38,006,40*7C
$GPGSV,5,4,17,36,52,277,37,40,84,353,41,41,58,082,,49,32,274,*7D
$GPGSV,5,5,17,50,10,089,*4A
$GLGSV,3,1,10,70,32,324,22,71,31,267,35,72,03,226,,73,19,174,16*6D
$GLGSV,3,2,10,74,03,215,,80,14,120,34,83,42,131,28,84,60,028,22*6E
$GLGSV,3,3,10,85,17,346,37,,,,39*50
$GNGLL,0419.88565,S,05539.76736,E,124430.00,A,A*69
$GNRMC,124431.00,A,0419.88564,S,05539.76736,E,0.019,,260525,,,A*7E
$GNVTG,,T,,M,0.019,N,0.035,K,A*33
$GNGGA,124431.00,0419.88564,S,05539.76736,E,1,12,0.73,32.0,M,-47.6,M,,*42
$GNGSA,A,3,28,27,31,32,18,08,10,,,,,,1.48,0.73,1.29*13
$GNGSA,A,3,84,83,70,71,73,85,80,,,,,,1.48,0.73,1.29*18
$GPGSV,5,1,17,02,00,330,,04,05,223,,08,21,306,31,10,13,020,33*76
$GPGSV,5,2,17,16,24,221,,18,30,108,43,23,01,058,,26,28,191,13*74
$GPGSV,5,3,17,27,54,281,39,28,59,117,19,31,50,171,39,32,38,006,40*77
$GPGSV,5,4,17,36,52,277,37,40,84,353,41,41,58,082,34,49,32,274,*7A
$GPGSV,5,5,17,50,10,089,*4A
$GLGSV,3,1,10,70,32,324,23,71,31,267,34,72,03,226,,73,19,174,17*6C
$GLGSV,3,2,10,74,03,215,,80,14,120,34,83,42,131,27,84,60,028,20*63
$GLGSV,3,3,10,85,17,346,37,,,,38*51
$GNGLL,0419.88564,S,05539.76736,E,124431.00,A,A*69
$GNRMC,124432.00,A,0419.88564,S,05539.76738,E,0.055,,260525,,,A*7B
$GNVTG,,T,,M,0.055,N,0.102,K,A*3E
$GNGGA,124432.00,0419.88564,S,05539.76738,E,1,12,0.82,32.0,M,-47.6,M,,*41
$GNGSA,A,3,28,27,31,32,18,26,08,10,,,,,1.59,0.82,1.37*16
$GNGSA,A,3,84,83,70,71,73,85,80,,,,,,1.59,0.82,1.37*19
$GPGSV,5,1,17,02,00,330,,04,05,223,,08,21,306,24,10,13,020,29*79
$GPGSV,5,2,17,16,24,221,,18,30,108,43,23,01,058,,26,28,191,15*72
$GPGSV,5,3,17,27,54,281,38,28,59,117,18,31,50,171,38,32,38,006,40*76
$GPGSV,5,4,17,36,52,277,36,40,84,353,41,41,58,082,37,49,32,274,*78
$GPGSV,5,5,17,50,10,089,*4A
$GLGSV,3,1,10,70,32,324,23,71,31,267,31,72,03,226,,73,19,174,17*69
$GLGSV,3,2,10,74,03,215,,80,14,120,34,83,42,131,26,84,60,028,20*62
$GLGSV,3,3,10,85,17,346,37,,,,37*5E
$GNRMC,124433.00,A,0419.88563,S,05539.76739,E,0.011,,260525,,,A*7C
$GNVTG,,T,,M,0.011,N,0.021,K,A*3E
$GNGGA,124433.00,0419.88563,S,05539.76739,E,1,12,0.73,32.0,M,-47.6,M,,*48
$GNGSA,A,3,28,27,31,32,18,26,08,10,,,,,1.48,0.73,1.29*17
$GNGSA,A,3,84,83,70,71,73,85,80,,,,,,1.48,0.73,1.29*18
$GPGSV,5,1,17,02,00,330,,04,05,223,,08,21,306,28,10,13,020,28*74
$GPGSV,5,2,17,16,24,221,,18,30,108,42,23,01,058,,26,28,191,13*75
$GPGSV,5,3,17,27,54,281,38,28,59,117,22,31,50,171,37,32,38,006,38*7F
$GPGSV,5,4,17,36,52,277,37,40,84,353,41,41,58,082,35,49,32,274,*7B
$GPGSV,5,5,17,50,10,089,*4A
$GLGSV,3,1,10,70,32,324,22,71,31,267,33,72,03,226,,73,19,174,17*6A
$GLGSV,3,2,10,74,03,215,,80,14,120,35,83,42,131,34,84,60,028,20*60
$GLGSV,3,3,10,85,17,346,35,,,,33*58
$GNGLL,0419.88563,S,05539.76739,E,124433.00,A,A*63
$GNRMC,124434.00,A,0419.88562,S,05539.76739,E,0.012,,260525,,,A*79
$GNVTG,,T,,M,0.012,N,0.022,K,A*3E
$GNGGA,124434.00,0419.88562,S,05539.76739,E,1,12,0.72,31.9,M,-47.6,M,,*45
$GNGSA,A,3,28,27,31,32,18,26,08,10,,,,,1.37,0.72,1.17*13
$GNGSA,A,3,84,83,70,71,73,85,80,,,,,,1.37,0.72,1.17*1C
$GPGSV,5,1,17,02,00,330,,04,05,223,,08,21,306,31,10,13,020,26*72
$GPGSV,5,2,17,16,24,221,,18,30,108,44,23,01,058,,26,28,191,10*70
$GPGSV,5,3,17,27,54,281,40,28,59,117,26,31,50,171,38,32,38,006,38*7B
$GPGSV,5,4,17,36,52,277,39,40,84,353,43,41,58,082,35,49,32,274,*77
$GPGSV,5,5,17,50,10,089,*4A
$GLGSV,3,1,10,70,32,324,20,71,31,267,33,72,03,226,,73,19,174,17*68
$GLGSV,3,2,10,74,03,215,,80,14,120,36,83,42,131,33,84,60,028,21*65
$GLGSV,3,3,10,85,17,346,36,,,,34*5C
$GNGLL,0419.88562,S,05539.76739,E,124434.00,A,A*65
$GNRMC,124436.00,A,0419.88561,S,05539.76741,E,0.020,,260525,,,A*76
$GNVTG,,T,,M,0.020,N,0.037,K,A*3B
$GNGGA,124436.00,0419.88561,S,05539.76741,E,1,12,0.72,31.9,M,-47.6,M,,*4B
$GNGSA,A,3,28,27,31,32,18,26,08,10,,,,,1.37,0.72,1.17*13
$GNGSA,A,3,84,83,70,71,73,85,80,,,,,,1.37,0.72,1.17*1C
$GPGSV,5,1,17,02,00,330,,04,05,223,,08,21,306,32,10,13,020,25*72
$GPGSV,5,2,17,16,24,221,,18,30,108,44,23,01,058,,26,28,191,15*75
$GPGSV,5,3,17,27,54,281,40,28,59,117,28,31,50,171,38,32,38,006,39*74
$GPGSV,5,4,17,36,52,277,39,40,84,353,43,41,58,082,36,49,32,274,*74
$GPGSV,5,5,17,50,10,089,*4A
$GLGSV,3,1,10,70,32,324,18,71,31,267,33,72,03,226,,73,19,174,11*65
$GLGSV,3,2,10,74,03,215,,80,14,120,36,83,42,131,33,84,60,028,21*65
$GLGSV,3,3,10,85,17,346,36,,,,34*5C
$GNGLL,0419.88561,S,05539.76741,E,124436.00,A,A*6B
$GNRMC,124437.00,A,0419.88560,S,05539.76743,E,0.010,,260525,,,A*77
$GNVTG,,T,,M,0.010,N,0.019,K,A*34
$GNGGA,124437.00,0419.88560,S,05539.76743,E,1,12,0.78,31.9,M,-47.6,M,,*43
$GNGSA,A,3,28,27,31,32,18,26,08,,,,,,1.45,0.78,1.22*1B
$GNGSA,A,3,84,83,70,71,73,85,80,,,,,,1.45,0.78,1.22*15
$GPGSV,5,1,17,02,00,330,,04,05,223,,08,21,306,32,10,13,020,*75
$GPGSV,5,2,17,16,24,221,,18,30,108,44,23,01,058,,26,28,191,16*76
$GPGSV,5,3,17,27,54,281,40,28,59,117,29,31,50,171,38,32,38,006,39*75
$GPGSV,5,4,17,36,52,277,39,40,84,353,43,41,58,082,37,49,32,274,*75
$GPGSV,5,5,17,50,10,089,*4A
$GLGSV,3,1,10,70,32,324,16,71,31,267,32,72,03,226,,73,19,174,08*62
$GLGSV,3,2,10,74,03,215,,80,14,120,36,83,42,131,33,84,60,028,21*65
$GLGSV,3,3,10,85,17,346,35,,,,33*58
$GNGLL,0419.88560,S,05539.76743,E,124437.00,A,A*69
$GNRMC,124438.00,A,0419.88559,S,05539.76745,E,0.117,,260525,,,A*72
$GNVTG,,T,,M,0.117,N,0.216,K,A*3F
$GNGGA,124438.00,0419.88559,S,05539.76745,E,1,12,0.78,31.9,M,-47.6,M,,*40
$GNGSA,A,3,28,27,31,32,18,26,08,,,,,,1.45,0.78,1.22*1B
$GNGSA,A,3,84,83,70,71,73,85,80,,,,,,1.45,0.78,1.22*15
$GPGSV,5,1,17,02,00,330,,04,05,223,,08,21,306,32,10,13,020,*75
$GPGSV,5,2,17,16,24,221,,18,30,108,44,23,01,058,,26,28,191,17*77
$GPGSV,5,3,17,27,54,281,40,28,59,117,29,31,50,171,38,32,38,006,39*75
$GPGSV,5,4,17,36,52,277,39,40,84,353,43,41,58,082,37,49,32,274,*75
$GPGSV,5,5,17,50,10,089,*4A
$GLGSV,3,1,10,70,32,324,16,71,31,267,32,72,03,226,,73,19,174,08*62
$GLGSV,3,2,10,74,03,215,,80,14,120,36,83,42,131,33,84,60,028,21*65
$GLGSV,3,3,10,85,17,346,36,,,,33*5B
$GNGLL,0419.88559,S,05539.76745,E,124438.00,A,A*6A
$GNRMC,124440.00,A,0419.88554,S,05539.76751,E,0.027,,260525,,,A*77
$GNVTG,,T,,M,0.027,N,0.051,K,A*3C
$GNGGA,124440.00,0419.88554,S,05539.76751,E,1,12,0.78,32.1,M,-47.6,M,,*4C
$GNGSA,A,3,28,27,31,32,18,26,08,,,,,,1.45,0.78,1.22*1B
$GNGSA,A,3,84,83,70,71,73,85,80,,,,,,1.45,0.78,1.22*15
$GPGSV,5,1,17,02,00,330,,04,05,223,,08,21,306,31,10,13,020,25*71
$GPGSV,5,2,17,16,24,221,,18,30,108,43,23,01,058,,26,28,191,18*7F
$GPGSV,5,3,17,27,54,281,41,28,59,117,30,31,50,171,38,32,38,006,39*7C
$GPGSV,5,4,17,36,52,277,40,40,84,353,42,41,58,082,35,49,32,274,*78
$GPGSV,5,5,17,50,10,089,*4A
$GLGSV,3,1,10,70,32,324,16,71,31,267,34,72,03,226,,73,19,174,08*64
$GLGSV,3,2,10,74,03,215,,80,14,120,35,83,42,131,33,84,60,028,21*66
$GLGSV,3,3,10,85,17,346,36,,,,35*5D
$GNGLL,0419.88554,S,05539.76751,E,124440.00,A,A*6D
$GNRMC,124441.00,A,0419.88552,S,05539.76753,E,0.026,,260525,,,A*73
$GNVTG,,T,,M,0.026,N,0.047,K,A*3A
$GNGGA,124441.00,0419.88552,S,05539.76753,E,1,12,0.88,32.1,M,-47.6,M,,*46
$GNGSA,A,3,28,27,31,32,18,26,08,,,,,,1.56,0.88,1.28*1C
$GNGSA,A,3,84,83,70,71,85,80,,,,,,,1.56,0.88,1.28*16
$GPGSV,5,1,17,02,00,330,,04,05,223,,08,21,306,31,10,13,020,24*70
$GPGSV,5,2,17,16,24,221,,18,30,108,44,23,01,058,,26,28,191,14*74
$GPGSV,5,3,17,27,54,281,40,28,59,117,30,31,50,171,38,32,38,006,38*7C
$GPGSV,5,4,17,36,52,277,39,40,84,353,42,41,58,082,35,49,32,274,*76
$GPGSV,5,5,17,50,10,089,*4A
$GLGSV,3,1,10,70,32,324,14,71,31,267,33,72,03,226,,73,19,174,*69
$GLGSV,3,2,10,74,03,215,,80,14,120,35,83,42,131,32,84,60,028,21*67
$GLGSV,3,3,10,85,17,346,36,,,,35*5D
$GNGLL,0419.88552,S,05539.76753,E,124441.00,A,A*68
$GNRMC,124442.00,A,0419.88551,S,05539.76755,E,0.015,,260525,,,D*70
$GNVTG,,T,,M,0.015,N,0.027,K,D*39
$GNGGA,124442.00,0419.88551,S,05539.76755,E,2,12,0.81,32.1,M,-47.6,M,,0000*4A
$GNGSA,A,3,28,27,31,32,18,26,08,10,,,,,1.49,0.81,1.25*17
$GNGSA,A,3,84,83,70,71,85,80,,,,,,,1.49,0.81,1.25*1C
$GPGSV,5,1,17,02,00,330,,04,05,223,,08,21,306,31,10,13,020,24*70
$GPGSV,5,2,17,16,24,221,,18,30,108,43,23,01,058,,26,28,191,12*75
$GPGSV,5,3,17,27,54,281,41,28,59,117,30,31,50,171,38,32,38,006,39*7C
$GPGSV,5,4,17,36,52,277,38,40,84,353,42,41,58,082,34,49,32,274,*76
$GPGSV,5,5,17,50,10,089,*4A
$GLGSV,3,1,10,70,31,324,14,71,31,267,33,72,03,226,,73,19,174,*6A
$GLGSV,3,2,10,74,03,215,,80,14,120,35,83,42,131,31,84,60,028,20*65
$GLGSV,3,3,10,85,17,346,36,,,,35*5D
$GNGLL,0419.88551,S,05539.76755,E,124442.00,A,D*6B
$GNRMC,124444.00,A,0419.88550,S,05539.76761,E,0.029,,260525,,,D*7F
$GNVTG,,T,,M,0.029,N,0.055,K,D*33
$GNGGA,124444.00,0419.88550,S,05539.76761,E,2,12,0.81,32.2,M,-47.6,M,,0000*49
$GNGSA,A,3,28,27,31,32,18,26,08,10,,,,,1.49,0.81,1.25*17
$GNGSA,A,3,84,83,70,71,85,80,,,,,,,1.49,0.81,1.25*1C
$GPGSV,5,1,17,02,00,330,,04,05,223,,08,21,306,30,10,13,020,24*71
$GPGSV,5,2,17,16,24,221,,18,30,108,43,23,01,058,,26,28,191,10*77
$GPGSV,5,3,17,27,54,281,40,28,59,117,32,31,50,171,37,32,38,006,39*70
$GPGSV,5,4,17,36,52,277,38,40,84,353,41,41,58,082,33,49,32,274,*72
$GPGSV,5,5,17,50,10,089,*4A
$GLGSV,3,1,10,70,31,324,16,71,31,268,33,72,03,227,,73,19,174,*66
$GLGSV,3,2,10,74,03,215,,80,14,120,36,83,42,131,33,84,60,028,21*65
$GLGSV,3,3,10,85,17,346,37,,,,35*5C
$GNGLL,0419.88550,S,05539.76761,E,124444.00,A,D*6B
$GNRMC,124447.00,A,0419.88549,S,05539.76768,E,0.161,,260525,,,D*70
$GNVTG,,T,,M,0.161,N,0.298,K,D*3D
$GNGGA,124447.00,0419.88549,S,05539.76768,E,2,12,0.81,32.2,M,-47.6,M,,0000*4B
$GNGSA,A,3,28,27,31,32,18,08,10,,,,,,1.49,0.81,1.25*13
$GNGSA,A,3,84,83,70,71,85,80,,,,,,,1.49,0.81,1.25*1C
$GPGSV,5,1,17,02,00,330,,04,05,223,,08,21,306,28,10,13,020,25*79
$GPGSV,5,2,17,16,24,221,,18,30,108,42,23,01,058,,26,28,191,08*7F
$GPGSV,5,3,17,27,54,281,41,28,59,117,34,31,50,171,37,32,38,006,38*76
$GPGSV,5,4,17,36,52,277,38,40,84,353,41,41,58,082,35,49,32,274,*74
$GPGSV,5,5,17,50,10,089,*4A
$GLGSV,3,1,10,70,31,324,16,71,31,268,37,72,03,227,,73,19,174,*62
$GLGSV,3,2,10,74,03,215,,80,14,120,32,83,42,131,27,84,60,028,21*64
$GLGSV,3,3,10,85,17,346,37,,,,36*5F
$GNGLL,0419.88549,S,05539.76768,E,124447.00,A,D*69
$GNRMC,124448.00,A,0419.88547,S,05539.76771,E,0.024,,260525,,,D*79
$GNVTG,,T,,M,0.024,N,0.044,K,D*3E
$GNGGA,124448.00,0419.88547,S,05539.76771,E,2,12,0.81,32.2,M,-47.6,M,,0000*42
$GNGSA,A,3,28,27,31,32,18,08,10,,,,,,1.49,0.81,1.25*13
$GNGSA,A,3,84,83,70,71,85,80,,,,,,,1.49,0.81,1.25*1C
$GPGSV,5,1,17,02,00,330,,04,05,223,,08,21,306,28,10,13,020,27*7B
$GPGSV,5,2,17,16,24,221,,18,30,108,43,23,01,058,,26,28,191,10*77
$GPGSV,5,3,17,27,54,281,42,28,59,117,34,31,50,171,38,32,38,006,41*74
$GPGSV,5,4,17,36,52,277,40,40,84,353,43,41,58,082,38,49,32,274,*74
$GPGSV,5,5,17,50,10,089,*4A
$GLGSV,3,1,10,70,31,324,14,71,31,268,37,72,03,227,,73,19,174,*60
$GLGSV,3,2,10,74,03,215,,80,14,120,29,83,42,131,25,84,60,028,22*6F
$GLGSV,3,3,10,85,17,346,37,,,,35*5C
$GNGLL,0419.88547,S,05539.76771,E,124448.00,A,D*60
$GNRMC,124450.00,A,0419.88545,S,05539.76776,E,0.116,,260525,,,D*75
$GNVTG,,T,,M,0.116,N,0.216,K,D*3B
$GNGGA,124450.00,0419.88545,S,05539.76776,E,2,12,0.81,32.3,M,-47.6,M,,0000*4F
$GNGSA,A,3,28,27,31,32,18,08,10,,,,,,1.49,0.81,1.25*13
$GNGSA,A,3,84,83,70,71,85,80,,,,,,,1.49,0.81,1.25*1C
$GPGSV,5,1,17,02,00,330,,04,05,223,,08,21,306,31,10,13,020,28*7C
$GPGSV,5,2,17,16,24,221,,18,30,108,43,23,01,058,,26,28,191,16*71
$GPGSV,5,3,17,27,54,281,42,28,59,117,32,31,50,171,37,32,38,006,41*7D
$GPGSV,5,4,17,36,52,277,41,40,84,353,42,41,58,082,36,49,32,274,*7A
$GPGSV,5,5,17,50,10,089,*4A
$GLGSV,3,1,10,70,31,324,17,71,31,268,35,72,03,227,,73,19,174,*61
$GLGSV,3,2,10,74,03,215,,80,14,120,29,83,42,131,22,84,60,028,22*68
$GLGSV,3,3,10,85,17,346,36,,,,36*5E
$GNGLL,0419.88545,S,05539.76776,E,124450.00,A,D*6C
$GNRMC,124451.00,A,0419.88544,S,05539.76779,E,0.047,,260525,,,D*7F
$GNVTG,,T,,M,0.047,N,0.087,K,D*34
$GNGGA,124451.00,0419.88544,S,05539.76779,E,2,12,0.81,32.3,M,-47.6,M,,0000*40
$GNGSA,A,3,28,27,31,32,18,08,10,,,,,,1.49,0.81,1.25*13
$GNGSA,A,3,84,83,70,71,85,80,,,,,,,1.49,0.81,1.25*1C
$GPGSV,5,1,17,02,00,330,,04,05,223,,08,21,306,29,10,13,020,28*75
$GPGSV,5,2,17,16,24,221,,18,30,108,38,23,01,058,,26,28,191,15*7E
$GPGSV,5,3,17,27,54,281,40,28,59,117,31,31,50,171,35,32,38,006,38*70
$GPGSV,5,4,17,36,52,277,38,40,84,353,40,41,58,082,36,49,32,274,*76
$GPGSV,5,5,17,50,10,089,*4A
$GLGSV,3,1,10,70,31,324,19,71,31,268,36,72,03,227,,73,19,174,*6C
$GLGSV,3,2,10,74,03,215,,80,14,120,28,83,42,131,24,84,60,028,23*6E
$GLGSV,3,3,10,85,17,346,37,,,,36*5F
$GNGLL,0419.88544,S,05539.76779,E,124451.00,A,D*63
$GNRMC,124455.00,A,0419.88546,S,05539.76783,E,0.098,,260525,,,D*7E
$GNVTG,,T,,M,0.098,N,0.181,K,D*31
$GNGGA,124455.00,0419.88546,S,05539.76783,E,2,12,0.79,32.4,M,-47.6,M,,0000*43
$GNGSA,A,3,28,27,31,32,18,26,08,10,41,,,,1.39,0.79,1.15*11
$GNGSA,A,3,84,83,70,71,85,80,,,,,,,1.39,0.79,1.15*1F
$GPGSV,5,1,17,02,00,330,23,04,05,223,21,08,21,306,32,10,13,020,33*77
$GPGSV,5,2,17,16,24,221,27,18,30,108,43,23,01,058,22,26,28,191,19*7B
$GPGSV,5,3,17,27,54,281,42,28,59,117,35,31,50,171,41,32,38,006,43*79
$GPGSV,5,4,17,36,52,277,39,40,84,353,43,41,58,082,39,49,32,274,*7B
$GPGSV,5,5,17,50,10,089,*4A
$GLGSV,3,1,10,70,31,324,23,71,31,268,35,72,03,227,,73,19,174,*66
$GLGSV,3,2,10,74,03,215,,80,14,119,29,83,42,131,30,84,60,028,24*67
$GLGSV,3,3,10,85,17,346,37,,,,38*51
$GNGLL,0419.88546,S,05539.76783,E,124455.00,A,D*60
$GNRMC,124456.00,A,0419.88546,S,05539.76783,E,0.035,,260525,,,D*7A
$GNVTG,,T,,M,0.035,N,0.064,K,D*3C
$GNGGA,124456.00,0419.88546,S,05539.76783,E,2,12,0.79,32.4,M,-47.6,M,,0000*40
$GNGSA,A,3,28,27,31,32,18,26,08,10,41,,,,1.39,0.79,1.15*11
$GNGSA,A,3,84,83,70,71,85,80,,,,,,,1.39,0.79,1.15*1F
$GPGSV,5,1,17,02,00,330,,04,05,223,,08,21,306,30,10,13,020,33*77
$GPGSV,5,2,17,16,24,221,25,18,30,108,44,23,01,058,21,26,28,191,19*7D
$GPGSV,5,3,17,27,54,281,42,28,59,117,34,31,50,171,40,32,38,006,41*7B
$GPGSV,5,4,17,36,52,277,40,40,84,353,43,41,58,082,37,49,32,274,*7B
$GPGSV,5,5,17,50,10,089,*4A
$GLGSV,3,1,10,70,31,324,21,71,31,268,36,72,03,227,,73,19,174,*67
$GLGSV,3,2,10,74,03,215,,80,14,119,30,83,42,131,30,84,61,028,24*6E
$GLGSV,3,3,10,85,17,346,36,,,,39*51
$GNGLL,0419.88546,S,05539.76783,E,124456.00,A,D*63
$GNRMC,124457.00,A,0419.88545,S,05539.76784,E,0.022,,260525,,,D*79
$GNVTG,,T,,M,0.022,N,0.041,K,D*3D
$GNGGA,124457.00,0419.88545,S,05539.76784,E,2,12,0.81,32.5,M,-47.6,M,,0000*43
$GNGSA,A,3,28,27,31,32,18,26,08,10,41,,,,1.49,0.81,1.25*12
$GNGSA,A,3,84,83,70,71,85,80,,,,,,,1.49,0.81,1.25*1C
$GPGSV,5,1,17,02,00,330,,04,05,223,,08,21,306,29,10,13,020,32*7E
$GPGSV,5,2,17,16,24,221,24,18,30,108,44,23,01,058,,26,28,191,18*7E
$GPGSV,5,3,17,27,54,281,42,28,59,117,35,31,50,171,38,32,38,006,43*77
$GPGSV,5,4,17,36,52,277,40,40,84,353,43,41,58,082,35,49,32,274,*79
$GPGSV,5,5,17,50,10,089,*4A
$GLGSV,3,1,10,70,31,324,22,71,31,268,31,72,03,227,,73,19,174,*63
$GLGSV,3,2,10,74,03,215,,80,14,119,29,83,42,131,29,84,61,028,23*69
$GLGSV,3,3,10,85,18,346,37,,,,39*5F
$GNGLL,0419.88545,S,05539.76784,E,124457.00,A,D*66
$GNRMC,124458.00,A,0419.88544,S,05539.76785,E,0.056,,260525,,,D*75
$GNVTG,,T,,M,0.056,N,0.103,K,D*39
$GNGGA,124458.00,0419.88544,S,05539.76785,E,2,12,0.81,32.5,M,-47.6,M,,0000*4C
$GNGSA,A,3,28,27,31,32,18,26,08,10,41,,,,1.49,0.81,1.25*12
$GNGSA,A,3,84,83,70,71,85,80,,,,,,,1.49,0.81,1.25*1C
$GPGSV,5,1,17,02,00,330,,04,05,223,21,08,21,306,27,10,13,020,36*77
$GPGSV,5,2,17,16,24,221,,18,30,108,44,23,01,058,,26,28,191,18*78
$GPGSV,5,3,17,27,54,281,44,28,59,117,36,31,50,171,36,32,38,006,38*70
$GPGSV,5,4,17,36,52,277,42,40,84,353,42,41,58,082,34,49,32,274,*7B
$GPGSV,5,5,17,50,10,089,*4A
$GLGSV,3,1,10,70,31,324,20,71,31,268,34,72,03,227,,73,19,174,*64
$GLGSV,3,2,10,74,03,215,,80,14,119,30,83,42,131,27,84,61,028,21*6D
$GLGSV,3,3,10,85,18,346,32,,,,34*57
$GNGLL,0419.88544,S,05539.76785,E,124458.00,A,D*69
$GNRMC,124501.00,A,0419.88546,S,05539.76783,E,0.163,,260525,,,D*7B
$GNVTG,,T,,M,0.163,N,0.302,K,D*3D
$GNGGA,124501.00,0419.88546,S,05539.76783,E,2,12,0.81,32.4,M,-47.6,M,,0000*44
$GNGSA,A,3,28,27,31,32,18,08,10,41,,,,,1.49,0.81,1.25*16
$GNGSA,A,3,84,83,70,71,85,80,,,,,,,1.49,0.81,1.25*1C
$GPGSV,5,1,17,02,00,330,,04,05,223,07,08,21,306,16,10,13,020,30*77
$GPGSV,5,2,17,16,24,221,18,18,30,108,40,23,01,058,,26,28,191,08*74
$GPGSV,5,3,17,27,54,281,38,28,59,117,31,31,50,171,29,32,38,006,34*7E
$GPGSV,5,4,17,36,52,277,36,40,84,353,38,41,58,082,29,49,32,274,*79
$GPGSV,5,5,17,50,10,089,*4A
$GLGSV,3,1,10,70,31,324,18,71,31,268,30,72,03,227,,73,19,174,*6B
$GLGSV,3,2,10,74,03,215,,80,14,119,34,83,42,131,21,84,61,028,09*65
$GLGSV,3,3,10,85,18,346,34,,,,37*52
$GNGLL,0419.88546,S,05539.76783,E,124501.00,A,D*60
$GNRMC,124502.00,A,0419.88546,S,05539.76783,E,0.056,,260525,,,D*7F
$GNVTG,,T,,M,0.056,N,0.104,K,D*3E
$GNGGA,124502.00,0419.88546,S,05539.76783,E,2,12,0.82,32.4,M,-47.6,M,,0000*44
$GNGSA,A,3,28,27,31,32,18,26,08,10,41,,,,1.53,0.82,1.29*16
$GNGSA,A,3,84,83,70,71,85,80,,,,,,,1.53,0.82,1.29*18
$GPGSV,5,1,17,02,01,330,,04,05,223,07,08,21,306,20,10,13,020,32*71
$GPGSV,5,2,17,16,24,221,18,18,30,108,39,23,01,058,,26,28,191,08*7A
$GPGSV,5,3,17,27,54,281,39,28,59,117,31,31,50,171,32,32,38,006,35*74
$GPGSV,5,4,17,36,52,277,37,40,84,353,39,41,58,082,29,49,32,274,*79
$GPGSV,5,5,17,50,10,089,*4A
$GLGSV,3,1,10,70,31,324,20,71,31,268,30,72,03,227,,73,19,174,*60
$GLGSV,3,2,10,74,03,215,,80,14,119,32,83,42,131,24,84,61,028,09*66
$GLGSV,3,3,10,85,18,346,34,,,,37*52
$GNGLL,0419.88546,S,05539.76783,E,124502.00,A,D*63
$GNRMC,124503.00,A,0419.88548,S,05539.76783,E,0.043,,260525,,,D*74
$GNVTG,,T,,M,0.043,N,0.079,K,D*31
$GNGGA,124503.00,0419.88548,S,05539.76783,E,2,12,0.79,32.3,M,-47.6,M,,0000*48
$GNGSA,A,3,28,27,31,32,18,08,10,41,,,,,1.39,0.79,1.15*15
$GNGSA,A,3,84,83,70,71,85,80,,,,,,,1.39,0.79,1.15*1F
$GPGSV,5,1,17,02,01,330,,04,05,223,07,08,21,306,21,10,13,020,28*7B
$GPGSV,5,2,17,16,24,221,,18,30,108,41,23,01,058,,26,28,191,06*72
$GPGSV,5,3,17,27,54,281,39,28,59,117,29,31,50,171,35,32,38,006,35*7A
$GPGSV,5,4,17,36,52,277,37,40,84,353,40,41,58,082,29,49,32,274,*77
$GPGSV,5,5,17,50,10,089,*4A
$GLGSV,3,1,10,70,31,324,20,71,31,268,31,72,03,227,,73,19,174,*61
$GLGSV,3,2,10,74,03,215,,80,14,119,37,83,42,131,26,84,61,028,09*61
$GLGSV,3,3,10,85,18,346,34,,,,37*52
$GNGLL,0419.88548,S,05539.76783,E,124503.00,A,D*6C
$GNRMC,124504.00,A,0419.88548,S,05539.76783,E,0.029,,260525,,,D*7F
$GNVTG,,T,,M,0.029,N,0.054,K,D*32
$GNGGA,124504.00,0419.88548,S,05539.76783,E,2,12,0.79,32.3,M,-47.6,M,,0000*4F
$GNGSA,A,3,28,27,31,32,18,08,10,41,,,,,1.39,0.79,1.15*15
$GNGSA,A,3,84,83,70,71,85,80,,,,,,,1.39,0.79,1.15*1F
$GPGSV,5,1,17,02,01,330,,04,05,224,07,08,21,306,24,10,13,020,29*78
$GPGSV,5,2,17,16,24,221,20,18,30,108,42,23,01,058,,26,28,191,05*70
$GPGSV,5,3,17,27,54,281,42,28,59,117,29,31,50,171,35,32,38,006,35*76
$GPGSV,5,4,17,36,52,277,38,40,84,353,41,41,58,082,29,49,32,274,*79
$GPGSV,5,5,17,50,10,089,*4A
$GLGSV,3,1,10,70,31,324,19,71,31,268,31,72,03,227,,73,19,174,*6B
$GLGSV,3,2,10,74,03,215,,80,14,119,34,83,42,131,19,84,61,028,09*6E
$GLGSV,3,3,10,85,18,346,34,,,,34*51
$GNGLL,0419.88548,S,05539.76783,E,124504.00,A,D*6B
$GNRMC,124505.00,A,0419.88549,S,05539.76784,E,0.043,,260525,,,D*74
$GNVTG,,T,,M,0.043,N,0.080,K,D*37
$GNGGA,124505.00,0419.88549,S,05539.76784,E,2,12,0.81,32.2,M,-47.6,M,,0000*4E
$GNGSA,A,3,28,27,31,32,18,08,10,41,,,,,1.49,0.81,1.25*16
$GNGSA,A,3,84,83,70,71,85,80,,,,,,,1.49,0.81,1.25*1C
$GPGSV,5,1,17,02,01,330,,04,05,224,08,08,21,306,21,10,13,020,30*7A
$GPGSV,5,2,17,16,24,221,17,18,30,108,42,23,01,058,,26,28,191,05*74
$GPGSV,5,3,17,27,54,281,43,28,59,117,30,31,50,171,35,32,38,006,34*7E
$GPGSV,5,4,17,36,52,277,40,40,84,353,41,41,58,082,28,49,32,274,*77
$GPGSV,5,5,17,50,10,089,*4A
$GLGSV,3,1,10,70,31,324,16,71,31,268,32,72,03,227,,73,19,174,*67
$GLGSV,3,2,10,74,03,215,,80,14,119,35,83,42,131,19,84,61,028,12*65
$GLGSV,3,3,10,85,18,346,33,,,,32*50
$GNGLL,0419.88549,S,05539.76784,E,124505.00,A,D*6C
$GNRMC,124506.00,A,0419.88551,S,05539.76783,E,0.009,,260525,,,D*77
$GNVTG,,T,,M,0.009,N,0.017,K,D*37
$GNGGA,124506.00,0419.88551,S,05539.76783,E,2,12,0.82,32.1,M,-47.6,M,,0000*43
$GNGSA,A,3,28,27,31,32,18,08,10,,,,,,1.49,0.82,1.25*10
$GNGSA,A,3,84,83,71,85,80,,,,,,,,1.49,0.82,1.25*18
$GPGSV,5,1,17,02,01,330,,04,05,224,08,08,21,306,17,10,13,020,30*7F
$GPGSV,5,2,17,16,24,221,,18,30,108,42,23,01,058,,26,28,191,05*72
$GPGSV,5,3,17,27,54,281,43,28,59,117,27,31,50,171,34,32,38,006,30*7D
$GPGSV,5,4,17,36,52,277,40,40,84,353,42,41,58,082,,49,32,274,*7E
$GPGSV,5,5,17,50,10,089,*4A
$GLGSV,3,1,10,70,31,324,10,71,31,268,33,72,03,227,,73,19,174,*60
$GLGSV,3,2,10,74,03,215,,80,14,119,37,83,42,131,20,84,61,028,12*6D
$GLGSV,3,3,10,85,18,346,32,,,,32*51
$GNGLL,0419.88551,S,05539.76783,E,124506.00,A,D*61
$GNRMC,124508.00,A,0419.88542,S,05539.76787,E,0.042,,260525,,,D*70
$GNVTG,,T,,M,0.042,N,0.078,K,D*31
$GNGGA,124508.00,0419.88542,S,05539.76787,E,2,12,0.71,32.2,M,-47.6,M,,0000*44
$GNGSA,A,3,28,27,31,32,18,26,08,10,,,,,1.40,0.71,1.21*15
$GNGSA,A,3,84,83,70,71,85,80,,,,,,,1.40,0.71,1.21*1E
$GPGSV,5,1,17,02,01,330,,04,05,224,08,08,21,305,25,10,13,020,27*7B
$GPGSV,5,2,17,16,24,221,,18,30,108,41,23,01,058,,26,28,191,15*70
$GPGSV,5,3,17,27,54,281,41,28,59,117,29,31,50,171,33,32,38,006,39*7F
$GPGSV,5,4,17,36,52,277,37,40,84,353,38,41,58,082,,49,32,274,*73
$GPGSV,5,5,17,50,10,089,*4A
$GLGSV,3,1,10,70,31,324,13,71,31,268,31,72,03,227,,73,19,174,*61
$GLGSV,3,2,10,74,03,215,,80,14,119,34,83,42,131,29,84,61,028,18*6D
$GLGSV,3,3,10,85,18,346,36,,,,36*51
$GNGLL,0419.88542,S,05539.76787,E,124508.00,A,D*69
$GNRMC,124509.00,A,0419.88539,S,05539.76787,E,0.086,,260525,,,D*75
$GNVTG,,T,,M,0.086,N,0.159,K,D*3B
$GNGGA,124509.00,0419.88539,S,05539.76787,E,2,12,0.71,32.2,M,-47.6,M,,0000*49
$GNGSA,A,3,28,27,31,32,18,26,08,10,41,,,,1.40,0.71,1.21*10
$GNGSA,A,3,84,83,70,71,85,80,,,,,,,1.40,0.71,1.21*1E
$GPGSV,5,1,17,02,01,330,20,04,05,224,08,08,21,305,23,10,13,020,27*7F
$GPGSV,5,2,17,16,24,221,,18,30,108,41,23,01,058,,26,28,191,15*70
$GPGSV,5,3,17,27,54,281,40,28,59,117,31,31,50,171,34,32,38,006,39*70
$GPGSV,5,4,17,36,52,277,37,40,84,353,39,41,58,082,34,49,32,274,*75
$GPGSV,5,5,17,50,10,089,*4A
$GLGSV,3,1,10,70,31,324,13,71,31,268,31,72,03,227,,73,19,174,*61
$GLGSV,3,2,10,74,03,215,,80,14,119,35,83,42,131,30,84,61,028,18*64
$GLGSV,3,3,10,85,18,346,35,,,,36*52
$GNGLL,0419.88539,S,05539.76787,E,124509.00,A,D*64
$GNRMC,124510.00,A,0419.88538,S,05539.76787,E,0.096,,260525,,,D*7D
$GNVTG,,T,,M,0.096,N,0.179,K,D*38
$GNGGA,124510.00,0419.88538,S,05539.76787,E,2,12,0.71,32.3,M,-47.6,M,,0000*41
$GNGSA,A,3,28,27,31,32,18,26,08,10,41,,,,1.40,0.71,1.21*10
$GNGSA,A,3,84,83,70,71,85,80,,,,,,,1.40,0.71,1.21*1E
$GPGSV,5,1,17,02,01,330,19,04,05,224,08,08,21,305,21,10,13,020,28*78
$GPGSV,5,2,17,16,24,221,,18,30,108,41,23,01,058,,26,28,191,15*70
$GPGSV,5,3,17,27,54,281,41,28,59,117,32,31,50,171,33,32,38,006,38*74
$GPGSV,5,4,17,36,52,277,37,40,84,353,39,41,58,082,34,49,32,274,*75
$GPGSV,5,5,17,50,10,089,*4A
$GLGSV,3,1,10,70,31,324,13,71,31,268,32,72,03,227,,73,19,174,*62
$GLGSV,3,2,10,74,03,215,,80,14,119,35,83,42,131,31,84,61,028,18*65
$GLGSV,3,3,10,85,18,346,35,,,,36*52
$GNGLL,0419.88538,S,05539.76787,E,124510.00,A,D*6D
$GNRMC,124511.00,A,0419.88534,S,05539.76787,E,0.020,,260525,,,D*7D
$GNVTG,,T,,M,0.020,N,0.036,K,D*3F
$GNGGA,124511.00,0419.88534,S,05539.76787,E,2,12,0.79,32.3,M,-47.6,M,,0000*44
$GNGSA,A,3,28,27,31,32,18,08,10,41,,,,,1.39,0.79,1.15*15
$GNGSA,A,3,84,83,70,71,85,80,,,,,,,1.39,0.79,1.15*1F
$GPGSV,5,1,17,02,01,330,18,04,05,224,,08,21,305,19,10,13,020,30*73
$GPGSV,5,2,17,16,24,221,,18,30,108,42,23,01,058,,26,28,191,15*73
$GPGSV,5,3,17,27,54,281,42,28,59,117,33,31,50,171,34,32,38,006,39*70
$GPGSV,5,4,17,36,52,277,39,40,84,353,41,41,58,082,34,49,32,274,*74
$GPGSV,5,5,17,50,10,089,*4A
$GLGSV,3,1,10,70,31,324,15,71,31,268,33,72,03,227,,73,19,174,*65
$GLGSV,3,2,10,74,03,215,,80,14,119,36,83,42,131,31,84,61,028,12*6C
$GLGSV,3,3,10,85,18,346,35,,,,37*53
$GNGLL,0419.88534,S,05539.76787,E,124511.00,A,D*60
$GNRMC,124513.00,A,0419.88535,S,05539.76787,E,0.018,,260525,,,D*75
$GNVTG,,T,,M,0.018,N,0.033,K,D*31
$GNGGA,124513.00,0419.88535,S,05539.76787,E,2,12,0.79,32.4,M,-47.6,M,,0000*40
$GNGSA,A,3,28,27,31,32,18,08,10,41,,,,,1.39,0.79,1.15*15
$GNGSA,A,3,84,83,70,71,85,80,,,,,,,1.39,0.79,1.15*1F
$GPGSV,5,1,17,02,01,330,,04,05,224,,08,21,305,23,10,13,020,30*73
$GPGSV,5,2,17,16,24,221,,18,30,108,42,23,01,058,,26,28,191,15*73
$GPGSV,5,3,17,27,54,281,42,28,59,117,34,31,50,171,37,32,38,006,32*7F
$GPGSV,5,4,17,36,52,277,41,40,84,353,41,41,58,082,32,49,32,274,*7D
$GPGSV,5,5,17,50,10,089,*4A
$GLGSV,3,1,10,70,31,324,12,71,31,268,33,72,03,227,,73,19,174,*62
$GLGSV,3,2,10,74,03,215,,80,14,119,35,83,42,131,29,84,61,028,21*66
$GLGSV,3,3,10,85,18,346,31,,,,37*57
$GNGLL,0419.88535,S,05539.76787,E,124513.00,A,D*63
$GNRMC,124515.00,A,0419.88540,S,05539.76780,E,0.011,,260525,,,D*7F
$GNVTG,,T,,M,0.011,N,0.021,K,D*3B
$GNGGA,124515.00,0419.88540,S,05539.76780,E,2,12,0.69,32.3,M,-47.6,M,,0000*45
$GNGSA,A,3,28,27,31,32,18,26,08,10,41,,,,1.32,0.69,1.12*1C
$GNGSA,A,3,84,83,70,71,85,80,,,,,,,1.32,0.69,1.12*12
$GPGSV,5,1,17,02,01,330,,04,05,224,,08,21,305,24,10,13,020,32*76
$GPGSV,5,2,17,16,24,221,,18,30,108,41,23,01,058,,26,28,191,15*70
$GPGSV,5,3,17,27,54,281,42,28,59,117,34,31,50,171,37,32,38,006,33*7E
$GPGSV,5,4,17,36,52,277,40,40,84,353,41,41,58,082,34,49,32,274,*7A
$GPGSV,5,5,17,50,10,089,*4A
$GLGSV,3,1,10,70,31,324,12,71,31,268,33,72,03,227,,73,19,174,*62
$GLGSV,3,2,10,74,03,215,,80,14,119,35,83,42,131,28,84,61,028,23*65
$GLGSV,3,3,10,85,18,346,31,,,,37*57
$GNGLL,0419.88540,S,05539.76780,E,124515.00,A,D*60
$GNRMC,124523.00,A,0419.88559,S,05539.76753,E,0.008,,260525,,,D*74
$GNVTG,,T,,M,0.008,N,0.015,K,D*34
$GNGGA,124523.00,0419.88559,S,05539.76753,E,2,12,0.79,32.0,M,-47.6,M,,0000*44
$GNGSA,A,3,28,27,31,32,18,08,10,41,,,,,1.39,0.79,1.15*15
$GNGSA,A,3,84,83,70,71,85,80,,,,,,,1.39,0.79,1.15*1F
$GNRMC,124525.00,A,0419.88561,S,05539.76751,E,0.044,,260525,,,D*73
$GNVTG,,T,,M,0.044,N,0.082,K,D*32
$GNGGA,124525.00,0419.88561,S,05539.76751,E,2,12,0.79,31.9,M,-47.6,M,,0000*41
$GNGSA,A,3,28,27,31,32,18,26,08,10,41,,,,1.39,0.79,1.15*11
$GNGSA,A,3,84,83,70,71,85,80,,,,,,,1.39,0.79,1.15*1F
$GPGSV,5,1,17,02,01,330,,04,05,224,,08,21,305,22,10,13,020,34*76
$GPGSV,5,2,17,16,24,221,24,18,30,109,43,23,01,058,,26,28,190,18*79
$GPGSV,5,3,17,27,54,281,42,28,59,117,36,31,50,171,35,32,38,006,39*74
$GPGSV,5,4,17,36,52,277,39,40,84,353,42,41,58,082,38,49,32,274,*7B
$GPGSV,5,5,17,50,10,089,*4A
$GLGSV,3,1,10,70,31,324,19,71,31,268,34,72,03,227,,73,19,174,*6E
$GLGSV,3,2,10,74,03,215,,80,14,119,34,83,42,131,32,84,61,028,22*6E
$GLGSV,3,3,10,85,18,346,32,,,,37*54
$GNRMC,124526.00,A,0419.88562,S,05539.76749,E,0.046,,260525,,,D*78
$GNVTG,,T,,M,0.046,N,0.086,K,D*34
$GNGGA,124526.00,0419.88562,S,05539.76749,E,2,12,0.79,31.8,M,-47.6,M,,0000*49
$GNGSA,A,3,28,27,31,32,18,26,08,10,41,,,,1.39,0.79,1.15*11
$GNGSA,A,3,84,83,70,71,85,80,,,,,,,1.39,0.79,1.15*1F
$GPGSV,5,1,17,02,01,330,,04,05,224,,08,21,305,23,10,13,020,32*71
$GPGSV,5,2,17,16,24,221,21,18,30,109,41,23,01,058,,26,28,190,17*71
$GPGSV,5,3,17,27,54,280,41,28,59,117,35,31,50,171,35,32,38,006,37*7B
$GPGSV,5,4,17,36,52,277,37,40,84,353,40,41,58,082,35,49,32,274,*7A
$GPGSV,5,5,17,50,10,089,*4A
$GLGSV,3,1,10,70,31,324,20,71,31,268,34,72,03,227,,73,19,174,*64
$GLGSV,3,2,10,74,03,215,,80,14,119,35,83,42,131,31,84,61,028,22*6C
$GLGSV,3,3,10,85,18,346,32,,,,38*5B
$GNGLL,0419.88562,S,05539.76749,E,124526.00,A,D*65
$GPGSV,5,4,17,36,52,277,38,40,84,353,42,41,58,082,35,49,32,274,*77
$GPGSV,5,5,17,50,10,089,*4A
$GLGSV,3,1,10,70,31,324,20,71,31,268,34,72,03,227,,73,19,174,*64
$GLGSV,3,2,10,74,03,215,,80,14,119,34,83,42,131,30,84,61,028,23*6D
$GLGSV,3,3,10,85,18,346,31,,,,38*58
$GNGLL,0419.88563,S,05539.76748,E,124527.00,A,D*64
$GNRMC,124531.00,A,0419.88571,S,05539.76742,E,0.026,,260525,,,D*71
$GNVTG,,T,,M,0.026,N,0.048,K,D*30
$GNGGA,124531.00,0419.88571,S,05539.76742,E,2,12,0.79,31.4,M,-47.6,M,,0000*4A
$GNGSA,A,3,28,27,31,32,18,26,08,10,41,,,,1.39,0.79,1.15*11
$GNGSA,A,3,84,83,70,71,85,80,,,,,,,1.39,0.79,1.15*1F
$GPGSV,5,1,17,02,01,330,,04,05,224,,08,21,305,25,10,13,020,31*74
$GPGSV,5,2,17,16,24,221,,18,30,109,42,23,01,058,,26,28,190,15*73
$GPGSV,5,3,17,27,54,280,41,28,59,116,34,31,50,171,36,32,38,006,36*79
$GPGSV,5,4,17,36,52,277,39,40,84,353,41,41,58,082,36,49,32,274,*76
$GPGSV,5,5,17,50,10,089,*4A
$GLGSV,3,1,10,70,31,324,20,71,31,268,34,72,03,227,,73,19,174,*64
$GLGSV,3,2,10,74,03,215,,80,14,119,35,83,42,131,31,84,61,028,24*6A
$GLGSV,3,3,10,85,18,346,31,,,,38*58
$GNRMC,124534.00,A,0419.88580,S,05539.76734,E,0.023,,260525,,,D*7E
$GNVTG,,T,,M,0.023,N,0.043,K,D*3E
$GNGGA,124534.00,0419.88580,S,05539.76734,E,2,12,0.79,31.2,M,-47.6,M,,0000*46
$GNGSA,A,3,28,27,31,32,18,26,08,10,41,,,,1.39,0.79,1.15*11
$GNGSA,A,3,84,83,70,71,85,80,,,,,,,1.39,0.79,1.15*1F
$GPGSV,5,1,17,02,01,330,,04,05,224,,08,21,305,23,10,13,020,31*72
$GPGSV,5,2,17,16,24,221,,18,30,109,42,23,01,058,,26,28,190,11*77
$GPGSV,5,3,17,27,54,280,40,28,59,116,35,31,50,171,37,32,38,006,36*78
$GPGSV,5,4,17,36,52,277,39,40,84,353,40,41,58,082,36,49,32,274,*77
$GPGSV,5,5,17,50,10,089,*4A
$GLGSV,3,1,10,70,31,324,20,71,31,268,33,72,03,227,,73,19,174,*63
$GLGSV,3,2,10,74,03,215,,80,14,119,36,83,42,131,30,84,61,028,23*6F
$GLGSV,3,3,10,85,18,346,32,,,,38*5B
$GNGLL,0419.88580,S,05539.76734,E,124534.00,A,D*60
$GNRMC,124535.00,A,0419.88581,S,05539.76732,E,0.006,,260525,,,D*7F
$GNVTG,,T,,M,0.006,N,0.012,K,D*3D
$GNGGA,124535.00,0419.88581,S,05539.76732,E,2,12,0.79,31.1,M,-47.6,M,,0000*43
$GNGSA,A,3,28,27,31,32,18,26,08,10,41,,,,1.39,0.79,1.15*11
$GNGSA,A,3,84,83,70,71,85,80,,,,,,,1.39,0.79,1.15*1F
$GPGSV,5,1,17,02,01,330,,04,05,224,,08,21,305,21,10,13,020,31*70
$GPGSV,5,2,17,16,24,221,,18,30,109,42,23,01,058,,26,28,190,12*74
$GPGSV,5,3,17,27,54,280,40,28,59,116,34,31,50,171,37,32,38,006,36*79
$GPGSV,5,4,17,36,52,277,39,40,84,353,41,41,58,082,36,49,32,274,*76
$GPGSV,5,5,17,50,10,089,*4A
$GLGSV,3,1,10,70,31,324,19,71,31,268,33,72,03,227,,73,19,174,*69
$GLGSV,3,2,10,74,03,215,,80,14,119,36,83,42,131,30,84,61,028,23*6F
$GLGSV,3,3,10,85,18,346,32,,,,38*5B
$GNGLL,0419.88581,S,05539.76732,E,124535.00,A,D*66
$GNRMC,124536.00,A,0419.88582,S,05539.76730,E,0.015,,260525,,,D*7F
$GNVTG,,T,,M,0.015,N,0.029,K,D*37
$GNGGA,124536.00,0419.88582,S,05539.76730,E,2,12,0.79,31.0,M,-47.6,M,,0000*40
$GNGSA,A,3,28,27,31,32,18,26,08,10,41,,,,1.39,0.79,1.15*11
$GNGSA,A,3,84,83,70,71,85,80,,,,,,,1.39,0.79,1.15*1F
$GPGSV,5,1,17,02,01,330,,04,05,224,,08,21,305,21,10,13,020,31*70
$GPGSV,5,2,17,16,24,221,,18,30,109,42,23,01,058,,26,28,190,12*74
$GPGSV,5,3,17,27,54,280,41,28,59,116,35,31,50,171,37,32,38,006,37*78
$GPGSV,5,4,17,36,52,277,39,40,84,353,41,41,58,082,36,49,32,274,*76
$GPGSV,5,5,17,50,10,089,*4A
$GLGSV,3,1,10,70,31,324,20,71,31,268,33,72,03,227,,73,19,174,*63
$GLGSV,3,2,10,74,03,215,,80,14,119,36,83,42,131,30,84,61,028,22*6E
$GLGSV,3,3,10,85,18,346,32,,,,38*5B
$GNGLL,0419.88582,S,05539.76730,E,124536.00,A,D*64
$GNRMC,124543.00,A,0419.88578,S,05539.76739,E,0.027,,260525,,,D*70
$GNVTG,,T,,M,0.027,N,0.050,K,D*38
$GNGGA,124543.00,0419.88578,S,05539.76739,E,2,12,0.86,31.2,M,-47.6,M,,0000*4C
$GNGSA,A,3,28,27,31,32,18,08,10,41,,,,,1.57,0.86,1.32*18
$GNGSA,A,3,84,83,70,71,85,80,,,,,,,1.57,0.86,1.32*12
$GPGSV,5,1,17,02,01,330,,04,05,224,,08,21,305,22,10,13,020,32*70
$GPGSV,5,2,17,16,24,221,,18,30,109,42,23,01,058,,26,28,190,09*7E
$GPGSV,5,3,17,27,54,280,40,28,59,116,28,31,50,171,35,32,38,006,39*79
$GPGSV,5,4,17,36,52,277,39,40,84,353,41,41,58,082,31,49,32,274,*71
$GPGSV,5,5,17,50,10,089,*4A
$GLGSV,3,1,10,70,31,324,24,71,31,268,35,72,03,227,,73,19,174,*61
$GLGSV,3,2,10,74,03,215,,80,14,119,34,83,42,131,20,84,61,028,24*6B
$GLGSV,3,3,10,85,18,346,38,,,,38*51
$GNGLL,0419.88578,S,05539.76739,E,124543.00,A,D*6A
$GNRMC,124544.00,A,0419.88578,S,05539.76740,E,0.033,,260525,,,D*7C
$GNVTG,,T,,M,0.033,N,0.060,K,D*3E
$GNGGA,124544.00,0419.88578,S,05539.76740,E,2,12,0.83,31.3,M,-47.6,M,,0000*41
$GNGSA,A,3,28,27,31,32,18,26,08,10,41,,,,1.46,0.83,1.20*1A
$GNGSA,A,3,84,83,70,71,85,80,,,,,,,1.46,0.83,1.20*14
$GPGSV,5,1,17,02,01,330,,04,05,224,,08,21,305,22,10,13,020,33*71
$GPGSV,5,2,17,16,24,221,,18,30,109,42,23,01,058,,26,28,190,08*7F
$GPGSV,5,3,17,27,54,280,40,28,59,116,29,31,50,171,34,32,38,006,39*79
$GPGSV,5,4,17,36,52,277,39,40,84,353,42,41,58,082,31,49,32,274,*72
$GPGSV,5,5,17,50,10,089,*4A
$GLGSV,3,1,10,70,31,324,25,71,31,268,35,72,03,227,,73,19,174,*60
$GLGSV,3,2,10,74,03,215,,80,14,119,35,83,42,131,20,84,61,028,23*6D
$GLGSV,3,3,10,85,18,346,37,,,,38*5E
$GNGLL,0419.88578,S,05539.76740,E,124544.00,A,D*63
$GNRMC,124545.00,A,0419.88577,S,05539.76741,E,0.043,,260525,,,D*74
$GNVTG,,T,,M,0.043,N,0.080,K,D*37
$GNGGA,124545.00,0419.88577,S,05539.76741,E,2,12,0.72,31.3,M,-47.6,M,,0000*40
$GNGSA,A,3,28,27,31,32,18,26,08,10,41,,,,1.36,0.72,1.16*16
$GNGSA,A,3,84,83,70,71,85,80,,,,,,,1.36,0.72,1.16*18
$GPGSV,5,1,17,02,01,330,,04,05,224,,08,21,305,20,10,13,020,33*73
$GPGSV,5,2,17,16,24,221,,18,30,109,41,23,01,058,,26,28,190,08*7C
$GPGSV,5,3,17,27,54,280,40,28,59,116,29,31,50,171,34,32,38,006,38*78
$GPGSV,5,4,17,36,52,277,39,40,84,353,42,41,58,082,31,49,32,274,*72
$GPGSV,5,5,17,50,10,089,*4A
$GLGSV,3,1,10,70,31,324,25,71,31,268,36,72,03,227,,73,19,174,*63
$GLGSV,3,2,10,74,03,215,,80,14,119,35,83,42,131,21,84,61,028,23*6C
$GLGSV,3,3,10,85,18,346,37,,,,38*5E
$GNGLL,0419.88577,S,05539.76741,E,124545.00,A,D*6C
$GNRMC,124546.00,A,0419.88578,S,05539.76741,E,0.048,,260525,,,D*73
$GNVTG,,T,,M,0.048,N,0.089,K,D*35
$GNGGA,124546.00,0419.88578,S,05539.76741,E,2,12,0.75,31.3,M,-47.6,M,,0000*4B
$GNGSA,A,3,28,27,31,32,18,26,08,10,41,,,,1.46,0.75,1.26*15
$GNGSA,A,3,84,83,70,71,85,80,,,,,,,1.46,0.75,1.26*1B
$GPGSV,5,1,17,02,01,330,,04,05,224,,08,21,305,18,10,13,020,32*79
$GPGSV,5,2,17,16,24,221,,18,30,109,41,23,01,058,,26,28,190,08*7C
$GPGSV,5,3,17,27,54,280,40,28,59,116,30,31,50,171,34,32,38,006,38*70
$GPGSV,5,4,17,36,52,277,39,40,84,353,41,41,58,082,29,49,32,274,*78
$GPGSV,5,5,17,50,10,089,*4A
$GLGSV,3,1,10,70,31,324,25,71,31,268,36,72,03,227,,73,19,174,*63
$GLGSV,3,2,10,74,03,215,,80,14,119,35,83,42,131,21,84,61,028,23*6C
$GLGSV,3,3,10,85,18,346,37,,,,38*5E
$GNGLL,0419.88578,S,05539.76741,E,124546.00,A,D*60
$GNRMC,124547.00,A,0419.88576,S,05539.76744,E,0.082,,260525,,,D*7F
$GNVTG,,T,,M,0.082,N,0.151,K,D*37
$GNGGA,124547.00,0419.88576,S,05539.76744,E,2,12,0.86,31.6,M,-47.6,M,,0000*48
$GNGSA,A,3,28,27,31,32,18,26,08,10,41,,,,1.57,0.86,1.32*1C
$GNGSA,A,3,84,83,70,71,85,80,,,,,,,1.57,0.86,1.32*12
$GPGSV,5,1,17,02,01,330,,04,05,224,,08,21,305,16,10,13,020,31*74
$GPGSV,5,2,17,16,24,221,,18,30,109,42,23,01,058,,26,28,190,08*7F
$GPGSV,5,3,17,27,54,280,40,28,59,116,30,31,50,171,34,32,38,006,40*7F
$GPGSV,5,4,17,36,52,277,39,40,84,353,41,41,58,082,29,49,32,274,*78
$GPGSV,5,5,17,50,10,089,*4A
$GLGSV,3,1,10,70,31,324,25,71,31,268,36,72,03,227,,73,19,174,*63
$GLGSV,3,2,10,74,03,215,,80,14,119,35,83,42,131,21,84,61,028,23*6C
$GLGSV,3,3,10,85,18,346,37,,,,38*5E
$GNGLL,0419.88576,S,05539.76744,E,124547.00,A,D*6A
$GNRMC,124548.00,A,0419.88576,S,05539.76747,E,0.015,,260525,,,D*7D
$GNVTG,,T,,M,0.015,N,0.027,K,D*39
$GNGGA,124548.00,0419.88576,S,05539.76747,E,2,12,0.75,31.8,M,-47.6,M,,0000*46
$GNGSA,A,3,28,27,31,32,18,26,08,10,41,,,,1.46,0.75,1.26*15
$GNGSA,A,3,84,83,70,71,85,80,,,,,,,1.46,0.75,1.26*1B
$GPGSV,5,1,17,02,01,330,,04,05,224,,08,21,305,20,10,13,020,31*71
$GPGSV,5,2,17,16,24,221,,18,30,109,42,23,01,058,,26,28,190,08*7F
$GPGSV,5,3,17,27,54,280,39,28,59,116,29,31,50,171,34,32,38,006,39*77
$GPGSV,5,4,17,36,52,277,39,40,84,353,41,41,58,082,28,49,32,274,*79
$GPGSV,5,5,17,50,10,089,*4A
$GLGSV,3,1,10,70,31,324,24,71,31,268,36,72,03,227,,73,19,174,*62
$GLGSV,3,2,10,74,03,215,,80,14,119,34,83,42,131,20,84,61,028,22*6D
$GLGSV,3,3,10,85,18,346,37,,,,38*5E
$GNGLL,0419.88576,S,05539.76747,E,124548.00,A,D*66
$GNRMC,124551.00,A,0419.88574,S,05539.76747,E,0.007,,260525,,,D*74
$GNVTG,,T,,M,0.007,N,0.013,K,D*3D
$GNGGA,124551.00,0419.88574,S,05539.76747,E,2,12,0.72,32.1,M,-47.6,M,,0000*41
$GNGSA,A,3,28,27,31,32,18,26,08,10,41,,,,1.37,0.72,1.16*17
$GNGSA,A,3,84,83,70,71,85,80,,,,,,,1.37,0.72,1.16*19
$GPGSV,5,1,17,02,01,330,21,04,05,224,,08,21,305,19,10,13,020,32*7B
$GPGSV,5,2,17,16,24,221,,18,30,109,42,23,01,058,,26,28,190,15*73
$GPGSV,5,3,17,27,54,280,41,28,59,116,31,31,50,171,36,32,38,006,39*73
$GPGSV,5,4,17,36,52,277,40,40,84,353,43,41,58,082,33,49,32,274,*7F
$GPGSV,5,5,17,50,10,089,*4A
$GLGSV,3,1,10,70,31,324,24,71,31,268,35,72,03,227,,73,19,174,*61
$GLGSV,3,2,10,74,03,215,,80,14,119,36,83,42,131,26,84,61,028,23*68
$GLGSV,3,3,10,85,18,346,34,,,,38*5D
$GNGLL,0419.88574,S,05539.76747,E,124551.00,A,D*6C
$GNRMC,124552.00,A,0419.88576,S,05539.76746,E,0.015,,260525,,,D*77
$GNVTG,,T,,M,0.015,N,0.028,K,D*36
$GNGGA,124552.00,0419.88576,S,05539.76746,E,2,12,0.72,32.1,M,-47.6,M,,0000*41
$GNGSA,A,3,28,27,31,32,18,26,08,10,41,,,,1.37,0.72,1.16*17
$GNGSA,A,3,84,83,70,71,85,80,,,,,,,1.37,0.72,1.16*19
$GPGSV,5,1,17,02,01,330,19,04,05,224,,08,21,305,30,10,13,020,34*7D
$GPGSV,5,2,17,16,24,221,,18,30,109,40,23,01,058,,26,28,190,15*71
$GPGSV,5,3,17,27,54,280,40,28,59,116,33,31,50,171,32,32,38,006,37*7A
$GPGSV,5,4,17,36,52,277,39,40,84,353,42,41,58,082,33,49,32,274,*70
$GPGSV,5,5,17,50,10,089,*4A
$GLGSV,3,1,10,70,31,324,23,71,31,268,35,72,03,227,,73,19,174,*66
$GLGSV,3,2,10,74,03,215,,80,14,119,36,83,42,131,27,84,61,028,23*69
$GLGSV,3,3,10,85,18,346,36,,,,39*5E
$GNGLL,0419.88576,S,05539.76746,E,124552.00,A,D*6C
$GNRMC,124556.00,A,0419.88574,S,05539.76746,E,0.029,,260525,,,D*7E
$GNVTG,,T,,M,0.029,N,0.054,K,D*32
$GNGGA,124556.00,0419.88574,S,05539.76746,E,2,12,0.83,32.1,M,-47.6,M,,0000*49
$GNGSA,A,3,28,27,31,32,18,08,10,41,,,,,1.46,0.83,1.20*1E
$GNGSA,A,3,84,83,70,71,85,80,,,,,,,1.46,0.83,1.20*14
$GPGSV,5,1,17,02,01,330,14,04,05,224,,08,21,305,26,10,13,020,32*71
$GPGSV,5,2,17,16,24,221,,18,30,109,41,23,01,058,,26,28,190,14*71
$GPGSV,5,3,17,27,54,280,41,28,59,116,31,31,50,171,34,32,38,006,39*71
$GPGSV,5,4,17,36,52,277,40,40,84,353,40,41,58,082,30,49,32,274,*7F
$GPGSV,5,5,17,50,10,089,*4A
$GLGSV,3,1,10,70,31,324,23,71,31,268,36,72,03,227,,73,19,174,*65
$GLGSV,3,2,10,74,03,215,,80,14,119,36,83,42,131,26,84,61,028,24*6F
$GLGSV,3,3,10,85,18,346,37,,,,38*5E
$GNGLL,0419.88574,S,05539.76746,E,124556.00,A,D*6A
$GNRMC,124557.00,A,0419.88573,S,05539.76749,E,0.069,,260525,,,D*73
$GNVTG,,T,,M,0.069,N,0.127,K,D*33
$GNGGA,124557.00,0419.88573,S,05539.76749,E,2,12,0.83,32.2,M,-47.6,M,,0000*43
$GNGSA,A,3,28,27,31,32,18,08,10,41,,,,,1.46,0.83,1.20*1E
$GNGSA,A,3,84,83,70,71,85,80,,,,,,,1.46,0.83,1.20*14
$GPGSV,5,1,17,02,01,330,13,04,05,224,,08,21,305,25,10,13,020,31*76
$GPGSV,5,2,17,16,24,221,,18,30,109,40,23,01,058,,26,28,190,12*76
$GPGSV,5,3,17,27,54,280,39,28,59,116,31,31,50,171,33,32,38,006,38*78
$GPGSV,5,4,17,36,52,277,38,40,84,353,40,41,58,082,29,49,32,274,*78
$GPGSV,5,5,17,50,10,089,*4A
$GLGSV,3,1,10,70,31,325,22,71,31,268,36,72,03,227,,73,19,174,*65
$GLGSV,3,2,10,74,03,215,,80,14,119,36,83,42,131,26,84,61,028,24*6F
$GLGSV,3,3,10,85,18,346,37,,,,38*5E
$GNGLL,0419.88573,S,05539.76749,E,124557.00,A,D*63
$GPGSV,5,2,17,16,24,221,23,18,30,109,40,23,01,058,,26,28,190,09*7D
$GPGSV,5,3,17,27,54,280,40,28,59,116,32,31,50,171,33,32,38,006,39*74
$GPGSV,5,4,17,36,52,277,38,40,84,353,40,41,58,082,29,49,32,274,*78
$GPGSV,5,5,17,50,10,089,*4A
$GLGSV,3,1,10,70,31,325,22,71,31,269,36,72,03,227,,73,19,174,*64
$GLGSV,3,2,10,74,03,215,,80,14,119,36,83,42,131,25,84,61,028,25*6D
$GLGSV,3,3,10,85,18,346,37,,,,37*51
$GNGLL,0419.88572,S,05539.76751,E,124558.00,A,D*64
$GNRMC,124559.00,A,0419.88572,S,05539.76754,E,0.011,,260525,,,D*7F
$GNVTG,,T,,M,0.011,N,0.021,K,D*3B
$GNGGA,124559.00,0419.88572,S,05539.76754,E,2,12,0.86,32.3,M,-47.6,M,,0000*44
$GNGSA,A,3,28,27,31,32,18,26,08,10,41,,,,1.57,0.86,1.32*1C
$GNGSA,A,3,84,83,70,71,85,80,,,,,,,1.57,0.86,1.32*12
$GPGSV,5,1,17,02,01,330,10,04,05,224,,08,21,305,24,10,13,020,30*75
$GPGSV,5,2,17,16,24,221,22,18,30,109,40,23,01,058,,26,28,190,11*75
$GPGSV,5,3,17,27,54,280,40,28,59,116,32,31,50,171,34,32,38,006,38*72
$GPGSV,5,4,17,36,52,277,39,40,84,353,41,41,58,082,30,49,32,274,*70
$GPGSV,5,5,17,50,10,089,*4A
$GLGSV,3,1,10,70,31,325,22,71,31,269,36,72,03,227,,73,19,174,*64
$GLGSV,3,2,10,74,03,215,,80,14,119,36,83,42,131,25,84,61,028,26*6E
$GLGSV,3,3,10,85,18,346,37,,,,37*51
$GNGLL,0419.88572,S,05539.76754,E,124559.00,A,D*60
$GNRMC,124600.00,A,0419.88570,S,05539.76756,E,0.025,,260525,,,D*77
$GNVTG,,T,,M,0.025,N,0.047,K,D*3C
$GNGGA,124600.00,0419.88570,S,05539.76756,E,2,12,0.86,32.3,M,-47.6,M,,0000*4B
$GNGSA,A,3,28,27,31,32,18,26,08,10,41,,,,1.57,0.86,1.32*1C
$GNGSA,A,3,84,83,70,71,85,80,,,,,,,1.57,0.86,1.32*12
$GPGSV,5,1,17,02,01,330,10,04,05,224,,08,21,305,22,10,13,020,30*73
$GPGSV,5,2,17,16,24,221,20,18,30,109,40,23,01,058,,26,28,190,12*74
$GPGSV,5,3,17,27,54,280,40,28,59,116,33,31,50,171,34,32,38,006,38*73
$GPGSV,5,4,17,36,52,277,38,40,84,353,41,41,58,082,30,49,32,274,*71
$GPGSV,5,5,17,50,10,089,*4A
$GLGSV,3,1,10,70,31,325,23,71,31,269,36,72,03,227,,73,20,173,*68
$GLGSV,3,2,10,74,03,215,,80,14,119,35,83,42,131,26,84,61,028,26*6E
$GLGSV,3,3,10,85,18,346,37,,,,37*51
$GNGLL,0419.88570,S,05539.76756,E,124600.00,A,D*6F
$GNRMC,124601.00,A,0419.88568,S,05539.76756,E,0.012,,260525,,,D*7B
$GNVTG,,T,,M,0.012,N,0.022,K,D*3B
$GNGGA,124601.00,0419.88568,S,05539.76756,E,2,12,0.86,32.3,M,-47.6,M,,0000*43
$GNGSA,A,3,28,27,31,32,18,08,10,41,,,,,1.57,0.86,1.32*18
$GNGSA,A,3,84,83,70,71,85,80,,,,,,,1.57,0.86,1.32*12
$GPGSV,5,1,17,02,01,330,09,04,05,224,,08,21,305,22,10,13,020,31*7A
$GPGSV,5,2,17,16,24,221,,18,30,109,42,23,01,058,,26,28,190,09*7E
$GPGSV,5,3,17,27,54,280,41,28,59,116,34,31,50,171,34,32,38,006,40*7A
$GPGSV,5,4,17,36,52,277,40,40,84,353,42,41,58,082,30,49,32,274,*7D
$GPGSV,5,5,17,50,10,089,*4A
$GLGSV,3,1,10,70,31,325,22,71,31,269,35,72,03,227,,73,20,173,19*62
$GLGSV,3,2,10,74,03,214,,80,14,119,35,83,42,131,25,84,61,028,26*6C
$GLGSV,3,3,10,85,18,346,37,,,,37*51
$GNGLL,0419.88568,S,05539.76756,E,124601.00,A,D*67
$GNRMC,124602.00,A,0419.88568,S,05539.76755,E,0.032,,260525,,,D*79
$GNVTG,,T,,M,0.032,N,0.060,K,D*3F
$GNGGA,124602.00,0419.88568,S,05539.76755,E,2,12,0.86,32.2,M,-47.6,M,,0000*42
$GNGSA,A,3,28,27,31,32,18,08,10,41,,,,,1.57,0.86,1.32*18
$GNGSA,A,3,84,83,70,71,85,80,,,,,,,1.57,0.86,1.32*12
$GPGSV,5,1,17,02,01,330,08,04,05,224,,08,21,305,21,10,13,020,30*79
$GPGSV,5,2,17,16,24,221,,18,30,109,42,23,01,058,,26,28,190,09*7E
$GPGSV,5,3,17,27,54,280,40,28,59,116,36,31,50,171,34,32,38,006,39*77
$GPGSV,5,4,17,36,52,277,40,40,84,353,42,41,58,082,34,49,32,274,*79
$GPGSV,5,5,17,50,10,089,*4A
$GLGSV,3,1,10,70,31,325,21,71,31,269,35,72,03,227,,73,20,173,16*6E
$GLGSV,3,2,10,74,03,214,,80,14,119,35,83,42,131,25,84,61,028,25*6F
$GLGSV,3,3,10,85,18,346,37,,,,38*5E
$GNGLL,0419.88568,S,05539.76755,E,124602.00,A,D*67
$GNRMC,124603.00,A,0419.88565,S,05539.76757,E,0.028,,260525,,,D*7C
$GNVTG,,T,,M,0.028,N,0.053,K,D*34
$GNGGA,124603.00,0419.88565,S,05539.76757,E,2,12,0.83,32.2,M,-47.6,M,,0000*49
$GNGSA,A,3,28,27,31,32,18,08,10,41,,,,,1.46,0.83,1.20*1E
$GNGSA,A,3,84,83,70,71,85,80,,,,,,,1.46,0.83,1.20*14
$GPGSV,5,1,17,02,01,330,11,04,05,224,,08,21,305,18,10,13,020,28*72
$GPGSV,5,2,17,16,24,221,,18,30,109,40,23,01,058,,26,28,190,08*7D
$GPGSV,5,3,17,27,54,280,37,28,59,116,33,31,50,171,31,32,38,006,39*77
$GPGSV,5,4,17,36,52,277,40,40,84,353,42,41,58,082,33,49,32,274,*7E
$GPGSV,5,5,17,50,10,089,*4A
$GLGSV,3,1,10,70,31,325,22,71,31,269,35,72,03,227,,73,20,173,14*6F
$GLGSV,3,2,10,74,03,214,,80,14,119,35,83,42,131,25,84,61,028,25*6F
$GLGSV,3,3,10,85,18,346,37,,,,38*5E
$GNGLL,0419.88565,S,05539.76757,E,124603.00,A,D*69
$GLGSV,3,3,10,85,18,346,37,,,,38*5E
$GNGLL,0419.88564,S,05539.76758,E,124604.00,A,D*60
$GNRMC,124606.00,A,0419.88564,S,05539.76759,E,0.044,,260525,,,D*7C
$GNVTG,,T,,M,0.044,N,0.081,K,D*31
$GNGGA,124606.00,0419.88564,S,05539.76759,E,2,12,0.86,32.4,M,-47.6,M,,0000*40
$GNGSA,A,3,28,27,31,32,18,08,10,41,,,,,1.57,0.86,1.32*18
$GNGSA,A,3,84,83,70,71,85,80,,,,,,,1.57,0.86,1.32*12
$GPGSV,5,1,17,02,01,330,,04,05,224,,08,21,305,17,10,13,020,26*73
$GPGSV,5,2,17,16,24,221,,18,30,109,37,23,01,058,,26,28,190,08*7D
$GPGSV,5,3,17,27,54,280,35,28,59,116,29,31,50,171,31,32,38,006,36*71
$GPGSV,5,4,17,36,52,277,33,40,84,353,38,41,58,082,30,49,32,274,*74
$GPGSV,5,5,17,50,10,089,*4A
$GLGSV,3,1,10,70,31,325,21,71,31,269,35,72,03,227,,73,20,173,09*60
$GLGSV,3,2,10,74,03,214,,80,14,119,35,83,42,131,23,84,61,028,24*68
$GLGSV,3,3,10,85,18,346,37,,,,37*51
$GNGLL,0419.88564,S,05539.76759,E,124606.00,A,D*63
$GNRMC,124608.00,A,0419.88567,S,05539.76757,E,0.028,,260525,,,D*75
$GNVTG,,T,,M,0.028,N,0.052,K,D*35
$GNGGA,124608.00,0419.88567,S,05539.76757,E,2,12,0.83,32.5,M,-47.6,M,,0000*47
$GNGSA,A,3,28,27,31,32,18,08,10,41,,,,,1.46,0.83,1.20*1E
$GNGSA,A,3,84,83,70,71,85,80,,,,,,,1.46,0.83,1.20*14
$GPGSV,5,1,17,02,01,330,,04,05,224,,08,21,305,20,10,13,020,28*79
$GPGSV,5,2,17,16,24,221,,18,30,109,41,23,01,058,,26,28,190,09*7D
$GPGSV,5,3,17,27,54,280,39,28,59,116,31,31,50,171,28,32,38,006,37*7D
$GPGSV,5,4,17,36,52,277,38,40,84,353,41,41,58,082,33,49,32,274,*72
$GPGSV,5,5,17,50,10,089,*4A
$GLGSV,3,1,10,70,31,325,20,71,31,269,35,72,03,227,,73,20,173,08*60
$GLGSV,3,2,10,74,03,214,,80,14,118,35,83,42,131,21,84,61,028,24*6B
$GLGSV,3,3,10,85,18,346,37,,,,39*5F
$GNGLL,0419.88567,S,05539.76757,E,124608.00,A,D*60
$GNRMC,124609.00,A,0419.88570,S,05539.76756,E,0.014,,260525,,,D*7C
$GNVTG,,T,,M,0.014,N,0.025,K,D*3A
$GNGGA,124609.00,0419.88570,S,05539.76756,E,2,12,0.79,32.7,M,-47.6,M,,0000*46
$GNGSA,A,3,28,27,31,32,18,26,08,10,41,,,,1.39,0.79,1.15*11
$GNGSA,A,3,84,83,70,71,85,80,,,,,,,1.39,0.79,1.15*1F
$GPGSV,5,1,17,02,01,330,,04,05,224,,08,21,305,24,10,13,020,28*7D
$GPGSV,5,2,17,16,24,221,,18,30,109,42,23,01,058,,26,28,190,11*77
$GPGSV,5,3,17,27,54,280,40,28,59,116,32,31,50,171,34,32,38,006,39*73
$GNRMC,124611.00,A,0419.88576,S,05539.76752,E,0.073,,260525,,,D*76
$GNVTG,,T,,M,0.073,N,0.135,K,D*3B
$GNGGA,124611.00,0419.88576,S,05539.76752,E,2,12,0.81,32.8,M,-47.6,M,,0000*45
$GNGSA,A,3,28,27,31,32,18,08,10,41,,,,,1.49,0.81,1.25*16
$GNGSA,A,3,84,83,70,71,85,80,,,,,,,1.49,0.81,1.25*1C
$GPGSV,5,1,17,02,01,330,,04,05,224,,08,21,305,24,10,13,020,30*74
$GPGSV,5,2,17,16,24,221,,18,30,109,42,23,01,058,,26,28,190,*77
$GPGSV,5,3,17,27,54,280,40,28,59,116,32,31,50,171,34,32,38,006,40*7D
$GPGSV,5,4,17,36,52,277,40,40,84,353,42,41,58,082,30,49,32,274,*7D
$GPGSV,5,5,17,50,10,089,*4A
$GLGSV,3,1,10,70,31,325,22,71,31,269,36,72,03,227,,73,20,173,08*61
$GLGSV,3,2,10,74,03,214,,80,14,118,36,83,41,132,17,84,61,029,24*6C
$GLGSV,3,3,10,85,18,346,37,,,,38*5E
$GNGLL,0419.88576,S,05539.76752,E,124611.00,A,D*6D
$GNRMC,124613.00,A,0419.88581,S,05539.76750,E,0.040,,260525,,,D*7E
$GNVTG,,T,,M,0.040,N,0.074,K,D*3F
$GNGGA,124613.00,0419.88581,S,05539.76750,E,2,12,0.81,33.0,M,-47.6,M,,0000*44
$GNGSA,A,3,28,27,31,32,18,08,10,41,,,,,1.49,0.81,1.25*16
$GNGSA,A,3,84,83,70,71,85,80,,,,,,,1.49,0.81,1.25*1C
$GPGSV,5,1,17,02,01,330,,04,05,224,,08,21,305,21,10,13,020,30*71
$GPGSV,5,2,17,16,24,221,,18,30,109,42,23,01,058,,26,28,190,*77
$GPGSV,5,3,17,27,54,280,41,28,59,116,32,31,50,171,34,32,38,006,41*7D
$GPGSV,5,4,17,36,52,277,39,40,84,353,42,41,58,082,28,49,32,274,*7A
$GPGSV,5,5,17,50,10,089,*4A
$GLGSV,3,1,10,70,31,325,22,71,31,269,35,72,03,227,,73,20,173,08*62
$GLGSV,3,2,10,74,03,214,,80,14,118,36,83,41,132,18,84,61,029,23*64
$GLGSV,3,3,10,85,19,346,37,,,,38*5F
$GNGLL,0419.88581,S,05539.76750,E,124613.00,A,D*65
$GNRMC,124614.00,A,0419.88582,S,05539.76748,E,0.041,,260525,,,D*72
$GNVTG,,T,,M,0.041,N,0.076,K,D*3C
$GNGGA,124614.00,0419.88582,S,05539.76748,E,2,12,0.81,33.0,M,-47.6,M,,0000*49
$GNGSA,A,3,28,27,31,32,18,08,10,,,,,,1.49,0.81,1.25*13
$GNGSA,A,3,84,83,70,71,85,80,,,,,,,1.49,0.81,1.25*1C
$GPGSV,5,1,17,02,01,330,21,04,05,224,,08,21,305,22,10,13,020,29*79
$GPGSV,5,2,17,16,24,221,,18,30,109,42,23,01,058,,26,28,190,*77
$GPGSV,5,3,17,27,54,280,40,28,59,116,33,31,50,171,36,32,38,006,41*7F
$GPGSV,5,4,17,36,52,277,39,40,84,353,42,41,58,082,,49,32,274,*70
$GPGSV,5,5,17,50,10,089,*4A
$GLGSV,3,1,10,70,31,325,22,71,31,269,36,72,03,227,,73,20,173,08*61
$GLGSV,3,2,10,74,03,214,,80,14,118,36,83,41,132,17,84,61,029,22*6A
$GLGSV,3,3,10,85,19,346,37,,,,38*5F
$GNGLL,0419.88582,S,05539.76748,E,124614.00,A,D*68
$GNRMC,124615.00,A,0419.88584,S,05539.76748,E,0.029,,260525,,,D*7B
$GNVTG,,T,,M,0.029,N,0.054,K,D*32
$GNGGA,124615.00,0419.88584,S,05539.76748,E,2,12,0.81,33.0,M,-47.6,M,,0000*4E
$GNGSA,A,3,28,27,31,32,18,08,10,,,,,,1.49,0.81,1.25*13
$GNGSA,A,3,84,83,70,71,85,80,,,,,,,1.49,0.81,1.25*1C
$GPGSV,5,1,17,02,01,330,21,04,05,224,,08,21,305,26,10,13,020,29*7D
$GPGSV,5,2,17,16,24,221,,18,30,109,41,23,01,058,,26,28,190,*74
$GPGSV,5,3,17,27,54,280,40,28,59,116,32,31,50,171,36,32,38,006,40*7F
$GPGSV,5,4,17,36,52,277,39,40,84,353,42,41,58,082,,49,32,274,*70
$GPGSV,5,5,17,50,10,089,*4A
$GLGSV,3,1,10,70,31,325,22,71,31,269,36,72,03,227,,73,20,173,08*61
$GLGSV,3,2,10,74,03,214,,80,14,118,37,83,41,132,15,84,61,029,22*69
$GLGSV,3,3,10,85,19,346,37,,,,38*5F
$GNGLL,0419.88584,S,05539.76748,E,124615.00,A,D*6F
$GNRMC,124616.00,A,0419.88583,S,05539.76748,E,0.041,,260525,,,D*71
$GNVTG,,T,,M,0.041,N,0.076,K,D*3C
$GNGGA,124616.00,0419.88583,S,05539.76748,E,2,12,0.81,33.1,M,-47.6,M,,0000*4B
$GNGSA,A,3,28,27,31,32,18,08,10,,,,,,1.49,0.81,1.25*13
$GNGSA,A,3,84,83,70,71,85,80,,,,,,,1.49,0.81,1.25*1C
$GPGSV,5,1,17,02,01,330,22,04,05,224,,08,21,305,27,10,13,020,28*7E
$GPGSV,5,2,17,16,24,221,,18,30,109,41,23,01,058,,26,28,190,19*7C
$GPGSV,5,3,17,27,54,280,40,28,59,116,32,31,50,171,36,32,38,006,40*7F
$GPGSV,5,4,17,36,52,277,38,40,84,353,41,41,58,082,28,49,32,274,*78
$GPGSV,5,5,17,50,10,089,*4A
$GLGSV,3,1,10,70,31,325,22,71,31,269,36,72,03,227,,73,20,173,08*61
$GNRMC,124617.00,A,0419.88582,S,05539.76751,E,0.049,,260525,,,D*71
$GNVTG,,T,,M,0.049,N,0.091,K,D*3D
$GNGGA,124617.00,0419.88582,S,05539.76751,E,2,12,0.82,33.2,M,-47.6,M,,0000*43
$GNGSA,A,3,28,27,31,32,18,08,10,41,,,,,1.50,0.82,1.26*1E
$GNGSA,A,3,84,70,71,85,80,,,,,,,,1.50,0.82,1.26*1F
$GPGSV,5,1,17,02,01,331,22,04,05,224,,08,21,305,26,10,13,020,27*71
$GPGSV,5,2,17,16,24,221,,18,30,109,40,23,01,058,,26,28,190,17*73
$GPGSV,5,3,17,27,54,280,40,28,59,116,32,31,50,171,35,32,38,006,40*7C
$GPGSV,5,4,17,36,52,277,38,40,84,353,40,41,58,082,28,49,32,274,*79
$GPGSV,5,5,17,50,10,089,*4A
$GLGSV,3,1,10,70,31,325,22,71,31,269,37,72,03,227,,73,20,173,08*60
$GLGSV,3,2,10,74,03,214,,80,14,118,37,83,41,132,10,84,61,029,22*6C
$GLGSV,3,3,10,85,19,346,37,,,,38*5F
$GNGLL,0419.88582,S,05539.76751,E,124617.00,A,D*63
$GNRMC,124619.00,A,0419.88583,S,05539.76751,E,0.029,,260525,,,D*78
$GNVTG,,T,,M,0.029,N,0.054,K,D*32
$GNGGA,124619.00,0419.88583,S,05539.76751,E,2,12,0.81,33.3,M,-47.6,M,,0000*4E
$GNGSA,A,3,28,27,31,32,18,08,10,41,,,,,1.49,0.81,1.25*16
$GNGSA,A,3,84,83,70,71,85,80,,,,,,,1.49,0.81,1.25*1C
$GPGSV,5,1,17,02,01,331,,04,05,224,,08,21,305,26,10,13,020,26*70
$GPGSV,5,2,17,16,24,221,,18,30,109,41,23,01,058,,26,28,190,14*71
$GPGSV,5,3,17,27,54,280,40,28,59,116,31,31,50,171,34,32,38,006,39*70
$GPGSV,5,4,17,36,52,277,38,40,84,353,41,41,58,082,28,49,32,274,*78
$GPGSV,5,5,17,50,10,089,*4A
$GLGSV,3,1,10,70,31,325,22,71,31,269,36,72,03,227,,73,20,173,*69
$GLGSV,3,2,10,74,03,214,,80,14,118,36,83,41,132,10,84,61,029,22*6D
$GLGSV,3,3,10,85,19,346,37,,,,38*5F
$GNGLL,0419.88583,S,05539.76751,E,124619.00,A,D*6C
$GNRMC,124624.00,A,0419.88582,S,05539.76742,E,0.008,,260525,,,D*76
$GNVTG,,T,,M,0.008,N,0.015,K,D*34
$GNGGA,124624.00,0419.88582,S,05539.76742,E,2,12,0.81,33.1,M,-47.6,M,,0000*41
$GNGSA,A,3,28,27,31,32,18,26,08,10,,,,,1.49,0.81,1.25*17
$GNGSA,A,3,84,83,70,71,85,80,,,,,,,1.49,0.81,1.25*1C
$GPGSV,5,1,17,02,01,331,22,04,05,224,,08,21,305,32,10,13,020,26*75
$GPGSV,5,2,17,16,24,221,,18,30,109,43,23,01,058,,26,28,190,17*70
$GPGSV,5,3,17,27,54,280,43,28,59,116,35,31,50,171,40,32,38,006,43*79
$GPGSV,5,4,17,36,52,277,43,40,84,353,44,41,58,082,,49,32,274,*7B
$GPGSV,5,5,17,50,10,089,*4A
$GLGSV,3,1,10,70,31,325,23,71,31,269,35,72,03,227,,73,20,173,*6B
$GLGSV,3,2,10,74,03,214,,80,14,118,35,83,41,132,19,84,61,029,24*61
$GLGSV,3,3,10,85,19,346,34,,,,37*53
$GNGLL,0419.88582,S,05539.76742,E,124624.00,A,D*61
$GNRMC,124627.00,A,0419.88580,S,05539.76740,E,0.045,,260525,,,D*7C
$GNVTG,,T,,M,0.045,N,0.083,K,D*32
$GNGGA,124627.00,0419.88580,S,05539.76740,E,2,12,0.81,33.0,M,-47.6,M,,0000*43
$GNGSA,A,3,28,27,31,32,18,08,10,,,,,,1.49,0.81,1.25*13
$GNGSA,A,3,84,83,70,71,85,80,,,,,,,1.49,0.81,1.25*1C
$GPGSV,5,1,17,02,01,331,,04,05,224,,08,21,305,28,10,13,021,28*71
$GPGSV,5,2,17,16,24,221,,18,30,109,40,23,01,058,,26,28,190,09*7C
$GPGSV,5,3,17,27,54,280,39,28,59,116,33,31,50,171,37,32,38,006,39*7F
$GPGSV,5,4,17,36,52,277,39,40,84,353,41,41,58,082,,49,32,274,*73
$GPGSV,5,5,17,50,10,089,*4A
$GLGSV,3,1,10,70,31,325,20,71,31,269,36,72,03,227,,73,20,173,*6B
$GLGSV,3,2,10,74,03,214,,80,14,118,37,83,41,132,15,84,61,029,22*69
$GLGSV,3,3,10,85,19,346,35,,,,37*52
$GNGLL,0419.88580,S,05539.76740,E,124627.00,A,D*62
$GNRMC,124628.00,A,0419.88579,S,05539.76739,E,0.048,,260525,,,D*76
$GNVTG,,T,,M,0.048,N,0.090,K,D*3D
$GNGGA,124628.00,0419.88579,S,05539.76739,E,2,12,0.81,32.9,M,-47.6,M,,0000*4C
$GNGSA,A,3,28,27,31,32,18,08,10,,,,,,1.49,0.81,1.25*13
$GNGSA,A,3,84,83,70,71,85,80,,,,,,,1.49,0.81,1.25*1C
$GPGSV,5,1,17,02,01,331,,04,05,224,,08,21,305,28,10,13,021,27*7E
$GPGSV,5,2,17,16,24,221,,18,30,109,40,23,01,058,,26,28,190,08*7D
$GPGSV,5,3,17,27,54,280,39,28,59,116,34,31,50,171,36,32,38,006,39*79
$GPGSV,5,4,17,36,52,277,39,40,84,353,41,41,58,082,,49,32,274,*73
$GPGSV,5,5,17,50,10,089,*4A
$GLGSV,3,1,10,70,31,325,20,71,31,269,35,72,03,227,,73,20,173,*68
$GLGSV,3,2,10,74,03,214,,80,14,118,37,83,41,132,18,84,61,029,23*65
$GLGSV,3,3,10,85,19,346,35,,,,38*5D
$GNGLL,0419.88579,S,05539.76739,E,124628.00,A,D*65
$GNRMC,124629.00,A,0419.88579,S,05539.76738,E,0.035,,260525,,,D*7C
$GNVTG,,T,,M,0.035,N,0.064,K,D*3C
$GNGGA,124629.00,0419.88579,S,05539.76738,E,2,12,0.81,32.9,M,-47.6,M,,0000*4C
$GNGSA,A,3,28,27,31,32,18,26,08,10,,,,,1.49,0.81,1.25*17
$GNGSA,A,3,84,83,70,71,85,80,,,,,,,1.49,0.81,1.25*1C
$GPGSV,5,1,17,02,01,331,,04,05,224,,08,21,305,28,10,13,021,27*7E
$GPGSV,5,2,17,16,24,221,,18,30,109,39,23,01,058,,26,28,190,12*78
$GPGSV,5,3,17,27,54,280,40,28,59,116,35,31,50,171,33,32,38,006,40*7D
$GPGSV,5,4,17,36,52,277,39,40,84,353,41,41,58,082,,49,32,274,*73
$GPGSV,5,5,17,50,10,089,*4A
$GLGSV,3,1,10,70,31,325,21,71,31,269,35,72,03,227,,73,20,173,*69
$GLGSV,3,2,10,74,03,214,,80,14,118,37,83,41,132,22,84,61,029,23*6C
$GLGSV,3,3,10,85,19,346,35,,,,40*52
