$GNRMC,122858.00,A,0419.90277,S,05539.73125,E,0.577,,260525,,,A*7B
$GNVTG,,T,,M,0.577,N,1.068,K,A*37
$GNGGA,122858.00,0419.90277,S,05539.73125,E,1,12,0.67,51.3,M,-47.6,M,,*49
$GNGSA,A,3,28,32,27,31,18,26,16,10,08,41,,,1.43,0.67,1.26*14
$GNGSA,A,3,83,84,70,71,73,85,,,,,,,1.43,0.67,1.26*11
$GPGSV,5,1,17,04,00,220,,08,16,311,21,10,14,013,21,16,24,229,20*7F
$GPGSV,5,2,17,18,32,100,28,23,01,051,,26,28,198,21,27,51,294,30*7F
$GPGSV,5,3,17,28,56,131,25,29,03,147,,31,44,177,26,32,45,003,27*7F
$GPGSV,5,4,17,36,52,277,27,40,84,353,31,41,58,082,28,49,32,274,*71
$GPGSV,5,5,17,50,10,089,*4A
$GLGSV,3,1,11,69,04,013,15,70,37,316,18,71,31,258,28,73,17,182,10*6D
$GLGSV,3,2,11,74,02,222,,80,13,128,,82,04,148,,83,46,119,22*65
$GLGSV,3,3,11,84,51,020,15,85,10,345,12,,,,26*62
$GNGLL,0419.90277,S,05539.73125,E,122858.00,A,A*61
$GNRMC,122902.00,A,0419.90272,S,05539.73139,E,0.007,,260525,,,A*7F
$GNVTG,,T,,M,0.007,N,0.012,K,A*39
$GNGGA,122902.00,0419.90272,S,05539.73139,E,1,12,0.71,51.4,M,-47.6,M,,*4F
$GNGSA,A,3,28,32,27,31,18,26,16,10,08,41,,,1.57,0.71,1.40*16
$GNGSA,A,3,83,84,70,71,73,85,,,,,,,1.57,0.71,1.40*13
$GPGSV,5,1,17,04,00,220,,08,16,311,24,10,14,013,25,16,24,229,22*7C
$GPGSV,5,2,17,18,32,100,36,23,01,051,,26,28,198,25,27,51,294,40*73
$GPGSV,5,3,17,28,56,131,36,29,03,147,,31,44,177,37,32,45,003,36*7D
$GPGSV,5,4,17,36,52,277,36,40,84,353,41,41,58,082,36,49,32,274,*79
$GPGSV,5,5,17,50,10,089,*4A
$GLGSV,3,1,12,69,04,013,17,70,37,316,25,71,31,258,34,72,00,220,*62
$GLGSV,3,2,12,73,17,181,11,74,02,222,,80,13,128,,82,04,148,*6C
$GLGSV,3,3,12,83,46,119,34,84,51,020,18,85,10,345,20,,,,34*59
$GNRMC,122903.00,A,0419.90272,S,05539.73140,E,0.049,,260525,,,A*7A
$GNVTG,,T,,M,0.049,N,0.091,K,A*38
$GNGGA,122903.00,0419.90272,S,05539.73140,E,1,12,0.67,51.4,M,-47.6,M,,*47
$GNGSA,A,3,28,32,27,31,18,26,16,10,08,41,,,1.43,0.67,1.26*14
$GNGSA,A,3,83,84,70,71,73,85,,,,,,,1.43,0.67,1.26*11
$GPGSV,5,1,17,04,00,220,,08,16,311,23,10,14,013,26,16,24,229,22*78
$GPGSV,5,2,17,18,32,100,36,23,01,051,,26,28,198,25,27,51,294,40*73
$GPGSV,5,3,17,28,56,131,36,29,03,147,,31,44,177,37,32,45,003,37*7C
$GPGSV,5,4,17,36,52,277,36,40,84,353,41,41,58,082,36,49,32,274,*79
$GPGSV,5,5,17,50,10,089,*4A
$GLGSV,3,1,12,69,04,013,10,70,37,316,25,71,31,258,33,72,00,220,*62
$GLGSV,3,2,12,73,17,181,11,74,02,222,,80,13,128,,82,04,148,*6C
$GNGLL,0419.90272,S,05539.73140,E,122903.00,A,A*68
$GNRMC,122907.00,A,0419.90273,S,05539.73143,E,0.017,,260525,,,A*77
$GNVTG,,T,,M,0.017,N,0.032,K,A*3A
$GNGGA,122907.00,0419.90273,S,05539.73143,E,1,12,0.71,51.2,M,-47.6,M,,*40
$GNGSA,A,3,28,32,27,31,18,26,16,10,08,41,,,1.57,0.71,1.40*16
$GNGSA,A,3,83,84,70,71,85,,,,,,,,1.57,0.71,1.40*17
$GPGSV,5,1,17,04,00,220,,08,16,311,27,10,14,013,25,16,24,229,22*7F
$GPGSV,5,2,17,18,32,100,36,23,01,051,,26,28,198,26,27,51,294,41*71
$GPGSV,5,3,17,28,56,131,37,29,03,147,,31,44,177,38,32,45,003,39*7C
$GPGSV,5,4,17,36,52,277,36,40,84,353,42,41,58,082,38,49,32,274,*74
$GPGSV,5,5,17,50,10,089,*4A
$GLGSV,3,1,12,69,04,013,16,70,37,316,26,71,31,258,34,72,00,220,*60
$GLGSV,3,2,12,73,17,181,11,74,02,222,,80,13,127,,82,04,148,*63
$GLGSV,3,3,12,83,46,119,33,84,51,020,17,85,10,345,16,,,,34*54
$GNGLL,0419.90273,S,05539.73143,E,122907.00,A,A*6E
$GNRMC,122908.00,A,0419.90275,S,05539.73142,E,0.055,,260525,,,A*79
$GNVTG,,T,,M,0.055,N,0.101,K,A*3D
$GNGGA,122908.00,0419.90275,S,05539.73142,E,1,12,0.71,51.3,M,-47.6,M,,*49
$GNGSA,A,3,28,32,27,31,18,26,16,10,08,41,,,1.57,0.71,1.40*16
$GNGSA,A,3,83,84,70,71,73,85,,,,,,,1.57,0.71,1.40*13
$GPGSV,5,1,17,04,00,220,,08,16,311,28,10,14,013,26,16,24,229,22*73
$GPGSV,5,2,17,18,32,100,36,23,01,051,,26,28,198,26,27,51,294,41*71
$GPGSV,5,3,17,28,56,131,37,29,03,147,,31,44,177,38,32,45,003,39*7C
$GPGSV,5,4,17,36,52,277,36,40,84,353,42,41,58,082,37,49,32,274,*7B
$GPGSV,5,5,17,50,10,089,*4A
$GLGSV,3,1,12,69,04,013,09,70,37,316,27,71,31,258,34,72,00,220,*6F
$GLGSV,3,2,12,73,17,181,11,74,02,222,,80,13,127,,82,04,148,*63
$GLGSV,3,3,12,83,46,119,33,84,51,020,18,85,10,345,19,,,,35*55
$GNGLL,0419.90275,S,05539.73142,E,122908.00,A,A*66
$GNRMC,122909.00,A,0419.90277,S,05539.73141,E,0.030,,260525,,,A*7A
$GNVTG,,T,,M,0.030,N,0.055,K,A*3E
$GNGGA,122909.00,0419.90277,S,05539.73141,E,1,12,0.67,51.5,M,-47.6,M,,*48
$GNGSA,A,3,28,32,27,31,18,26,16,10,08,41,,,1.43,0.67,1.26*14
$GNGSA,A,3,83,84,70,71,73,85,,,,,,,1.43,0.67,1.26*11
$GPGSV,5,1,17,04,00,220,,08,16,311,28,10,14,013,26,16,24,229,22*73
$GPGSV,5,2,17,18,32,100,35,23,01,051,,26,28,198,26,27,51,294,41*72
$GPGSV,5,3,17,28,56,131,37,29,03,147,,31,44,177,38,32,45,003,39*7C
$GPGSV,5,4,17,36,52,277,36,40,84,353,42,41,58,082,37,49,32,274,*7B
$GPGSV,5,5,17,50,10,089,*4A
$GLGSV,3,1,12,69,04,013,09,70,37,316,26,71,31,258,33,72,00,220,*69
$GLGSV,3,2,12,73,17,181,11,74,02,222,,80,13,127,,82,04,149,*62
$GLGSV,3,3,12,83,46,119,33,84,51,020,18,85,10,345,20,,,,34*5E
$GNGLL,0419.90277,S,05539.73141,E,122909.00,A,A*66
$GNRMC,122910.00,A,0419.90278,S,05539.73140,E,0.023,,260525,,,A*7E
$GNVTG,,T,,M,0.023,N,0.042,K,A*3A
$GNGGA,122910.00,0419.90278,S,05539.73140,E,1,12,0.67,51.5,M,-47.6,M,,*4E
$GNGSA,A,3,28,32,27,31,18,26,16,10,08,41,,,1.43,0.67,1.26*14
$GNGSA,A,3,83,84,70,71,73,85,,,,,,,1.43,0.67,1.26*11
$GPGSV,5,1,17,04,00,220,,08,16,311,28,10,14,013,26,16,24,229,22*73
$GPGSV,5,2,17,18,32,100,36,23,01,051,,26,28,198,26,27,51,294,42*72
$GPGSV,5,3,17,28,56,131,37,29,03,147,,31,44,177,38,32,45,003,39*7C
$GPGSV,5,4,17,36,52,277,38,40,84,353,43,41,58,082,39,49,32,274,*7A
$GPGSV,5,5,17,50,10,089,*4A
$GLGSV,3,1,12,69,04,013,09,70,37,316,26,71,31,258,33,72,00,220,*69
$GLGSV,3,2,12,73,17,181,11,74,02,222,,80,13,127,,82,04,149,*62
$GLGSV,3,3,12,83,46,120,32,84,51,020,18,85,10,345,19,,,,33*58
$GNGLL,0419.90278,S,05539.73140,E,122910.00,A,A*60
$GNRMC,122911.00,A,0419.90279,S,05539.73139,E,0.012,,260525,,,A*72
$GNVTG,,T,,M,0.012,N,0.022,K,A*3E
$GNGGA,122911.00,0419.90279,S,05539.73139,E,1,12,0.71,51.6,M,-47.6,M,,*44
$GNGSA,A,3,28,32,27,31,18,26,16,10,08,41,,,1.57,0.71,1.40*16
$GNGSA,A,3,83,84,70,71,73,85,,,,,,,1.57,0.71,1.40*13
$GPGSV,5,1,17,04,00,220,,08,16,311,28,10,14,013,27,16,24,229,22*72
$GPGSV,5,2,17,18,32,100,36,23,01,051,,26,28,198,26,27,51,294,41*71
$GPGSV,5,3,17,28,56,131,37,29,03,147,,31,44,177,37,32,45,003,39*73
$GPGSV,5,4,17,36,52,277,36,40,84,353,42,41,58,082,37,49,32,274,*7B
$GPGSV,5,5,17,50,10,089,*4A
$GLGSV,3,1,12,69,04,013,05,70,37,316,26,71,31,258,33,72,00,220,*65
$GLGSV,3,2,12,73,17,181,10,74,02,222,,80,13,127,,82,04,149,*63
$GLGSV,3,3,12,83,46,120,32,84,52,021,16,85,10,345,17,,,,35*5C
$GNGLL,0419.90279,S,05539.73139,E,122911.00,A,A*6E
$GNRMC,122912.00,A,0419.90280,S,05539.73139,E,0.039,,260525,,,A*7E
$GNVTG,,T,,M,0.039,N,0.072,K,A*32
$GNGGA,122912.00,0419.90280,S,05539.73139,E,1,12,0.67,51.5,M,-47.6,M,,*45
$GNGSA,A,3,28,32,27,31,18,26,16,10,08,41,,,1.43,0.67,1.26*14
$GNGSA,A,3,83,84,70,71,73,85,,,,,,,1.43,0.67,1.26*11
$GPGSV,5,1,17,04,00,220,,08,16,311,28,10,14,013,27,16,24,229,22*72
$GPGSV,5,2,17,18,32,100,37,23,01,051,,26,28,198,26,27,51,294,42*73
$GPGSV,5,3,17,28,56,131,38,29,03,147,,31,44,177,39,32,45,003,40*7C
$GPGSV,5,4,17,36,52,277,37,40,84,353,43,41,58,082,38,49,32,274,*74
$GPGSV,5,5,17,50,10,089,*4A
$GLGSV,3,1,12,69,04,013,08,70,37,316,27,71,31,258,33,72,00,220,*69
$GLGSV,3,2,12,73,17,181,10,74,02,222,,80,13,127,,82,04,149,*63
$GLGSV,3,3,12,83,46,120,32,84,52,021,14,85,11,345,17,,,,34*5E
$GNGLL,0419.90280,S,05539.73139,E,122912.00,A,A*6B
$GNRMC,122913.00,A,0419.90281,S,05539.73140,E,0.012,,260525,,,A*79
$GNVTG,,T,,M,0.012,N,0.022,K,A*3E
$GNGGA,122913.00,0419.90281,S,05539.73140,E,1,12,0.67,51.4,M,-47.6,M,,*4A
$GNGSA,A,3,28,32,27,31,18,26,16,10,08,41,,,1.43,0.67,1.26*14
$GNGSA,A,3,83,84,70,71,73,85,,,,,,,1.43,0.67,1.26*11
$GPGSV,5,1,17,04,00,220,,08,16,311,29,10,14,013,27,16,24,229,22*73
$GPGSV,5,2,17,18,32,100,35,23,01,051,,26,28,198,26,27,51,294,41*72
$GPGSV,5,3,17,28,56,131,37,29,03,147,,31,44,177,37,32,45,003,40*7D
$GPGSV,5,4,17,36,52,277,35,40,84,353,42,41,58,082,38,49,32,274,*77
$GPGSV,5,5,17,50,10,089,*4A
$GLGSV,3,1,12,69,04,013,10,70,37,316,27,71,31,258,34,72,00,220,*67
$GLGSV,3,2,12,73,17,181,11,74,02,222,,80,13,127,,82,04,149,*62
$GLGSV,3,3,12,83,46,120,31,84,52,021,14,85,11,345,17,,,,34*5D
$GNGLL,0419.90281,S,05539.73140,E,122913.00,A,A*65
$GNRMC,122914.00,A,0419.90281,S,05539.73140,E,0.021,,260525,,,A*7E
$GNVTG,,T,,M,0.021,N,0.040,K,A*3A
$GNGGA,122914.00,0419.90281,S,05539.73140,E,1,12,0.71,51.5,M,-47.6,M,,*4B
$GNGSA,A,3,28,32,27,31,18,26,16,10,08,41,,,1.57,0.71,1.40*16
$GNGSA,A,3,83,84,70,71,73,85,,,,,,,1.57,0.71,1.40*13
$GPGSV,5,1,17,04,00,220,,08,16,311,28,10,14,013,26,16,24,229,21*70
$GPGSV,5,2,17,18,32,100,36,23,01,051,,26,28,198,25,27,51,294,40*73
$GPGSV,5,3,17,28,56,131,37,29,03,147,,31,44,177,37,32,45,003,37*7D
$GPGSV,5,4,17,36,52,277,36,40,84,353,42,41,58,082,38,49,32,274,*74
$GPGSV,5,5,17,50,10,089,*4A
$GLGSV,3,1,12,69,04,013,09,70,37,316,26,71,31,258,34,72,00,220,*6E
$GLGSV,3,2,12,73,17,181,09,74,02,222,,80,13,127,,82,04,149,*6B
$GLGSV,3,3,12,83,46,120,31,84,52,021,13,85,11,345,17,,,,36*58
$GNGLL,0419.90281,S,05539.73140,E,122914.00,A,A*62
$GNRMC,122915.00,A,0419.90280,S,05539.73142,E,0.025,,260525,,,A*78
$GNVTG,,T,,M,0.025,N,0.047,K,A*39
$GNGGA,122915.00,0419.90280,S,05539.73142,E,1,12,0.67,51.5,M,-47.6,M,,*4E
$GNGSA,A,3,28,32,27,31,18,26,16,10,08,41,,,1.43,0.67,1.26*14
$GNGSA,A,3,83,84,70,71,73,85,,,,,,,1.43,0.67,1.26*11
$GPGSV,5,1,17,04,00,220,,08,16,311,28,10,14,013,25,16,24,229,20*72
$GPGSV,5,2,17,18,32,100,35,23,01,051,,26,28,198,24,27,51,294,40*71
$GPGSV,5,3,17,28,56,131,37,29,03,147,,31,44,177,36,32,45,003,37*7C
$GPGSV,5,4,17,36,52,277,37,40,84,353,42,41,58,082,38,49,32,274,*75
$GPGSV,5,5,17,50,10,089,*4A
$GLGSV,3,1,12,69,04,013,13,70,37,316,26,71,31,258,35,72,00,220,*64
$GLGSV,3,2,12,73,17,181,12,74,02,222,,80,13,127,,82,04,149,*61
$GLGSV,3,3,12,83,46,120,31,84,52,021,12,85,11,345,15,,,,36*5B
$GNGLL,0419.90280,S,05539.73142,E,122915.00,A,A*60
$GNRMC,122916.00,A,0419.90278,S,05539.73144,E,0.043,,260525,,,A*7A
$GNVTG,,T,,M,0.043,N,0.080,K,A*32
$GNGGA,122916.00,0419.90278,S,05539.73144,E,1,12,0.67,51.5,M,-47.6,M,,*4C
$GNGSA,A,3,28,32,27,31,18,26,16,10,08,41,,,1.43,0.67,1.26*14
$GNGSA,A,3,83,84,70,71,73,85,,,,,,,1.43,0.67,1.26*11
$GPGSV,5,1,17,04,00,220,,08,16,311,28,10,14,013,24,16,24,229,21*72
$GPGSV,5,2,17,18,32,100,35,23,01,051,,26,28,198,24,27,51,294,39*7F
$GPGSV,5,3,17,28,56,131,37,29,03,147,,31,44,177,34,32,45,003,34*7D
$GPGSV,5,4,17,36,52,277,34,40,84,353,41,41,58,082,37,49,32,274,*7A
$GPGSV,5,5,17,50,10,089,*4A
$GLGSV,3,1,12,69,04,013,14,70,37,316,26,71,31,258,34,72,00,220,*62
$GLGSV,3,2,12,73,17,181,13,74,02,222,,80,13,127,,82,04,149,*60
$GLGSV,3,3,12,83,46,120,31,84,52,021,11,85,11,345,15,,,,35*5B
$GNGLL,0419.90278,S,05539.73144,E,122916.00,A,A*62
$GPGSV,5,4,17,36,52,277,35,40,84,353,42,41,58,082,38,49,32,274,*77
$GPGSV,5,5,17,50,10,089,*4A
$GLGSV,3,1,12,69,04,013,11,70,37,316,26,71,31,258,33,72,00,220,*60
$GLGSV,3,2,12,73,17,181,13,74,02,222,,80,13,127,,82,04,149,*60
$GLGSV,3,3,12,83,46,120,30,84,52,021,12,85,11,345,18,,,,35*54
$GNGLL,0419.90277,S,05539.73144,E,122917.00,A,A*6C
$GNRMC,122918.00,A,0419.90275,S,05539.73145,E,0.012,,260525,,,A*7C
$GNVTG,,T,,M,0.012,N,0.022,K,A*3E
$GNGGA,122918.00,0419.90275,S,05539.73145,E,1,12,0.67,51.6,M,-47.6,M,,*4D
$GNGSA,A,3,28,32,27,31,18,26,16,10,08,41,,,1.43,0.67,1.26*14
$GNGSA,A,3,83,84,70,71,73,85,,,,,,,1.43,0.67,1.26*11
$GPGSV,5,1,17,04,00,220,,08,16,311,30,10,14,013,26,16,24,229,20*78
$GPGSV,5,2,17,18,32,100,38,23,01,051,,26,28,198,25,27,51,294,42*7F
$GPGSV,5,3,17,28,56,131,38,29,03,147,,31,44,177,36,32,45,003,36*72
$GPGSV,5,4,17,36,52,277,37,40,84,353,42,41,58,082,38,49,32,274,*75
$GPGSV,5,5,17,50,10,089,*4A
$GLGSV,3,1,12,69,04,013,12,70,37,316,26,71,31,258,34,72,00,220,*64
$GLGSV,3,2,12,73,17,181,09,74,02,222,,80,13,127,,82,04,149,*6B
$GLGSV,3,3,12,83,46,120,29,84,52,021,09,85,11,345,19,,,,34*56
$GNGLL,0419.90275,S,05539.73145,E,122918.00,A,A*60
$GNRMC,122919.00,A,0419.90275,S,05539.73146,E,0.009,,260525,,,A*74
$GNVTG,,T,,M,0.009,N,0.016,K,A*33
$GNGGA,122919.00,0419.90275,S,05539.73146,E,1,12,0.67,51.4,M,-47.6,M,,*4D
$GNGSA,A,3,28,32,27,31,18,26,16,10,08,41,,,1.43,0.67,1.26*14
$GNGSA,A,3,83,84,70,71,73,85,,,,,,,1.43,0.67,1.26*11
$GPGSV,5,1,17,04,00,220,,08,16,311,33,10,14,013,27,16,24,229,21*7B
$GPGSV,5,2,17,18,32,100,38,23,01,051,,26,28,198,24,27,51,294,41*7D
$GPGSV,5,3,17,28,56,131,38,29,03,147,,31,44,177,36,32,45,003,36*72
$GPGSV,5,4,17,36,52,277,36,40,84,353,42,41,58,082,38,49,32,274,*74
$GPGSV,5,5,17,50,10,089,*4A
$GLGSV,3,1,12,69,04,013,17,70,37,316,26,71,31,258,35,72,00,220,*60
$GLGSV,3,2,12,73,17,181,10,74,02,222,,80,13,127,,82,04,149,*63
$GLGSV,3,3,12,83,46,120,29,84,52,021,14,85,11,345,18,,,,33*5C
$GNGLL,0419.90275,S,05539.73146,E,122919.00,A,A*62
$GNRMC,122920.00,A,0419.90277,S,05539.73145,E,0.105,,260525,,,A*72
$GNVTG,,T,,M,0.105,N,0.195,K,A*34
$GNGGA,122920.00,0419.90277,S,05539.73145,E,1,12,0.67,51.4,M,-47.6,M,,*46
$GNGSA,A,3,28,32,27,31,18,26,16,10,08,41,,,1.43,0.67,1.26*14
$GNGSA,A,3,83,84,70,71,73,85,,,,,,,1.43,0.67,1.26*11
$GPGSV,5,1,17,04,00,220,,08,16,311,28,10,14,013,26,16,24,229,20*71
$GPGSV,5,2,17,18,32,100,35,23,01,051,,26,28,198,23,27,51,294,40*76
$GPGSV,5,3,17,28,56,131,38,29,03,147,,31,44,177,36,32,45,003,38*7C
$GPGSV,5,4,17,36,52,277,37,40,84,353,42,41,58,082,36,49,32,274,*7B
$GPGSV,5,5,17,50,10,089,*4A
$GLGSV,3,1,12,69,04,013,15,70,37,316,26,71,31,258,34,72,00,220,*63
$GLGSV,3,2,12,73,17,181,10,74,02,222,,80,13,127,,82,04,149,*63
$GLGSV,3,3,12,83,46,120,30,84,52,021,10,85,11,345,19,,,,33*51
$GNGLL,0419.90277,S,05539.73145,E,122920.00,A,A*69
$GPGSV,5,3,17,28,56,131,38,29,03,147,,31,44,177,39,32,45,003,39*72
$GPGSV,5,4,17,36,52,277,37,40,84,353,43,41,58,082,38,49,32,274,*74
$GPGSV,5,5,17,50,10,089,*4A
$GLGSV,3,1,12,69,04,013,15,70,37,316,26,71,31,258,34,72,00,220,*63
$GLGSV,3,2,12,73,17,181,16,74,02,222,,80,13,127,,82,04,149,*65
$GLGSV,3,3,12,83,46,120,31,84,52,021,17,85,11,345,19,,,,33*57
$GNGLL,0419.90275,S,05539.73146,E,122921.00,A,A*69
$GNRMC,122925.00,A,0419.90267,S,05539.73153,E,0.049,,260525,,,A*78
$GNVTG,,T,,M,0.049,N,0.091,K,A*38
$GNGGA,122925.00,0419.90267,S,05539.73153,E,1,12,0.67,51.5,M,-47.6,M,,*44
$GNGSA,A,3,28,32,27,31,18,26,16,10,08,41,,,1.43,0.67,1.26*14
$GNGSA,A,3,83,84,70,71,73,85,,,,,,,1.43,0.67,1.26*11
$GPGSV,5,1,17,04,00,220,,08,17,311,28,10,14,014,23,16,24,229,17*76
$GPGSV,5,1,17,04,00,220,,08,17,311,29,10,14,014,22,16,24,229,19*78
$GPGSV,5,2,17,18,32,100,34,23,01,051,,26,28,198,22,27,51,294,40*76
$GPGSV,5,3,17,28,56,131,37,29,03,147,,31,44,177,34,32,45,003,38*71
$GPGSV,5,4,17,36,52,277,36,40,84,353,41,41,58,082,35,49,32,274,*7A
$GPGSV,5,5,17,50,10,089,*4A
$GLGSV,3,1,12,69,04,013,21,70,37,316,25,71,31,258,35,72,00,220,*66
$GLGSV,3,2,12,73,17,181,16,74,02,222,,80,13,127,,82,04,149,*65
$GLGSV,3,3,12,83,46,120,30,84,52,021,14,85,11,345,14,,,,35*5E
$GNGLL,0419.90255,S,05539.73160,E,122928.00,A,A*66
$GNRMC,122929.00,A,0419.90250,S,05539.73162,E,0.052,,260525,,,A*78
$GNVTG,,T,,M,0.052,N,0.097,K,A*34
$GNGGA,122929.00,0419.90250,S,05539.73162,E,1,12,0.67,51.5,M,-47.6,M,,*4E
$GNGSA,A,3,28,32,27,31,18,26,16,10,08,41,,,1.43,0.67,1.26*14
$GNGSA,A,3,83,84,70,71,73,85,,,,,,,1.43,0.67,1.26*11
$GPGSV,5,1,17,04,00,220,,08,17,311,30,10,14,014,22,16,24,229,19*70
$GPGSV,5,2,17,18,32,100,31,23,01,051,,26,28,198,24,27,51,294,40*75
$GPGSV,5,3,17,28,56,131,37,29,03,147,,31,44,177,35,32,45,003,38*70
$GPGSV,5,4,17,36,52,277,36,40,84,353,41,41,58,082,36,49,32,274,*79
$GPGSV,5,5,17,50,10,089,*4A
$GLGSV,3,1,12,69,04,013,22,70,37,316,25,71,31,258,34,72,00,220,*64
$GLGSV,3,2,12,73,17,181,14,74,02,222,,80,13,127,,82,04,149,*67
$GLGSV,3,3,12,83,46,120,30,84,52,021,15,85,11,345,11,,,,34*5B
$GNGLL,0419.90250,S,05539.73162,E,122929.00,A,A*60
$GNRMC,122930.00,A,0419.90246,S,05539.73164,E,0.030,,260525,,,A*75
$GNVTG,,T,,M,0.030,N,0.055,K,A*3E
$GNGGA,122930.00,0419.90246,S,05539.73164,E,1,12,0.69,51.5,M,-47.6,M,,*49
$GNGSA,A,3,28,32,27,31,18,26,16,10,08,41,,,1.55,0.69,1.39*13
$GNGSA,A,3,83,84,70,71,73,,,,,,,,1.55,0.69,1.39*1B
$GPGSV,5,1,17,04,00,220,,08,17,311,30,10,14,014,23,16,24,229,18*70
$GPGSV,5,2,17,18,32,100,35,23,01,051,,26,28,198,24,27,51,294,41*70
$GPGSV,5,3,17,28,56,131,36,29,03,147,,31,44,177,37,32,45,003,38*73
$GPGSV,5,4,17,36,52,277,36,40,84,353,42,41,58,082,36,49,32,274,*7A
$GPGSV,5,5,17,50,10,089,*4A
$GLGSV,3,1,12,69,04,013,22,70,37,316,25,71,31,258,35,72,00,220,*65
$GLGSV,3,2,12,73,17,181,16,74,02,222,,80,13,127,,82,04,149,*65
$GLGSV,3,3,12,83,46,120,31,84,52,021,18,85,11,345,08,,,,33*58
$GNGLL,0419.90246,S,05539.73164,E,122930.00,A,A*69
$GNRMC,122932.00,A,0419.90240,S,05539.73166,E,0.012,,260525,,,A*73
$GNVTG,,T,,M,0.012,N,0.023,K,A*3F
$GNGGA,122932.00,0419.90240,S,05539.73166,E,1,12,0.67,51.4,M,-47.6,M,,*40
$GNGSA,A,3,28,32,27,31,18,26,16,10,08,41,,,1.43,0.67,1.26*14
$GNGSA,A,3,83,84,70,71,73,85,,,,,,,1.43,0.67,1.26*11
$GPGSV,5,1,17,04,00,220,,08,17,311,31,10,14,014,24,16,24,228,19*76
$GPGSV,5,2,17,18,32,100,34,23,01,051,,26,28,198,25,27,51,294,40*71
$GPGSV,5,3,17,28,56,131,37,29,03,147,,31,44,177,36,32,45,003,37*7C
$GPGSV,5,4,17,36,52,277,36,40,84,353,41,41,58,082,36,49,32,274,*79
$GPGSV,5,5,17,50,10,089,*4A
$GLGSV,3,1,12,69,04,013,21,70,37,316,24,71,31,258,34,72,00,220,*66
$GLGSV,3,2,12,73,17,181,16,74,02,222,,80,13,127,,82,04,149,*65
$GLGSV,3,3,12,83,46,120,31,84,52,021,17,85,11,345,09,,,,34*51
$GNGLL,0419.90240,S,05539.73166,E,122932.00,A,A*6F
$GNRMC,122933.00,A,0419.90238,S,05539.73168,E,0.011,,260525,,,A*70
$GNVTG,,T,,M,0.011,N,0.020,K,A*3F
$GPGSV,5,1,17,04,00,220,,08,17,311,31,10,14,014,22,16,24,228,19*70
$GPGSV,5,2,17,18,32,100,36,23,01,052,,26,28,198,26,27,51,294,40*73
$GPGSV,5,3,17,28,56,131,37,29,03,147,,31,44,177,37,32,45,003,39*73
$GPGSV,5,4,17,36,52,277,36,40,84,353,42,41,58,082,36,49,32,274,*7A
$GPGSV,5,5,17,50,10,089,*4A
$GLGSV,3,1,12,69,04,013,19,70,37,316,26,71,31,258,33,72,00,220,*68
$GLGSV,3,2,12,73,17,181,09,74,02,222,,80,13,127,,82,04,149,*6B
$GLGSV,3,3,12,83,46,120,32,84,52,021,19,85,11,345,11,,,,33*52
$GNGLL,0419.90238,S,05539.73163,E,122937.00,A,A*60
$GPGSV,5,4,17,36,52,277,35,40,84,353,37,41,58,082,34,49,32,274,*79
$GPGSV,5,5,17,50,10,089,*4A
$GLGSV,3,1,12,69,04,013,23,70,37,316,24,71,31,258,35,72,00,220,*65
$GLGSV,3,2,12,73,17,181,18,74,02,222,,80,13,127,15,82,04,149,*6F
$GLGSV,3,3,12,83,46,120,31,84,52,021,20,85,11,345,09,,,,34*55
$GNGLL,0419.90230,S,05539.73168,E,122946.00,A,A*65
$GNRMC,122947.00,A,0419.90228,S,05539.73170,E,0.028,,260525,,,A*71
$GNVTG,,T,,M,0.028,N,0.051,K,A*33
$GNGGA,122947.00,0419.90228,S,05539.73170,E,1,12,0.67,50.8,M,-47.6,M,,*46
$GNGSA,A,3,28,32,27,31,18,26,16,10,08,41,,,1.43,0.67,1.26*14
$GNGSA,A,3,83,84,70,71,73,85,,,,,,,1.43,0.67,1.26*11
$GPGSV,5,1,17,04,00,220,,08,17,311,30,10,14,014,26,16,24,228,15*79
$GPGSV,5,2,17,18,32,100,35,23,01,052,,26,28,197,27,27,51,293,39*77
$GPGSV,5,3,17,28,56,130,37,29,03,147,,31,44,177,33,32,45,003,39*76
$GPGSV,5,4,17,36,52,277,35,40,84,353,40,41,58,082,36,49,32,274,*7B
$GPGSV,5,5,17,50,10,089,*4A
$GLGSV,3,1,12,69,04,013,21,70,37,316,23,71,31,258,34,72,00,220,*61
$GLGSV,3,2,12,73,17,181,17,74,02,222,,80,13,127,14,82,04,149,*61
$GLGSV,3,3,12,83,46,120,30,84,52,021,19,85,11,345,09,,,,32*58
$GNGLL,0419.90228,S,05539.73170,E,122947.00,A,A*64
$GNRMC,122950.00,A,0419.90226,S,05539.73175,E,0.032,,260525,,,A*77
$GNVTG,,T,,M,0.032,N,0.059,K,A*30
$GNGGA,122950.00,0419.90226,S,05539.73175,E,1,12,0.62,50.6,M,-47.6,M,,*40
$GNGSA,A,3,28,32,27,31,18,26,16,10,08,41,,,1.27,0.62,1.11*17
$GNGSA,A,3,83,84,70,71,73,80,85,,,,,,1.27,0.62,1.11*1A
$GPGSV,5,1,17,04,00,220,,08,17,311,31,10,14,014,26,16,24,228,17*7A
$GPGSV,5,2,17,18,32,100,35,23,01,052,,26,28,197,28,27,51,293,39*78
$GPGSV,5,3,17,28,56,130,37,29,03,147,,31,44,177,35,32,45,003,40*7E
$GPGSV,5,4,17,36,52,277,36,40,84,353,40,41,58,082,37,49,32,274,*79
$GPGSV,5,5,17,50,10,089,*4A
$GLGSV,3,1,12,69,04,013,23,70,37,316,24,71,31,258,35,72,00,220,*65
$GLGSV,3,2,12,73,17,181,18,74,02,222,,80,13,127,16,82,04,149,*6C
$GLGSV,3,3,12,83,46,120,32,84,52,021,17,85,11,345,10,,,,34*5A
$GNGLL,0419.90226,S,05539.73175,E,122950.00,A,A*69
$GNGLL,0419.90234,S,05539.73172,E,122956.00,A,D*6E
$GNRMC,122959.00,A,0419.90236,S,05539.73171,E,0.056,,260525,,,D*7C
$GNVTG,,T,,M,0.056,N,0.103,K,D*39
$GNGGA,122959.00,0419.90236,S,05539.73171,E,2,12,0.64,50.7,M,-47.6,M,,0000*48
$GNGSA,A,3,28,32,27,31,18,26,16,10,08,41,,,1.37,0.64,1.21*13
$GNGSA,A,3,83,84,70,71,73,80,85,,,,,,1.37,0.64,1.21*1E
$GPGSV,5,1,17,04,00,220,,08,17,311,33,10,14,014,27,16,24,228,17*79
$GPGSV,5,2,17,18,32,100,34,23,01,052,,26,28,197,29,27,51,293,40*76
$GPGSV,5,3,17,28,56,130,38,29,03,147,,31,44,177,36,32,45,003,38*7D
$GPGSV,5,4,17,36,52,277,36,40,84,353,41,41,58,082,37,49,32,274,*78
$GPGSV,5,5,17,50,10,089,*4A
$GLGSV,3,1,12,69,04,013,17,70,37,316,26,71,31,258,34,72,00,220,*61
$GLGSV,3,2,12,73,17,181,18,74,02,222,,80,13,127,13,82,04,149,*69
$GLGSV,3,3,12,83,46,120,33,84,52,021,18,85,11,345,09,,,,33*5B
$GNGLL,0419.90236,S,05539.73171,E,122959.00,A,D*60
$GNRMC,123002.00,A,0419.90240,S,05539.73169,E,0.018,,260525,,,D*78
$GNVTG,,T,,M,0.018,N,0.034,K,D*36
$GNGGA,123002.00,0419.90240,S,05539.73169,E,2,12,0.62,50.6,M,-47.6,M,,0000*41
$GNGSA,A,3,28,32,27,31,18,26,16,10,08,41,,,1.27,0.62,1.11*17
$GNGSA,A,3,83,84,70,71,73,80,85,,,,,,1.27,0.62,1.11*1A
$GPGSV,5,1,17,04,00,220,,08,17,311,32,10,14,014,26,16,24,228,17*79
$GPGSV,5,2,17,18,32,100,33,23,01,052,,26,28,197,28,27,51,293,38*7F
$GPGSV,5,3,17,28,56,130,36,29,03,147,,31,44,177,35,32,45,003,37*7F
$GPGSV,5,4,17,36,52,277,35,40,84,353,39,41,58,082,36,49,32,274,*75
$GPGSV,5,5,17,50,10,089,*4A
$GLGSV,3,1,12,69,04,013,19,70,37,316,25,71,31,258,35,72,00,220,*6D
$GLGSV,3,2,12,73,17,181,17,74,02,222,,80,13,127,12,82,04,149,*67
$GLGSV,3,3,12,83,46,120,32,84,52,021,20,85,11,345,13,,,,33*5A
$GNGLL,0419.90240,S,05539.73169,E,123002.00,A,D*6E
$GNRMC,123004.00,A,0419.90246,S,05539.73166,E,0.017,,260525,,,D*78
$GNVTG,,T,,M,0.017,N,0.031,K,D*3C
$GNGGA,123004.00,0419.90246,S,05539.73166,E,2,12,0.64,50.6,M,-47.6,M,,0000*48
$GNGSA,A,3,28,32,27,31,18,26,16,10,08,41,,,1.37,0.64,1.21*13
$GNGSA,A,3,83,84,70,71,73,80,,,,,,,1.37,0.64,1.21*13
$GPGSV,5,1,17,04,00,220,,08,17,311,31,10,14,014,26,16,24,228,16*7B
$GPGSV,5,2,17,18,32,100,30,23,01,052,,26,28,197,27,27,51,293,37*7C
$GPGSV,5,3,17,28,56,130,35,29,03,147,,31,44,177,32,32,45,003,37*7B
$GPGSV,5,4,17,36,52,277,35,40,84,353,39,41,58,082,34,49,32,274,*77
$GPGSV,5,5,17,50,10,089,*4A
$GLGSV,3,1,12,69,04,013,17,70,37,316,23,71,31,258,32,72,00,220,*62
$GLGSV,3,2,12,73,17,181,14,74,02,222,,80,13,127,11,82,04,149,*67
$GLGSV,3,3,12,83,46,120,30,84,52,021,20,85,11,345,07,,,,31*5F
$GNGLL,0419.90246,S,05539.73166,E,123004.00,A,D*61
$GNRMC,123005.00,A,0419.90251,S,05539.73162,E,0.025,,260525,,,D*7A
$GNVTG,,T,,M,0.025,N,0.047,K,D*3C
$GNGGA,123005.00,0419.90251,S,05539.73162,E,2,12,0.64,50.6,M,-47.6,M,,0000*4B
$GNGSA,A,3,28,32,27,31,18,26,16,10,08,41,,,1.37,0.64,1.21*13
$GNGSA,A,3,83,84,70,71,73,80,85,,,,,,1.37,0.64,1.21*1E
$GPGSV,5,1,17,04,00,220,,08,17,311,33,10,14,014,27,16,24,228,16*78
$GPGSV,5,2,17,18,32,100,34,23,01,052,,26,28,197,28,27,51,293,40*77
$GPGSV,5,3,17,28,56,130,38,29,03,147,,31,44,177,37,32,45,003,40*73
$GPGSV,5,4,17,36,52,277,35,40,84,353,42,41,58,082,37,49,32,274,*78
$GPGSV,5,5,17,50,10,089,*4A
$GLGSV,3,1,12,69,04,013,15,70,37,316,22,71,31,258,34,72,00,220,*67
$GLGSV,3,2,12,73,17,181,12,74,02,222,,80,13,127,11,82,04,149,*61
$GLGSV,3,3,12,83,46,120,30,84,52,021,19,85,11,345,12,,,,31*51
$GNGLL,0419.90251,S,05539.73162,E,123005.00,A,D*62
$GNRMC,123009.00,A,0419.90256,S,05539.73155,E,0.022,,260525,,,D*72
$GNVTG,,T,,M,0.022,N,0.041,K,D*3D
$GNGGA,123009.00,0419.90256,S,05539.73155,E,2,12,0.64,51.0,M,-47.6,M,,0000*43
$GNGSA,A,3,28,32,27,31,18,26,16,10,08,41,,,1.37,0.64,1.21*13
$GNGSA,A,3,83,84,70,71,73,80,85,,,,,,1.37,0.64,1.21*1E
$GPGSV,5,1,17,04,00,220,,08,17,311,32,10,14,014,25,16,24,228,14*79
$GPGSV,5,2,17,18,32,100,34,23,01,052,,26,28,197,27,27,51,293,38*77
$GPGSV,5,3,17,28,56,130,36,29,03,147,,31,44,177,33,32,45,003,38*76
$GPGSV,5,4,17,36,52,277,34,40,84,353,40,41,58,082,36,49,32,274,*7A
$GPGSV,5,5,17,50,10,089,*4A
$GLGSV,3,1,12,69,04,013,16,70,37,316,23,71,31,259,34,72,00,220,*64
$GLGSV,3,2,12,73,17,181,10,74,02,222,,80,13,127,13,82,04,149,*61
$GLGSV,3,3,12,83,46,120,28,84,52,021,20,85,11,345,09,,,,31*58
$GNGLL,0419.90256,S,05539.73155,E,123009.00,A,D*6D
$GNRMC,123010.00,A,0419.90255,S,05539.73156,E,0.027,,260525,,,D*7F
$GNVTG,,T,,M,0.027,N,0.050,K,D*38
$GNGGA,123010.00,0419.90255,S,05539.73156,E,2,12,0.69,51.1,M,-47.6,M,,0000*47
$GNGSA,A,3,28,32,27,31,18,26,16,10,08,41,,,1.55,0.69,1.39*13
$GNGSA,A,3,83,84,70,71,73,85,,,,,,,1.55,0.69,1.39*16
$GPGSV,5,1,17,04,00,220,,08,17,311,31,10,14,014,25,16,24,228,13*7D
$GPGSV,5,2,17,18,32,100,33,23,01,052,,26,28,197,26,27,51,293,37*7E
$GPGSV,5,3,17,28,56,130,36,29,03,147,,31,44,177,34,32,45,003,36*7F
$GPGSV,5,4,17,36,52,277,34,40,84,353,41,41,58,082,36,49,32,274,*7B
$GPGSV,5,5,17,50,10,089,*4A
$GLGSV,3,1,12,69,04,013,14,70,37,316,23,71,31,259,35,72,00,220,*67
$GLGSV,3,2,12,73,17,181,11,74,02,222,,80,13,127,09,82,04,149,*6B
$GLGSV,3,3,12,83,46,120,28,84,52,021,20,85,11,345,09,,,,31*58
$GNGLL,0419.90255,S,05539.73156,E,123010.00,A,D*65
$GNRMC,123012.00,A,0419.90254,S,05539.73157,E,0.011,,260525,,,D*78
$GNVTG,,T,,M,0.011,N,0.021,K,D*3B
$GNGGA,123012.00,0419.90254,S,05539.73157,E,2,12,0.64,51.4,M,-47.6,M,,0000*4D
$GNGSA,A,3,28,32,27,31,18,26,16,10,08,41,,,1.37,0.64,1.21*13
$GNGSA,A,3,83,84,70,71,73,80,85,,,,,,1.37,0.64,1.21*1E
$GPGSV,5,1,17,04,00,220,,08,17,311,31,10,14,014,33,16,24,228,12*7B
$GPGSV,5,2,17,18,32,100,34,23,01,052,,26,28,197,26,27,51,293,38*76
$GPGSV,5,3,17,28,56,130,37,29,03,147,,31,44,177,35,32,45,003,37*7E
$GPGSV,5,4,17,36,52,277,36,40,84,353,40,41,58,082,36,49,32,274,*78
$GPGSV,5,5,17,50,10,089,*4A
$GLGSV,3,1,12,69,03,014,17,70,36,317,23,71,31,259,35,72,00,220,*64
$GLGSV,3,2,12,73,17,181,14,74,02,222,,80,13,127,12,82,04,149,*64
$GLGSV,3,3,12,83,46,120,30,84,52,021,21,85,11,345,17,,,,31*5F
$GNGLL,0419.90254,S,05539.73157,E,123012.00,A,D*67
$GNRMC,123013.00,A,0419.90255,S,05539.73155,E,0.040,,260525,,,D*7E
$GNVTG,,T,,M,0.040,N,0.074,K,D*3F
$GNGGA,123013.00,0419.90255,S,05539.73155,E,2,12,0.62,51.5,M,-47.6,M,,0000*48
$GNGSA,A,3,28,32,27,31,18,26,16,10,08,41,,,1.28,0.62,1.11*18
$GNGSA,A,3,83,84,70,71,73,80,85,,,,,,1.28,0.62,1.11*15
$GPGSV,5,1,17,04,00,220,,08,17,311,30,10,14,014,28,16,24,228,12*70
$GPGSV,5,2,17,18,32,100,37,23,01,052,,26,28,197,26,27,51,293,39*74
$GPGSV,5,3,17,28,56,130,38,29,03,147,,31,44,177,34,32,45,003,41*71
$GPGSV,5,4,17,36,52,277,37,40,84,353,41,41,58,082,36,49,32,274,*78
$GPGSV,5,5,17,50,10,089,*4A
$GLGSV,3,1,12,69,03,014,15,70,36,317,22,71,31,259,35,72,00,220,*67
$GLGSV,3,2,12,73,17,181,13,74,02,222,,80,13,127,11,82,04,149,*60
$GLGSV,3,3,12,83,46,120,30,84,52,021,22,85,11,345,24,,,,33*5E
$GNGLL,0419.90255,S,05539.73155,E,123013.00,A,D*65
$GNRMC,123014.00,A,0419.90255,S,05539.73155,E,0.010,,260525,,,D*7C
$GNVTG,,T,,M,0.010,N,0.018,K,D*30
$GNGGA,123014.00,0419.90255,S,05539.73155,E,2,12,0.62,51.5,M,-47.6,M,,0000*4F
$GNGSA,A,3,28,32,27,31,18,26,16,10,08,41,,,1.28,0.62,1.11*18
$GNGSA,A,3,83,84,70,71,73,80,85,,,,,,1.28,0.62,1.11*15
$GPGSV,5,1,17,04,00,220,,08,17,311,29,10,14,014,29,16,24,228,13*78
$GPGSV,5,2,17,18,32,100,36,23,01,052,,26,28,197,26,27,51,293,38*74
$GPGSV,5,3,17,28,56,130,38,29,03,147,,31,44,177,34,32,45,003,39*7E
$GPGSV,5,4,17,36,52,277,37,40,84,353,41,41,58,082,37,49,32,274,*79
$GPGSV,5,5,17,50,10,089,*4A
$GLGSV,3,1,12,69,03,014,14,70,36,317,21,71,31,259,35,72,00,221,*64
$GLGSV,3,2,12,73,17,181,17,74,02,222,,80,13,127,11,82,04,149,*64
$GLGSV,3,3,12,83,46,120,30,84,52,021,23,85,11,345,26,,,,32*5C
$GNGLL,0419.90255,S,05539.73155,E,123014.00,A,D*62
$GNRMC,123015.00,A,0419.90256,S,05539.73153,E,0.071,,260525,,,D*7F
$GNVTG,,T,,M,0.071,N,0.132,K,D*3E
$GNGGA,123015.00,0419.90256,S,05539.73153,E,2,12,0.62,51.4,M,-47.6,M,,0000*4A
$GNGSA,A,3,28,32,27,31,18,26,16,10,08,41,,,1.28,0.62,1.11*18
$GNGSA,A,3,83,84,70,71,73,80,85,,,,,,1.28,0.62,1.11*15
$GPGSV,5,1,17,04,00,220,,08,17,311,29,10,14,014,29,16,24,228,12*79
$GPGSV,5,2,17,18,32,100,35,23,01,052,,26,28,197,26,27,51,293,38*77
$GPGSV,5,3,17,28,56,130,38,29,03,147,,31,44,177,34,32,45,003,38*7F
$GPGSV,5,4,17,36,52,277,35,40,84,353,41,41,58,082,35,49,32,274,*79
$GPGSV,5,5,17,50,10,089,*4A
$GLGSV,3,1,12,69,03,014,13,70,36,317,21,71,31,259,34,72,00,221,*62
$GLGSV,3,2,12,73,17,181,13,74,02,222,,80,13,127,13,82,04,149,*62
$GLGSV,3,3,12,83,46,120,30,84,52,021,22,85,11,345,26,,,,32*5D
$GNGLL,0419.90256,S,05539.73153,E,123015.00,A,D*66
$GNRMC,123016.00,A,0419.90255,S,05539.73154,E,0.010,,260525,,,D*7F
$GNVTG,,T,,M,0.010,N,0.019,K,D*31
$GNGGA,123016.00,0419.90255,S,05539.73154,E,2,12,0.66,51.6,M,-47.6,M,,0000*4B
$GNGSA,A,3,28,32,27,31,18,26,10,08,41,,,,1.30,0.66,1.12*11
$GNGSA,A,3,83,84,70,71,73,80,85,,,,,,1.30,0.66,1.12*1B
$GPGSV,5,1,17,04,00,220,,08,17,311,30,10,14,014,30,16,24,228,*7A
$GPGSV,5,2,17,18,32,100,35,23,01,052,,26,28,197,26,27,51,293,38*77
$GPGSV,5,3,17,28,56,130,36,29,03,147,,31,44,177,35,32,45,003,36*7E
$GPGSV,5,4,17,36,52,277,35,40,84,353,42,41,58,082,36,49,32,274,*79
$GPGSV,5,5,17,50,10,089,*4A
$GLGSV,3,1,12,69,03,014,14,70,36,317,21,71,31,259,35,72,00,221,*64
$GLGSV,3,2,12,73,17,181,13,74,02,221,,80,13,127,10,82,04,149,*62
$GLGSV,3,3,12,83,46,120,30,84,52,021,22,85,11,345,26,,,,32*5D
$GNGLL,0419.90255,S,05539.73154,E,123016.00,A,D*61
$GNRMC,123019.00,A,0419.90254,S,05539.73150,E,0.031,,260525,,,D*76
$GNVTG,,T,,M,0.031,N,0.057,K,D*38
$GNGGA,123019.00,0419.90254,S,05539.73150,E,2,12,0.66,51.8,M,-47.6,M,,0000*4F
$GNGSA,A,3,28,32,27,31,18,26,10,08,41,,,,1.30,0.66,1.12*11
$GNGSA,A,3,83,84,70,71,73,80,85,,,,,,1.30,0.66,1.12*1B
$GPGSV,5,1,17,04,00,220,,08,17,311,31,10,14,014,31,16,24,228,13*78
$GPGSV,5,2,17,18,32,100,34,23,01,052,,26,28,197,26,27,51,293,38*76
$GPGSV,5,3,17,28,56,130,37,29,03,147,,31,44,177,36,32,45,003,37*7D
$GPGSV,5,4,17,36,52,277,34,40,84,353,42,41,58,082,36,49,32,274,*78
$GPGSV,5,5,17,50,10,089,*4A
$GLGSV,3,1,12,69,03,014,11,70,36,317,22,71,31,259,36,72,00,221,*61
$GLGSV,3,2,12,73,17,181,15,74,02,221,,80,13,127,14,82,04,149,*60
$GLGSV,3,3,12,83,46,120,31,84,52,021,22,85,11,345,27,,,,31*5E
$GNGLL,0419.90254,S,05539.73150,E,123019.00,A,D*6B
$GNRMC,123020.00,A,0419.90254,S,05539.73149,E,0.008,,260525,,,D*7E
$GNVTG,,T,,M,0.008,N,0.015,K,D*34
$GNGGA,123020.00,0419.90254,S,05539.73149,E,2,12,0.66,51.9,M,-47.6,M,,0000*4C
$GNGSA,A,3,28,32,27,31,18,26,10,08,41,,,,1.30,0.66,1.12*11
$GNGSA,A,3,83,84,70,71,73,80,85,,,,,,1.30,0.66,1.12*1B
$GPGSV,5,1,17,04,00,220,,08,17,311,31,10,14,014,31,16,24,228,12*79
$GPGSV,5,2,17,18,32,100,34,23,01,052,,26,28,197,27,27,51,293,38*77
$GPGSV,5,3,17,28,56,130,37,29,03,147,,31,44,177,36,32,45,003,38*72
$GPGSV,5,4,17,36,52,277,35,40,84,353,42,41,58,082,36,49,32,274,*79
$GPGSV,5,5,17,50,10,089,*4A
$GLGSV,3,1,12,69,03,014,14,70,36,317,22,71,31,259,36,72,00,221,*64
$GLGSV,3,2,12,73,17,181,15,74,02,221,,80,13,127,15,82,04,149,*61
$GLGSV,3,3,12,83,46,120,30,84,52,021,22,85,11,345,27,,,,31*5F
$GNGLL,0419.90254,S,05539.73149,E,123020.00,A,D*69
$GNRMC,123023.00,A,0419.90254,S,05539.73144,E,0.036,,260525,,,D*7D
$GNVTG,,T,,M,0.036,N,0.067,K,D*3C
$GNGGA,123023.00,0419.90254,S,05539.73144,E,2,12,0.66,52.1,M,-47.6,M,,0000*49
$GNGSA,A,3,28,32,27,31,18,26,16,10,08,41,,,1.30,0.66,1.12*16
$GNGSA,A,3,83,84,70,71,73,80,85,,,,,,1.30,0.66,1.12*1B
$GPGSV,5,1,17,04,00,220,,08,17,311,35,10,14,014,26,16,24,228,15*7C
$GPGSV,5,2,17,18,32,100,34,23,01,052,,26,28,197,26,27,51,293,40*79
$GPGSV,5,3,17,28,56,130,37,29,03,147,,31,44,177,38,32,45,003,38*7C
$GPGSV,5,4,17,36,52,277,37,40,84,353,41,41,58,082,38,49,32,274,*76
$GPGSV,5,5,17,50,10,089,*4A
$GLGSV,3,1,12,69,03,014,19,70,36,317,25,71,31,259,37,72,00,221,*6F
$GLGSV,3,2,12,73,17,181,14,74,02,221,,80,14,127,11,82,04,149,*63
$GLGSV,3,3,12,83,46,120,30,84,52,021,24,85,11,345,26,,,,32*5B
$GNGLL,0419.90254,S,05539.73144,E,123023.00,A,D*67
$GNRMC,123025.00,A,0419.90254,S,05539.73141,E,0.031,,260525,,,D*79
$GNVTG,,T,,M,0.031,N,0.057,K,D*38
$GNGGA,123025.00,0419.90254,S,05539.73141,E,2,12,0.66,52.1,M,-47.6,M,,0000*4A
$GNGSA,A,3,28,32,27,31,18,26,16,10,08,41,,,1.30,0.66,1.12*16
$GNGSA,A,3,83,84,70,71,73,80,85,,,,,,1.30,0.66,1.12*1B
$GPGSV,5,1,17,04,00,220,,08,17,311,34,10,14,014,27,16,24,228,16*7F
$GPGSV,5,2,17,18,32,100,32,23,01,052,,26,28,197,26,27,51,293,38*70
$GPGSV,5,3,17,28,56,130,37,29,03,147,,31,44,177,34,32,45,003,37*7F
$GPGSV,5,4,17,36,52,277,37,40,84,353,40,41,58,082,36,49,32,274,*79
$GPGSV,5,5,17,50,10,089,*4A
$GLGSV,3,1,12,69,03,014,20,70,36,317,26,71,31,259,36,72,00,221,*67
$GLGSV,3,2,12,73,17,181,17,74,02,221,,80,14,127,13,82,03,149,*65
$GLGSV,3,3,12,83,46,121,29,84,52,021,23,85,11,345,21,,,,32*52
$GNGLL,0419.90254,S,05539.73141,E,123025.00,A,D*64
$GNRMC,123026.00,A,0419.90252,S,05539.73140,E,0.015,,260525,,,D*7B
$GNVTG,,T,,M,0.015,N,0.028,K,D*36
$GNGGA,123026.00,0419.90252,S,05539.73140,E,2,12,0.66,52.1,M,-47.6,M,,0000*4E
$GNGSA,A,3,28,32,27,31,18,26,16,10,08,41,,,1.30,0.66,1.12*16
$GNGSA,A,3,83,84,70,71,73,80,85,,,,,,1.30,0.66,1.12*1B
$GPGSV,5,1,17,04,00,220,,08,17,311,34,10,14,014,27,16,24,228,15*7C
$GPGSV,5,2,17,18,32,100,32,23,01,052,,26,28,197,26,27,51,293,38*70
$GPGSV,5,3,17,28,56,130,36,29,03,147,,31,44,177,37,32,45,003,39*73
$GPGSV,5,4,17,36,52,277,37,40,84,353,41,41,58,082,38,49,32,274,*76
$GPGSV,5,5,17,50,10,089,*4A
$GLGSV,3,1,12,69,03,014,21,70,36,317,26,71,31,259,36,72,00,221,*66
$GLGSV,3,2,12,73,17,181,17,74,02,221,,80,14,127,10,82,03,149,*66
$GLGSV,3,3,12,83,46,121,29,84,53,021,23,85,11,345,19,,,,31*5B
$GNGLL,0419.90252,S,05539.73140,E,123026.00,A,D*60
$GNRMC,123028.00,A,0419.90252,S,05539.73140,E,0.048,,260525,,,D*7D
$GNVTG,,T,,M,0.048,N,0.089,K,D*35
$GNGGA,123028.00,0419.90252,S,05539.73140,E,2,12,0.62,52.2,M,-47.6,M,,0000*47
$GNGSA,A,3,28,32,27,31,18,26,16,10,08,41,,,1.28,0.62,1.12*1B
$GNGSA,A,3,83,84,70,71,73,80,85,,,,,,1.28,0.62,1.12*16
$GPGSV,5,1,17,04,00,220,,08,17,311,32,10,14,014,27,16,24,228,15*7A
$GPGSV,5,2,17,18,32,100,33,23,01,052,,26,28,197,26,27,51,293,39*70
$GPGSV,5,3,17,28,56,130,35,29,03,147,,31,44,177,38,32,45,003,37*71
$GPGSV,5,4,17,36,52,277,38,40,84,353,40,41,58,082,34,49,32,274,*74
$GPGSV,5,5,17,50,10,089,*4A
$GLGSV,3,1,12,69,03,014,22,70,36,317,25,71,31,259,35,72,00,221,*65
$GLGSV,3,2,12,73,17,181,16,74,02,221,,80,14,127,16,82,03,149,*61
$GLGSV,3,3,12,83,46,121,28,84,53,021,23,85,11,345,21,,,,36*56
$GNGLL,0419.90252,S,05539.73140,E,123028.00,A,D*6E
$GNRMC,123029.00,A,0419.90252,S,05539.73141,E,0.056,,260525,,,D*72
$GNVTG,,T,,M,0.056,N,0.105,K,D*3F
$GNGGA,123029.00,0419.90252,S,05539.73141,E,2,12,0.67,52.1,M,-47.6,M,,0000*41
$GNGSA,A,3,28,32,27,31,18,26,16,10,08,41,,,1.43,0.67,1.26*14
$GNGSA,A,3,83,84,70,71,73,80,85,,,,,,1.43,0.67,1.26*19
$GPGSV,5,1,17,04,00,220,,08,17,311,33,10,14,014,27,16,24,228,15*7B
$GPGSV,5,2,17,18,32,100,29,23,01,052,,26,28,197,25,27,51,293,42*74
$GPGSV,5,3,17,28,56,130,37,29,03,147,,31,44,177,38,32,45,003,38*7C
$GPGSV,5,4,17,36,52,277,39,40,84,353,42,41,58,082,39,49,32,274,*7A
$GPGSV,5,5,17,50,10,089,*4A
$GLGSV,3,1,12,69,03,014,21,70,36,317,26,71,31,259,35,72,00,221,*65
$GLGSV,3,2,12,73,17,181,15,74,02,221,,80,14,127,13,82,03,149,*67
$GLGSV,3,3,12,83,46,121,29,84,53,021,24,85,11,345,22,,,,26*52
$GNGLL,0419.90252,S,05539.73141,E,123029.00,A,D*6E
$GNRMC,123031.00,A,0419.90245,S,05539.73145,E,0.052,,260525,,,D*7D
$GNVTG,,T,,M,0.052,N,0.097,K,D*31
$GNGGA,123031.00,0419.90245,S,05539.73145,E,2,12,0.62,52.3,M,-47.6,M,,0000*4D
$GNGSA,A,3,28,32,27,31,18,26,16,10,08,41,,,1.28,0.62,1.12*1B
$GNGSA,A,3,83,84,70,71,73,80,85,,,,,,1.28,0.62,1.12*16
$GPGSV,5,1,17,04,00,220,,08,17,311,32,10,14,014,24,16,24,228,15*79
$GPGSV,5,2,17,18,32,100,32,23,01,052,,26,28,197,23,27,51,293,39*74
$GPGSV,5,3,17,28,56,130,35,29,03,147,,31,44,177,36,32,45,003,38*70
$GPGSV,5,4,17,36,52,277,36,40,84,353,39,41,58,082,37,49,32,274,*77
$GPGSV,5,5,17,50,10,089,*4A
$GLGSV,3,1,12,69,03,014,18,70,36,317,26,71,31,259,35,72,00,221,*6F
$GLGSV,3,2,12,73,17,181,14,74,02,221,,80,14,127,14,82,03,149,*61
$GLGSV,3,3,12,83,46,121,28,84,53,021,23,85,11,345,21,,,,31*51
$GNGLL,0419.90245,S,05539.73145,E,123031.00,A,D*65
$GNRMC,123032.00,A,0419.90244,S,05539.73149,E,0.036,,260525,,,D*71
$GNVTG,,T,,M,0.036,N,0.067,K,D*3C
$GNGGA,123032.00,0419.90244,S,05539.73149,E,2,12,0.62,52.4,M,-47.6,M,,0000*44
$GNGSA,A,3,28,32,27,31,18,26,16,10,08,41,,,1.28,0.62,1.12*1B
$GNGSA,A,3,83,84,70,71,73,80,85,,,,,,1.28,0.62,1.12*16
$GPGSV,5,1,17,04,00,220,,08,17,311,33,10,14,014,23,16,24,228,15*7F
$GPGSV,5,2,17,18,32,100,33,23,01,052,,26,28,197,23,27,51,293,39*75
$GPGSV,5,3,17,28,56,130,35,29,03,147,,31,44,177,38,32,45,003,39*7F
$GPGSV,5,4,17,36,52,277,38,40,84,353,41,41,58,082,37,49,32,274,*76
$GPGSV,5,5,17,50,10,089,*4A
$GLGSV,3,1,12,69,03,014,19,70,36,317,26,71,31,259,34,72,00,221,*6F
$GLGSV,3,2,12,73,17,181,14,74,02,221,,80,14,127,12,82,03,149,*67
$GLGSV,3,3,12,83,46,121,30,84,53,021,24,85,11,345,22,,,,32*5F
$GNGLL,0419.90244,S,05539.73149,E,123032.00,A,D*6B
$GNRMC,123033.00,A,0419.90239,S,05539.73152,E,0.024,,260525,,,D*73
$GNVTG,,T,,M,0.024,N,0.044,K,D*3E
$GNGGA,123033.00,0419.90239,S,05539.73152,E,2,12,0.62,52.3,M,-47.6,M,,0000*42
$GNGSA,A,3,28,32,27,31,18,26,16,10,08,41,,,1.28,0.62,1.12*1B
$GNGSA,A,3,83,84,70,71,73,80,85,,,,,,1.28,0.62,1.12*16
$GPGSV,5,1,17,04,00,220,,08,17,311,33,10,14,014,25,16,24,228,15*79
$GPGSV,5,2,17,18,32,100,33,23,01,052,,26,28,197,25,27,51,293,41*7C
$GPGSV,5,3,17,28,56,130,37,29,03,147,,31,44,177,38,32,45,003,40*73
$GPGSV,5,4,17,36,52,277,39,40,84,353,40,41,58,082,39,49,32,274,*78
$GPGSV,5,5,17,50,10,089,*4A
$GLGSV,3,1,12,69,03,014,20,70,36,317,26,71,31,259,34,72,00,221,*65
$GLGSV,3,2,12,73,17,181,14,74,02,221,,80,14,127,11,82,03,149,*64
$GLGSV,3,3,12,83,46,121,30,84,53,021,25,85,11,345,22,,,,31*5D
$GNGLL,0419.90239,S,05539.73152,E,123033.00,A,D*6A
$GNRMC,123034.00,A,0419.90235,S,05539.73155,E,0.034,,260525,,,D*7E
$GNVTG,,T,,M,0.034,N,0.063,K,D*3A
$GNGGA,123034.00,0419.90235,S,05539.73155,E,2,12,0.62,52.4,M,-47.6,M,,0000*49
$GNGSA,A,3,28,32,27,31,18,26,16,10,08,41,,,1.28,0.62,1.12*1B
$GNGSA,A,3,83,84,70,71,73,80,85,,,,,,1.28,0.62,1.12*16
$GPGSV,5,1,17,04,01,220,,08,17,311,34,10,14,014,27,16,24,228,15*7D
$GPGSV,5,2,17,18,32,100,33,23,01,052,,26,28,197,26,27,51,293,40*7E
$GPGSV,5,3,17,28,56,130,37,29,03,147,,31,44,177,37,32,45,003,40*7C
$GPGSV,5,4,17,36,52,277,39,40,84,353,39,41,58,082,39,49,32,274,*76
$GPGSV,5,5,17,50,10,089,*4A
$GLGSV,3,1,12,69,03,014,21,70,36,317,25,71,31,259,34,72,00,221,*67
$GLGSV,3,2,12,73,17,181,14,74,02,221,,80,14,127,11,82,03,149,*64
$GNRMC,123035.00,A,0419.90233,S,05539.73155,E,0.041,,260525,,,D*7B
$GNVTG,,T,,M,0.041,N,0.076,K,D*3C
$GNGGA,123035.00,0419.90233,S,05539.73155,E,2,12,0.62,52.4,M,-47.6,M,,0000*4E
$GNGSA,A,3,28,32,27,31,18,26,16,10,08,41,,,1.28,0.62,1.12*1B
$GNGSA,A,3,83,84,70,71,73,80,85,,,,,,1.28,0.62,1.12*16
$GPGSV,5,1,17,04,01,220,,08,17,311,33,10,14,014,27,16,24,228,17*78
$GPGSV,5,2,17,18,32,100,32,23,01,052,,26,28,197,25,27,51,293,39*72
$GPGSV,5,3,17,28,56,130,35,29,03,147,,31,44,177,36,32,45,003,39*71
$GPGSV,5,4,17,36,52,277,38,40,84,353,38,41,58,082,37,49,32,274,*78
$GPGSV,5,5,17,50,10,089,*4A
$GLGSV,3,1,12,69,03,014,21,70,36,317,25,71,31,259,34,72,00,221,*67
$GLGSV,3,2,12,73,17,181,15,74,02,221,,80,14,127,10,82,03,149,*64
$GLGSV,3,3,12,83,46,121,30,84,53,021,23,85,11,345,23,,,,32*59
$GNGLL,0419.90233,S,05539.73155,E,123035.00,A,D*61
$GNRMC,123037.00,A,0419.90231,S,05539.73157,E,0.014,,260525,,,D*79
$GNVTG,,T,,M,0.014,N,0.026,K,D*39
$GNGGA,123037.00,0419.90231,S,05539.73157,E,2,12,0.62,52.2,M,-47.6,M,,0000*4A
$GNGSA,A,3,28,32,27,31,18,26,16,10,08,41,,,1.28,0.62,1.12*1B
$GNGSA,A,3,83,84,70,71,73,80,85,,,,,,1.28,0.62,1.12*16
$GPGSV,5,1,17,04,01,220,,08,17,311,33,10,14,014,27,16,24,228,18*77
$GPGSV,5,2,17,18,32,100,32,23,01,052,,26,28,197,24,27,51,293,39*73
$GPGSV,5,3,17,28,56,130,37,29,03,147,,31,44,177,37,32,45,003,39*72
$GPGSV,5,4,17,36,52,277,38,40,84,353,39,41,58,082,38,49,32,274,*76
$GPGSV,5,5,17,50,10,089,*4A
$GLGSV,3,1,12,69,03,014,21,70,36,317,25,71,31,259,35,72,00,221,*66
$GLGSV,3,2,12,73,17,181,16,74,02,221,,80,14,127,15,82,03,149,*62
$GLGSV,3,3,12,83,46,121,29,84,53,021,22,85,11,345,23,,,,32*50
$GNGLL,0419.90231,S,05539.73157,E,123037.00,A,D*63
$GNRMC,123038.00,A,0419.90231,S,05539.73159,E,0.020,,260525,,,D*7F
$GNVTG,,T,,M,0.020,N,0.037,K,D*3E
$GNGGA,123038.00,0419.90231,S,05539.73159,E,2,12,0.62,52.1,M,-47.6,M,,0000*48
$GNGSA,A,3,28,32,27,31,18,26,16,10,08,41,,,1.28,0.62,1.12*1B
$GNGSA,A,3,83,84,70,71,73,80,85,,,,,,1.28,0.62,1.12*16
$GPGSV,5,1,17,04,01,220,,08,17,310,33,10,14,014,27,16,24,228,18*76
$GPGSV,5,2,17,18,32,100,32,23,01,052,,26,28,197,24,27,51,293,39*73
$GPGSV,5,3,17,28,56,130,37,29,03,147,,31,44,177,37,32,45,003,40*7C
$GPGSV,5,4,17,36,52,277,38,40,84,353,39,41,58,082,39,49,32,274,*77
$GPGSV,5,5,17,50,10,089,*4A
$GLGSV,3,1,12,69,03,014,21,70,36,317,25,71,31,259,35,72,00,221,*66
$GLGSV,3,2,12,73,17,181,16,74,02,221,,80,14,127,13,82,03,149,*64
$GLGSV,3,3,12,83,46,121,29,84,53,021,22,85,11,345,22,,,,32*51
$GNGLL,0419.90231,S,05539.73159,E,123038.00,A,D*62
$GNRMC,123039.00,A,0419.90231,S,05539.73160,E,0.008,,260525,,,D*7E
$GNVTG,,T,,M,0.008,N,0.014,K,D*35
$GNGGA,123039.00,0419.90231,S,05539.73160,E,2,12,0.62,52.0,M,-47.6,M,,0000*42
$GNGSA,A,3,28,32,27,31,18,26,16,10,08,41,,,1.28,0.62,1.12*1B
$GNGSA,A,3,83,84,70,71,73,80,85,,,,,,1.28,0.62,1.12*16
$GPGSV,5,1,17,04,01,220,,08,17,310,33,10,14,014,28,16,24,228,18*79
$GPGSV,5,2,17,18,32,100,31,23,01,052,,26,28,197,25,27,51,293,40*7F
$GPGSV,5,3,17,28,56,130,37,29,03,147,18,31,44,177,37,32,45,003,41*74
$GPGSV,5,4,17,36,52,277,39,40,84,353,39,41,58,082,39,49,32,274,*76
$GPGSV,5,5,17,50,10,089,*4A
$GLGSV,3,1,12,69,03,014,21,70,36,317,25,71,31,259,35,72,00,221,*66
$GLGSV,3,2,12,73,17,181,16,74,02,221,,80,14,127,20,82,03,149,*64
$GLGSV,3,3,12,83,46,121,29,84,53,021,21,85,11,345,22,,,,32*52
$GNGLL,0419.90231,S,05539.73160,E,123039.00,A,D*69
$GPGSV,5,3,17,28,56,130,37,29,03,147,10,31,44,177,37,32,45,003,40*7D
$GPGSV,5,4,17,36,52,277,38,40,84,353,39,41,58,082,37,49,32,274,*79
$GPGSV,5,5,17,50,10,089,*4A
$GLGSV,3,1,12,69,03,014,22,70,36,317,24,71,31,259,34,72,00,221,*65
$GLGSV,3,2,12,73,17,181,14,74,02,221,,80,14,127,16,82,03,149,*63
$GLGSV,3,3,12,83,46,121,29,84,53,021,20,85,11,345,22,,,,32*53
$GNGLL,0419.90233,S,05539.73163,E,123041.00,A,D*67
$GNVTG,,T,,M,0.019,N,0.035,K,D*36
$GNGGA,123042.00,0419.90233,S,05539.73164,E,2,12,0.62,51.6,M,-47.6,M,,0000*4D
$GNGSA,A,3,28,32,27,31,18,26,16,10,08,41,,,1.28,0.62,1.12*1B
$GNGSA,A,3,83,84,70,71,73,80,85,,,,,,1.28,0.62,1.12*16
$GPGSV,5,1,17,04,01,220,,08,17,310,32,10,14,014,28,16,24,228,17*77
$GPGSV,5,2,17,18,32,100,30,23,01,052,,26,28,197,25,27,51,293,38*71
$GPGSV,5,3,17,28,56,130,37,29,03,147,08,31,44,177,36,32,45,003,39*7B
$GPGSV,5,4,17,36,52,277,37,40,84,353,39,41,58,082,37,49,32,274,*76
$GPGSV,5,5,17,50,10,089,*4A
$GLGSV,3,1,12,69,03,014,22,70,36,317,24,71,31,259,34,72,00,221,*65
$GLGSV,3,2,12,73,17,181,17,74,02,221,,80,14,127,17,82,03,149,*61
$GLGSV,3,3,12,83,46,121,29,84,53,021,20,85,11,345,22,,,,31*50
$GNGLL,0419.90233,S,05539.73164,E,123042.00,A,D*63
$GLGSV,3,3,12,83,46,121,29,84,53,021,19,85,11,345,22,,,,31*5A
$GNGLL,0419.90242,S,05539.73163,E,123048.00,A,D*68
$GNRMC,123049.00,A,0419.90244,S,05539.73163,E,0.021,,260525,,,D*73
$GNVTG,,T,,M,0.021,N,0.039,K,D*31
$GNGGA,123049.00,0419.90244,S,05539.73163,E,2,12,0.62,51.2,M,-47.6,M,,0000*45
$GNGSA,A,3,28,32,27,31,18,26,16,10,08,41,,,1.28,0.62,1.12*1B
$GNGSA,A,3,83,84,70,71,73,80,85,,,,,,1.28,0.62,1.12*16
$GPGSV,5,1,17,04,01,220,,08,17,310,34,10,14,014,28,16,24,227,18*71
$GPGSV,5,2,17,18,32,101,31,23,01,052,,26,28,197,23,27,51,293,40*78
$GPGSV,5,3,17,28,56,130,37,29,03,147,09,31,44,177,38,32,45,003,41*7B
$GPGSV,5,4,17,36,52,277,39,40,84,353,40,41,58,082,38,49,32,274,*79
$GPGSV,5,5,17,50,10,089,*4A
$GLGSV,3,1,12,69,03,014,11,70,36,317,23,71,31,259,34,72,00,221,*62
$GLGSV,3,2,12,73,17,181,13,74,02,221,,80,14,127,20,82,03,149,*61
$GLGSV,3,3,12,83,46,121,29,84,53,021,19,85,11,345,22,,,,31*5A
$GNGLL,0419.90244,S,05539.73163,E,123049.00,A,D*6F
$GNRMC,123050.00,A,0419.90246,S,05539.73162,E,0.025,,260525,,,D*7C
$GNVTG,,T,,M,0.025,N,0.046,K,D*3D
$GNGGA,123050.00,0419.90246,S,05539.73162,E,2,12,0.62,51.1,M,-47.6,M,,0000*4D
$GNGSA,A,3,28,32,27,31,18,26,16,10,08,41,,,1.28,0.62,1.12*1B
$GNGSA,A,3,83,84,70,71,73,80,85,,,,,,1.28,0.62,1.12*16
$GPGSV,5,1,17,04,01,220,,08,17,310,32,10,14,014,28,16,24,227,18*77
$GPGSV,5,2,17,18,32,101,31,23,01,052,,26,28,197,22,27,51,293,39*77
$GPGSV,5,3,17,28,56,130,38,29,03,147,,31,44,177,38,32,45,003,39*72
$GPGSV,5,4,17,36,52,277,39,40,84,353,40,41,58,082,38,49,32,274,*79
$GPGSV,5,5,17,50,10,089,*4A
$GLGSV,3,1,12,69,03,014,,70,36,317,23,71,31,259,34,72,00,221,*62
$GLGSV,3,2,12,73,17,181,15,74,02,221,,80,14,127,20,82,03,149,*67
$GLGSV,3,3,12,83,46,121,29,84,53,021,19,85,11,345,22,,,,32*59
$GNGLL,0419.90246,S,05539.73162,E,123050.00,A,D*64
$GPGSV,5,1,17,04,01,220,,08,17,310,35,10,14,014,26,16,24,227,18*7E
$GPGSV,5,2,17,18,32,101,30,23,01,052,,26,28,197,23,27,51,293,39*77
$GPGSV,5,3,17,28,56,130,38,29,03,147,,31,44,177,38,32,45,003,36*7D
$GPGSV,5,4,17,36,52,277,39,40,84,353,43,41,58,082,39,49,32,274,*7B
$GPGSV,5,5,17,50,10,089,*4A
$GLGSV,3,1,12,69,03,014,19,70,36,317,22,71,31,259,34,72,00,221,*6B
$GLGSV,3,2,12,73,17,181,12,74,02,221,,80,14,127,21,82,03,149,*61
$GLGSV,3,3,12,83,46,121,30,84,53,021,19,85,11,345,21,,,,32*52
$GNGLL,0419.90247,S,05539.73162,E,123051.00,A,D*64
$GNRMC,123052.00,A,0419.90250,S,05539.73161,E,0.100,,260525,,,D*7C
$GNVTG,,T,,M,0.100,N,0.186,K,D*36
$GNGGA,123052.00,0419.90250,S,05539.73161,E,2,12,0.62,50.8,M,-47.6,M,,0000*43
$GNGSA,A,3,28,32,27,31,18,26,16,10,08,41,,,1.28,0.62,1.12*1B
$GNGSA,A,3,83,84,70,71,73,80,85,,,,,,1.28,0.62,1.12*16
$GPGSV,5,1,17,04,01,220,,08,17,310,31,10,14,014,23,16,24,227,16*71
$GPGSV,5,2,17,18,32,101,29,23,01,052,,26,28,197,23,27,51,293,39*7F
$GPGSV,5,3,17,28,56,130,37,29,03,147,,31,44,177,38,32,45,003,36*72
$GPGSV,5,4,17,36,52,277,35,40,84,353,39,41,58,082,36,49,32,274,*75
$GPGSV,5,5,17,50,10,089,*4A
$GLGSV,3,1,12,69,03,014,,70,36,317,22,71,31,259,33,72,00,221,*64
$GLGSV,3,2,12,73,17,181,12,74,02,221,,80,14,127,21,82,03,149,*61
$GLGSV,3,3,12,83,46,121,29,84,53,021,19,85,11,345,21,,,,33*5B
$GNGLL,0419.90250,S,05539.73161,E,123052.00,A,D*62
$GNRMC,123053.00,A,0419.90251,S,05539.73158,E,0.034,,260525,,,D*70
$GNVTG,,T,,M,0.034,N,0.062,K,D*3B
$GNGGA,123053.00,0419.90251,S,05539.73158,E,2,12,0.62,50.8,M,-47.6,M,,0000*49
$GNGSA,A,3,28,32,27,31,18,26,16,10,08,41,,,1.28,0.62,1.12*1B
$GNGSA,A,3,83,84,70,71,73,80,85,,,,,,1.28,0.62,1.12*16
$GNRMC,123058.00,A,0419.90265,S,05539.73150,E,0.243,,260525,,,D*76
$GNVTG,,T,,M,0.243,N,0.449,K,D*34
$GNGGA,123058.00,0419.90265,S,05539.73150,E,2,12,0.62,51.0,M,-47.6,M,,0000*44
$GNGSA,A,3,28,32,27,31,18,26,16,10,08,41,,,1.28,0.62,1.12*1B
$GNGSA,A,3,83,84,70,71,73,80,85,,,,,,1.28,0.62,1.12*16
$GPGSV,5,1,17,04,01,220,,08,17,310,28,10,14,014,22,16,24,227,15*7B
$GPGSV,5,2,17,18,32,101,26,23,01,052,,26,28,197,25,27,51,292,37*79
$GPGSV,5,3,17,28,56,129,32,29,02,147,,31,44,177,35,32,45,003,31*74
$GPGSV,5,4,17,36,52,277,34,40,84,353,36,41,58,082,33,49,32,274,*7E
$GPGSV,5,5,17,50,10,089,*4A
$GLGSV,3,1,12,69,03,014,17,70,36,317,20,71,31,259,26,72,00,221,*64
$GLGSV,3,2,12,73,17,181,10,74,02,221,,80,14,127,18,82,03,149,*69
$GLGSV,3,3,12,83,46,121,25,84,53,021,20,85,11,345,09,,,,23*56
$GNGLL,0419.90265,S,05539.73150,E,123058.00,A,D*6C
$GNRMC,123059.00,A,0419.90266,S,05539.73151,E,0.044,,260525,,,D*70
$GNVTG,,T,,M,0.044,N,0.081,K,D*31
$GNGGA,123059.00,0419.90266,S,05539.73151,E,2,12,0.67,51.0,M,-47.6,M,,0000*42
$GNGSA,A,3,28,32,27,31,18,26,16,10,08,41,,,1.43,0.67,1.27*15
$GNGSA,A,3,83,84,70,71,80,85,,,,,,,1.43,0.67,1.27*1C
$GPGSV,5,1,17,04,01,220,,08,17,310,31,10,14,014,18,16,24,227,14*7B
$GPGSV,5,2,17,18,32,101,27,23,01,052,,26,28,197,25,27,51,292,39*76
$GPGSV,5,3,17,28,56,129,36,29,02,147,,31,44,177,37,32,45,003,35*76
$GPGSV,5,4,17,36,52,277,35,40,84,353,38,41,58,082,34,49,32,274,*76
$GPGSV,5,5,17,50,10,089,*4A
$GLGSV,3,1,12,69,03,014,15,70,36,317,19,71,31,259,26,72,00,221,*6C
$GLGSV,3,2,12,73,17,181,07,74,02,221,,80,14,127,16,82,03,149,*61
$GLGSV,3,3,12,83,46,121,25,84,53,021,18,85,11,345,08,,,,25*5A
$GNGLL,0419.90266,S,05539.73151,E,123059.00,A,D*6F
$GNRMC,123101.00,A,0419.90269,S,05539.73148,E,0.023,,260525,,,D*7A
$GNVTG,,T,,M,0.023,N,0.043,K,D*3E
$GNGGA,123101.00,0419.90269,S,05539.73148,E,2,12,0.64,51.2,M,-47.6,M,,0000*48
$GNGSA,A,3,28,32,27,31,18,26,16,10,08,41,,,1.37,0.64,1.21*13
$GNGSA,A,3,83,84,70,71,73,80,85,,,,,,1.37,0.64,1.21*1E
$GPGSV,5,1,17,04,01,220,,08,17,310,26,10,14,014,19,16,24,227,13*7B
$GPGSV,5,2,17,18,32,101,27,23,01,052,,26,28,197,22,27,51,292,38*70
$GPGSV,5,3,17,28,56,129,33,29,02,147,,31,45,176,34,32,44,003,36*72
$GPGSV,5,4,17,36,52,277,34,40,84,353,38,41,58,082,34,49,32,274,*77
$GPGSV,5,5,17,50,10,089,*4A
$GLGSV,3,1,12,69,03,014,14,70,36,317,21,71,31,259,27,72,00,221,*67
$GLGSV,3,2,12,73,17,181,11,74,02,221,,80,14,127,16,82,03,149,*66
$GLGSV,3,3,12,83,46,121,25,84,53,021,19,85,11,345,11,,,,26*50
$GNGLL,0419.90269,S,05539.73148,E,123101.00,A,D*64
$GNRMC,123104.00,A,0419.90275,S,05539.73144,E,0.067,,260525,,,D*7E
$GNVTG,,T,,M,0.067,N,0.125,K,D*3F
$GNGGA,123104.00,0419.90275,S,05539.73144,E,2,12,0.72,51.2,M,-47.6,M,,0000*4B
$GNGSA,A,3,28,32,27,31,18,26,10,08,41,,,,1.48,0.72,1.29*13
$GNGSA,A,3,83,84,70,71,80,85,,,,,,,1.48,0.72,1.29*1D
$GPGSV,5,1,17,04,01,220,,08,17,310,29,10,14,014,25,16,24,227,17*7F
$GPGSV,5,2,17,18,32,101,27,23,01,052,,26,28,197,23,27,51,292,34*7D
$GPGSV,5,3,17,28,56,129,31,29,02,147,,31,45,176,34,32,44,003,34*72
$GPGSV,5,4,17,36,52,277,32,40,84,353,36,41,58,082,29,49,32,274,*73
$GPGSV,5,5,17,50,10,089,*4A
$GLGSV,3,1,12,69,03,014,13,70,36,317,23,71,31,259,28,72,00,221,*6D
$GLGSV,3,2,12,73,17,181,12,74,02,221,,80,14,127,18,82,03,149,*6B
$GLGSV,3,3,12,83,46,121,27,84,53,021,20,85,11,345,13,,,,30*5D
$GNGLL,0419.90275,S,05539.73144,E,123104.00,A,D*60
$GNRMC,123105.00,A,0419.90274,S,05539.73141,E,0.006,,260525,,,D*7C
$GNVTG,,T,,M,0.006,N,0.011,K,D*3E
$GNGGA,123105.00,0419.90274,S,05539.73141,E,2,12,0.68,51.0,M,-47.6,M,,0000*47
$GNGSA,A,3,28,32,27,31,18,26,10,08,41,,,,1.40,0.68,1.22*1B
$GNGSA,A,3,83,84,70,71,73,80,85,,,,,,1.40,0.68,1.22*11
$GPGSV,5,1,17,04,01,220,,08,17,310,30,10,14,014,27,16,24,227,13*71
$GPGSV,5,2,17,18,32,101,28,23,01,052,,26,28,197,24,27,51,292,40*76
$GPGSV,5,3,17,28,56,129,39,29,02,147,,31,45,176,37,32,44,003,41*7B
$GPGSV,5,4,17,36,52,277,36,40,84,353,41,41,58,082,36,49,32,274,*79
$GPGSV,5,5,17,50,10,089,*4A
$GLGSV,3,1,12,69,03,014,09,70,36,317,23,71,31,259,34,72,00,221,*6B
$GLGSV,3,2,12,73,17,181,10,74,02,221,,80,14,127,18,82,03,149,*69
$GLGSV,3,3,12,83,46,121,28,84,53,021,21,85,11,345,09,,,,33*5B
$GNGLL,0419.90274,S,05539.73141,E,123105.00,A,D*65
$GNRMC,123106.00,A,0419.90276,S,05539.73139,E,0.020,,260525,,,D*76
$GNVTG,,T,,M,0.020,N,0.038,K,D*31
$GNGGA,123106.00,0419.90276,S,05539.73139,E,2,12,0.68,51.1,M,-47.6,M,,0000*48
$GNGSA,A,3,28,32,27,31,18,26,10,08,41,,,,1.40,0.68,1.22*1B
$GNGSA,A,3,83,84,70,71,73,80,85,,,,,,1.40,0.68,1.22*11
$GPGSV,5,1,17,04,01,220,,08,17,310,31,10,14,014,28,16,24,227,*7D
$GPGSV,5,2,17,18,32,101,28,23,01,052,,26,28,197,23,27,51,292,39*7F
$GPGSV,5,3,17,28,56,129,36,29,02,147,,31,45,176,36,32,44,003,41*75
$GPGSV,5,4,17,36,52,277,35,40,84,353,40,41,58,082,32,49,32,274,*7F
$GPGSV,5,5,17,50,10,089,*4A
$GLGSV,3,1,12,69,03,014,12,70,36,317,22,71,31,259,33,72,00,221,*67
$GLGSV,3,2,12,73,17,181,10,74,02,221,,80,14,127,19,82,03,149,*68
$GLGSV,3,3,12,83,46,121,29,84,53,021,21,85,11,345,16,,,,33*54
$GNGLL,0419.90276,S,05539.73139,E,123106.00,A,D*6B
$GNRMC,123108.00,A,0419.90273,S,05539.73134,E,0.026,,260525,,,D*76
$GNVTG,,T,,M,0.026,N,0.047,K,D*3F
$GNGGA,123108.00,0419.90273,S,05539.73134,E,2,12,0.66,51.2,M,-47.6,M,,0000*43
$GNGSA,A,3,28,32,27,31,18,26,10,08,41,,,,1.30,0.66,1.12*11
$GNGSA,A,3,83,84,70,71,73,80,85,,,,,,1.30,0.66,1.12*1B
$GPGSV,5,1,17,04,01,220,,08,17,310,33,10,14,014,27,16,24,227,*70
$GPGSV,5,2,17,18,32,101,31,23,01,052,,26,28,197,23,27,51,292,41*78
$GPGSV,5,3,17,28,56,129,38,29,02,147,,31,45,176,35,32,44,003,41*78
$GPGSV,5,4,17,36,52,277,38,40,84,353,41,41,58,082,36,49,32,274,*77
$GPGSV,5,5,17,50,10,089,*4A
$GLGSV,3,1,12,69,03,014,18,70,36,317,24,71,31,259,31,72,00,221,*69
$GLGSV,3,2,12,73,17,181,10,74,02,221,,80,14,127,21,82,03,149,*63
$GLGSV,3,3,12,83,46,121,29,84,53,021,23,85,11,345,16,,,,35*50
$GNGLL,0419.90273,S,05539.73134,E,123108.00,A,D*6D
$GNRMC,123109.00,A,0419.90264,S,05539.73135,E,0.082,,260525,,,A*7B
$GNVTG,,T,,M,0.082,N,0.151,K,A*32
$GNGGA,123109.00,0419.90264,S,05539.73135,E,1,12,0.68,51.5,M,-47.6,M,,*4F
$GNGSA,A,3,28,32,27,31,18,26,10,08,41,,,,1.40,0.68,1.22*1B
$GNGSA,A,3,83,84,70,71,73,80,85,,,,,,1.40,0.68,1.22*11
$GPGSV,5,1,17,04,01,220,,08,17,310,31,10,14,014,26,16,24,227,*73
$GPGSV,5,2,17,18,32,101,30,23,01,052,,26,28,197,24,27,51,292,39*71
$GPGSV,5,3,17,28,56,129,38,29,02,147,,31,45,176,32,32,44,003,40*7E
$GPGSV,5,4,17,36,52,277,37,40,84,353,41,41,58,082,33,49,32,274,*7D
$GPGSV,5,5,17,50,10,089,*4A
$GLGSV,3,1,12,69,03,014,18,70,36,317,25,71,31,259,31,72,00,221,*68
$GLGSV,3,2,12,73,17,181,10,74,02,221,,80,14,127,21,82,03,149,*63
$GLGSV,3,3,12,83,46,121,29,84,53,021,23,85,11,345,16,,,,32*57
$GNGLL,0419.90264,S,05539.73135,E,123109.00,A,A*6E
$GPGSV,5,3,17,28,56,129,35,29,02,147,,31,45,176,35,32,44,003,41*75
$GPGSV,5,4,17,36,52,277,37,40,84,353,41,41,58,082,35,49,32,274,*7B
$GPGSV,5,5,17,50,10,089,*4A
$GLGSV,3,1,12,69,03,014,14,70,36,317,25,71,31,259,31,72,00,221,*64
$GLGSV,3,2,12,73,17,181,08,74,02,221,,80,14,127,19,82,03,149,*61
$GLGSV,3,3,12,83,46,121,29,84,53,021,23,85,11,345,11,,,,29*5A
$GNGLL,0419.90248,S,05539.73140,E,123112.00,A,A*68
$GNRMC,123113.00,A,0419.90244,S,05539.73143,E,0.021,,260525,,,A*7A
$GNVTG,,T,,M,0.021,N,0.039,K,A*34
$GNGGA,123113.00,0419.90244,S,05539.73143,E,1,12,0.68,51.5,M,-47.6,M,,*47
$GNGSA,A,3,28,32,27,31,18,26,10,08,41,,,,1.40,0.68,1.22*1B
$GNGSA,A,3,83,84,70,71,73,80,85,,,,,,1.40,0.68,1.22*11
$GPGSV,5,1,17,04,01,220,,08,17,310,31,10,14,014,28,16,24,227,*7D
$GPGSV,5,2,17,18,32,101,32,23,01,052,,26,28,197,23,27,51,292,41*7B
$GPGSV,5,3,17,28,56,129,38,29,02,147,,31,45,176,35,32,44,003,42*7B
$GPGSV,5,4,17,36,52,277,37,40,84,353,42,41,58,082,35,49,32,274,*78
$GPGSV,5,5,17,50,10,089,*4A
$GLGSV,3,1,12,69,03,014,13,70,36,317,25,71,31,259,31,72,00,221,*63
$GLGSV,3,2,12,73,17,181,07,74,02,221,,80,14,127,19,82,03,149,*6E
$GLGSV,3,3,12,83,46,121,29,84,53,021,23,85,11,345,12,,,,27*57
$GNGLL,0419.90244,S,05539.73143,E,123113.00,A,A*66
$GNRMC,123114.00,A,0419.90241,S,05539.73144,E,0.027,,260525,,,A*79
$GNVTG,,T,,M,0.027,N,0.049,K,A*35
$GNGGA,123114.00,0419.90241,S,05539.73144,E,1,12,0.66,51.5,M,-47.6,M,,*4C
$GNGSA,A,3,28,32,27,31,18,26,10,08,41,,,,1.30,0.66,1.12*11
$GNGSA,A,3,83,84,70,71,73,80,85,,,,,,1.30,0.66,1.12*1B
$GPGSV,5,1,17,04,01,220,,08,17,310,31,10,14,014,29,16,24,227,*7C
$GPGSV,5,2,17,18,32,101,32,23,01,052,,26,28,197,25,27,51,292,41*7D
$GPGSV,5,3,17,28,56,129,37,29,02,147,,31,45,176,36,32,44,003,43*76
$GPGSV,5,4,17,36,52,277,37,40,84,353,42,41,58,082,35,49,32,274,*78
$GPGSV,5,5,17,50,10,089,*4A
$GLGSV,3,1,12,69,03,014,12,70,36,317,26,71,31,259,32,72,00,221,*62
$GLGSV,3,2,12,73,17,181,10,74,02,221,,80,14,127,18,82,03,149,*69
$GLGSV,3,3,12,83,46,121,28,84,53,021,23,85,11,345,12,,,,27*56
$GNGLL,0419.90241,S,05539.73144,E,123114.00,A,A*63
$GNRMC,123118.00,A,0419.90241,S,05539.73143,E,0.049,,260525,,,A*7A
$GNVTG,,T,,M,0.049,N,0.091,K,A*38
$GNGGA,123118.00,0419.90241,S,05539.73143,E,1,12,0.68,51.1,M,-47.6,M,,*4D
$GNGSA,A,3,28,32,27,31,18,26,10,08,41,,,,1.40,0.68,1.22*1B
$GNGSA,A,3,83,84,70,71,73,80,85,,,,,,1.40,0.68,1.22*11
$GPGSV,5,1,17,04,01,220,,08,17,310,31,10,14,014,29,16,24,227,*7C
$GPGSV,5,2,17,18,32,101,32,23,01,052,,26,28,197,25,27,51,292,41*7D
$GPGSV,5,3,17,28,56,129,37,29,02,147,,31,45,176,36,32,44,003,41*74
$GPGSV,5,4,17,36,52,277,37,40,84,353,41,41,58,082,34,49,32,274,*7A
$GPGSV,5,5,17,50,10,089,*4A
$GLGSV,3,1,12,69,03,014,12,70,36,317,27,71,31,259,32,72,00,221,*63
$GLGSV,3,2,12,73,17,181,08,74,02,221,,80,14,127,17,82,03,149,*6F
$GLGSV,3,3,12,83,46,121,28,84,53,021,21,85,11,345,12,,,,24*57
$GNGLL,0419.90241,S,05539.73143,E,123118.00,A,A*68
$GNRMC,123120.00,A,0419.90239,S,05539.73150,E,0.032,,260525,,,A*70
$GNVTG,,T,,M,0.032,N,0.059,K,A*30
$GNGGA,123120.00,0419.90239,S,05539.73150,E,1,12,0.66,51.0,M,-47.6,M,,*44
$GNGSA,A,3,28,32,27,31,18,26,10,08,41,,,,1.30,0.66,1.12*11
$GNGSA,A,3,83,84,70,71,73,80,85,,,,,,1.30,0.66,1.12*1B
$GPGSV,5,1,17,04,01,220,,08,17,310,30,10,14,014,28,16,24,227,*7C
$GPGSV,5,2,17,18,32,101,32,23,01,052,,26,28,197,25,27,51,292,41*7D
$GPGSV,5,3,17,28,56,129,37,29,02,147,,31,45,176,37,32,44,003,42*76
$GPGSV,5,4,17,36,52,277,37,40,84,353,42,41,58,082,35,49,32,274,*78
$GPGSV,5,5,17,50,10,089,*4A
$GLGSV,3,1,12,69,03,014,16,70,36,317,26,71,31,259,32,72,00,221,*66
$GLGSV,3,2,12,73,17,181,09,74,02,221,,80,14,127,16,82,03,149,*6F
$GLGSV,3,3,12,83,46,121,28,84,53,021,21,85,11,345,12,,,,25*56
$GNGLL,0419.90239,S,05539.73150,E,123120.00,A,A*6E
$GNRMC,123123.00,A,0419.90230,S,05539.73157,E,0.031,,260525,,,A*7E
$GNVTG,,T,,M,0.031,N,0.057,K,A*3D
$GNGGA,123123.00,0419.90230,S,05539.73157,E,1,12,0.73,51.1,M,-47.6,M,,*4C
$GNGSA,A,3,28,32,27,31,18,26,10,08,41,,,,1.55,0.73,1.37*11
$GNGSA,A,3,83,84,70,71,73,80,85,,,,,,1.55,0.73,1.37*1B
$GPGSV,5,1,17,04,01,220,,08,17,310,30,10,14,014,28,16,24,227,*7C
$GPGSV,5,2,17,18,32,101,32,23,01,052,,26,28,197,25,27,51,292,40*7C
$GPGSV,5,3,17,28,56,129,37,29,02,147,,31,45,176,36,32,44,003,41*74
$GPGSV,5,4,17,36,52,277,36,40,84,353,41,41,58,082,34,49,32,274,*7B
$GPGSV,5,5,17,50,10,089,*4A
$GLGSV,3,1,12,69,03,014,21,70,36,317,28,71,31,259,33,72,00,221,*6D
$GLGSV,3,2,12,73,17,181,09,74,02,221,,80,14,127,17,82,03,149,*6E
$GLGSV,3,3,12,83,46,121,30,84,53,021,23,85,11,345,11,,,,29*52
$GNGLL,0419.90230,S,05539.73157,E,123123.00,A,A*63
$GNRMC,123124.00,A,0419.90228,S,05539.73160,E,0.031,,260525,,,A*74
$GNVTG,,T,,M,0.031,N,0.058,K,A*32
$GNGGA,123124.00,0419.90228,S,05539.73160,E,1,12,0.68,51.1,M,-47.6,M,,*4C
$GNGSA,A,3,28,32,27,31,18,26,10,08,41,,,,1.40,0.68,1.22*1B
$GNGSA,A,3,83,84,70,71,73,80,85,,,,,,1.40,0.68,1.22*11
$GPGSV,5,1,17,04,01,220,,08,17,310,30,10,14,014,28,16,24,227,*7C
$GPGSV,5,2,17,18,32,101,32,23,01,052,,26,28,197,25,27,51,292,39*72
$GPGSV,5,3,17,28,56,129,37,29,02,147,,31,45,176,36,32,44,003,41*74
$GPGSV,5,4,17,36,52,277,36,40,84,353,41,41,58,082,34,49,32,274,*7B
$GPGSV,5,5,17,50,10,089,*4A
$GLGSV,3,1,12,69,03,014,23,70,36,317,28,71,31,259,33,72,00,221,*6F
$GLGSV,3,2,12,73,17,181,10,74,02,221,,80,14,127,17,82,03,149,*66
$GLGSV,3,3,12,83,46,121,30,84,53,021,23,85,11,345,10,,,,31*5A
$GNGLL,0419.90228,S,05539.73160,E,123124.00,A,A*69
$GNRMC,123128.00,A,0419.90219,S,05539.73170,E,0.051,,260525,,,A*7D
$GNVTG,,T,,M,0.051,N,0.094,K,A*34
$GNGGA,123128.00,0419.90219,S,05539.73170,E,1,12,0.66,51.1,M,-47.6,M,,*4D
$GNGSA,A,3,28,32,27,31,18,26,10,08,41,,,,1.30,0.66,1.12*11
$GNGSA,A,3,83,84,70,71,73,80,85,,,,,,1.30,0.66,1.12*1B
$GPGSV,5,1,17,04,01,220,,08,17,310,30,10,14,014,28,16,24,227,*7C
$GPGSV,5,2,17,18,32,101,32,23,01,052,,26,28,197,26,27,51,292,40*7F
$GPGSV,5,3,17,28,56,129,37,29,02,147,,31,45,176,37,32,44,003,42*76
$GPGSV,5,4,17,36,52,277,36,40,84,353,42,41,58,082,35,49,32,274,*79
$GPGSV,5,5,17,50,10,089,*4A
$GLGSV,3,1,12,69,03,014,20,70,36,317,27,71,31,259,32,72,00,221,*62
$GLGSV,3,2,12,73,17,181,12,74,02,221,,80,14,127,16,82,03,149,*65
$GLGSV,3,3,12,83,46,121,31,84,53,021,23,85,11,345,11,,,,31*5A
