$GNRMC,122240.00,A,0419.89753,S,05539.74132,E,0.069,,260525,,,A*78
$GNVTG,,T,,M,0.069,N,0.128,K,A*39
$GNGGA,122240.00,0419.89753,S,05539.74132,E,1,12,0.61,41.6,M,-47.6,M,,*42
$GNGSA,A,3,83,84,70,71,80,69,,,,,,,1.27,0.61,1.11*1F
$GNRMC,122241.00,A,0419.89752,S,05539.74131,E,0.017,,260525,,,A*72
$GNVTG,,T,,M,0.017,N,0.032,K,A*3A
$GNGGA,122241.00,0419.89752,S,05539.74131,E,1,12,0.64,41.6,M,-47.6,M,,*44
$GNGSA,A,3,28,32,27,31,18,26,16,10,08,,,,1.35,0.64,1.19*1F
$GNRMC,122242.00,A,0419.89748,S,05539.74127,E,0.090,,260525,,,A*72
$GNVTG,,T,,M,0.090,N,0.167,K,A*34
$GNGGA,122242.00,0419.89748,S,05539.74127,E,1,12,0.64,41.6,M,-47.6,M,,*4B
$GNGSA,A,3,28,32,27,31,18,26,16,10,08,,,,1.35,0.64,1.19*1F
$GNGSA,A,3,83,70,71,80,69,,,,,,,,1.35,0.64,1.19*1D
$GPGSV,4,1,16,08,14,313,29,10,14,011,31,16,24,232,25,18,32,096,39*72
$GPGSV,4,2,16,23,01,049,20,26,28,201,16,27,49,298,36,28,54,136,29*77
$GPGSV,4,3,16,29,05,147,,31,41,179,14,32,48,002,32,36,52,277,41*73
$GPGSV,4,4,16,40,84,353,,41,58,082,38,49,32,274,,50,10,089,*72
$GLGSV,3,1,11,69,06,012,25,70,39,312,19,71,30,253,30,73,16,185,*62
$GLGSV,3,2,11,74,01,225,,80,13,131,26,82,07,147,,83,48,114,26*66
$GLGSV,3,3,11,84,48,018,,85,07,344,17,,,,27*66
$GNGLL,0419.89748,S,05539.74127,E,122242.00,A,A*64
$GNRMC,122243.00,A,0419.89747,S,05539.74121,E,0.035,,260525,,,A*75
$GNVTG,,T,,M,0.035,N,0.065,K,A*38
$GNGGA,122243.00,0419.89747,S,05539.74121,E,1,12,0.64,41.5,M,-47.6,M,,*40
$GNGSA,A,3,28,32,27,31,18,26,16,10,08,,,,1.35,0.64,1.19*1F
$GNGSA,A,3,83,70,71,80,69,,,,,,,,1.35,0.64,1.19*1D
$GPGSV,4,1,16,08,14,313,27,10,14,011,30,16,24,232,27,18,32,096,39*7F
$GPGSV,4,2,16,23,01,049,21,26,28,201,17,27,49,298,36,28,54,136,29*77
$GPGSV,4,3,16,29,05,147,,31,41,179,18,32,48,002,32,36,52,277,41*7F
$GPGSV,4,4,16,40,84,353,,41,58,082,38,49,32,274,,50,10,089,*72
$GLGSV,3,1,11,69,06,012,31,70,39,312,20,71,30,254,33,73,16,185,*69
$GLGSV,3,2,11,74,01,225,,80,13,131,34,82,07,147,,83,48,114,31*63
$GLGSV,3,3,11,84,48,018,,85,07,344,20,,,,33*67
$GNGLL,0419.89747,S,05539.74121,E,122243.00,A,A*6C
$GNRMC,122244.00,A,0419.89744,S,05539.74117,E,0.028,,260525,,,A*78
$GNVTG,,T,,M,0.028,N,0.052,K,A*30
$GNGGA,122244.00,0419.89744,S,05539.74117,E,1,12,0.64,41.3,M,-47.6,M,,*47
$GNGSA,A,3,28,32,27,31,18,26,16,10,08,,,,1.35,0.64,1.19*1F
$GNGSA,A,3,83,70,71,80,69,,,,,,,,1.35,0.64,1.19*1D
$GPGSV,4,1,16,08,14,313,27,10,14,011,31,16,24,232,28,18,32,096,39*71
$GPGSV,4,2,16,23,01,049,22,26,28,201,18,27,49,298,36,28,54,136,29*7B
$GPGSV,4,3,16,29,05,147,,31,41,179,20,32,48,002,32,36,52,277,41*74
$GPGSV,4,4,16,40,84,353,,41,58,082,38,49,32,274,,50,10,089,*72
$GLGSV,3,1,11,69,06,012,31,70,39,312,22,71,30,254,35,73,16,185,*6D
$GLGSV,3,2,11,74,01,225,,80,13,131,33,82,07,147,,83,48,114,31*64
$GLGSV,3,3,11,84,48,018,,85,07,344,21,,,,35*60
$GNGLL,0419.89744,S,05539.74117,E,122244.00,A,A*6D
$GNRMC,122245.00,A,0419.89743,S,05539.74110,E,0.018,,260525,,,A*7A
$GNVTG,,T,,M,0.018,N,0.034,K,A*33
$GNGGA,122245.00,0419.89743,S,05539.74110,E,1,12,0.64,41.0,M,-47.6,M,,*45
$GNGSA,A,3,28,32,27,31,18,26,16,10,08,,,,1.35,0.64,1.19*1F
$GNGSA,A,3,83,70,71,80,69,,,,,,,,1.35,0.64,1.19*1D
$GPGSV,4,1,16,08,14,313,26,10,14,011,30,16,24,232,28,18,32,096,39*71
$GPGSV,4,2,16,23,01,049,21,26,28,201,18,27,49,298,36,28,54,136,28*79
$GPGSV,4,3,16,29,05,147,,31,41,179,21,32,48,002,32,36,52,277,41*75
$GPGSV,4,4,16,40,84,353,,41,58,082,36,49,32,274,,50,10,089,*7C
$GLGSV,3,1,11,69,06,012,32,70,39,312,23,71,30,254,34,73,17,184,*6E
$GLGSV,3,2,11,74,01,225,,80,13,131,32,82,07,147,,83,48,114,30*64
$GLGSV,3,3,11,84,48,018,18,85,07,344,21,,,,33*6F
$GNGLL,0419.89743,S,05539.74110,E,122245.00,A,A*6C
$GNRMC,122246.00,A,0419.89741,S,05539.74104,E,0.058,,260525,,,A*7A
$GNVTG,,T,,M,0.058,N,0.107,K,A*36
$GNGGA,122246.00,0419.89741,S,05539.74104,E,1,12,0.64,40.7,M,-47.6,M,,*47
$GNGSA,A,3,28,32,27,31,18,26,16,10,08,,,,1.35,0.64,1.19*1F
$GNGSA,A,3,83,70,71,80,69,,,,,,,,1.35,0.64,1.19*1D
$GPGSV,4,1,16,08,14,313,27,10,14,011,30,16,24,232,28,18,32,096,39*70
$GPGSV,4,2,16,23,01,049,21,26,28,201,18,27,49,298,36,28,54,136,29*78
$GPGSV,4,3,16,29,05,147,,31,41,179,22,32,48,002,32,36,52,277,41*76
$GPGSV,4,4,16,40,84,353,,41,58,082,37,49,32,274,,50,10,089,*7D
$GLGSV,3,1,11,69,06,012,32,70,39,312,24,71,30,254,34,73,17,184,*69
$GLGSV,3,2,11,74,01,225,,80,13,131,32,82,07,147,,83,48,114,31*65
$GLGSV,3,3,11,84,48,018,19,85,07,344,21,,,,33*6E
$GNGLL,0419.89741,S,05539.74104,E,122246.00,A,A*68
$GNRMC,122248.00,A,0419.89738,S,05539.74097,E,0.012,,260525,,,A*7F
$GNVTG,,T,,M,0.012,N,0.022,K,A*3E
$GNGGA,122248.00,0419.89738,S,05539.74097,E,1,12,0.64,40.5,M,-47.6,M,,*4E
$GNGSA,A,3,28,32,27,31,18,26,16,10,08,,,,1.35,0.64,1.19*1F
$GNGSA,A,3,83,70,71,80,69,,,,,,,,1.35,0.64,1.19*1D
$GPGSV,4,1,16,08,14,313,27,10,14,011,30,16,24,232,29,18,32,096,38*70
$GPGSV,4,2,16,23,01,049,22,26,28,201,17,27,49,298,36,28,54,136,28*75
$GPGSV,4,3,16,29,05,147,,31,41,179,22,32,48,002,32,36,52,277,40*77
$GPGSV,4,4,16,40,84,353,,41,58,082,37,49,32,274,,50,10,089,*7D
$GLGSV,3,1,11,69,06,012,34,70,39,312,24,71,30,254,35,73,17,184,*6E
$GLGSV,3,2,11,74,01,225,,80,13,131,32,82,07,147,,83,48,114,32*66
$GLGSV,3,3,11,84,48,018,15,85,07,344,21,,,,33*62
$GNRMC,122249.00,A,0419.89738,S,05539.74095,E,0.040,,260525,,,A*7B
$GNVTG,,T,,M,0.040,N,0.073,K,A*3D
$GNGGA,122249.00,0419.89738,S,05539.74095,E,1,12,0.64,40.5,M,-47.6,M,,*4D
$GNGSA,A,3,28,32,27,31,18,26,16,10,08,,,,1.35,0.64,1.19*1F
$GNGSA,A,3,83,84,70,71,80,69,,,,,,,1.35,0.64,1.19*11
$GPGSV,4,1,16,08,14,313,27,10,14,011,29,16,24,232,29,18,32,096,38*78
$GPGSV,4,2,16,23,01,049,23,26,28,201,17,27,49,298,36,28,54,136,27*7B
$GPGSV,4,3,16,29,05,147,,31,41,179,21,32,48,002,31,36,52,277,40*77
$GPGSV,4,4,16,40,84,353,,41,58,082,37,49,32,274,,50,10,089,*7D
$GLGSV,3,1,11,69,06,012,33,70,39,312,25,71,30,254,34,73,17,184,*69
$GLGSV,3,2,11,74,01,225,,80,13,131,33,82,07,147,,83,48,114,32*67
$GLGSV,3,3,11,84,48,018,16,85,07,344,22,,,,33*62
$GNGLL,0419.89738,S,05539.74095,E,122249.00,A,A*60
$GNRMC,122250.00,A,0419.89735,S,05539.74094,E,0.082,,260525,,,A*71
$GNVTG,,T,,M,0.082,N,0.152,K,A*31
$GNGGA,122250.00,0419.89735,S,05539.74094,E,1,12,0.64,40.6,M,-47.6,M,,*4A
$GNGSA,A,3,28,32,27,31,18,26,16,10,08,,,,1.35,0.64,1.19*1F
$GNGSA,A,3,83,84,70,71,80,69,,,,,,,1.35,0.64,1.19*11
$GPGSV,4,1,16,08,14,313,27,10,14,011,28,16,24,232,29,18,32,096,38*79
$GPGSV,4,2,16,23,01,049,24,26,28,201,17,27,49,298,37,28,54,136,27*7D
$GPGSV,4,3,16,29,05,147,,31,41,179,20,32,48,002,31,36,52,277,40*76
$GPGSV,4,4,16,40,84,353,,41,58,082,37,49,32,274,,50,10,089,*7D
$GLGSV,3,1,11,69,06,012,31,70,39,312,25,71,30,254,35,73,17,184,*6A
$GLGSV,3,2,11,74,01,225,,80,13,131,29,82,07,147,,83,48,114,30*6E
$GLGSV,3,3,11,84,48,018,16,85,07,344,23,,,,34*64
$GNGLL,0419.89735,S,05539.74094,E,122250.00,A,A*64
$GNRMC,122251.00,A,0419.89734,S,05539.74094,E,0.061,,260525,,,A*7C
$GNVTG,,T,,M,0.061,N,0.113,K,A*39
$GNGGA,122251.00,0419.89734,S,05539.74094,E,1,12,0.64,40.7,M,-47.6,M,,*4B
$GNGSA,A,3,28,32,27,31,18,26,16,10,08,,,,1.35,0.64,1.19*1F
$GNGSA,A,3,83,84,70,71,80,69,,,,,,,1.35,0.64,1.19*11
$GPGSV,4,1,16,08,14,313,27,10,14,011,28,16,24,232,29,18,32,096,37*76
$GPGSV,4,2,16,23,01,049,25,26,28,201,17,27,49,298,37,28,54,136,27*7C
$GPGSV,4,3,16,29,05,147,,31,41,179,18,32,48,002,31,36,52,277,40*7D
$GPGSV,4,4,16,40,84,353,,41,58,082,37,49,32,274,,50,10,089,*7D
$GLGSV,3,1,11,69,06,012,31,70,39,312,25,71,30,254,35,73,17,184,*6A
$GLGSV,3,2,11,74,01,225,,80,13,131,29,82,07,147,,83,48,114,29*66
$GLGSV,3,3,11,84,48,018,16,85,07,344,23,,,,34*64
$GNGLL,0419.89734,S,05539.74094,E,122251.00,A,A*64
$GNRMC,122252.00,A,0419.89733,S,05539.74093,E,0.009,,260525,,,A*71
$GNVTG,,T,,M,0.009,N,0.017,K,A*32
$GNGGA,122252.00,0419.89733,S,05539.74093,E,1,12,0.64,40.7,M,-47.6,M,,*48
$GNGSA,A,3,28,32,27,31,18,26,16,10,08,,,,1.35,0.64,1.19*1F
$GNGSA,A,3,83,84,70,71,80,69,,,,,,,1.35,0.64,1.19*11
$GPGSV,4,1,16,08,14,313,28,10,14,011,33,16,24,232,30,18,32,096,40*7B
$GPGSV,4,2,16,23,01,049,25,26,28,201,18,27,49,298,39,28,54,136,27*7D
$GPGSV,4,3,16,29,05,147,,31,41,179,17,32,48,002,33,36,52,277,42*72
$GPGSV,4,4,16,40,84,353,,41,58,082,39,49,32,274,,50,10,089,*73
$GLGSV,3,1,11,69,06,012,32,70,39,312,25,71,30,254,35,73,17,184,*69
$GLGSV,3,2,11,74,01,225,,80,13,130,29,82,07,147,,83,48,114,28*66
$GLGSV,3,3,11,84,48,018,16,85,07,344,21,,,,33*61
$GNGLL,0419.89733,S,05539.74093,E,122252.00,A,A*67
$GNRMC,122253.00,A,0419.89732,S,05539.74093,E,0.034,,260525,,,A*7F
$GNVTG,,T,,M,0.034,N,0.062,K,A*3E
$GNGGA,122253.00,0419.89732,S,05539.74093,E,1,12,0.64,40.9,M,-47.6,M,,*46
$GNGSA,A,3,28,32,27,31,18,26,16,10,08,,,,1.35,0.64,1.19*1F
$GNGSA,A,3,83,84,70,71,80,69,,,,,,,1.35,0.64,1.19*11
$GPGSV,4,1,16,08,14,313,28,10,14,011,32,16,24,232,30,18,32,096,38*75
$GPGSV,4,2,16,23,01,049,23,26,28,201,19,27,49,298,37,28,54,136,28*7B
$GPGSV,4,3,16,29,05,147,,31,41,179,17,32,48,002,32,36,52,277,39*7F
$GPGSV,4,4,16,40,84,353,,41,58,082,37,49,32,274,,50,10,089,*7D
$GLGSV,3,1,11,69,06,012,34,70,39,312,26,71,30,254,35,73,17,184,*6C
$GLGSV,3,2,11,74,01,225,,80,13,130,29,82,07,147,,83,48,114,28*66
$GLGSV,3,3,11,84,48,018,17,85,07,344,19,,,,32*6A
$GNGLL,0419.89732,S,05539.74093,E,122253.00,A,A*67
$GNRMC,122254.00,A,0419.89733,S,05539.74092,E,0.037,,260525,,,A*7B
$GNVTG,,T,,M,0.037,N,0.068,K,A*37
$GNGGA,122254.00,0419.89733,S,05539.74092,E,1,12,0.64,41.0,M,-47.6,M,,*49
$GNGSA,A,3,28,32,27,31,18,26,16,10,08,,,,1.35,0.64,1.19*1F
$GNGSA,A,3,83,84,70,71,80,69,,,,,,,1.35,0.64,1.19*11
$GPGSV,4,1,16,08,14,313,28,10,14,011,32,16,24,232,31,18,32,096,39*75
$GPGSV,4,2,16,23,01,049,22,26,28,201,19,27,49,298,38,28,54,136,27*7A
$GPGSV,4,3,16,29,05,147,,31,41,179,15,32,48,002,32,36,52,277,41*72
$GPGSV,4,4,16,40,84,353,,41,58,082,38,49,32,274,,50,10,089,*72
$GLGSV,3,1,11,69,06,012,33,70,39,312,26,71,30,254,35,73,17,184,*6B
$GLGSV,3,2,11,74,01,225,,80,13,130,30,82,06,147,,83,48,114,26*61
$GLGSV,3,3,11,84,48,018,17,85,07,344,18,,,,33*6A
$GNGLL,0419.89733,S,05539.74092,E,122254.00,A,A*60
$GNRMC,122255.00,A,0419.89732,S,05539.74092,E,0.081,,260525,,,A*76
$GNVTG,,T,,M,0.081,N,0.150,K,A*30
$GNGGA,122255.00,0419.89732,S,05539.74092,E,1,12,0.64,41.2,M,-47.6,M,,*4B
$GNGSA,A,3,28,32,27,31,18,26,16,10,08,,,,1.35,0.64,1.19*1F
$GNGSA,A,3,83,84,70,71,80,69,,,,,,,1.35,0.64,1.19*11
$GPGSV,4,1,16,08,14,313,29,10,14,011,32,16,24,232,31,18,32,096,39*74
$GPGSV,4,2,16,23,01,049,22,26,28,201,19,27,49,298,38,28,54,136,27*7A
$GPGSV,4,3,16,29,05,147,,31,41,179,16,32,48,002,33,36,52,277,41*70
$GPGSV,4,4,16,40,84,353,,41,58,082,38,49,32,274,,50,10,089,*72
$GNRMC,122256.00,A,0419.89732,S,05539.74092,E,0.008,,260525,,,A*74
$GNVTG,,T,,M,0.008,N,0.015,K,A*31
$GNGGA,122256.00,0419.89732,S,05539.74092,E,1,12,0.64,41.3,M,-47.6,M,,*49
$GNGSA,A,3,28,32,27,31,18,26,16,10,08,,,,1.35,0.64,1.19*1F
$GNGSA,A,3,83,84,70,71,80,69,,,,,,,1.35,0.64,1.19*11
$GPGSV,4,1,16,08,14,313,28,10,14,011,30,16,24,232,30,18,32,096,36*79
$GPGSV,4,2,16,23,01,049,21,26,28,201,17,27,49,298,35,28,54,136,26*7B
$GPGSV,4,3,16,29,05,147,,31,41,179,15,32,48,002,30,36,52,277,38*7E
$GPGSV,4,4,16,40,84,353,,41,58,082,35,49,32,274,,50,10,089,*7F
$GLGSV,3,1,11,69,06,012,33,70,39,312,25,71,30,254,34,73,17,184,*69
$GLGSV,3,2,11,74,01,225,,80,13,130,29,82,06,147,,83,48,115,27*69
$GLGSV,3,3,11,84,49,019,15,85,07,344,17,,,,31*65
$GNGLL,0419.89732,S,05539.74092,E,122256.00,A,A*63
$GNRMC,122257.00,A,0419.89735,S,05539.74091,E,0.051,,260525,,,A*7D
$GNVTG,,T,,M,0.051,N,0.095,K,A*35
$GNGGA,122257.00,0419.89735,S,05539.74091,E,1,12,0.65,41.4,M,-47.6,M,,*4A
$GNGSA,A,3,28,32,27,31,18,26,16,10,08,,,,1.36,0.65,1.20*17
$GNGSA,A,3,83,84,70,71,80,69,,,,,,,1.36,0.65,1.20*19
$GPGSV,4,1,16,08,14,313,28,10,14,011,30,16,24,232,30,18,32,096,37*78
$GPGSV,4,2,16,23,01,049,22,26,28,201,17,27,49,298,36,28,54,136,26*7B
$GPGSV,4,3,16,29,05,147,,31,41,179,12,32,48,002,32,36,52,277,39*7A
$GPGSV,4,4,16,40,84,353,,41,58,082,36,49,32,274,,50,10,089,*7C
$GLGSV,3,1,11,69,06,012,32,70,39,312,25,71,30,254,33,73,17,184,*6F
$GLGSV,3,2,11,74,01,225,,80,13,130,28,82,06,147,,83,48,115,28*67
$GLGSV,3,3,11,84,49,019,14,85,08,344,15,,,,29*60
$GNGLL,0419.89735,S,05539.74091,E,122257.00,A,A*66
$GLGSV,3,1,11,69,06,012,31,70,39,312,25,71,30,254,33,73,17,184,*6C
$GLGSV,3,2,11,74,01,225,,80,13,130,29,82,06,147,,83,48,115,28*66
$GLGSV,3,3,11,84,49,019,14,85,08,344,13,,,,27*68
$GNGLL,0419.89735,S,05539.74090,E,122258.00,A,A*68
$GLGSV,3,1,11,69,06,012,28,70,39,312,23,71,30,254,36,73,17,184,*67
$GLGSV,3,2,11,74,01,225,,80,13,130,31,82,06,147,,83,48,115,30*66
$GLGSV,3,3,11,84,49,019,16,85,08,344,,,,,34*6A
$GNGLL,0419.89744,S,05539.74086,E,122305.00,A,A*60
$GNRMC,122306.00,A,0419.89744,S,05539.74085,E,0.058,,260525,,,A*72
$GNVTG,,T,,M,0.058,N,0.108,K,A*39
$GNGGA,122306.00,0419.89744,S,05539.74085,E,1,12,0.65,41.5,M,-47.6,M,,*4D
$GNGSA,A,3,28,32,27,31,18,26,16,10,08,,,,1.36,0.65,1.20*17
$GNGSA,A,3,83,84,70,71,80,69,,,,,,,1.36,0.65,1.20*19
$GPGSV,4,1,16,08,14,313,25,10,14,011,24,16,24,231,27,18,32,096,33*71
$GPGSV,4,2,16,23,01,049,11,26,28,201,18,27,49,298,31,28,54,136,26*73
$GPGSV,4,3,16,29,05,147,08,31,41,179,16,32,48,002,30,36,52,277,32*7F
$GPGSV,4,4,16,40,84,353,29,41,58,082,31,49,32,274,,50,10,089,*70
$GLGSV,3,1,11,69,06,012,25,70,39,312,22,71,30,254,30,73,17,184,*6D
$GLGSV,3,2,11,74,01,225,,80,13,130,27,82,06,147,,83,48,115,22*62
$GLGSV,3,3,11,84,49,019,17,85,08,344,,,,,29*67
$GNGLL,0419.89744,S,05539.74085,E,122306.00,A,A*60
$GNRMC,122307.00,A,0419.89747,S,05539.74085,E,0.009,,260525,,,A*74
$GNVTG,,T,,M,0.009,N,0.017,K,A*32
$GNGGA,122307.00,0419.89747,S,05539.74085,E,1,12,0.65,41.5,M,-47.6,M,,*4F
$GNGSA,A,3,28,32,27,31,18,26,16,10,08,,,,1.36,0.65,1.20*17
$GNGSA,A,3,83,84,70,71,80,69,,,,,,,1.36,0.65,1.20*19
$GPGSV,4,1,16,08,14,313,30,10,14,011,34,16,24,231,27,18,32,096,41*71
$GPGSV,4,2,16,23,01,049,12,26,28,201,16,27,49,298,35,28,54,136,26*7A
$GPGSV,4,3,16,29,05,147,08,31,41,179,18,32,48,002,34,36,52,277,37*70
$GPGSV,4,4,16,40,84,353,36,41,58,082,40,49,32,274,,50,10,089,*78
$GLGSV,3,1,11,69,06,012,32,70,39,312,21,71,30,254,34,73,17,184,*6C
$GLGSV,3,2,11,74,01,225,,80,13,130,27,82,06,147,,83,48,115,30*61
$GLGSV,3,3,11,84,49,019,15,85,08,344,21,,,,34*6A
$GNGLL,0419.89747,S,05539.74085,E,122307.00,A,A*62
$GNRMC,122310.00,A,0419.89755,S,05539.74079,E,0.465,,260525,,,A*7C
$GNVTG,,T,,M,0.465,N,0.860,K,A*34
$GNGGA,122310.00,0419.89755,S,05539.74079,E,1,12,0.68,41.4,M,-47.6,M,,*45
$GNGSA,A,3,28,32,27,31,18,16,10,08,,,,,1.38,0.68,1.20*10
$GNGSA,A,3,83,84,70,71,80,69,,,,,,,1.38,0.68,1.20*1A
$GPGSV,4,1,16,08,15,312,23,10,14,011,29,16,24,231,24,18,32,096,35*7F
$GPGSV,4,2,16,23,01,049,15,26,28,201,15,27,49,298,34,28,54,136,23*7A
$GPGSV,4,3,16,29,05,147,08,31,41,179,16,32,48,002,33,36,52,277,37*79
$GPGSV,4,4,16,40,84,353,28,41,58,082,30,49,32,274,,50,10,089,*70
$GLGSV,3,1,11,69,06,012,23,70,39,312,16,71,30,254,25,73,17,184,*68
$GLGSV,3,2,11,74,01,225,,80,13,130,23,82,06,147,,83,48,115,24*60
$GLGSV,3,3,11,84,49,019,15,85,08,344,24,,,,28*62
$GNGLL,0419.89755,S,05539.74079,E,122310.00,A,A*64
$GNRMC,122311.00,A,0419.89772,S,05539.74075,E,0.799,,260525,,,A*74
$GNVTG,,T,,M,0.799,N,1.479,K,A*31
$GNGGA,122311.00,0419.89772,S,05539.74075,E,1,12,0.68,41.5,M,-47.6,M,,*4C
$GNGSA,A,3,28,32,27,31,18,16,10,08,,,,,1.38,0.68,1.20*10
$GNGSA,A,3,83,84,70,71,80,69,,,,,,,1.38,0.68,1.20*1A
$GPGSV,4,1,16,08,15,312,22,10,14,011,23,16,24,231,24,18,32,096,30*71
$GPGSV,4,2,16,23,01,049,15,26,28,201,13,27,49,298,30,28,54,136,23*78
$GPGSV,4,3,16,29,05,147,08,31,41,179,17,32,48,002,28,36,52,277,32*77
$GPGSV,4,4,16,40,84,353,27,41,58,082,30,49,32,274,,50,10,089,*7F
$GLGSV,3,1,11,69,06,012,23,70,39,312,15,71,30,254,25,73,17,184,*6B
$GLGSV,3,2,11,74,01,225,,80,13,130,23,82,06,147,,83,48,115,23*67
$GLGSV,3,3,11,84,49,019,16,85,08,344,25,,,,28*60
$GNGLL,0419.89772,S,05539.74075,E,122311.00,A,A*6C
$GNRMC,122313.00,A,0419.89778,S,05539.74065,E,0.063,,260525,,,A*7F
$GNVTG,,T,,M,0.063,N,0.118,K,A*30
$GNGGA,122313.00,0419.89778,S,05539.74065,E,1,12,0.71,41.3,M,-47.6,M,,*4B
$GNGSA,A,3,28,32,27,31,18,16,10,08,,,,,1.40,0.71,1.21*16
$GNGSA,A,3,83,84,70,71,80,69,,,,,,,1.40,0.71,1.21*1C
$GPGSV,4,1,16,08,15,312,23,10,14,011,33,16,24,231,26,18,32,096,39*7A
$GPGSV,4,2,16,23,01,049,22,26,28,201,09,27,49,298,39,28,54,136,30*7C
$GPGSV,4,3,16,29,05,147,,31,41,179,18,32,48,002,33,36,52,277,41*7E
$GPGSV,4,4,16,40,84,353,33,41,58,082,36,49,32,274,,50,10,089,*7C
$GLGSV,3,1,11,69,06,012,33,70,39,312,18,71,30,254,30,73,17,184,*63
$GLGSV,3,2,11,74,01,225,,80,13,130,30,82,06,147,,83,48,115,33*64
$GLGSV,3,3,11,84,49,019,17,85,08,344,27,,,,27*6C
$GNGLL,0419.89778,S,05539.74065,E,122313.00,A,A*65
$GNRMC,122320.00,A,0419.89803,S,05539.74052,E,0.083,,260525,,,A*76
$GNVTG,,T,,M,0.083,N,0.154,K,A*36
$GNGGA,122320.00,0419.89803,S,05539.74052,E,1,12,0.65,41.5,M,-47.6,M,,*4F
$GNGSA,A,3,28,32,27,31,18,26,16,10,08,,,,1.36,0.65,1.20*17
$GNGSA,A,3,83,84,70,71,80,69,,,,,,,1.36,0.65,1.20*19
$GPGSV,4,1,16,08,15,312,26,10,14,011,32,16,24,231,28,18,32,097,39*71
$GPGSV,4,2,16,23,01,049,26,26,28,201,20,27,49,298,37,28,54,136,24*78
$GPGSV,4,3,16,29,05,147,,31,41,179,18,32,48,002,31,36,52,277,37*7D
$GPGSV,4,4,16,40,84,353,29,41,58,082,35,49,32,274,,50,10,089,*74
$GLGSV,3,1,11,69,06,012,17,70,39,312,22,71,30,254,32,73,17,184,*6E
$GLGSV,3,2,11,74,01,225,,80,13,130,28,82,06,147,,83,48,115,30*6E
$GLGSV,3,3,11,84,49,019,16,85,08,344,30,,,,34*69
$GNGLL,0419.89803,S,05539.74052,E,122320.00,A,A*62
$GNRMC,122324.00,A,0419.89810,S,05539.74052,E,0.042,,260525,,,A*7D
$GNVTG,,T,,M,0.042,N,0.078,K,A*34
$GNGGA,122324.00,0419.89810,S,05539.74052,E,1,12,0.65,41.7,M,-47.6,M,,*4B
$GNGSA,A,3,28,32,27,31,18,26,16,10,08,,,,1.36,0.65,1.20*17
$GNGSA,A,3,83,84,70,71,80,69,,,,,,,1.36,0.65,1.20*19
$GPGSV,4,1,16,08,15,312,28,10,14,011,30,16,24,231,30,18,32,097,40*7A
$GPGSV,4,2,16,23,01,049,28,26,28,201,20,27,49,298,39,28,54,136,26*7A
$GPGSV,4,3,16,29,05,147,,31,41,179,17,32,48,002,36,36,52,277,37*75
$GPGSV,4,4,16,40,84,353,32,41,58,082,36,49,32,274,,50,10,089,*7D
$GLGSV,3,1,11,69,06,012,24,70,39,312,20,71,30,254,30,73,17,184,*6E
$GLGSV,3,2,11,74,01,225,,80,13,130,28,82,06,147,,83,48,115,29*66
$GLGSV,3,3,11,84,49,019,16,85,08,344,30,,,,34*69
$GNGLL,0419.89810,S,05539.74052,E,122324.00,A,A*64
$GNRMC,122325.00,A,0419.89816,S,05539.74050,E,0.026,,260525,,,A*7A
$GNVTG,,T,,M,0.026,N,0.048,K,A*35
$GNGGA,122325.00,0419.89816,S,05539.74050,E,1,12,0.65,41.8,M,-47.6,M,,*41
$GNGSA,A,3,28,32,27,31,18,26,16,10,08,,,,1.36,0.65,1.20*17
$GNGSA,A,3,83,84,70,71,80,69,,,,,,,1.36,0.65,1.20*19
$GPGSV,4,1,16,08,15,312,28,10,14,011,34,16,24,231,31,18,32,097,41*7E
$GPGSV,4,2,16,23,01,049,27,26,28,200,21,27,49,298,37,28,54,136,26*7B
$GPGSV,4,3,16,29,05,147,,31,41,179,15,32,48,002,33,36,52,277,37*72
$GPGSV,4,4,16,40,84,353,34,41,58,082,37,49,32,274,,50,10,089,*7A
$GLGSV,3,1,11,69,06,012,23,70,39,312,21,71,30,254,31,73,17,184,*69
$GLGSV,3,2,11,74,01,225,,80,13,130,28,82,06,147,,83,48,115,31*6F
$GLGSV,3,3,11,84,49,019,18,85,08,344,29,,,,36*6D
$GNGLL,0419.89816,S,05539.74050,E,122325.00,A,A*61
$GNRMC,122331.00,A,0419.89835,S,05539.74049,E,0.049,,260525,,,A*7F
$GNVTG,,T,,M,0.049,N,0.091,K,A*38
$GNGGA,122331.00,0419.89835,S,05539.74049,E,1,12,0.63,42.3,M,-47.6,M,,*43
$GNGSA,A,3,28,32,27,18,26,16,10,08,,,,,1.29,0.63,1.12*1C
$GNGSA,A,3,83,84,70,71,80,69,,,,,,,1.29,0.63,1.12*10
$GPGSV,4,1,16,08,15,312,26,10,14,011,34,16,24,231,32,18,32,097,40*72
$GPGSV,4,2,16,23,01,049,24,26,28,200,21,27,50,297,37,28,55,135,26*7D
$GPGSV,4,3,16,29,05,147,,31,42,179,08,32,47,002,34,36,52,277,38*7A
$GPGSV,4,4,16,40,84,353,34,41,58,082,37,49,32,274,,50,10,089,*7A
$GLGSV,3,1,11,69,06,012,30,70,39,312,25,71,30,254,34,73,17,184,*6A
$GLGSV,3,2,11,74,01,225,,80,13,130,31,82,06,147,,83,48,115,30*66
$GLGSV,3,3,11,84,49,019,14,85,08,344,30,,,,36*69
$GNGLL,0419.89835,S,05539.74049,E,122331.00,A,A*6D
$GNRMC,122332.00,A,0419.89837,S,05539.74047,E,0.032,,260525,,,A*7C
$GNVTG,,T,,M,0.032,N,0.059,K,A*30
$GNGGA,122332.00,0419.89837,S,05539.74047,E,1,12,0.63,42.3,M,-47.6,M,,*4C
$GNGSA,A,3,28,32,27,31,18,26,16,10,08,,,,1.29,0.63,1.12*1E
$GNGSA,A,3,83,84,70,71,80,69,,,,,,,1.29,0.63,1.12*10
$GPGSV,4,1,16,08,15,312,26,10,14,011,37,16,24,231,33,18,32,097,41*71
$GPGSV,4,2,16,23,01,049,24,26,28,200,21,27,50,297,36,28,55,135,26*7C
$GPGSV,4,3,16,29,05,147,,31,42,179,12,32,47,002,35,36,52,277,40*7F
$GPGSV,4,4,16,40,84,353,34,41,58,082,39,49,32,274,,50,10,089,*74
$GLGSV,3,1,11,69,06,012,32,70,39,312,25,71,30,254,34,73,17,184,*68
$GLGSV,3,2,11,74,01,225,,80,13,130,31,82,06,147,,83,48,115,30*66
$GLGSV,3,3,11,84,49,019,12,85,08,344,29,,,,35*64
$GNGLL,0419.89837,S,05539.74047,E,122332.00,A,A*62
$GNRMC,122333.00,A,0419.89841,S,05539.74045,E,0.005,,260525,,,A*7A
$GNVTG,,T,,M,0.005,N,0.009,K,A*31
$GNGGA,122333.00,0419.89841,S,05539.74045,E,1,12,0.63,42.3,M,-47.6,M,,*4E
$GNGSA,A,3,28,32,27,31,18,26,16,10,08,,,,1.29,0.63,1.12*1E
$GNGSA,A,3,83,84,70,71,80,69,,,,,,,1.29,0.63,1.12*10
$GPGSV,4,1,16,08,15,312,25,10,14,011,35,16,24,231,32,18,32,097,40*70
$GPGSV,4,2,16,23,01,049,25,26,28,200,21,27,50,297,37,28,55,135,26*7C
$GPGSV,4,3,16,29,05,147,,31,42,179,15,32,47,002,36,36,52,277,39*75
$GPGSV,4,4,16,40,84,353,34,41,58,082,38,49,32,274,,50,10,089,*75
$GLGSV,3,1,11,69,06,012,34,70,39,312,25,71,30,254,34,73,17,184,*6E
$GLGSV,3,2,11,74,01,225,,80,13,130,30,82,06,147,,83,48,115,30*67
$GLGSV,3,3,11,84,49,019,14,85,08,344,29,,,,36*61
$GNGLL,0419.89841,S,05539.74045,E,122333.00,A,A*60
$GNRMC,122334.00,A,0419.89844,S,05539.74044,E,0.019,,260525,,,A*74
$GNVTG,,T,,M,0.019,N,0.036,K,A*30
$GNGGA,122334.00,0419.89844,S,05539.74044,E,1,12,0.63,42.4,M,-47.6,M,,*4A
$GNGSA,A,3,28,32,27,31,18,26,16,10,08,,,,1.29,0.63,1.12*1E
$GNGSA,A,3,83,84,70,71,80,69,,,,,,,1.29,0.63,1.12*10
$GPGSV,4,1,16,08,15,312,25,10,14,011,35,16,24,231,32,18,32,097,40*70
$GPGSV,4,2,16,23,01,049,25,26,28,200,20,27,50,297,37,28,55,135,26*7D
$GPGSV,4,3,16,29,05,147,,31,42,179,16,32,47,002,36,36,52,277,39*76
$GPGSV,4,4,16,40,84,353,33,41,58,082,38,49,32,274,,50,10,089,*72
$GLGSV,3,1,11,69,06,012,32,70,39,312,24,71,30,254,34,73,17,184,*69
$GLGSV,3,2,11,74,01,225,,80,13,130,30,82,06,147,,83,48,115,29*6F
$GLGSV,3,3,11,84,49,019,15,85,08,344,28,,,,36*61
$GNGLL,0419.89844,S,05539.74044,E,122334.00,A,A*63
$GNRMC,122335.00,A,0419.89846,S,05539.74043,E,0.017,,260525,,,A*7E
$GNVTG,,T,,M,0.017,N,0.031,K,A*39
$GNGGA,122335.00,0419.89846,S,05539.74043,E,1,12,0.63,42.4,M,-47.6,M,,*4E
$GNGSA,A,3,28,32,27,31,18,26,16,10,08,,,,1.29,0.63,1.12*1E
$GNGSA,A,3,83,84,70,71,80,69,,,,,,,1.29,0.63,1.12*10
$GPGSV,4,1,16,08,15,312,26,10,14,011,31,16,24,231,32,18,32,097,40*77
$GPGSV,4,2,16,23,01,049,25,26,28,200,19,27,50,297,37,28,55,135,25*74
$GPGSV,4,3,16,29,05,147,,31,42,179,16,32,47,002,35,36,52,277,38*74
$GPGSV,4,4,16,40,84,353,33,41,58,082,38,49,32,274,,50,10,089,*72
$GLGSV,3,1,11,69,06,012,32,70,39,312,23,71,30,254,32,73,17,184,*68
$GLGSV,3,2,11,74,01,225,,80,13,130,29,82,06,147,,83,48,115,29*67
$GLGSV,3,3,11,84,49,019,16,85,08,344,28,,,,33*67
$GNGLL,0419.89846,S,05539.74043,E,122335.00,A,A*67
$GNRMC,122336.00,A,0419.89846,S,05539.74044,E,0.043,,260525,,,A*7B
$GNVTG,,T,,M,0.043,N,0.080,K,A*32
$GNGGA,122336.00,0419.89846,S,05539.74044,E,1,12,0.63,42.5,M,-47.6,M,,*4B
$GNGSA,A,3,28,32,27,31,18,26,16,10,08,,,,1.29,0.63,1.12*1E
$GNGSA,A,3,83,84,70,71,80,69,,,,,,,1.29,0.63,1.12*10
$GPGSV,4,1,16,08,15,312,26,10,14,011,32,16,24,231,31,18,32,097,39*79
$GPGSV,4,2,16,23,01,049,26,26,28,200,20,27,50,297,37,28,55,135,25*7D
$GPGSV,4,3,16,29,05,147,,31,42,179,16,32,47,002,35,36,52,277,38*74
$GPGSV,4,4,16,40,84,353,33,41,58,082,36,49,32,274,,50,10,089,*7C
$GLGSV,3,1,11,69,06,012,26,70,39,312,23,71,30,254,33,73,17,184,*6C
$GLGSV,3,2,11,74,01,225,,80,13,130,29,82,06,147,,83,48,115,30*6F
$GLGSV,3,3,11,84,49,019,17,85,08,344,28,,,,34*61
$GNGLL,0419.89846,S,05539.74044,E,122336.00,A,A*63
$GNRMC,122337.00,A,0419.89845,S,05539.74046,E,0.031,,260525,,,A*7E
$GNVTG,,T,,M,0.031,N,0.057,K,A*3D
$GNGGA,122337.00,0419.89845,S,05539.74046,E,1,12,0.63,42.6,M,-47.6,M,,*48
$GNGSA,A,3,28,32,27,31,18,26,16,10,08,,,,1.29,0.63,1.12*1E
$GNGSA,A,3,83,84,70,71,80,69,,,,,,,1.29,0.63,1.12*10
$GPGSV,4,1,16,08,15,312,27,10,14,011,32,16,24,231,31,18,32,097,39*78
$GPGSV,4,2,16,23,01,049,26,26,28,200,19,27,50,297,37,28,55,135,25*77
$GPGSV,4,3,16,29,05,147,,31,42,179,14,32,47,002,35,36,52,277,37*79
$GPGSV,4,4,16,40,84,353,33,41,58,082,37,49,32,274,,50,10,089,*7D
$GLGSV,3,1,11,69,06,012,27,70,39,312,23,71,30,254,33,73,17,184,*6D
$GLGSV,3,2,11,74,01,225,,80,13,130,29,82,06,147,,83,48,115,31*6E
$GLGSV,3,3,11,84,49,019,18,85,08,344,28,,,,35*6F
$GNGLL,0419.89845,S,05539.74046,E,122337.00,A,A*63
$GNGSA,A,3,28,32,27,31,18,26,16,10,08,,,,1.29,0.63,1.12*1E
$GNGSA,A,3,83,84,70,71,80,69,,,,,,,1.29,0.63,1.12*10
$GPGSV,4,1,16,08,15,312,27,10,14,011,32,16,24,231,30,18,32,097,37*77
$GPGSV,4,2,16,23,01,049,25,26,28,200,19,27,50,297,34,28,55,135,25*77
$GPGSV,4,3,16,29,05,147,,31,42,179,11,32,47,002,34,36,52,277,35*7F
$GPGSV,4,4,16,40,84,353,33,41,58,082,35,49,32,274,,50,10,089,*7F
$GLGSV,3,1,11,69,06,012,27,70,39,312,23,71,30,254,33,73,17,184,*6D
$GLGSV,3,2,11,74,01,225,,80,13,130,29,82,06,147,,83,48,115,31*6E
$GLGSV,3,3,11,84,49,019,18,85,08,344,28,,,,34*6E
$GNGLL,0419.89845,S,05539.74045,E,122338.00,A,A*6F
$GNRMC,122341.00,A,0419.89848,S,05539.74046,E,0.021,,260525,,,A*73
$GNVTG,,T,,M,0.021,N,0.039,K,A*34
$GNGGA,122341.00,0419.89848,S,05539.74046,E,1,12,0.62,42.9,M,-47.6,M,,*4A
$GNGSA,A,3,28,32,27,18,26,16,10,08,,,,,1.23,0.62,1.06*12
$GNGSA,A,3,83,84,70,71,80,69,85,,,,,,1.23,0.62,1.06*13
$GPGSV,4,1,16,08,15,312,29,10,14,011,34,16,24,231,31,18,32,097,40*7E
$GPGSV,4,2,16,23,01,049,26,26,28,200,18,27,50,297,36,28,55,135,26*74
$GPGSV,4,3,16,29,05,147,,31,42,179,07,32,47,002,35,36,52,277,38*74
$GPGSV,4,4,16,40,84,353,33,41,58,082,38,49,32,274,,50,10,089,*72
$GLGSV,3,1,11,69,06,012,35,70,39,312,23,71,30,254,34,73,17,184,*69
$GLGSV,3,2,11,74,01,225,,80,13,130,29,82,06,147,,83,48,115,32*6D
$GLGSV,3,3,11,84,49,019,18,85,08,344,29,,,,35*6E
$GNGLL,0419.89848,S,05539.74046,E,122341.00,A,A*6F
$GNRMC,122342.00,A,0419.89848,S,05539.74047,E,0.034,,260525,,,A*75
$GNVTG,,T,,M,0.034,N,0.063,K,A*3F
$GNGGA,122342.00,0419.89848,S,05539.74047,E,1,12,0.62,43.0,M,-47.6,M,,*40
$GNGSA,A,3,28,32,27,18,26,16,10,08,,,,,1.23,0.62,1.06*12
$GNGSA,A,3,83,84,70,71,80,69,85,,,,,,1.23,0.62,1.06*13
$GPGSV,4,1,16,08,15,312,28,10,14,011,34,16,24,231,31,18,32,097,38*70
$GNRMC,122343.00,A,0419.89846,S,05539.74046,E,0.019,,260525,,,A*74
$GNVTG,,T,,M,0.019,N,0.035,K,A*33
$GNGGA,122343.00,0419.89846,S,05539.74046,E,1,12,0.62,43.0,M,-47.6,M,,*4E
$GNGSA,A,3,28,32,27,31,18,26,16,10,08,,,,1.23,0.62,1.06*10
$GNGSA,A,3,83,84,70,71,80,69,85,,,,,,1.23,0.62,1.06*13
$GPGSV,4,1,16,08,15,312,26,10,14,011,33,16,24,231,31,18,32,097,39*78
$GPGSV,4,2,16,23,01,049,27,26,28,200,17,27,50,297,37,28,55,135,26*7B
$GPGSV,4,3,16,29,05,147,,31,42,179,12,32,47,002,35,36,52,277,39*71
$GPGSV,4,4,16,40,84,353,34,41,58,082,37,49,32,274,,50,10,089,*7A
$GLGSV,3,1,11,69,06,012,29,70,39,312,24,71,30,254,31,73,17,184,*66
$GLGSV,3,2,11,74,01,225,,80,13,130,29,82,06,147,,83,48,115,31*6E
$GLGSV,3,3,11,84,49,019,15,85,08,344,27,,,,33*6B
$GNGLL,0419.89846,S,05539.74046,E,122343.00,A,A*63
$GNRMC,122349.00,A,0419.89840,S,05539.74054,E,0.019,,260525,,,A*7B
$GNVTG,,T,,M,0.019,N,0.035,K,A*33
$GNGGA,122349.00,0419.89840,S,05539.74054,E,1,12,0.64,43.4,M,-47.6,M,,*43
$GNGSA,A,3,28,32,27,31,18,16,10,08,,,,,1.25,0.64,1.07*15
$GNGSA,A,3,83,84,70,71,80,69,85,,,,,,1.25,0.64,1.07*12
$GPGSV,4,1,16,08,15,312,28,10,14,011,35,16,24,231,32,18,32,097,38*72
$GPGSV,4,2,16,23,01,049,20,26,28,200,,27,50,297,38,28,55,135,27*74
$GPGSV,4,3,16,29,05,147,13,31,42,179,14,32,47,002,37,36,52,277,39*77
$GPGSV,4,4,16,40,84,353,34,41,58,082,38,49,32,274,,50,10,089,*75
$GLGSV,3,1,11,69,06,012,32,70,39,312,23,71,30,254,34,73,17,184,*6E
$GLGSV,3,2,11,74,01,225,,80,13,130,31,82,06,147,,83,48,115,32*64
$GLGSV,3,3,11,84,49,019,15,85,08,344,27,,,,34*6C
$GNGLL,0419.89840,S,05539.74054,E,122349.00,A,A*6C
$GNRMC,122350.00,A,0419.89837,S,05539.74056,E,0.031,,260525,,,A*7B
$GNVTG,,T,,M,0.031,N,0.057,K,A*3D
$GNGGA,122350.00,0419.89837,S,05539.74056,E,1,12,0.64,43.3,M,-47.6,M,,*4E
$GNGSA,A,3,28,32,27,31,18,16,10,08,,,,,1.25,0.64,1.07*15
$GNGSA,A,3,83,84,70,71,80,69,85,,,,,,1.25,0.64,1.07*12
$GPGSV,4,1,16,08,15,312,28,10,14,011,35,16,24,231,32,18,32,097,39*73
$GPGSV,4,2,16,23,01,049,19,26,28,200,17,27,50,297,38,28,55,135,27*78
$GPGSV,4,3,16,29,05,147,13,31,42,179,17,32,47,002,35,36,52,277,39*76
$GPGSV,4,4,16,40,84,353,34,41,58,082,38,49,32,274,,50,10,089,*75
$GLGSV,3,1,11,69,06,012,31,70,39,312,24,71,30,254,35,73,17,184,*6B
$GLGSV,3,2,11,74,01,225,,80,13,130,30,82,06,147,,83,48,115,32*65
$GLGSV,3,3,11,84,49,019,14,85,08,344,27,,,,34*6D
$GNGLL,0419.89837,S,05539.74056,E,122350.00,A,A*66
$GNRMC,122355.00,A,0419.89828,S,05539.74072,E,0.017,,260525,,,A*72
$GNVTG,,T,,M,0.017,N,0.031,K,A*39
$GNGGA,122355.00,0419.89828,S,05539.74072,E,1,12,0.64,43.5,M,-47.6,M,,*45
$GNGSA,A,3,28,32,27,31,18,16,10,08,,,,,1.25,0.64,1.07*15
$GNGSA,A,3,83,84,70,71,80,69,85,,,,,,1.25,0.64,1.07*12
$GPGSV,4,1,16,08,15,312,27,10,14,011,32,16,24,231,29,18,32,097,38*70
$GPGSV,4,2,16,23,01,049,16,26,28,200,21,27,50,297,41,28,55,135,27*7C
$GPGSV,4,3,16,29,05,147,10,31,42,179,19,32,47,002,34,36,52,277,36*75
$GPGSV,4,4,16,40,84,353,35,41,58,082,38,49,32,274,,50,10,089,*74
$GLGSV,3,1,11,69,06,012,31,70,39,312,23,71,30,254,37,73,17,184,*6E
$GLGSV,3,2,11,74,01,225,,80,13,130,29,82,06,147,,83,48,115,30*6F
$GLGSV,3,3,11,84,49,019,17,85,08,344,30,,,,36*6A
$GNGLL,0419.89828,S,05539.74072,E,122355.00,A,A*6B
$GNRMC,122356.00,A,0419.89826,S,05539.74075,E,0.091,,260525,,,A*76
$GNVTG,,T,,M,0.091,N,0.168,K,A*3A
$GNGGA,122356.00,0419.89826,S,05539.74075,E,1,12,0.64,43.6,M,-47.6,M,,*4C
$GNGSA,A,3,28,32,27,31,18,16,10,08,,,,,1.25,0.64,1.07*15
$GNGSA,A,3,83,84,70,71,80,69,85,,,,,,1.25,0.64,1.07*12
$GPGSV,4,1,16,08,15,312,28,10,14,011,32,16,24,231,28,18,32,097,38*7E
$GPGSV,4,2,16,23,01,049,17,26,28,200,19,27,50,297,39,28,55,135,26*78
$GPGSV,4,3,16,29,05,147,10,31,42,179,18,32,47,002,34,36,52,277,35*77
$GPGSV,4,4,16,40,84,353,35,41,58,082,39,49,32,274,,50,10,089,*75
$GLGSV,3,1,11,69,05,012,31,70,39,312,22,71,30,254,34,73,17,184,*6F
$GLGSV,3,2,11,74,01,225,,80,13,130,29,82,06,147,,83,48,115,31*6E
$GLGSV,3,3,11,84,49,019,18,85,08,344,28,,,,35*6F
$GNGLL,0419.89826,S,05539.74075,E,122356.00,A,A*61
$GNRMC,122400.00,A,0419.89817,S,05539.74084,E,0.036,,260525,,,D*76
$GNVTG,,T,,M,0.036,N,0.066,K,D*3D
$GNGGA,122400.00,0419.89817,S,05539.74084,E,2,12,0.60,44.0,M,-47.6,M,,0000*42
$GNGSA,A,3,28,32,27,31,18,26,16,10,08,,,,1.22,0.60,1.06*13
$GNGSA,A,3,83,84,70,71,80,69,85,,,,,,1.22,0.60,1.06*10
$GPGSV,4,1,16,08,15,312,28,10,14,011,28,16,24,231,28,18,32,097,38*75
$GPGSV,4,2,16,23,01,049,16,26,28,200,18,27,50,297,39,28,55,135,25*7B
$GPGSV,4,3,16,29,05,147,,31,42,179,19,32,47,002,27,36,52,277,36*76
$GPGSV,4,4,16,40,84,353,37,41,58,082,38,49,32,274,,50,10,089,*76
$GLGSV,3,1,11,69,05,012,33,70,38,313,22,71,30,255,39,73,17,184,*61
$GLGSV,3,2,11,74,01,225,,80,13,130,31,82,06,147,,83,48,115,34*62
$GLGSV,3,3,11,84,49,019,17,85,08,344,33,,,,37*68
$GNGLL,0419.89817,S,05539.74084,E,122400.00,A,D*6C
$GNRMC,122401.00,A,0419.89816,S,05539.74087,E,0.020,,260525,,,D*72
$GNVTG,,T,,M,0.020,N,0.037,K,D*3E
$GNGGA,122401.00,0419.89816,S,05539.74087,E,2,12,0.60,44.0,M,-47.6,M,,0000*41
$GNGSA,A,3,28,32,27,31,18,26,16,10,08,,,,1.22,0.60,1.06*13
$GNGSA,A,3,83,84,70,71,80,69,85,,,,,,1.22,0.60,1.06*10
$GPGSV,4,1,16,08,15,312,28,10,14,011,29,16,24,231,28,18,32,097,38*74
$GPGSV,4,2,16,23,01,049,15,26,28,200,18,27,50,297,38,28,55,135,25*79
$GPGSV,4,3,16,29,05,147,,31,42,179,21,32,47,002,27,36,52,277,36*7D
$GPGSV,4,4,16,40,84,353,37,41,58,082,38,49,32,274,,50,10,089,*76
$GLGSV,3,1,11,69,05,012,35,70,38,313,23,71,30,255,38,73,17,184,*67
$GLGSV,3,2,11,74,01,224,,80,13,130,31,82,06,147,,83,48,115,34*63
$GLGSV,3,3,11,84,49,019,17,85,08,344,34,,,,37*6F
$GNGLL,0419.89816,S,05539.74087,E,122401.00,A,D*6F
$GNRMC,122402.00,A,0419.89816,S,05539.74088,E,0.039,,260525,,,D*76
$GNVTG,,T,,M,0.039,N,0.072,K,D*37
$GNGGA,122402.00,0419.89816,S,05539.74088,E,2,12,0.60,44.1,M,-47.6,M,,0000*4C
$GNGSA,A,3,28,32,27,31,18,26,16,10,08,,,,1.22,0.60,1.06*13
$GNGSA,A,3,83,84,70,71,80,69,85,,,,,,1.22,0.60,1.06*10
$GPGSV,4,1,16,08,15,312,26,10,14,011,31,16,24,231,28,18,32,097,38*73
$GPGSV,4,2,16,23,01,049,14,26,28,200,20,27,50,297,38,28,55,135,24*72
$GPGSV,4,3,16,29,05,147,,31,42,179,21,32,47,002,29,36,52,277,38*7D
$GPGSV,4,4,16,40,84,353,37,41,58,082,38,49,32,274,,50,10,089,*76
$GLGSV,3,1,11,69,05,012,30,70,38,313,23,71,30,255,36,73,17,184,*6C
$GLGSV,3,2,11,74,01,224,,80,13,130,31,82,06,147,,83,48,115,34*63
$GLGSV,3,3,11,84,49,019,17,85,08,344,34,,,,37*6F
$GNGLL,0419.89816,S,05539.74088,E,122402.00,A,D*63
$GNRMC,122411.00,A,0419.89805,S,05539.74103,E,0.087,,260525,,,D*71
$GNVTG,,T,,M,0.087,N,0.161,K,D*31
$GNGGA,122411.00,0419.89805,S,05539.74103,E,2,12,0.60,44.6,M,-47.6,M,,0000*49
$GNRMC,122412.00,A,0419.89803,S,05539.74108,E,0.005,,260525,,,D*75
$GNRMC,122413.00,A,0419.89801,S,05539.74110,E,0.031,,260525,,,D*78
$GNVTG,,T,,M,0.031,N,0.058,K,D*37
$GNGGA,122413.00,0419.89801,S,05539.74110,E,2,12,0.63,44.7,M,-47.6,M,,0000*4F
$GNGSA,A,3,28,32,27,31,18,26,16,10,08,,,,1.30,0.63,1.14*10
$GNGSA,A,3,83,70,71,80,69,85,,,,,,,1.30,0.63,1.14*1F
$GPGSV,4,1,16,08,15,312,26,10,14,011,31,16,24,231,28,18,32,097,35*7E
$GPGSV,4,2,16,23,01,049,,26,28,200,20,27,50,297,39,28,55,135,28*7A
$GPGSV,4,3,16,29,05,147,,31,42,179,21,32,47,002,29,36,52,277,36*73
$GPGSV,4,4,16,40,84,353,36,41,58,082,36,49,32,274,,50,10,089,*79
$GLGSV,3,1,11,69,05,012,32,70,38,313,24,71,30,255,37,73,17,184,*68
$GLGSV,3,2,11,74,01,224,,80,13,130,31,82,06,147,,83,47,116,35*6E
$GLGSV,3,3,11,84,49,019,09,85,08,344,32,,,,38*69
$GNGLL,0419.89801,S,05539.74110,E,122413.00,A,D*65
$GNRMC,122414.00,A,0419.89800,S,05539.74111,E,0.007,,260525,,,D*7A
$GNVTG,,T,,M,0.007,N,0.012,K,D*3C
$GNGGA,122414.00,0419.89800,S,05539.74111,E,2,12,0.63,44.8,M,-47.6,M,,0000*47
$GNGSA,A,3,28,32,27,31,18,26,16,10,08,,,,1.30,0.63,1.14*10
$GNGSA,A,3,83,70,71,80,69,85,,,,,,,1.30,0.63,1.14*1F
$GPGSV,4,1,16,08,15,312,26,10,14,011,32,16,24,231,28,18,32,097,35*7D
$GPGSV,4,2,16,23,01,049,,26,28,200,20,27,50,297,41,28,55,135,28*75
$GPGSV,4,3,16,29,05,147,,31,42,179,22,32,47,002,29,36,52,277,37*71
$GPGSV,4,4,16,40,84,353,37,41,58,082,39,49,32,274,,50,10,089,*77
$GLGSV,3,1,11,69,05,012,31,70,38,313,24,71,30,255,38,73,17,184,*64
$GLGSV,3,2,11,74,01,224,,80,13,130,31,82,06,147,,83,47,116,34*6F
$GLGSV,3,3,11,84,49,019,08,85,08,344,31,,,,38*6B
$GNGLL,0419.89800,S,05539.74111,E,122414.00,A,D*62
$GLGSV,3,1,11,69,05,012,33,70,38,313,24,71,30,255,37,73,17,184,*69
$GLGSV,3,2,11,74,01,224,,80,13,130,31,82,06,147,,83,47,116,34*6F
$GLGSV,3,3,11,84,49,019,08,85,08,344,31,,,,38*6B
$GNGLL,0419.89799,S,05539.74113,E,122415.00,A,D*6E
$GPGSV,4,3,16,29,05,147,,31,42,179,23,32,47,002,28,36,52,277,37*71
$GPGSV,4,4,16,40,84,353,37,41,58,082,39,49,32,274,,50,10,089,*77
$GLGSV,3,1,11,69,05,012,33,70,38,313,24,71,30,255,37,73,17,184,*69
$GLGSV,3,2,11,74,01,224,,80,13,130,30,82,06,147,,83,47,116,34*6E
$GLGSV,3,3,11,84,49,019,12,85,08,344,30,,,,37*6E
$GNGLL,0419.89794,S,05539.74117,E,122417.00,A,D*65
$GPGSV,4,4,16,40,84,353,35,41,58,082,38,49,32,274,,50,10,089,*74
$GLGSV,3,1,11,69,05,012,33,70,38,313,22,71,30,255,35,73,17,184,*6D
$GLGSV,3,2,11,74,01,224,,80,13,130,30,82,06,147,,83,47,116,34*6E
$GLGSV,3,3,11,84,49,019,09,85,08,344,32,,,,39*68
$GNGLL,0419.89780,S,05539.74126,E,122423.00,A,D*65
$GNRMC,122424.00,A,0419.89778,S,05539.74127,E,0.036,,260525,,,D*7E
$GNVTG,,T,,M,0.036,N,0.066,K,D*3D
$GNGGA,122424.00,0419.89778,S,05539.74127,E,2,12,0.64,45.0,M,-47.6,M,,0000*4F
$GNGSA,A,3,28,32,27,31,18,16,10,08,,,,,1.25,0.64,1.07*15
$GNGSA,A,3,83,84,70,71,80,69,85,,,,,,1.25,0.64,1.07*12
$GPGSV,4,1,16,08,15,312,29,10,14,011,33,16,24,231,27,18,32,097,36*7F
$GPGSV,4,2,16,23,01,049,12,26,28,200,15,27,50,297,40,28,55,135,30*78
$GPGSV,4,3,16,29,05,147,,31,42,179,19,32,47,002,34,36,52,277,37*75
$GPGSV,4,4,16,40,84,353,32,41,58,082,39,49,32,274,,50,10,089,*72
$GLGSV,3,1,11,69,05,012,33,70,38,313,22,71,30,255,35,73,17,184,*6D
$GLGSV,3,2,11,74,01,224,,80,13,130,22,82,06,147,,83,47,116,32*6B
$GLGSV,3,3,11,84,49,019,17,85,08,344,32,,,,39*67
$GNGLL,0419.89778,S,05539.74127,E,122424.00,A,D*64
$GLGSV,3,3,11,84,49,019,19,85,08,344,31,,,,40*64
$GNGLL,0419.89776,S,05539.74128,E,122425.00,A,D*64
$GNRMC,122427.00,A,0419.89776,S,05539.74130,E,0.056,,260525,,,D*73
$GNVTG,,T,,M,0.056,N,0.103,K,D*39
$GNGGA,122427.00,0419.89776,S,05539.74130,E,2,12,0.64,45.1,M,-47.6,M,,0000*45
$GNGSA,A,3,28,32,27,31,18,16,10,08,,,,,1.25,0.64,1.07*15
$GNGSA,A,3,83,84,70,71,80,69,85,,,,,,1.25,0.64,1.07*12
$GPGSV,4,1,16,08,15,312,30,10,14,012,30,16,24,231,26,18,32,097,35*75
$GPGSV,4,2,16,23,01,049,14,26,28,200,14,27,50,297,39,28,55,135,29*79
$GPGSV,4,3,16,29,05,147,,31,42,179,17,32,47,002,33,36,52,277,39*72
$GPGSV,4,4,16,40,84,353,30,41,58,082,38,49,32,274,,50,10,089,*71
$GLGSV,3,1,11,69,05,012,25,70,38,313,23,71,30,255,31,73,17,184,*6F
$GLGSV,3,2,11,74,01,224,,80,13,130,30,82,06,147,,83,47,116,33*69
$GLGSV,3,3,11,84,49,019,14,85,08,344,32,,,,36*6B
$GNGLL,0419.89776,S,05539.74130,E,122427.00,A,D*6F
$GNRMC,122431.00,A,0419.89772,S,05539.74132,E,0.011,,260525,,,D*71
$GNVTG,,T,,M,0.011,N,0.020,K,D*3A
$GNGGA,122431.00,0419.89772,S,05539.74132,E,2,12,0.67,45.2,M,-47.6,M,,0000*44
$GNGSA,A,3,28,32,27,18,16,10,08,,,,,,1.26,0.67,1.07*17
$GNGSA,A,3,83,84,70,71,80,69,85,,,,,,1.26,0.67,1.07*12
$GPGSV,4,1,16,08,15,312,28,10,14,012,28,16,24,230,25,18,32,097,31*73
$GPGSV,4,2,16,23,01,049,16,26,28,200,,27,50,297,34,28,55,135,24*7E
$GPGSV,4,3,16,29,05,147,,31,42,179,08,32,47,002,25,36,52,277,33*71
$GPGSV,4,4,16,40,84,353,28,41,58,082,33,49,32,274,,50,10,089,*73
$GLGSV,3,1,11,69,05,012,28,70,38,313,20,71,30,255,30,73,17,184,*60
$GLGSV,3,2,11,74,01,224,,80,13,130,26,82,06,147,,83,47,116,30*6D
$GLGSV,3,3,11,84,49,019,19,85,08,344,28,,,,34*6F
$GNGLL,0419.89772,S,05539.74132,E,122431.00,A,D*6E
$GNRMC,122432.00,A,0419.89770,S,05539.74135,E,0.064,,260525,,,D*75
$GNVTG,,T,,M,0.064,N,0.119,K,D*33
$GNGGA,122432.00,0419.89770,S,05539.74135,E,2,12,0.67,45.3,M,-47.6,M,,0000*43
$GNGSA,A,3,28,32,27,18,16,10,08,,,,,,1.26,0.67,1.07*17
$GNGSA,A,3,83,84,70,71,80,69,85,,,,,,1.26,0.67,1.07*12
$GPGSV,4,1,16,08,15,312,28,10,14,012,28,16,24,230,24,18,32,097,31*72
$GPGSV,4,2,16,23,01,049,16,26,28,200,,27,50,297,37,28,55,135,24*7D
$GPGSV,4,3,16,29,05,147,,31,42,179,09,32,47,002,26,36,52,277,36*76
$GPGSV,4,4,16,40,84,353,,41,58,082,33,49,32,274,,50,10,089,*79
$GLGSV,3,1,11,69,05,012,32,70,38,313,19,71,30,255,31,73,17,184,*60
$GLGSV,3,2,11,74,01,224,,80,13,130,25,82,06,147,,83,47,116,30*6E
$GLGSV,3,3,11,84,49,019,19,85,08,344,29,,,,37*6D
$GNGLL,0419.89770,S,05539.74135,E,122432.00,A,D*68
$GNRMC,122433.00,A,0419.89769,S,05539.74138,E,0.024,,260525,,,D*75
$GNVTG,,T,,M,0.024,N,0.044,K,D*3E
$GNGGA,122433.00,0419.89769,S,05539.74138,E,2,12,0.67,45.4,M,-47.6,M,,0000*40
$GNGSA,A,3,28,32,27,18,16,10,08,,,,,,1.26,0.67,1.07*17
$GNGSA,A,3,83,84,70,71,80,69,85,,,,,,1.26,0.67,1.07*12
$GPGSV,4,1,16,08,15,312,29,10,14,012,29,16,24,230,25,18,32,097,32*70
$GPGSV,4,2,16,23,01,049,18,26,28,200,,27,50,297,37,28,55,135,25*72
$GPGSV,4,3,16,29,05,147,,31,42,179,10,32,47,002,28,36,52,277,36*70
$GPGSV,4,4,16,40,84,353,,41,58,082,33,49,32,274,,50,10,089,*79
$GLGSV,3,1,11,69,05,012,32,70,38,313,20,71,30,255,32,73,17,184,*69
$GLGSV,3,2,11,74,01,224,,80,13,130,26,82,06,147,,83,47,116,31*6C
$GLGSV,3,3,11,84,49,019,20,85,08,344,31,,,,34*6D
$GNGLL,0419.89769,S,05539.74138,E,122433.00,A,D*6C
$GNRMC,122434.00,A,0419.89769,S,05539.74138,E,0.063,,260525,,,D*71
$GNVTG,,T,,M,0.063,N,0.116,K,D*3B
$GNGGA,122434.00,0419.89769,S,05539.74138,E,2,12,0.64,45.3,M,-47.6,M,,0000*43
$GNGSA,A,3,28,32,27,31,18,16,10,08,,,,,1.25,0.64,1.07*15
$GNGSA,A,3,83,84,70,71,80,69,85,,,,,,1.25,0.64,1.07*12
$GPGSV,4,1,16,08,15,312,32,10,14,012,30,16,24,230,26,18,32,097,33*70
$GPGSV,4,2,16,23,01,049,19,26,28,200,,27,50,297,35,28,55,135,26*72
$GPGSV,4,3,16,29,05,147,,31,42,179,10,32,47,002,28,36,52,277,35*73
$GPGSV,4,4,16,40,84,353,,41,58,082,33,49,32,274,,50,10,089,*79
$GLGSV,3,1,11,69,05,012,27,70,38,313,22,71,30,255,32,73,17,184,*6F
$GLGSV,3,2,11,74,01,224,,80,13,130,27,82,06,147,,83,47,116,31*6D
$GLGSV,3,3,11,84,49,019,21,85,08,344,29,,,,37*66
$GNGLL,0419.89769,S,05539.74138,E,122434.00,A,D*6B
$GNRMC,122435.00,A,0419.89770,S,05539.74138,E,0.014,,260525,,,D*78
$GNVTG,,T,,M,0.014,N,0.026,K,D*39
$GNGGA,122435.00,0419.89770,S,05539.74138,E,2,12,0.67,45.3,M,-47.6,M,,0000*49
$GNGSA,A,3,28,32,27,18,16,10,08,,,,,,1.26,0.67,1.07*17
$GNGSA,A,3,83,84,70,71,80,69,85,,,,,,1.26,0.67,1.07*12
$GPGSV,4,1,16,08,15,312,28,10,14,012,34,16,24,230,26,18,32,097,36*7A
$GPGSV,4,2,16,23,01,049,20,26,28,200,,27,50,297,41,28,55,135,27*7A
$GPGSV,4,3,16,29,05,147,,31,42,179,11,32,47,002,32,36,52,277,40*7B
$GPGSV,4,4,16,40,84,353,,41,58,082,36,49,32,274,,50,10,089,*7C
$GLGSV,3,1,11,69,05,012,28,70,38,313,21,71,30,255,32,73,17,184,*63
$GLGSV,3,2,11,74,01,224,,80,13,130,28,82,06,147,,83,47,116,30*63
$GLGSV,3,3,11,84,49,019,22,85,08,344,31,,,,34*6F
$GNGLL,0419.89770,S,05539.74138,E,122435.00,A,D*62
$GNRMC,122436.00,A,0419.89773,S,05539.74137,E,0.038,,260525,,,D*79
$GNVTG,,T,,M,0.038,N,0.071,K,D*35
$GNGGA,122436.00,0419.89773,S,05539.74137,E,2,12,0.64,45.2,M,-47.6,M,,0000*44
$GNGSA,A,3,28,32,27,31,18,16,10,08,,,,,1.25,0.64,1.07*15
$GNGSA,A,3,83,84,70,71,80,69,85,,,,,,1.25,0.64,1.07*12
$GPGSV,4,1,16,08,15,312,29,10,14,012,31,16,24,230,26,18,32,097,35*7D
$GPGSV,4,2,16,23,01,049,21,26,28,200,,27,50,297,40,28,55,135,27*7A
$GPGSV,4,3,16,29,05,147,,31,42,179,11,32,47,002,32,36,52,277,38*74
$GPGSV,4,4,16,40,84,353,,41,58,082,38,49,32,274,,50,10,089,*72
$GLGSV,3,1,11,69,05,012,33,70,38,313,21,71,30,255,34,73,17,184,*6F
$GLGSV,3,2,11,74,01,224,,80,13,130,29,82,06,147,,83,47,116,35*67
$GLGSV,3,3,11,84,49,019,22,85,08,344,32,,,,37*6F
$GNGLL,0419.89773,S,05539.74137,E,122436.00,A,D*6D
$GNRMC,122438.00,A,0419.89775,S,05539.74137,E,0.045,,260525,,,D*7B
$GNVTG,,T,,M,0.045,N,0.084,K,D*35
$GNGGA,122438.00,0419.89775,S,05539.74137,E,2,12,0.64,45.2,M,-47.6,M,,0000*4C
$GNGSA,A,3,28,32,27,31,18,16,10,08,,,,,1.25,0.64,1.07*15
$GNGSA,A,3,83,84,70,71,80,69,85,,,,,,1.25,0.64,1.07*12
$GPGSV,4,1,16,08,15,312,30,10,14,012,30,16,24,230,27,18,32,097,34*74
$GPGSV,4,2,16,23,01,050,21,26,28,200,,27,50,297,38,28,55,135,28*72
$GPGSV,4,3,16,29,05,147,,31,42,179,15,32,47,002,31,36,52,277,37*7C
$GPGSV,4,4,16,40,84,353,,41,58,082,35,49,32,274,,50,10,089,*7F
$GLGSV,3,1,11,69,05,012,30,70,38,313,22,71,30,255,32,73,17,184,*69
$GLGSV,3,2,11,74,01,224,,80,13,130,27,82,06,147,,83,47,116,30*6C
$GLGSV,3,3,11,84,49,019,22,85,08,344,33,,,,36*6F
$GNGLL,0419.89775,S,05539.74137,E,122438.00,A,D*65
$GNRMC,122440.00,A,0419.89774,S,05539.74135,E,0.021,,260525,,,D*75
$GNVTG,,T,,M,0.021,N,0.039,K,D*31
$GNGGA,122440.00,0419.89774,S,05539.74135,E,2,12,0.64,45.2,M,-47.6,M,,0000*40
$GNGSA,A,3,28,32,27,31,18,16,10,08,,,,,1.25,0.64,1.07*15
$GNGSA,A,3,83,84,70,71,80,69,85,,,,,,1.25,0.64,1.07*12
$GPGSV,4,1,16,08,15,312,33,10,14,012,29,16,24,230,29,18,32,097,35*70
$GPGSV,4,2,16,23,01,050,20,26,28,199,,27,50,297,41,28,55,135,29*7F
$GPGSV,4,3,16,29,05,147,,31,42,179,15,32,47,002,30,36,52,277,39*73
$GPGSV,4,4,16,40,84,353,31,41,58,082,37,49,32,274,,50,10,089,*7F
$GLGSV,3,1,11,69,05,012,30,70,38,313,23,71,30,255,33,73,17,184,*69
$GLGSV,3,2,11,74,01,224,,80,13,130,31,82,06,147,,83,47,116,31*6A
$GLGSV,3,3,11,84,49,019,20,85,08,344,33,,,,36*6D
$GNRMC,122442.00,A,0419.89772,S,05539.74134,E,0.023,,260525,,,D*72
$GNVTG,,T,,M,0.023,N,0.042,K,D*3F
$GNGGA,122442.00,0419.89772,S,05539.74134,E,2,12,0.67,45.2,M,-47.6,M,,0000*46
$GNGSA,A,3,28,32,27,31,18,16,10,08,,,,,1.26,0.67,1.07*15
$GNGSA,A,3,83,84,70,71,80,69,85,,,,,,1.26,0.67,1.07*12
$GPGSV,4,1,16,08,15,312,26,10,14,012,27,16,24,230,28,18,32,097,34*7A
$GPGSV,4,2,16,23,01,050,20,26,28,199,,27,50,296,37,28,55,134,28*7F
$GPGSV,4,3,16,29,05,147,,31,42,179,15,32,47,002,31,36,52,277,36*7D
$GPGSV,4,4,16,40,84,353,30,41,58,082,35,49,32,274,,50,10,089,*7C
$GLGSV,3,1,11,69,05,012,32,70,38,313,23,71,30,255,33,73,17,184,*6B
$GLGSV,3,2,11,74,01,224,,80,13,130,28,82,06,147,,83,47,116,31*62
$GLGSV,3,3,11,84,49,019,22,85,08,344,33,,,,36*6F
$GNGLL,0419.89772,S,05539.74134,E,122442.00,A,D*6C
$GNRMC,122443.00,A,0419.89771,S,05539.74134,E,0.037,,260525,,,D*75
$GNVTG,,T,,M,0.037,N,0.068,K,D*32
$GNGGA,122443.00,0419.89771,S,05539.74134,E,2,12,0.64,45.2,M,-47.6,M,,0000*47
$GNGSA,A,3,28,32,27,31,18,16,10,08,,,,,1.25,0.64,1.07*15
$GNGSA,A,3,83,84,70,71,80,69,85,,,,,,1.25,0.64,1.07*12
$GPGSV,4,1,16,08,15,312,27,10,14,012,28,16,24,230,27,18,32,097,33*7C
$GPGSV,4,2,16,23,01,050,18,26,28,199,,27,50,296,36,28,55,134,28*75
$GPGSV,4,3,16,29,05,147,,31,42,179,12,32,47,002,32,36,52,277,38*77
$GPGSV,4,4,16,40,84,353,33,41,58,082,31,49,32,274,,50,10,089,*7B
$GLGSV,3,1,11,69,05,012,33,70,38,313,24,71,30,255,33,73,17,184,*6D
$GLGSV,3,2,11,74,01,224,,80,13,130,27,82,06,147,,83,47,116,29*64
$GLGSV,3,3,11,84,49,019,23,85,08,344,31,,,,35*6F
$GNGLL,0419.89771,S,05539.74134,E,122443.00,A,D*6E
$GNRMC,122445.00,A,0419.89771,S,05539.74135,E,0.057,,260525,,,D*74
$GNVTG,,T,,M,0.057,N,0.106,K,D*3D
$GNGGA,122445.00,0419.89771,S,05539.74135,E,2,12,0.67,45.1,M,-47.6,M,,0000*40
$GNGSA,A,3,28,32,27,18,16,10,08,,,,,,1.26,0.67,1.07*17
$GNGSA,A,3,83,84,70,71,80,69,85,,,,,,1.26,0.67,1.07*12
$GPGSV,4,1,16,08,15,312,28,10,14,012,28,16,24,230,26,18,32,097,31*70
$GPGSV,4,2,16,23,01,050,16,26,28,199,,27,50,296,30,28,55,134,29*7C
$GNRMC,122446.00,A,0419.89772,S,05539.74135,E,0.032,,260525,,,D*77
$GNVTG,,T,,M,0.032,N,0.059,K,D*35
$GNGGA,122446.00,0419.89772,S,05539.74135,E,2,12,0.67,45.1,M,-47.6,M,,0000*40
$GNGSA,A,3,28,32,27,18,16,10,08,,,,,,1.26,0.67,1.07*17
$GNGSA,A,3,83,84,70,71,80,69,85,,,,,,1.26,0.67,1.07*12
$GPGSV,4,1,16,08,15,312,22,10,14,012,26,16,24,230,25,18,32,097,35*73
$GPGSV,4,2,16,23,01,050,13,26,28,199,,27,50,296,37,28,55,134,24*73
$GPGSV,4,3,16,29,05,147,,31,42,178,,32,47,002,28,36,52,277,37*71
$GPGSV,4,4,16,40,84,353,27,41,58,082,35,49,32,274,,50,10,089,*7A
$GLGSV,3,1,11,69,05,012,29,70,38,313,22,71,30,255,30,73,17,184,*63
$GLGSV,3,2,11,74,01,224,,80,13,130,24,82,06,147,,83,47,116,31*6E
$GLGSV,3,3,11,84,49,019,19,85,08,344,27,,,,33*67
$GNGLL,0419.89772,S,05539.74135,E,122446.00,A,D*69
$GNRMC,122448.00,A,0419.89772,S,05539.74136,E,0.045,,260525,,,D*7A
$GNVTG,,T,,M,0.045,N,0.083,K,D*32
$GNGGA,122448.00,0419.89772,S,05539.74136,E,2,12,0.67,45.0,M,-47.6,M,,0000*4C
$GNGSA,A,3,28,32,27,18,16,10,08,,,,,,1.26,0.67,1.07*17
$GNGSA,A,3,83,84,70,71,80,69,85,,,,,,1.26,0.67,1.07*12
$GPGSV,4,1,16,08,15,312,27,10,14,012,27,16,24,230,26,18,32,097,38*79
$GPGSV,4,2,16,23,01,050,11,26,28,199,,27,50,296,40,28,55,134,30*74
$GPGSV,4,3,16,29,05,147,,31,42,178,07,32,47,002,32,36,52,277,40*7D
$GPGSV,4,4,16,40,84,353,31,41,58,082,37,49,32,274,,50,10,089,*7F
$GLGSV,3,1,11,69,05,012,35,70,38,313,22,71,30,255,34,73,17,184,*6A
$GLGSV,3,2,11,74,01,224,,80,13,130,26,82,06,147,,83,47,116,29*65
$GLGSV,3,3,11,84,49,019,19,85,08,344,33,,,,39*68
$GNGLL,0419.89772,S,05539.74136,E,122448.00,A,D*64
$GNRMC,122452.00,A,0419.89766,S,05539.74133,E,0.113,,260525,,,D*73
$GNVTG,,T,,M,0.113,N,0.209,K,D*30
$GNGGA,122452.00,0419.89766,S,05539.74133,E,2,12,0.66,45.0,M,-47.6,M,,0000*46
$GNGSA,A,3,28,32,27,31,18,16,10,08,,,,,1.31,0.66,1.13*17
$GNGSA,A,3,83,84,70,71,80,85,,,,,,,1.31,0.66,1.13*1F
$GPGSV,4,1,16,08,15,312,28,10,14,012,24,16,24,230,26,18,32,097,33*7E
$GPGSV,4,2,16,23,01,050,14,26,28,199,11,27,50,296,34,28,55,134,26*75
$GPGSV,4,3,16,29,05,147,,31,42,178,14,32,47,002,25,36,52,277,34*7A
$GPGSV,4,4,16,40,84,353,30,41,58,082,32,49,32,274,,50,10,089,*7B
$GLGSV,3,1,11,69,05,012,30,70,38,313,22,71,30,255,30,73,17,184,*6B
$GLGSV,3,2,11,74,01,224,,80,13,130,28,82,06,147,,83,47,116,29*6B
$GLGSV,3,3,11,84,49,019,19,85,08,344,29,,,,33*69
$GNGLL,0419.89766,S,05539.74133,E,122452.00,A,D*6F
$GNRMC,122454.00,A,0419.89764,S,05539.74134,E,0.037,,260525,,,D*77
$GNVTG,,T,,M,0.037,N,0.069,K,D*33
$GNGGA,122454.00,0419.89764,S,05539.74134,E,2,12,0.66,45.2,M,-47.6,M,,0000*47
$GNGSA,A,3,28,32,27,31,18,16,10,08,,,,,1.31,0.66,1.14*10
$GNGSA,A,3,83,84,70,71,80,85,,,,,,,1.31,0.66,1.14*18
$GPGSV,4,1,16,08,15,312,33,10,14,012,27,16,24,230,27,18,32,097,38*7D
$GPGSV,4,2,16,23,01,050,14,26,28,199,08,27,50,296,40,28,55,134,28*70
$GPGSV,4,3,16,29,05,147,,31,42,178,16,32,47,002,30,36,52,277,39*71
$GPGSV,4,4,16,40,84,353,30,41,58,082,39,49,32,274,,50,10,089,*70
$GLGSV,3,1,11,69,05,012,29,70,38,313,21,71,30,255,33,73,17,184,*63
$GLGSV,3,2,11,74,01,224,,80,13,130,26,82,06,147,,83,47,116,29*65
$GLGSV,3,3,11,84,49,019,19,85,08,344,30,,,,37*65
$GNGLL,0419.89764,S,05539.74134,E,122454.00,A,D*6C
$GNRMC,122455.00,A,0419.89762,S,05539.74137,E,0.033,,260525,,,D*77
$GNVTG,,T,,M,0.033,N,0.061,K,D*3F
$GNGGA,122455.00,0419.89762,S,05539.74137,E,2,12,0.66,45.4,M,-47.6,M,,0000*45
$GNGSA,A,3,28,32,27,31,18,26,16,10,08,,,,1.31,0.66,1.14*14
$GNGSA,A,3,83,84,70,71,80,85,,,,,,,1.31,0.66,1.14*18
$GPGSV,4,1,16,08,15,312,30,10,14,012,27,16,24,230,29,18,32,097,32*7A
$GPGSV,4,2,16,23,01,050,15,26,28,199,11,27,50,296,35,28,55,134,28*7B
$GPGSV,4,3,16,29,05,147,,31,42,178,19,32,47,002,30,36,52,277,31*76
$GPGSV,4,4,16,40,84,353,31,41,58,082,34,49,32,274,,50,10,089,*7C
$GLGSV,3,1,11,69,05,012,27,70,38,313,22,71,30,255,34,73,17,184,*69
$GLGSV,3,2,11,74,01,224,,80,13,130,30,82,06,147,,83,47,116,29*62
$GLGSV,3,3,11,84,49,019,18,85,08,344,28,,,,34*6E
$GNGLL,0419.89762,S,05539.74137,E,122455.00,A,D*68
$GNRMC,122500.00,A,0419.89762,S,05539.74138,E,0.061,,260525,,,D*7E
$GNVTG,,T,,M,0.061,N,0.113,K,D*3C
$GNGGA,122500.00,0419.89762,S,05539.74138,E,2,12,0.66,45.1,M,-47.6,M,,0000*4E
$GNGSA,A,3,28,32,27,31,18,16,10,08,,,,,1.31,0.66,1.14*10
$GNGSA,A,3,83,84,70,71,80,85,,,,,,,1.31,0.66,1.14*18
$GPGSV,4,1,16,08,15,312,31,10,14,012,27,16,24,230,28,18,32,097,38*70
$GPGSV,4,2,16,23,01,050,12,26,28,199,,27,50,296,38,28,55,134,28*71
$GPGSV,4,3,16,29,05,147,,31,42,178,21,32,47,002,29,36,52,277,37*73
$GPGSV,4,4,16,40,84,353,34,41,58,082,38,49,32,274,,50,10,089,*75
$GLGSV,3,1,11,69,05,012,34,70,38,313,22,71,30,255,35,73,17,184,*6A
$GLGSV,3,2,11,74,01,224,,80,13,130,31,82,06,147,,83,47,116,27*6D
$GLGSV,3,3,11,84,49,019,21,85,08,344,30,,,,40*6E
$GNGLL,0419.89762,S,05539.74138,E,122500.00,A,D*66
$GNRMC,122504.00,A,0419.89760,S,05539.74140,E,0.066,,260525,,,D*70
$GNVTG,,T,,M,0.066,N,0.122,K,D*39
$GNGGA,122504.00,0419.89760,S,05539.74140,E,2,12,0.66,45.1,M,-47.6,M,,0000*47
$GNGSA,A,3,28,32,27,31,18,16,10,08,,,,,1.32,0.66,1.14*13
$GNGSA,A,3,83,84,70,71,80,85,,,,,,,1.32,0.66,1.14*1B
$GPGSV,4,1,16,08,15,312,27,10,14,012,28,16,24,230,27,18,32,097,39*76
$GPGSV,4,2,16,23,01,050,17,26,28,199,,27,50,296,40,28,55,134,30*72
$GPGSV,4,3,16,29,05,147,,31,42,178,22,32,47,002,32,36,52,277,41*7B
$GPGSV,4,4,16,40,84,353,33,41,58,082,37,49,32,274,,50,10,089,*7D
$GLGSV,3,1,11,69,05,012,35,70,38,313,22,71,30,255,34,73,17,184,*6A
$GLGSV,3,2,11,74,01,224,,80,13,130,29,82,06,147,,83,47,116,29*6A
$GLGSV,3,3,11,84,49,019,18,85,08,344,29,,,,40*6C
$GNGLL,0419.89760,S,05539.74140,E,122504.00,A,D*6F
$GNRMC,122505.00,A,0419.89762,S,05539.74141,E,0.010,,260525,,,D*73
$GNVTG,,T,,M,0.010,N,0.019,K,D*31
$GNGGA,122505.00,0419.89762,S,05539.74141,E,2,12,0.66,45.2,M,-47.6,M,,0000*46
$GNGSA,A,3,28,32,27,31,18,16,10,08,,,,,1.32,0.66,1.14*13
$GNGSA,A,3,83,84,70,71,80,85,,,,,,,1.32,0.66,1.14*1B
$GPGSV,4,1,16,08,15,312,27,10,14,012,29,16,24,230,26,18,32,097,38*77
$GPGSV,4,2,16,23,01,050,17,26,28,199,,27,50,296,40,28,55,134,31*73
$GPGSV,4,3,16,29,05,147,,31,42,178,21,32,47,002,32,36,52,277,39*77
$GPGSV,4,4,16,40,84,353,34,41,58,082,38,49,32,274,,50,10,089,*75
$GLGSV,3,1,11,69,05,012,31,70,38,313,22,71,30,255,35,73,17,184,*6F
$GLGSV,3,2,11,74,01,224,,80,13,130,28,82,06,147,,83,47,116,28*6A
$GLGSV,3,3,11,84,49,019,18,85,08,344,30,,,,38*6B
$GNGLL,0419.89762,S,05539.74141,E,122505.00,A,D*6D
$GNRMC,122506.00,A,0419.89764,S,05539.74141,E,0.019,,260525,,,D*7F
$GNVTG,,T,,M,0.019,N,0.035,K,D*36
$GNGGA,122506.00,0419.89764,S,05539.74141,E,2,12,0.66,45.2,M,-47.6,M,,0000*43
$GNGSA,A,3,28,32,27,31,18,16,10,08,,,,,1.32,0.66,1.14*13
$GNGSA,A,3,83,84,70,71,80,85,,,,,,,1.32,0.66,1.14*1B
$GPGSV,4,1,16,08,15,312,26,10,14,012,32,16,24,230,28,18,32,097,38*72
$GPGSV,4,2,16,23,01,050,18,26,28,199,,27,50,296,41,28,55,134,31*7D
$GPGSV,4,3,16,29,05,147,,31,42,178,20,32,47,002,35,36,52,277,39*71
$GPGSV,4,4,16,40,84,353,33,41,58,082,40,49,32,274,,50,10,089,*7D
$GLGSV,3,1,11,69,05,012,35,70,38,313,24,71,30,255,36,73,17,184,*6E
$GLGSV,3,2,11,74,01,224,,80,13,130,28,82,06,147,,83,47,116,33*60
$GLGSV,3,3,11,84,49,019,19,85,08,344,29,,,,36*6C
$GNGLL,0419.89764,S,05539.74141,E,122506.00,A,D*68
$GNRMC,122510.00,A,0419.89760,S,05539.74143,E,0.017,,260525,,,D*70
$GNVTG,,T,,M,0.017,N,0.032,K,D*3F
$GNGGA,122510.00,0419.89760,S,05539.74143,E,2,12,0.66,45.5,M,-47.6,M,,0000*45
$GNGSA,A,3,28,32,27,31,18,16,10,08,,,,,1.32,0.66,1.14*13
$GNGSA,A,3,83,84,70,71,80,85,,,,,,,1.32,0.66,1.14*1B
$GPGSV,4,1,16,08,15,312,22,10,14,012,31,16,24,230,28,18,32,097,37*7A
$GPGSV,4,2,16,23,01,050,19,26,28,199,,27,50,296,39,28,55,134,31*73
$GPGSV,4,3,16,29,05,147,,31,42,178,20,32,47,002,32,36,52,277,38*77
$GPGSV,4,4,16,40,84,353,35,41,58,082,38,49,32,274,,50,10,089,*74
$GLGSV,3,1,11,69,05,012,34,70,38,313,24,71,30,255,39,73,17,184,*60
$GLGSV,3,2,11,74,01,224,,80,13,130,31,82,06,147,,83,47,116,33*68
$GLGSV,3,3,11,84,49,019,18,85,08,344,34,,,,38*6F
$GNGLL,0419.89760,S,05539.74143,E,122510.00,A,D*69
$GNRMC,122514.00,A,0419.89760,S,05539.74153,E,0.013,,260525,,,D*71
$GNVTG,,T,,M,0.013,N,0.025,K,D*3D
$GNGGA,122514.00,0419.89760,S,05539.74153,E,2,12,0.66,46.0,M,-47.6,M,,0000*46
$GNGSA,A,3,28,32,27,31,18,16,10,08,,,,,1.32,0.66,1.14*13
$GNGSA,A,3,83,84,70,71,80,85,,,,,,,1.32,0.66,1.14*1B
$GPGSV,4,1,16,08,15,312,27,10,14,012,31,16,24,230,28,18,32,097,36*7E
$GPGSV,4,2,16,23,01,050,18,26,28,199,,27,50,296,41,28,55,134,28*75
$GPGSV,4,3,16,29,05,147,,31,42,178,18,32,47,002,29,36,52,277,38*76
$GPGSV,4,4,16,40,84,353,33,41,58,082,37,49,32,274,,50,10,089,*7D
$GLGSV,3,1,11,69,05,012,36,70,38,314,24,71,31,255,39,73,17,184,*64
$GLGSV,3,2,11,74,01,224,,80,13,130,31,82,06,147,,83,47,116,33*68
$GLGSV,3,3,11,84,49,019,16,85,08,344,36,,,,38*63
$GNGLL,0419.89760,S,05539.74153,E,122514.00,A,D*6C
$GNRMC,122516.00,A,0419.89762,S,05539.74156,E,0.030,,260525,,,D*75
$GNVTG,,T,,M,0.030,N,0.055,K,D*3B
$GNGGA,122516.00,0419.89762,S,05539.74156,E,2,12,0.66,46.1,M,-47.6,M,,0000*42
$GNGSA,A,3,28,32,27,31,18,16,10,08,,,,,1.32,0.66,1.14*13
$GNGSA,A,3,83,84,70,71,80,85,,,,,,,1.32,0.66,1.14*1B
$GPGSV,4,1,16,08,15,312,27,10,14,012,33,16,24,230,24,18,32,097,34*72
$GPGSV,4,2,16,23,01,050,18,26,28,199,16,27,50,296,39,28,55,134,29*7C
$GPGSV,4,3,16,29,05,147,,31,42,178,19,32,47,002,31,36,52,277,39*7F
$GPGSV,4,4,16,40,84,353,33,41,58,082,37,49,32,274,,50,10,089,*7D
$GLGSV,3,1,11,69,05,012,36,70,38,314,22,71,31,255,39,73,17,183,*65
$GLGSV,3,2,11,74,01,223,,80,13,130,28,82,06,147,,83,47,116,33*67
$GLGSV,3,3,11,84,49,019,17,85,08,344,36,,,,37*6D
$GNGLL,0419.89762,S,05539.74156,E,122516.00,A,D*69
$GNRMC,122518.00,A,0419.89762,S,05539.74159,E,0.019,,260525,,,D*7F
$GNVTG,,T,,M,0.019,N,0.035,K,D*36
$GNGGA,122518.00,0419.89762,S,05539.74159,E,2,12,0.66,46.4,M,-47.6,M,,0000*46
$GNGSA,A,3,28,32,27,31,18,16,10,08,,,,,1.32,0.66,1.14*13
$GNGSA,A,3,83,84,70,71,80,85,,,,,,,1.32,0.66,1.14*1B
$GPGSV,4,1,16,08,15,312,27,10,14,012,31,16,24,230,26,18,32,097,34*72
$GPGSV,4,2,16,23,01,050,15,26,28,199,13,27,50,296,42,28,55,134,29*78
$GPGSV,4,3,16,29,05,147,,31,42,178,23,32,47,002,28,36,52,277,42*72
$GPGSV,4,4,16,40,84,353,33,41,58,082,36,49,32,274,,50,10,089,*7C
$GLGSV,3,1,11,69,05,012,36,70,38,314,22,71,31,255,39,73,17,183,*65
$GLGSV,3,2,11,74,01,223,,80,13,130,26,82,06,147,,83,47,116,33*69
$GLGSV,3,3,11,84,49,019,16,85,08,344,36,,,,37*6C
$GNGLL,0419.89762,S,05539.74159,E,122518.00,A,D*68
$GNRMC,122529.00,A,0419.89776,S,05539.74161,E,0.046,,260525,,,D*79
$GNVTG,,T,,M,0.046,N,0.085,K,D*37
$GNGGA,122529.00,0419.89776,S,05539.74161,E,2,12,0.66,46.7,M,-47.6,M,,0000*49
$GNGSA,A,3,28,32,27,31,18,16,10,08,,,,,1.32,0.66,1.14*13
$GNGSA,A,3,83,84,70,71,80,85,,,,,,,1.32,0.66,1.14*1B
$GPGSV,4,1,16,08,15,312,28,10,14,012,28,16,24,230,22,18,32,097,38*7D
$GPGSV,4,2,16,23,01,050,07,26,28,199,,27,50,296,39,28,55,134,28*74
$GPGSV,4,3,16,29,05,147,,31,42,178,23,32,47,002,30,36,52,277,39*77
$GPGSV,4,4,16,40,84,353,32,41,58,082,37,49,32,274,,50,10,089,*7C
$GLGSV,3,1,11,69,05,012,33,70,38,314,20,71,31,255,36,73,17,183,*6D
$GLGSV,3,2,11,74,01,223,,80,13,129,27,82,05,148,,83,47,117,27*68
$GLGSV,3,3,11,84,50,020,17,85,09,345,34,,,,37*6D
$GNGLL,0419.89776,S,05539.74161,E,122529.00,A,D*64
$GNRMC,122531.00,A,0419.89782,S,05539.74162,E,0.027,,260525,,,D*7F
$GNVTG,,T,,M,0.027,N,0.051,K,D*39
$GNGGA,122531.00,0419.89782,S,05539.74162,E,2,12,0.66,46.8,M,-47.6,M,,0000*47
$GNGSA,A,3,28,32,27,31,18,16,10,08,,,,,1.32,0.66,1.14*13
$GNGSA,A,3,83,84,70,71,80,85,,,,,,,1.32,0.66,1.14*1B
$GPGSV,4,1,16,08,15,312,28,10,14,012,30,16,24,230,24,18,32,097,35*7F
$GPGSV,4,2,16,23,01,050,09,26,28,199,,27,50,296,41,28,55,134,29*74
$GPGSV,4,3,16,29,05,147,,31,42,178,23,32,47,002,31,36,52,277,38*77
$GPGSV,4,4,16,40,84,353,31,41,58,082,38,49,32,274,,50,10,089,*70
$GLGSV,3,1,11,69,05,012,36,70,38,314,21,71,31,255,36,73,17,183,*69
$GLGSV,3,2,11,74,01,223,,80,13,129,25,82,05,148,,83,47,117,30*6C
$GLGSV,3,3,11,84,50,020,17,85,09,345,34,,,,35*6F
$GNGLL,0419.89782,S,05539.74162,E,122531.00,A,D*65
$GNRMC,122535.00,A,0419.89796,S,05539.74160,E,0.039,,260525,,,D*73
$GNVTG,,T,,M,0.039,N,0.072,K,D*37
$GNGGA,122535.00,0419.89796,S,05539.74160,E,2,12,0.66,46.6,M,-47.6,M,,0000*4A
$GNGSA,A,3,28,32,27,31,18,16,10,08,,,,,1.32,0.66,1.14*13
$GNGSA,A,3,83,84,70,71,80,85,,,,,,,1.32,0.66,1.14*1B
$GPGSV,4,1,16,08,15,312,27,10,14,012,31,16,24,230,25,18,32,097,39*7C
$GPGSV,4,2,16,23,01,050,06,26,28,199,,27,50,296,39,28,55,134,30*7C
$GPGSV,4,3,16,29,05,147,,31,42,178,23,32,47,002,34,36,52,277,40*7D
$GPGSV,4,4,16,40,84,353,33,41,58,082,38,49,32,274,,50,10,089,*72
$GLGSV,3,1,11,69,05,012,34,70,38,314,21,71,31,255,33,73,17,183,*6E
$GLGSV,3,2,11,74,01,223,,80,13,129,28,82,05,148,,83,47,117,27*67
$GLGSV,3,3,11,84,50,020,19,85,09,345,31,,,,38*69
$GNGLL,0419.89796,S,05539.74160,E,122535.00,A,D*66
$GNRMC,122537.00,A,0419.89797,S,05539.74160,E,0.042,,260525,,,D*7C
$GNVTG,,T,,M,0.042,N,0.078,K,D*31
$GNGGA,122537.00,0419.89797,S,05539.74160,E,2,12,0.66,46.5,M,-47.6,M,,0000*4A
$GNGSA,A,3,28,32,27,31,18,16,10,08,,,,,1.32,0.66,1.14*13
$GNGSA,A,3,83,84,70,71,80,85,,,,,,,1.32,0.66,1.14*1B
$GPGSV,4,1,16,08,15,312,28,10,14,012,32,16,24,230,24,18,32,097,37*7F
$GPGSV,4,2,16,23,01,050,14,26,28,199,,27,50,296,41,28,55,134,29*78
$GPGSV,4,3,16,29,05,147,,31,42,178,22,32,47,002,33,36,52,277,41*7A
$GPGSV,4,4,16,40,84,353,32,41,58,082,37,49,32,274,,50,10,089,*7C
$GLGSV,3,1,11,69,05,012,33,70,38,314,22,71,31,255,37,73,17,183,*6E
$GLGSV,3,2,11,74,01,223,,80,13,129,28,82,05,148,,83,47,117,28*68
$GLGSV,3,3,11,84,50,020,19,85,09,345,32,,,,38*6A
$GNGLL,0419.89797,S,05539.74160,E,122537.00,A,D*65
$GNRMC,122538.00,A,0419.89799,S,05539.74160,E,0.017,,260525,,,D*7D
$GNVTG,,T,,M,0.017,N,0.031,K,D*3C
$GNGGA,122538.00,0419.89799,S,05539.74160,E,2,12,0.66,46.5,M,-47.6,M,,0000*4B
$GNGSA,A,3,28,32,27,31,18,16,10,08,,,,,1.32,0.66,1.14*13
$GNGSA,A,3,83,84,70,71,80,85,,,,,,,1.32,0.66,1.14*1B
$GPGSV,4,1,16,08,15,312,28,10,14,012,32,16,24,230,23,18,32,097,36*79
$GPGSV,4,2,16,23,01,050,15,26,28,199,,27,50,296,40,28,55,134,29*78
$GPGSV,4,3,16,29,05,147,,31,42,178,22,32,47,002,32,36,52,277,39*74
$GPGSV,4,4,16,40,84,353,32,41,58,082,38,49,32,274,,50,10,089,*73
