$GNRMC,074103.00,A,0419.72351,S,05539.82258,E,0.095,,220525,,,A*7D
$GNVTG,,T,,M,0.095,N,0.176,K,A*31
$GNGGA,074103.00,0419.72351,S,05539.82258,E,1,12,0.88,22.3,M,-47.6,M,,*47
$GNGSA,A,3,25,12,23,15,18,05,29,10,,,,,1.84,0.88,1.62*13
$GNGSA,A,3,75,71,72,76,,,,,,,,,1.84,0.88,1.62*14
$GPGSV,4,1,16,05,19,028,26,10,24,218,19,12,60,142,22,13,11,084,*70
$GPGSV,4,2,16,15,44,106,08,18,26,316,24,23,66,238,33,24,23,158,08*77
$GPGSV,4,3,16,25,82,297,25,28,10,271,,29,24,005,23,36,52,277,*79
$GPGSV,4,4,16,40,86,351,,41,58,082,,49,32,274,,50,10,089,*79
$GLGSV,3,1,09,65,07,200,,70,07,043,06,71,41,077,21,72,46,155,18*66
$GLGSV,3,2,09,74,17,164,,75,58,209,36,76,36,306,36,86,08,353,*6D
$GLGSV,3,3,09,87,04,312,*57
$GNGLL,0419.72351,S,05539.82258,E,074103.00,A,A*6A
$GNRMC,074104.00,A,0419.72347,S,05539.82262,E,0.129,,220525,,,A*72
$GNVTG,,T,,M,0.129,N,0.239,K,A*3F
$GNGGA,074104.00,0419.72347,S,05539.82262,E,1,12,0.88,22.7,M,-47.6,M,,*4A
$GNGSA,A,3,25,12,23,15,18,05,29,10,,,,,1.84,0.88,1.62*13
$GNGSA,A,3,75,71,72,76,,,,,,,,,1.84,0.88,1.62*14
$GPGSV,4,1,16,05,19,028,25,10,24,218,18,12,60,142,23,13,11,084,*73
$GPGSV,4,2,16,15,44,106,11,18,26,316,23,23,66,238,33,24,23,158,11*70
$GPGSV,4,3,16,25,82,297,25,28,10,271,,29,24,005,23,36,52,277,*79
$GPGSV,4,4,16,40,86,351,,41,58,082,,49,32,274,,50,10,089,*79
$GLGSV,3,1,09,65,07,200,,70,07,043,06,71,41,077,20,72,46,155,17*68
$GLGSV,3,2,09,74,17,164,,75,58,208,30,76,36,306,32,86,08,353,*6E
$GLGSV,3,3,09,87,04,312,*57
$GNGLL,0419.72347,S,05539.82262,E,074104.00,A,A*63
$GNRMC,074105.00,A,0419.72341,S,05539.82267,E,0.049,,220525,,,A*77
$GNVTG,,T,,M,0.049,N,0.091,K,A*38
$GNGGA,074105.00,0419.72341,S,05539.82267,E,1,12,0.88,23.2,M,-47.6,M,,*4C
$GNGSA,A,3,25,12,23,15,18,05,29,10,,,,,1.84,0.88,1.62*13
$GNGSA,A,3,75,71,72,76,,,,,,,,,1.84,0.88,1.62*14
$GPGSV,4,1,16,05,19,028,26,10,24,218,19,12,60,142,23,13,11,084,*71
$GPGSV,4,2,16,15,44,106,10,18,26,316,24,23,66,238,34,24,23,158,11*71
$GPGSV,4,3,16,25,82,297,27,28,10,271,,29,24,005,23,36,52,277,*7B
$GPGSV,4,4,16,40,86,351,,41,58,082,,49,32,274,,50,10,089,*79
$GLGSV,3,1,09,65,07,200,,70,07,043,08,71,41,077,19,72,46,155,17*6C
$GLGSV,3,2,09,74,17,164,,75,58,208,35,76,37,306,36,86,08,353,*6E
$GLGSV,3,3,09,87,04,312,*57
$GNGLL,0419.72341,S,05539.82267,E,074105.00,A,A*61
$GNRMC,074106.00,A,0419.72332,S,05539.82278,E,0.076,,220525,,,A*72
$GNVTG,,T,,M,0.076,N,0.142,K,A*3B
$GNGGA,074106.00,0419.72332,S,05539.82278,E,1,12,0.88,23.8,M,-47.6,M,,*4F
$GNGSA,A,3,25,12,23,15,18,05,24,29,10,,,,1.84,0.88,1.62*15
$GNGSA,A,3,75,71,72,76,,,,,,,,,1.84,0.88,1.62*14
$GPGSV,4,1,16,05,19,028,25,10,24,218,17,12,60,142,22,13,11,084,*7D
$GPGSV,4,2,16,15,44,106,08,18,26,316,25,23,66,238,33,24,23,158,10*7F
$GPGSV,4,3,16,25,82,297,29,28,10,271,,29,24,005,23,36,52,277,*75
$GPGSV,4,4,16,40,86,351,,41,58,082,,49,32,274,,50,10,089,*79
$GLGSV,3,1,09,65,07,200,,70,07,043,08,71,41,077,18,72,46,155,19*63
$GLGSV,3,2,09,74,17,164,,75,58,208,35,76,37,306,38,86,08,353,*60
$GLGSV,3,3,09,87,04,312,*57
$GNGLL,0419.72332,S,05539.82278,E,074106.00,A,A*68
$GNRMC,074107.00,A,0419.72325,S,05539.82278,E,0.187,,220525,,,A*7A
$GNVTG,,T,,M,0.187,N,0.346,K,A*32
$GNGGA,074107.00,0419.72325,S,05539.82278,E,1,12,0.79,24.6,M,-47.6,M,,*4F
$GNGSA,A,3,25,12,23,15,18,05,24,29,10,,,,1.56,0.79,1.35*16
$GNGSA,A,3,75,71,72,76,,,,,,,,,1.56,0.79,1.35*17
$GPGSV,4,1,16,05,19,028,24,10,24,218,15,12,60,142,20,13,11,084,*7C
$GPGSV,4,2,16,15,44,106,10,18,26,316,25,23,66,238,33,24,23,158,10*76
$GPGSV,4,3,16,25,82,297,30,28,10,271,,29,24,005,25,36,52,277,*7B
$GPGSV,4,4,16,40,86,351,,41,58,082,,49,32,274,,50,10,089,*79
$GLGSV,3,1,09,65,07,200,,70,07,043,08,71,41,077,18,72,46,155,20*69
$GLGSV,3,2,09,74,17,164,,75,58,208,36,76,37,306,38,86,08,353,*63
$GLGSV,3,3,09,87,04,312,*57
$GNGLL,0419.72325,S,05539.82278,E,074107.00,A,A*6F
$GNRMC,074108.00,A,0419.72316,S,05539.82287,E,0.176,,220525,,,A*7B
$GNVTG,,T,,M,0.176,N,0.327,K,A*3B
$GNGGA,074108.00,0419.72316,S,05539.82287,E,1,12,0.79,25.0,M,-47.6,M,,*47
$GNGSA,A,3,25,12,23,15,18,05,24,29,10,,,,1.56,0.79,1.35*16
$GNGSA,A,3,75,71,72,76,,,,,,,,,1.56,0.79,1.35*17
$GPGSV,4,1,16,05,19,028,25,10,24,218,16,12,60,142,20,13,11,084,*7E
$GPGSV,4,2,16,15,44,106,13,18,26,316,25,23,66,238,34,24,23,158,11*73
$GPGSV,4,3,16,25,82,297,30,28,10,271,,29,24,005,25,36,52,277,*7B
$GPGSV,4,4,16,40,86,351,,41,58,082,,49,32,274,,50,10,089,*79
$GLGSV,3,1,09,65,07,200,,70,07,043,08,71,41,077,21,72,46,155,21*62
$GLGSV,3,2,09,74,17,164,,75,58,208,36,76,37,306,38,86,08,353,*63
$GLGSV,3,3,09,87,04,312,*57
$GNGLL,0419.72316,S,05539.82287,E,074108.00,A,A*60
$GNRMC,074109.00,A,0419.72298,S,05539.82296,E,0.164,,220525,,,A*7E
$GNVTG,,T,,M,0.164,N,0.304,K,A*39
$GNGGA,074109.00,0419.72298,S,05539.82296,E,1,12,0.93,25.7,M,-47.6,M,,*42
$GNGSA,A,3,25,12,23,15,18,05,24,29,10,,,,1.87,0.93,1.62*1C
$GNGSA,A,3,75,71,72,76,,,,,,,,,1.87,0.93,1.62*1D
$GPGSV,4,1,16,05,19,028,27,10,24,218,16,12,60,142,20,13,11,084,*7C
$GPGSV,4,2,16,15,44,106,18,18,26,316,27,23,66,238,34,24,23,158,07*7D
$GPGSV,4,3,16,25,82,297,30,28,10,271,,29,24,005,24,36,52,277,*7A
$GPGSV,4,4,16,40,86,351,,41,58,082,,49,32,274,,50,10,089,*79
$GLGSV,3,1,09,65,07,200,,70,07,043,07,71,41,077,22,72,46,155,21*6E
$GLGSV,3,2,09,74,17,164,,75,58,208,36,76,37,306,37,86,08,353,*6C
$GLGSV,3,3,09,87,04,312,*57
$GNGLL,0419.72298,S,05539.82296,E,074109.00,A,A*66
$GNRMC,074110.00,A,0419.72291,S,05539.82301,E,0.137,,220525,,,A*76
$GNVTG,,T,,M,0.137,N,0.254,K,A*3B
$GNGGA,074110.00,0419.72291,S,05539.82301,E,1,12,0.79,26.0,M,-47.6,M,,*4C
$GNGSA,A,3,25,12,23,15,18,05,24,29,10,,,,1.56,0.79,1.35*16
$GNGSA,A,3,75,71,72,76,,,,,,,,,1.56,0.79,1.35*17
$GPGSV,4,1,16,05,19,028,27,10,24,218,16,12,60,142,20,13,11,084,*7C
$GPGSV,4,2,16,15,44,106,23,18,26,316,27,23,66,238,34,24,23,158,10*73
$GPGSV,4,3,16,25,82,297,31,28,10,271,,29,24,005,23,36,52,277,*7C
$GPGSV,4,4,16,40,86,351,31,41,58,082,,49,32,274,,50,10,089,*7B
$GLGSV,3,1,09,65,07,200,,70,07,043,07,71,41,077,21,72,46,155,19*66
$GLGSV,3,2,09,74,17,164,,75,58,208,35,76,37,306,37,86,08,353,*6F
$GLGSV,3,3,09,87,04,312,*57
$GNGLL,0419.72291,S,05539.82301,E,074110.00,A,A*68
$GNRMC,074111.00,A,0419.72282,S,05539.82311,E,0.182,,220525,,,A*7A
$GNVTG,,T,,M,0.182,N,0.337,K,A*31
$GNGGA,074111.00,0419.72282,S,05539.82311,E,1,12,0.86,26.3,M,-47.6,M,,*4D
$GNGSA,A,3,25,12,23,15,18,05,29,10,,,,,1.66,0.86,1.42*13
$GNGSA,A,3,75,71,72,76,70,,,,,,,,1.66,0.86,1.42*13
$GPGSV,4,1,16,05,19,028,27,10,24,218,15,12,60,142,19,13,11,084,*75
$GPGSV,4,2,16,15,44,106,24,18,26,316,26,23,66,238,34,24,23,158,*74
$GPGSV,4,3,16,25,82,297,31,28,10,271,,29,24,005,23,36,52,277,*7C
$GPGSV,4,4,16,40,86,351,30,41,58,082,,49,32,274,,50,10,089,*7A
$GLGSV,3,1,09,65,07,200,,70,07,043,10,71,41,077,20,72,46,155,18*60
$GLGSV,3,2,09,74,17,164,,75,58,208,35,76,37,306,38,86,08,353,*60
$GLGSV,3,3,09,87,04,312,*57
$GNGLL,0419.72282,S,05539.82311,E,074111.00,A,A*6A
$GNRMC,074112.00,A,0419.72273,S,05539.82322,E,0.196,,220525,,,A*72
$GNVTG,,T,,M,0.196,N,0.362,K,A*34
$GNGGA,074112.00,0419.72273,S,05539.82322,E,1,12,0.88,26.7,M,-47.6,M,,*4A
$GNGSA,A,3,25,12,23,15,18,05,29,10,,,,,1.84,0.88,1.62*13
$GNGSA,A,3,75,71,72,76,70,,,,,,,,1.84,0.88,1.62*13
$GPGSV,4,1,16,05,19,028,27,10,24,218,16,12,60,142,20,13,11,084,*7C
$GPGSV,4,2,16,15,44,106,25,18,26,316,26,23,66,238,34,24,23,158,*75
$GPGSV,4,3,16,25,82,297,31,28,10,271,,29,24,005,21,36,52,277,*7E
$GPGSV,4,4,16,40,86,351,30,41,58,082,,49,32,274,,50,10,089,*7A
$GLGSV,3,1,09,65,07,200,,70,07,043,11,71,41,077,21,72,46,155,18*60
$GLGSV,3,2,09,74,17,164,,75,58,208,35,76,37,306,37,86,08,353,*6F
$GLGSV,3,3,09,87,04,312,*57
$GNGLL,0419.72273,S,05539.82322,E,074112.00,A,A*67
$GNRMC,074113.00,A,0419.72263,S,05539.82331,E,0.165,,220525,,,A*7C
$GNVTG,,T,,M,0.165,N,0.306,K,A*3A
$GNGGA,074113.00,0419.72263,S,05539.82331,E,1,12,0.86,27.1,M,-47.6,M,,*41
$GNGSA,A,3,25,12,23,15,18,05,29,10,,,,,1.66,0.86,1.42*13
$GNGSA,A,3,75,71,72,76,70,,,,,,,,1.66,0.86,1.42*13
$GPGSV,4,1,16,05,19,028,27,10,24,218,17,12,60,142,19,13,11,084,*77
$GPGSV,4,2,16,15,44,106,25,18,26,316,26,23,66,238,35,24,23,158,*74
$GPGSV,4,3,16,25,82,297,30,28,10,271,,29,24,005,21,36,52,277,*7F
$GPGSV,4,4,16,40,86,351,29,41,58,082,,49,32,274,,50,10,089,*72
$GLGSV,3,1,09,65,07,200,,70,07,043,08,71,41,077,21,72,46,155,17*67
$GLGSV,3,2,09,74,17,164,,75,58,208,35,76,37,306,37,86,08,353,*6F
$GLGSV,3,3,09,87,04,312,*57
$GNGLL,0419.72263,S,05539.82331,E,074113.00,A,A*65
$GNRMC,074114.00,A,0419.72249,S,05539.82342,E,0.363,,220525,,,A*73
$GNVTG,,T,,M,0.363,N,0.672,K,A*38
$GNGGA,074114.00,0419.72249,S,05539.82342,E,1,12,0.90,27.6,M,-47.6,M,,*4A
$GNGSA,A,3,25,12,23,15,18,05,29,10,,,,,1.69,0.90,1.43*1A
$GNGSA,A,3,75,71,76,70,,,,,,,,,1.69,0.90,1.43*1F
$GPGSV,4,1,16,05,19,028,28,10,24,218,17,12,60,142,19,13,11,084,*78
$GPGSV,4,2,16,15,44,106,26,18,26,316,26,23,66,238,35,24,23,158,*77
$GPGSV,4,3,16,25,82,297,30,28,10,271,,29,24,005,20,36,52,277,*7E
$GPGSV,4,4,16,40,86,351,28,41,58,082,,49,32,274,,50,10,089,*73
$GLGSV,3,1,09,65,07,200,,70,07,043,10,71,41,077,24,72,46,155,*6D
$GLGSV,3,2,09,74,17,164,,75,58,208,35,76,37,306,37,86,08,353,*6F
$GLGSV,3,3,09,87,04,312,*57
$GNGLL,0419.72249,S,05539.82342,E,074114.00,A,A*6E
$GNRMC,074115.00,A,0419.72243,S,05539.82354,E,0.125,,220525,,,A*7F
$GNVTG,,T,,M,0.125,N,0.231,K,A*3B
$GNGGA,074115.00,0419.72243,S,05539.82354,E,1,12,0.93,27.9,M,-47.6,M,,*4A
$GNGSA,A,3,25,12,23,15,18,05,29,10,,,,,1.88,0.93,1.64*13
$GNGSA,A,3,75,71,76,70,,,,,,,,,1.88,0.93,1.64*16
$GPGSV,4,1,16,05,19,028,28,10,24,218,17,12,60,142,18,13,11,084,*79
$GPGSV,4,2,16,15,44,106,27,18,26,316,26,23,66,238,35,24,23,158,*76
$GPGSV,4,3,16,25,82,297,29,28,10,271,,29,24,005,19,36,52,277,*7C
$GPGSV,4,4,16,40,86,351,28,41,58,082,,49,32,274,,50,10,089,*73
$GLGSV,3,1,09,65,07,200,,70,07,043,08,71,41,077,24,72,46,155,*64
$GLGSV,3,2,09,74,17,164,,75,58,208,35,76,37,306,37,86,08,353,*6F
$GLGSV,3,3,09,87,04,312,*57
$GNGLL,0419.72243,S,05539.82354,E,074115.00,A,A*62
$GNRMC,074116.00,A,0419.72243,S,05539.82362,E,0.147,,220525,,,A*7D
$GNVTG,,T,,M,0.147,N,0.273,K,A*39
$GNGGA,074116.00,0419.72243,S,05539.82362,E,1,12,0.90,27.9,M,-47.6,M,,*4F
$GNGSA,A,3,25,12,23,15,18,05,29,10,,,,,1.69,0.90,1.43*1A
$GNGSA,A,3,75,71,76,70,,,,,,,,,1.69,0.90,1.43*1F
$GPGSV,4,1,16,05,19,028,27,10,24,218,19,12,60,142,17,13,11,084,*77
$GPGSV,4,2,16,15,44,106,28,18,26,316,27,23,66,238,35,24,23,158,*78
$GPGSV,4,3,16,25,82,297,30,28,10,271,,29,24,005,18,36,52,277,*75
$GPGSV,4,4,16,40,86,351,28,41,58,082,,49,32,274,,50,10,089,*73
$GLGSV,3,1,09,65,07,200,,70,07,043,09,71,41,077,23,72,46,155,*62
$GLGSV,3,2,09,74,17,164,,75,58,208,35,76,37,306,36,86,08,353,*6E
$GLGSV,3,3,09,87,04,312,*57
$GNGLL,0419.72243,S,05539.82362,E,074116.00,A,A*64
$GNRMC,074117.00,A,0419.72243,S,05539.82367,E,0.057,,220525,,,A*79
$GNVTG,,T,,M,0.057,N,0.106,K,A*38
$GNGGA,074117.00,0419.72243,S,05539.82367,E,1,12,0.90,27.9,M,-47.6,M,,*4B
$GNGSA,A,3,25,12,23,15,18,05,29,10,,,,,1.69,0.90,1.43*1A
$GNGSA,A,3,75,71,76,70,,,,,,,,,1.69,0.90,1.43*1F
$GPGSV,4,1,16,05,19,028,27,10,24,218,19,12,60,142,16,13,11,084,*76
$GPGSV,4,2,16,15,44,106,28,18,26,316,27,23,66,238,34,24,23,158,*79
$GPGSV,4,3,16,25,82,297,30,28,10,271,,29,24,005,20,36,52,277,*7E
$GPGSV,4,4,16,40,86,351,28,41,58,082,,49,32,274,,50,10,089,*73
$GLGSV,3,1,09,65,07,200,,70,07,043,11,71,41,077,23,72,46,155,18*62
$GLGSV,3,2,09,74,17,164,,75,58,208,35,76,37,306,37,86,08,353,*6F
$GLGSV,3,3,09,87,04,312,*57
$GNGLL,0419.72243,S,05539.82367,E,074117.00,A,A*60
$GNRMC,074118.00,A,0419.72239,S,05539.82375,E,0.144,,220525,,,A*7B
$GNVTG,,T,,M,0.144,N,0.266,K,A*3E
$GNGGA,074118.00,0419.72239,S,05539.82375,E,1,12,0.93,28.0,M,-47.6,M,,*4F
$GNGSA,A,3,25,12,23,15,18,05,29,10,,,,,1.88,0.93,1.64*13
$GNGSA,A,3,75,71,76,70,,,,,,,,,1.88,0.93,1.64*16
$GPGSV,4,1,16,05,19,028,27,10,24,218,20,12,60,142,18,13,11,084,*72
$GPGSV,4,2,16,15,44,106,28,18,26,316,27,23,66,238,34,24,23,158,*79
$GPGSV,4,3,16,25,82,297,31,28,10,271,,29,24,005,20,36,52,277,*7F
$GPGSV,4,4,16,40,86,351,29,41,58,082,,49,32,274,,50,10,089,*72
$GLGSV,3,1,09,65,07,200,,70,07,043,11,71,41,077,23,72,46,155,18*62
$GLGSV,3,2,09,74,17,164,,75,58,208,35,76,37,306,38,86,08,353,*60
$GLGSV,3,3,09,87,04,312,*57
$GNGLL,0419.72239,S,05539.82375,E,074118.00,A,A*61
$GNRMC,074119.00,A,0419.72234,S,05539.82381,E,0.059,,220525,,,A*71
$GNVTG,,T,,M,0.059,N,0.110,K,A*31
$GNGGA,074119.00,0419.72234,S,05539.82381,E,1,12,0.90,28.2,M,-47.6,M,,*49
$GNGSA,A,3,25,12,23,15,18,05,29,10,,,,,1.69,0.90,1.43*1A
$GNGSA,A,3,75,71,76,70,,,,,,,,,1.69,0.90,1.43*1F
$GPGSV,4,1,16,05,19,028,27,10,24,218,19,12,60,142,20,13,11,084,*73
$GPGSV,4,2,16,15,44,106,28,18,26,316,27,23,66,238,34,24,23,158,*79
$GPGSV,4,3,16,25,82,297,31,28,10,271,20,29,24,005,21,36,52,277,*7C
$GPGSV,4,4,16,40,86,351,29,41,58,082,,49,32,274,,50,10,089,*72
$GLGSV,3,1,09,65,07,200,,70,07,043,09,71,41,077,22,72,46,155,18*6A
$GLGSV,3,2,09,74,17,164,,75,58,208,35,76,37,306,37,86,08,353,*6F
$GLGSV,3,3,09,87,04,312,*57
$GNGLL,0419.72234,S,05539.82381,E,074119.00,A,A*66
$GNRMC,074120.00,A,0419.72236,S,05539.82388,E,0.089,,220525,,,A*7D
$GNVTG,,T,,M,0.089,N,0.166,K,A*3D
$GNGGA,074120.00,0419.72236,S,05539.82388,E,1,12,0.90,28.0,M,-47.6,M,,*4A
$GNGSA,A,3,25,12,23,15,18,05,29,10,,,,,1.69,0.90,1.43*1A
$GNGSA,A,3,75,71,76,70,,,,,,,,,1.69,0.90,1.43*1F
$GPGSV,4,1,16,05,19,028,28,10,24,218,19,12,60,142,20,13,11,084,04*78
$GPGSV,4,2,16,15,44,106,29,18,26,316,27,23,66,238,35,24,23,158,*79
$GPGSV,4,3,16,25,82,297,31,28,10,271,20,29,24,005,22,36,52,277,*7F
$GPGSV,4,4,16,40,86,351,29,41,58,082,,49,32,274,,50,10,089,*72
$GLGSV,3,1,09,65,07,200,,70,07,043,09,71,41,077,23,72,46,155,17*64
$GLGSV,3,2,09,74,17,164,,75,58,208,35,76,37,306,38,86,08,353,*60
$GLGSV,3,3,09,87,04,312,*57
$GNGLL,0419.72236,S,05539.82388,E,074120.00,A,A*67
$GNRMC,074121.00,A,0419.72236,S,05539.82392,E,0.109,,220525,,,A*7E
$GNVTG,,T,,M,0.109,N,0.203,K,A*34
$GNGGA,074121.00,0419.72236,S,05539.82392,E,1,12,0.93,27.9,M,-47.6,M,,*45
$GNGSA,A,3,25,12,23,15,18,05,29,10,,,,,1.88,0.93,1.64*13
$GNGSA,A,3,75,71,72,76,70,,,,,,,,1.88,0.93,1.64*13
$GPGSV,4,1,16,05,19,028,28,10,24,218,17,12,60,142,21,13,11,084,07*74
$GPGSV,4,2,16,15,44,106,29,18,26,316,26,23,66,238,35,24,23,158,*78
$GPGSV,4,3,16,25,82,297,31,28,10,271,21,29,24,005,22,36,52,277,*7E
$GPGSV,4,4,16,40,86,351,28,41,58,082,,49,32,274,,50,10,089,*73
$GLGSV,3,1,09,65,07,200,,70,07,043,11,71,41,077,23,72,46,155,17*6D
$GLGSV,3,2,09,74,17,164,,75,58,208,36,76,37,306,38,86,08,353,*63
$GLGSV,3,3,09,87,04,312,*57
$GNGLL,0419.72236,S,05539.82392,E,074121.00,A,A*6D
$GNRMC,074122.00,A,0419.72236,S,05539.82393,E,0.029,,220525,,,A*7F
$GNVTG,,T,,M,0.029,N,0.053,K,A*30
$GNGGA,074122.00,0419.72236,S,05539.82393,E,1,12,0.86,27.9,M,-47.6,M,,*43
$GNGSA,A,3,25,12,23,15,18,05,29,10,,,,,1.66,0.86,1.42*13
$GNGSA,A,3,75,71,72,76,70,,,,,,,,1.66,0.86,1.42*13
$GPGSV,4,1,16,05,18,028,29,10,24,218,15,12,60,142,22,13,11,084,08*7A
$GPGSV,4,2,16,15,44,106,29,18,26,316,26,23,66,238,35,24,23,158,*78
$GPGSV,4,3,16,25,82,297,31,28,10,271,20,29,24,005,21,36,52,277,*7C
$GPGSV,4,4,16,40,86,351,27,41,58,082,,49,32,274,,50,10,089,*7C
$GLGSV,3,1,09,65,07,200,,70,07,043,10,71,41,077,24,72,46,155,18*64
$GLGSV,3,2,09,74,17,164,,75,58,208,36,76,37,306,38,86,08,353,*63
$GLGSV,3,3,09,87,04,312,*57
$GNGLL,0419.72236,S,05539.82393,E,074122.00,A,A*6F
$GNRMC,074123.00,A,0419.72240,S,05539.82389,E,0.162,,220525,,,A*7A
$GNVTG,,T,,M,0.162,N,0.299,K,A*3A
$GNGGA,074123.00,0419.72240,S,05539.82389,E,1,12,1.26,27.7,M,-47.6,M,,*4D
$GNGSA,A,3,25,12,23,15,18,05,29,,,,,,2.56,1.26,2.23*1D
$GNGSA,A,3,75,71,72,76,70,,,,,,,,2.56,1.26,2.23*1C
$GPGSV,4,1,16,05,18,028,29,10,24,218,14,12,60,142,23,13,11,084,08*7A
$GPGSV,4,2,16,15,44,106,29,18,26,316,27,23,66,238,35,24,23,158,06*7F
$GPGSV,4,3,16,25,82,297,30,28,10,271,20,29,24,005,19,36,52,277,*76
$GPGSV,4,4,16,40,86,351,27,41,58,082,,49,32,274,,50,10,089,*7C
$GLGSV,3,1,09,65,07,200,,70,07,043,12,71,41,077,24,72,46,155,17*69
$GLGSV,3,2,09,74,17,164,,75,58,208,35,76,37,306,38,86,08,353,*60
$GLGSV,3,3,09,87,04,312,18*5E
$GNGLL,0419.72240,S,05539.82389,E,074123.00,A,A*64
$GNRMC,074124.00,A,0419.72240,S,05539.82388,E,0.107,,220525,,,A*7F
$GNVTG,,T,,M,0.107,N,0.198,K,A*3B
$GNGGA,074124.00,0419.72240,S,05539.82388,E,1,12,0.88,27.7,M,-47.6,M,,*4E
$GNGSA,A,3,25,12,23,15,18,05,29,10,,,,,1.84,0.88,1.62*13
$GNGSA,A,3,75,71,72,76,,,,,,,,,1.84,0.88,1.62*14
$GPGSV,4,1,16,05,18,028,29,10,24,218,12,12,60,142,24,13,11,084,08*7B
$GPGSV,4,2,16,15,44,106,28,18,26,316,26,23,66,238,35,24,23,158,07*7E
$GPGSV,4,3,16,25,82,297,31,28,10,271,19,29,24,005,19,36,52,277,*7D
$GPGSV,4,4,16,40,86,351,27,41,58,082,,49,32,274,,50,10,089,*7C
$GLGSV,3,1,09,65,07,200,,70,07,043,06,71,41,077,25,72,46,155,18*62
$GLGSV,3,2,09,74,17,164,,75,58,208,35,76,37,306,38,86,08,353,*60
$GLGSV,3,3,09,87,04,312,18*5E
$GNGLL,0419.72240,S,05539.82388,E,074124.00,A,A*62
$GNRMC,074125.00,A,0419.72240,S,05539.82390,E,0.045,,220525,,,A*70
$GNVTG,,T,,M,0.045,N,0.083,K,A*37
$GNGGA,074125.00,0419.72240,S,05539.82390,E,1,12,1.26,27.6,M,-47.6,M,,*42
$GNGSA,A,3,25,12,23,15,18,05,29,,,,,,2.56,1.26,2.23*1D
$GNGSA,A,3,75,71,72,76,70,,,,,,,,2.56,1.26,2.23*1C
$GPGSV,4,1,16,05,18,028,28,10,24,218,,12,60,142,25,13,11,084,09*79
$GPGSV,4,2,16,15,44,106,27,18,26,316,26,23,66,238,35,24,23,158,08*7E
$GPGSV,4,3,16,25,82,297,32,28,10,271,16,29,24,005,21,36,52,277,*7A
$GPGSV,4,4,16,40,86,351,27,41,58,082,,49,32,274,,50,10,089,*7C
$GLGSV,3,1,09,65,07,200,,70,07,043,11,71,41,077,24,72,46,155,18*65
$GLGSV,3,2,09,74,17,164,,75,58,208,35,76,37,306,39,86,08,353,*61
$GLGSV,3,3,09,87,04,312,18*5E
$GNGLL,0419.72240,S,05539.82390,E,074125.00,A,A*6A
$GNRMC,074126.00,A,0419.72239,S,05539.82392,E,0.073,,220525,,,A*7A
$GNVTG,,T,,M,0.073,N,0.134,K,A*3F
$GNGGA,074126.00,0419.72239,S,05539.82392,E,1,12,1.26,27.5,M,-47.6,M,,*4E
$GNGSA,A,3,25,12,23,15,18,05,29,,,,,,2.56,1.26,2.23*1D
$GNGSA,A,3,75,71,72,76,70,,,,,,,,2.56,1.26,2.23*1C
$GPGSV,4,1,16,05,18,028,28,10,24,218,,12,60,142,26,13,11,084,09*7A
$GPGSV,4,2,16,15,44,106,26,18,26,316,26,23,66,238,35,24,23,158,*77
$GPGSV,4,3,16,25,82,297,32,28,10,271,17,29,24,005,22,36,52,277,*78
$GPGSV,4,4,16,40,86,351,27,41,58,082,,49,32,274,,50,10,089,*7C
$GLGSV,3,1,09,65,07,200,,70,07,043,10,71,41,077,23,72,46,155,19*62
$GLGSV,3,2,09,74,17,164,,75,58,208,35,76,37,306,38,86,08,353,*60
$GLGSV,3,3,09,87,04,312,17*51
$GNGLL,0419.72239,S,05539.82392,E,074126.00,A,A*65
$GNRMC,074127.00,A,0419.72240,S,05539.82393,E,0.059,,220525,,,A*7C
$GNVTG,,T,,M,0.059,N,0.110,K,A*31
$GNGGA,074127.00,0419.72240,S,05539.82393,E,1,12,1.29,27.4,M,-47.6,M,,*4E
$GNGSA,A,3,25,12,23,15,18,05,29,,,,,,2.90,1.29,2.60*1F
$GNGSA,A,3,75,71,72,76,70,,,,,,,,2.90,1.29,2.60*1E
$GPGSV,4,1,16,05,18,028,29,10,25,218,,12,60,142,26,13,11,084,11*73
$GPGSV,4,2,16,15,44,106,26,18,26,316,25,23,66,238,35,24,23,158,*74
$GPGSV,4,3,16,25,82,297,31,28,10,271,18,29,24,005,23,36,52,277,*75
$GPGSV,4,4,16,40,86,351,28,41,58,082,,49,32,274,,50,10,089,*73
$GLGSV,3,1,09,65,07,200,,70,07,043,12,71,41,077,23,72,46,155,19*60
$GLGSV,3,2,09,74,17,164,,75,58,208,35,76,37,306,38,86,08,353,*60
$GLGSV,3,3,09,87,04,312,16*50
$GNGLL,0419.72240,S,05539.82393,E,074127.00,A,A*6B
$GNRMC,074128.00,A,0419.72242,S,05539.82392,E,0.020,,220525,,,A*7E
$GNVTG,,T,,M,0.020,N,0.038,K,A*34
$GNGGA,074128.00,0419.72242,S,05539.82392,E,1,12,1.26,27.2,M,-47.6,M,,*4B
$GNGSA,A,3,25,12,23,15,18,05,29,,,,,,2.56,1.26,2.23*1D
$GNGSA,A,3,75,71,72,76,70,,,,,,,,2.56,1.26,2.23*1C
$GPGSV,4,1,16,05,18,028,28,10,25,218,,12,60,142,26,13,11,084,09*7B
$GPGSV,4,2,16,15,44,106,25,18,26,316,27,23,66,238,36,24,23,158,*76
$GPGSV,4,3,16,25,82,297,31,28,10,271,19,29,24,005,22,36,52,277,*75
$GPGSV,4,4,16,40,86,351,27,41,58,082,,49,32,274,,50,10,089,*7C
$GLGSV,3,1,09,65,07,200,,70,07,043,10,71,41,077,23,72,46,155,20*68
$GLGSV,3,2,09,74,17,164,,75,58,208,36,76,37,306,38,86,08,353,*63
$GLGSV,3,3,09,87,04,312,16*50
$GNGLL,0419.72242,S,05539.82392,E,074128.00,A,A*67
$GNRMC,074129.00,A,0419.72245,S,05539.82393,E,0.136,,220525,,,A*7F
$GNVTG,,T,,M,0.136,N,0.252,K,A*3C
$GNGGA,074129.00,0419.72245,S,05539.82393,E,1,12,1.26,27.1,M,-47.6,M,,*4F
$GNGSA,A,3,25,12,23,15,18,05,29,,,,,,2.56,1.26,2.23*1D
$GNGSA,A,3,75,71,72,76,70,,,,,,,,2.56,1.26,2.23*1C
$GPGSV,4,1,16,05,18,028,28,10,25,218,,12,59,143,26,13,11,084,08*71
$GPGSV,4,2,16,15,44,106,21,18,26,316,27,23,66,238,34,24,23,158,08*78
$GPGSV,4,3,16,25,82,297,32,28,10,271,18,29,24,005,20,36,52,277,*75
$GPGSV,4,4,16,40,86,351,27,41,58,082,,49,32,274,,50,10,089,*7C
$GLGSV,3,1,09,65,07,200,,70,07,043,12,71,41,077,21,72,46,155,21*69
$GLGSV,3,2,09,74,17,164,,75,58,208,36,76,37,306,37,86,08,353,*6C
$GLGSV,3,3,09,87,04,312,17*51
$GNGLL,0419.72245,S,05539.82393,E,074129.00,A,A*60
$GNRMC,074130.00,A,0419.72244,S,05539.82394,E,0.064,,220525,,,A*77
$GNVTG,,T,,M,0.064,N,0.119,K,A*36
$GNGGA,074130.00,0419.72244,S,05539.82394,E,1,12,1.29,27.2,M,-47.6,M,,*4D
$GNGSA,A,3,25,12,23,15,18,05,29,,,,,,2.90,1.29,2.60*1F
$GNGSA,A,3,75,71,72,76,70,,,,,,,,2.90,1.29,2.60*1E
$GPGSV,4,1,16,05,18,028,28,10,25,218,,12,59,143,27,13,10,084,08*71
$GPGSV,4,2,16,15,44,106,19,18,26,316,26,23,66,238,36,24,23,158,08*70
$GPGSV,4,3,16,25,82,297,31,28,10,271,17,29,24,005,21,36,52,277,*78
$GPGSV,4,4,16,40,86,351,27,41,58,082,,49,32,274,,50,10,089,*7C
$GLGSV,3,1,09,65,07,200,,70,07,043,09,71,41,077,20,72,46,155,20*63
$GLGSV,3,2,09,74,17,164,,75,58,208,35,76,37,306,36,86,08,353,*6E
$GLGSV,3,3,09,87,04,312,18*5E
$GNGLL,0419.72244,S,05539.82394,E,074130.00,A,A*6E
$GNRMC,074131.00,A,0419.72244,S,05539.82394,E,0.094,,220525,,,A*79
$GNVTG,,T,,M,0.094,N,0.175,K,A*33
$GNGGA,074131.00,0419.72244,S,05539.82394,E,1,12,1.26,27.2,M,-47.6,M,,*43
$GNGSA,A,3,25,12,23,15,18,05,29,,,,,,2.56,1.26,2.23*1D
$GNGSA,A,3,75,71,72,76,70,,,,,,,,2.56,1.26,2.23*1C
$GPGSV,4,1,16,05,18,028,27,10,25,218,16,12,59,143,26,13,10,084,09*79
$GPGSV,4,2,16,15,44,106,15,18,26,316,25,23,66,238,36,24,23,158,14*72
$GPGSV,4,3,16,25,82,297,31,28,10,271,18,29,24,005,23,36,52,277,*75
$GPGSV,4,4,16,40,86,351,27,41,58,082,,49,32,274,,50,10,089,*7C
$GLGSV,3,1,09,65,07,200,,70,07,043,09,71,41,077,21,72,46,155,22*60
$GLGSV,3,2,09,74,17,164,,75,58,208,35,76,37,306,36,86,08,353,*6E
$GLGSV,3,3,09,87,04,312,17*51
$GNGLL,0419.72244,S,05539.82394,E,074131.00,A,A*6F
$GNRMC,074132.00,A,0419.72248,S,05539.82387,E,0.070,,220525,,,A*7E
$GNVTG,,T,,M,0.070,N,0.129,K,A*30
$GNGGA,074132.00,0419.72248,S,05539.82387,E,1,12,1.26,27.0,M,-47.6,M,,*4C
$GNGSA,A,3,25,12,23,15,18,05,29,,,,,,2.56,1.26,2.23*1D
$GNGSA,A,3,75,71,72,76,70,,,,,,,,2.56,1.26,2.23*1C
$GPGSV,4,1,16,05,18,028,26,10,25,218,15,12,59,143,27,13,10,084,10*72
$GPGSV,4,2,16,15,44,106,12,18,26,316,25,23,66,238,36,24,23,158,15*74
$GPGSV,4,3,16,25,82,297,31,28,10,271,19,29,24,005,24,36,52,277,*73
$GPGSV,4,4,16,40,86,351,28,41,58,082,,49,32,274,,50,10,089,*73
$GLGSV,3,1,09,65,07,200,,70,07,043,09,71,41,077,21,72,46,155,22*60
$GLGSV,3,2,09,74,17,164,,75,58,208,35,76,37,306,37,86,08,353,*6F
$GLGSV,3,3,09,87,04,312,16*50
$GNGLL,0419.72248,S,05539.82387,E,074132.00,A,A*62
$GNRMC,074133.00,A,0419.72248,S,05539.82383,E,0.096,,220525,,,A*73
$GNVTG,,T,,M,0.096,N,0.177,K,A*33
$GNGGA,074133.00,0419.72248,S,05539.82383,E,1,12,0.93,26.9,M,-47.6,M,,*4E
$GNGSA,A,3,25,12,23,15,18,05,24,29,,,,,1.83,0.93,1.58*10
$GNGSA,A,3,75,71,72,76,70,,,,,,,,1.83,0.93,1.58*17
$GPGSV,4,1,16,05,18,028,26,10,25,218,15,12,59,143,28,13,10,084,12*7F
$GPGSV,4,2,16,15,44,106,15,18,26,316,24,23,66,238,36,24,23,158,15*72
$GPGSV,4,3,16,25,82,297,30,28,10,271,17,29,24,005,24,36,52,277,*7C
$GPGSV,4,4,16,40,86,351,29,41,58,082,,49,32,274,,50,10,089,*72
$GLGSV,3,1,09,65,07,200,,70,07,043,11,71,41,077,20,72,46,155,21*6B
$GLGSV,3,2,09,74,17,164,,75,58,208,35,76,37,306,36,86,08,353,*6E
$GLGSV,3,3,09,87,04,312,16*50
$GNGLL,0419.72248,S,05539.82383,E,074133.00,A,A*67
$GNRMC,074134.00,A,0419.72255,S,05539.82381,E,0.169,,220525,,,A*7B
$GNVTG,,T,,M,0.169,N,0.312,K,A*33
$GNGGA,074134.00,0419.72255,S,05539.82381,E,1,12,0.91,26.6,M,-47.6,M,,*4A
$GNGSA,A,3,25,12,23,15,18,05,24,29,,,,,1.73,0.91,1.47*13
$GNGSA,A,3,75,71,72,76,70,,,,,,,,1.73,0.91,1.47*14
$GPGSV,4,1,16,05,18,028,25,10,25,218,15,12,59,143,27,13,10,084,11*70
$GPGSV,4,2,16,15,44,106,22,18,26,316,24,23,66,238,37,24,23,158,15*77
$GPGSV,4,3,16,25,82,297,31,28,10,271,17,29,24,005,24,36,52,277,*7D
$GPGSV,4,4,16,40,86,351,27,41,58,082,,49,32,274,,50,10,089,*7C
$GLGSV,3,1,09,65,07,200,,70,07,043,11,71,41,077,20,72,46,155,20*6A
$GLGSV,3,2,09,74,17,164,,75,58,208,35,76,37,306,36,86,08,353,*6E
$GLGSV,3,3,09,87,04,312,16*50
$GNGLL,0419.72255,S,05539.82381,E,074134.00,A,A*6E
$GNRMC,074135.00,A,0419.72260,S,05539.82375,E,0.053,,220525,,,A*7F
$GNVTG,,T,,M,0.053,N,0.098,K,A*3A
$GNGGA,074135.00,0419.72260,S,05539.82375,E,1,12,0.91,26.3,M,-47.6,M,,*43
$GNGSA,A,3,25,12,23,15,18,05,24,29,,,,,1.73,0.91,1.47*13
$GNGSA,A,3,75,71,72,76,70,,,,,,,,1.73,0.91,1.47*14
$GPGSV,4,1,16,05,18,028,25,10,25,218,13,12,59,143,28,13,10,084,10*78
$GPGSV,4,2,16,15,44,106,23,18,25,317,23,23,66,238,37,24,23,158,15*73
$GPGSV,4,3,16,25,82,297,32,28,10,271,17,29,24,005,25,36,52,277,*7F
$GPGSV,4,4,16,40,86,351,28,41,58,082,,49,32,274,,50,10,089,*73
$GLGSV,3,1,09,65,07,200,,70,07,043,11,71,41,077,20,72,46,155,19*60
$GLGSV,3,2,09,74,17,164,,75,58,208,36,76,37,306,36,86,08,353,*6D
$GLGSV,3,3,09,87,04,312,17*51
$GNGLL,0419.72260,S,05539.82375,E,074135.00,A,A*62
$GNRMC,074136.00,A,0419.72260,S,05539.82370,E,0.091,,220525,,,A*77
$GNVTG,,T,,M,0.091,N,0.168,K,A*3A
$GNGGA,074136.00,0419.72260,S,05539.82370,E,1,12,0.76,26.2,M,-47.6,M,,*4D
$GNGSA,A,3,25,12,23,15,18,05,24,29,10,,,,1.45,0.76,1.23*1C
$GNGSA,A,3,75,71,72,76,70,,,,,,,,1.45,0.76,1.23*1A
$GPGSV,4,1,16,05,18,028,25,10,25,218,12,12,59,143,28,13,10,084,09*71
$GPGSV,4,2,16,15,44,106,23,18,25,317,24,23,66,238,36,24,23,158,16*76
$GPGSV,4,3,16,25,82,297,32,28,10,271,18,29,24,005,25,36,52,277,*70
$GPGSV,4,4,16,40,86,351,29,41,58,082,,49,32,274,,50,10,089,*72
$GLGSV,3,1,09,65,07,200,,70,07,043,11,71,41,077,20,72,46,155,19*60
$GLGSV,3,2,09,74,17,164,,75,58,208,36,76,37,306,35,86,08,353,*6E
$GLGSV,3,3,09,87,04,312,18*5E
$GNGLL,0419.72260,S,05539.82370,E,074136.00,A,A*64
$GNRMC,074137.00,A,0419.72262,S,05539.82367,E,0.096,,220525,,,A*75
$GNVTG,,T,,M,0.096,N,0.178,K,A*3C
$GNGGA,074137.00,0419.72262,S,05539.82367,E,1,12,0.76,26.0,M,-47.6,M,,*4A
$GNGSA,A,3,25,12,23,15,18,05,24,29,10,,,,1.45,0.76,1.23*1C
$GNGSA,A,3,75,71,72,76,70,,,,,,,,1.45,0.76,1.23*1A
$GPGSV,4,1,16,05,18,028,25,10,25,218,12,12,59,143,28,13,10,084,09*71
$GPGSV,4,2,16,15,44,106,23,18,25,317,25,23,66,238,37,24,23,158,16*76
$GPGSV,4,3,16,25,82,297,31,28,10,271,18,29,24,005,25,36,52,277,*73
$GPGSV,4,4,16,40,86,351,28,41,58,082,,49,32,274,,50,10,089,*73
$GLGSV,3,1,09,65,07,200,,70,07,043,11,71,41,077,19,72,46,155,21*61
$GLGSV,3,2,09,74,17,164,,75,58,208,36,76,37,306,35,86,08,353,*6E
$GLGSV,3,3,09,87,04,312,18*5E
$GNGLL,0419.72262,S,05539.82367,E,074137.00,A,A*61
$GNRMC,074138.00,A,0419.72261,S,05539.82365,E,0.054,,220525,,,A*75
$GNVTG,,T,,M,0.054,N,0.099,K,A*3C
$GNGGA,074138.00,0419.72261,S,05539.82365,E,1,12,0.76,25.8,M,-47.6,M,,*4F
$GNGSA,A,3,25,12,23,15,18,05,24,29,10,,,,1.45,0.76,1.23*1C
$GNGSA,A,3,75,71,72,76,70,,,,,,,,1.45,0.76,1.23*1A
$GPGSV,4,1,16,05,18,028,25,10,25,218,14,12,59,143,28,13,10,084,08*76
$GPGSV,4,2,16,15,44,106,21,18,25,317,26,23,66,238,37,24,23,158,17*76
$GPGSV,4,3,16,25,82,297,32,28,10,271,19,29,24,005,25,36,52,277,*71
$GPGSV,4,4,16,40,86,351,27,41,58,082,,49,32,274,,50,10,089,*7C
$GLGSV,3,1,09,65,07,200,,70,07,043,11,71,41,077,19,72,46,155,23*63
$GLGSV,3,2,09,74,17,164,,75,58,208,36,76,37,306,35,86,08,353,*6E
$GLGSV,3,3,09,87,04,312,18*5E
$GNGLL,0419.72261,S,05539.82365,E,074138.00,A,A*6F
$GNRMC,074139.00,A,0419.72261,S,05539.82362,E,0.039,,220525,,,A*78
$GNVTG,,T,,M,0.039,N,0.072,K,A*32
$GNGGA,074139.00,0419.72261,S,05539.82362,E,1,12,0.79,25.7,M,-47.6,M,,*49
$GNGSA,A,3,25,12,23,15,18,05,24,29,10,13,,,1.56,0.79,1.35*14
$GNGSA,A,3,75,71,72,76,70,,,,,,,,1.56,0.79,1.35*10
$GPGSV,4,1,16,05,18,028,24,10,25,218,13,12,59,143,27,13,10,084,08*7F
$GPGSV,4,2,16,15,44,106,19,18,25,317,26,23,66,240,37,24,23,158,17*72
$GPGSV,4,3,16,25,82,297,32,28,10,271,19,29,24,005,26,36,52,277,*72
$GPGSV,4,4,16,40,86,351,26,41,58,082,,49,32,274,,50,10,089,*7D
$GLGSV,3,1,09,65,07,200,,70,07,043,14,71,41,077,19,72,46,155,23*66
$GLGSV,3,2,09,74,17,164,,75,58,208,36,76,37,306,35,86,08,353,*6E
$GLGSV,3,3,09,87,04,312,17*51
$GNGLL,0419.72261,S,05539.82362,E,074139.00,A,A*69
$GNRMC,074140.00,A,0419.72260,S,05539.82362,E,0.133,,220525,,,A*7C
$GNVTG,,T,,M,0.133,N,0.246,K,A*3C
$GNGGA,074140.00,0419.72260,S,05539.82362,E,1,12,0.76,25.6,M,-47.6,M,,*48
$GNGSA,A,3,25,12,23,15,18,05,24,29,10,,,,1.45,0.76,1.23*1C
$GNGSA,A,3,75,71,72,76,70,,,,,,,,1.45,0.76,1.23*1A
$GPGSV,4,1,16,05,18,028,24,10,25,218,16,12,59,143,27,13,10,084,07*75
$GPGSV,4,2,16,15,44,106,20,18,25,317,26,23,66,240,37,24,23,158,16*79
$GPGSV,4,3,16,25,82,297,32,28,10,271,19,29,24,005,26,36,52,277,*72
$GPGSV,4,4,16,40,86,351,,41,58,082,,49,32,274,,50,10,089,*79
$GLGSV,3,1,09,65,07,200,,70,07,043,14,71,41,077,20,72,46,155,23*6C
$GLGSV,3,2,09,74,17,164,,75,58,208,36,76,37,306,35,86,08,353,*6E
$GLGSV,3,3,09,87,04,312,16*50
$GNGLL,0419.72260,S,05539.82362,E,074140.00,A,A*66
$GNRMC,074141.00,A,0419.72257,S,05539.82368,E,0.271,,220525,,,A*76
$GNVTG,,T,,M,0.271,N,0.503,K,A*3F
$GNGGA,074141.00,0419.72257,S,05539.82368,E,1,12,0.76,25.5,M,-47.6,M,,*44
$GNGSA,A,3,25,12,23,15,18,05,24,29,10,13,,,1.45,0.76,1.23*1E
$GNGSA,A,3,75,71,72,76,70,,,,,,,,1.45,0.76,1.23*1A
$GPGSV,4,1,16,05,18,028,23,10,25,218,17,12,59,143,28,13,10,084,07*7C
$GPGSV,4,2,16,15,44,106,21,18,25,317,26,23,66,240,38,24,23,158,16*77
$GPGSV,4,3,16,25,82,293,31,28,10,271,19,29,24,005,26,36,52,277,*75
$GPGSV,4,4,16,40,86,351,,41,58,082,,49,32,274,,50,10,089,*79
$GLGSV,3,1,09,65,07,200,,70,07,043,11,71,41,077,19,72,46,155,23*63
$GLGSV,3,2,09,74,17,164,,75,58,208,35,76,37,306,35,86,08,353,*6D
$GLGSV,3,3,09,87,04,312,16*50
$GNGLL,0419.72257,S,05539.82368,E,074141.00,A,A*69
$GNRMC,074142.00,A,0419.72258,S,05539.82374,E,0.254,,220525,,,A*70
$GNVTG,,T,,M,0.254,N,0.471,K,A*3C
$GNGGA,074142.00,0419.72258,S,05539.82374,E,1,12,0.79,25.1,M,-47.6,M,,*4E
$GNGSA,A,3,25,12,23,15,18,05,24,29,10,13,,,1.56,0.79,1.35*14
$GNGSA,A,3,75,71,72,76,70,,,,,,,,1.56,0.79,1.35*10
$GPGSV,4,1,16,05,18,028,23,10,25,218,18,12,59,143,28,13,10,084,08*7C
$GPGSV,4,2,16,15,44,106,23,18,25,317,25,23,66,240,38,24,23,158,16*76
$GPGSV,4,3,16,25,82,293,31,28,10,271,19,29,24,005,27,36,52,277,*74
$GPGSV,4,4,16,40,86,351,,41,58,082,,49,32,274,,50,10,089,*79
$GLGSV,3,1,09,65,07,200,,70,07,043,11,71,41,077,19,72,46,155,23*63
$GLGSV,3,2,09,74,17,164,,75,58,208,35,76,37,306,35,86,08,353,*6D
$GLGSV,3,3,09,87,04,312,17*51
$GNGLL,0419.72258,S,05539.82374,E,074142.00,A,A*68
$GNRMC,074143.00,A,0419.72258,S,05539.82374,E,0.060,,220525,,,A*74
$GNVTG,,T,,M,0.060,N,0.111,K,A*3A
$GNGGA,074143.00,0419.72258,S,05539.82374,E,1,12,0.76,25.0,M,-47.6,M,,*41
$GNGSA,A,3,25,12,23,15,18,05,24,29,10,13,,,1.45,0.76,1.23*1E
$GNGSA,A,3,75,71,72,76,70,,,,,,,,1.45,0.76,1.23*1A
$GPGSV,4,1,16,05,18,028,23,10,25,218,17,12,59,143,28,13,10,084,08*73
$GPGSV,4,2,16,15,44,106,24,18,25,317,25,23,66,240,38,24,23,158,16*71
$GPGSV,4,3,16,25,82,293,31,28,10,271,20,29,24,005,27,36,52,277,*7E
$GPGSV,4,4,16,40,86,351,,41,58,082,,49,32,274,,50,10,089,*79
$GLGSV,3,1,09,65,07,200,,70,07,043,09,71,41,077,19,72,46,155,23*6A
$GLGSV,3,2,09,74,17,164,,75,58,208,36,76,37,306,35,86,08,353,*6E
$GLGSV,3,3,09,87,04,312,19*5F
$GNGLL,0419.72258,S,05539.82374,E,074143.00,A,A*69
$GNRMC,074144.00,A,0419.72254,S,05539.82371,E,0.043,,220525,,,A*7B
$GNVTG,,T,,M,0.043,N,0.079,K,A*34
$GNGGA,074144.00,0419.72254,S,05539.82371,E,1,12,0.76,24.9,M,-47.6,M,,*47
$GNGSA,A,3,25,12,23,15,18,05,24,29,10,13,,,1.45,0.76,1.23*1E
$GNGSA,A,3,75,71,72,76,70,,,,,,,,1.45,0.76,1.23*1A
$GPGSV,4,1,16,05,18,028,22,10,25,218,17,12,59,143,28,13,10,084,10*7B
$GPGSV,4,2,16,15,44,106,23,18,25,317,25,23,66,240,38,24,23,158,16*76
$GPGSV,4,3,16,25,82,293,31,28,10,270,21,29,24,005,26,36,52,277,*7F
$GPGSV,4,4,16,40,86,351,33,41,58,082,,49,32,274,,50,10,089,*79
$GLGSV,3,1,09,65,07,200,,70,07,043,12,71,41,077,20,72,46,155,22*6B
$GLGSV,3,2,09,74,17,164,,75,58,208,36,76,37,306,36,86,08,353,*6D
$GLGSV,3,3,09,87,04,312,19*5F
$GNGLL,0419.72254,S,05539.82371,E,074144.00,A,A*67
$GNRMC,074145.00,A,0419.72246,S,05539.82371,E,0.116,,220525,,,A*78
$GNVTG,,T,,M,0.116,N,0.216,K,A*3E
$GNGGA,074145.00,0419.72246,S,05539.82371,E,1,12,0.76,25.0,M,-47.6,M,,*4D
$GNGSA,A,3,25,12,23,15,18,05,24,29,10,,,,1.45,0.76,1.23*1C
$GNGSA,A,3,75,71,72,76,70,,,,,,,,1.45,0.76,1.23*1A
$GPGSV,4,1,16,05,18,028,22,10,25,218,17,12,59,143,27,13,10,084,10*74
$GPGSV,4,2,16,15,44,106,22,18,25,317,26,23,66,240,38,24,23,158,16*74
$GPGSV,4,3,16,25,82,293,31,28,10,270,21,29,24,005,26,36,52,277,*7F
$GPGSV,4,4,16,40,86,351,29,41,58,082,,49,32,274,,50,10,089,*72
$GLGSV,3,1,09,65,07,200,,70,07,043,11,71,41,077,19,72,46,155,23*63
$GLGSV,3,2,09,74,17,164,,75,58,208,36,76,37,306,36,86,08,353,*6D
$GLGSV,3,3,09,87,04,312,19*5F
$GNGLL,0419.72246,S,05539.82371,E,074145.00,A,A*65
$GNRMC,074146.00,A,0419.72245,S,05539.82371,E,0.055,,220525,,,A*7E
$GNVTG,,T,,M,0.055,N,0.102,K,A*3E
$GNGGA,074146.00,0419.72245,S,05539.82371,E,1,12,0.76,25.0,M,-47.6,M,,*4D
$GNGSA,A,3,25,12,23,15,18,05,24,29,10,,,,1.45,0.76,1.23*1C
$GNGSA,A,3,75,71,72,76,70,,,,,,,,1.45,0.76,1.23*1A
$GPGSV,4,1,16,05,18,028,23,10,25,218,18,12,59,143,26,13,10,084,09*73
$GPGSV,4,2,16,15,44,106,21,18,25,317,26,23,66,240,37,24,23,158,16*78
$GPGSV,4,3,16,25,82,293,31,28,10,270,21,29,24,005,25,36,52,277,*7C
$GPGSV,4,4,16,40,86,351,29,41,58,082,,49,32,274,,50,10,089,*72
$GLGSV,3,1,09,65,07,200,,70,07,043,10,71,41,077,20,72,46,155,23*68
$GLGSV,3,2,09,74,17,164,,75,58,208,36,76,37,306,36,86,08,353,*6D
$GLGSV,3,3,09,87,04,312,19*5F
$GNGLL,0419.72245,S,05539.82371,E,074146.00,A,A*65
$GNRMC,074147.00,A,0419.72244,S,05539.82375,E,0.109,,220525,,,A*72
$GNVTG,,T,,M,0.109,N,0.201,K,A*36
$GNGGA,074147.00,0419.72244,S,05539.82375,E,1,12,0.76,24.8,M,-47.6,M,,*40
$GNGSA,A,3,25,12,23,15,18,05,24,29,10,,,,1.45,0.76,1.23*1C
$GNGSA,A,3,75,71,72,76,70,,,,,,,,1.45,0.76,1.23*1A
$GPGSV,4,1,16,05,18,028,23,10,25,218,17,12,59,143,26,13,10,084,09*7C
$GPGSV,4,2,16,15,44,106,22,18,25,317,26,23,66,240,37,24,23,158,16*7B
$GPGSV,4,3,16,25,82,293,31,28,10,270,21,29,24,005,26,36,52,277,*7F
$GPGSV,4,4,16,40,86,351,29,41,58,082,,49,32,274,,50,10,089,*72
$GLGSV,3,1,09,65,07,200,,70,07,043,11,71,41,077,20,72,46,155,23*69
$GLGSV,3,2,09,74,17,164,,75,58,208,36,76,37,306,36,86,08,353,*6D
$GLGSV,3,3,09,87,04,312,19*5F
$GNGLL,0419.72244,S,05539.82375,E,074147.00,A,A*61
$GNRMC,074148.00,A,0419.72243,S,05539.82377,E,0.045,,220525,,,A*71
$GNVTG,,T,,M,0.045,N,0.083,K,A*37
$GNGGA,074148.00,0419.72243,S,05539.82377,E,1,12,0.75,24.9,M,-47.6,M,,*48
$GNGSA,A,3,25,12,23,15,18,05,24,29,10,13,,,1.43,0.75,1.22*1A
$GNGSA,A,3,75,71,72,76,70,,,,,,,,1.43,0.75,1.22*1E
$GPGSV,5,1,17,05,18,028,23,10,25,218,17,12,59,143,25,13,10,084,10*77
$GPGSV,5,2,17,15,44,106,25,18,25,317,26,23,66,240,37,24,23,158,16*7C
$GPGSV,5,3,17,25,82,293,30,28,10,270,20,29,24,005,26,32,00,221,*7F
$GPGSV,5,4,17,36,52,277,,40,86,351,29,41,58,082,,49,32,274,*77
$GPGSV,5,5,17,50,10,089,*4A
$GLGSV,3,1,09,65,07,200,,70,07,043,11,71,41,077,18,72,46,155,23*62
$GLGSV,3,2,09,74,17,164,,75,58,208,36,76,37,306,36,86,08,353,*6D
$GLGSV,3,3,09,87,04,312,18*5E
$GNGLL,0419.72243,S,05539.82377,E,074148.00,A,A*6B
$GNRMC,074149.00,A,0419.72250,S,05539.82375,E,0.244,,220525,,,A*73
$GNVTG,,T,,M,0.244,N,0.451,K,A*3F
$GNGGA,074149.00,0419.72250,S,05539.82375,E,1,12,0.76,24.6,M,-47.6,M,,*45
$GNGSA,A,3,25,12,23,15,18,05,24,29,10,13,,,1.45,0.76,1.23*1E
$GNGSA,A,3,75,71,72,76,70,,,,,,,,1.45,0.76,1.23*1A
$GPGSV,5,1,17,05,18,028,22,10,25,218,17,12,59,143,25,13,10,084,09*7E
$GPGSV,5,2,17,15,44,106,27,18,25,317,26,23,66,240,36,24,23,158,16*7F
$GPGSV,5,3,17,25,82,293,30,28,10,270,20,29,24,005,26,32,00,221,*7F
$GPGSV,5,4,17,36,52,277,,40,86,351,29,41,58,082,,49,32,274,*77
$GPGSV,5,5,17,50,10,089,*4A
$GLGSV,3,1,09,65,07,200,,70,07,043,10,71,41,077,16,72,46,155,22*6C
$GLGSV,3,2,09,74,17,164,,75,58,208,35,76,37,306,36,86,08,353,*6E
$GLGSV,3,3,09,87,04,312,18*5E
$GNGLL,0419.72250,S,05539.82375,E,074149.00,A,A*6A
$GNRMC,074150.00,A,0419.72246,S,05539.82379,E,0.059,,220525,,,A*7E
$GNVTG,,T,,M,0.059,N,0.109,K,A*39
$GNGGA,074150.00,0419.72246,S,05539.82379,E,1,12,0.76,24.9,M,-47.6,M,,*49
$GNGSA,A,3,25,12,23,15,18,05,24,29,10,13,,,1.45,0.76,1.23*1E
$GNGSA,A,3,75,71,72,76,70,,,,,,,,1.45,0.76,1.23*1A
$GPGSV,5,1,17,05,18,028,21,10,25,218,17,12,59,143,25,13,10,084,10*75
$GPGSV,5,2,17,15,44,106,28,18,25,317,27,23,66,240,37,24,23,158,15*73
$GPGSV,5,3,17,25,82,293,31,28,10,270,20,29,24,005,27,32,00,221,*7F
$GPGSV,5,4,17,36,52,277,,40,86,351,29,41,58,082,,49,32,274,*77
$GPGSV,5,5,17,50,10,089,*4A
$GLGSV,3,1,09,65,07,200,,70,07,043,08,71,41,077,13,72,46,155,23*61
$GLGSV,3,2,09,74,17,164,,75,58,208,34,76,37,306,36,86,08,353,*6F
$GLGSV,3,3,09,87,04,312,19*5F
$GNGLL,0419.72246,S,05539.82379,E,074150.00,A,A*69
$GNRMC,074151.00,A,0419.72246,S,05539.82382,E,0.077,,220525,,,A*77
$GNVTG,,T,,M,0.077,N,0.142,K,A*3A
$GNGGA,074151.00,0419.72246,S,05539.82382,E,1,12,0.79,24.7,M,-47.6,M,,*4D
$GNGSA,A,3,25,12,23,15,18,05,24,29,10,13,,,1.56,0.79,1.35*14
$GNGSA,A,3,75,71,72,76,70,,,,,,,,1.56,0.79,1.35*10
$GPGSV,5,1,17,05,18,028,21,10,25,218,16,12,59,143,25,13,10,084,10*74
$GPGSV,5,2,17,15,44,106,28,18,25,317,27,23,66,240,38,24,23,158,15*7C
$GPGSV,5,3,17,25,82,293,31,28,10,270,21,29,24,005,27,32,00,221,*7E
$GPGSV,5,4,17,36,52,277,,40,86,351,30,41,58,082,,49,32,274,*7F
$GPGSV,5,5,17,50,10,089,*4A
$GLGSV,3,1,09,65,07,200,,70,07,043,09,71,41,077,12,72,46,155,23*61
$GLGSV,3,2,09,74,17,164,,75,58,208,35,76,37,306,35,86,08,353,*6D
$GLGSV,3,3,09,87,04,312,18*5E
$GNGLL,0419.72246,S,05539.82382,E,074151.00,A,A*6C
$GNRMC,074152.00,A,0419.72250,S,05539.82385,E,0.179,,220525,,,A*7B
$GNVTG,,T,,M,0.179,N,0.331,K,A*33
$GNGGA,074152.00,0419.72250,S,05539.82385,E,1,12,0.91,24.6,M,-47.6,M,,*49
$GNGSA,A,3,25,12,23,15,18,05,24,29,13,,,,1.73,0.91,1.47*11
$GNGSA,A,3,75,71,72,76,70,,,,,,,,1.73,0.91,1.47*14
$GPGSV,5,1,17,05,18,028,22,10,25,218,,12,59,143,25,13,10,084,10*70
$GPGSV,5,2,17,15,44,106,27,18,25,317,27,23,66,240,38,24,23,158,14*72
$GPGSV,5,3,17,25,82,293,31,28,10,270,21,29,24,005,26,32,00,221,*7F
$GPGSV,5,4,17,36,52,277,,40,86,351,30,41,58,082,,49,32,274,*7F
$GPGSV,5,5,17,50,10,089,*4A
$GLGSV,3,1,09,65,07,200,,70,07,043,11,71,41,077,13,72,46,155,24*6E
$GLGSV,3,2,09,74,17,164,,75,58,208,35,76,37,306,35,86,08,353,*6D
$GLGSV,3,3,09,87,04,312,19*5F
$GNGLL,0419.72250,S,05539.82385,E,074152.00,A,A*6F
$GNRMC,074153.00,A,0419.72262,S,05539.82386,E,0.171,,220525,,,A*70
$GNVTG,,T,,M,0.171,N,0.318,K,A*30
$GNGGA,074153.00,0419.72262,S,05539.82386,E,1,12,0.91,24.0,M,-47.6,M,,*4C
$GNGSA,A,3,25,12,23,15,18,05,24,29,13,,,,1.73,0.91,1.47*11
$GNGSA,A,3,75,71,72,76,70,,,,,,,,1.73,0.91,1.47*14
$GPGSV,5,1,17,05,18,028,22,10,25,218,,12,59,143,26,13,10,084,10*73
$GPGSV,5,2,17,15,44,106,26,18,25,317,27,23,66,240,38,24,23,158,10*77
$GPGSV,5,3,17,25,82,293,32,28,10,270,21,29,24,005,26,32,00,221,*7C
$GPGSV,5,4,17,36,52,277,,40,86,351,30,41,58,082,,49,32,274,*7F
$GPGSV,5,5,17,50,10,089,*4A
$GLGSV,3,1,09,65,07,200,,70,07,043,13,71,41,077,18,72,46,155,25*66
$GLGSV,3,2,09,74,17,164,,75,58,208,35,76,37,306,36,86,08,353,*6E
$GLGSV,3,3,09,87,04,312,18*5E
$GNGLL,0419.72262,S,05539.82386,E,074153.00,A,A*6C
$GNRMC,074154.00,A,0419.72268,S,05539.82385,E,0.078,,220525,,,A*76
$GNVTG,,T,,M,0.078,N,0.145,K,A*32
$GNGGA,074154.00,0419.72268,S,05539.82385,E,1,12,0.93,23.6,M,-47.6,M,,*41
$GNGSA,A,3,25,12,23,15,18,05,24,29,13,,,,1.83,0.93,1.58*12
$GNGSA,A,3,75,71,72,76,70,,,,,,,,1.83,0.93,1.58*17
$GPGSV,5,1,17,05,18,028,23,10,25,218,,12,59,143,26,13,10,084,10*72
$GPGSV,5,2,17,15,44,106,26,18,25,317,26,23,66,240,38,24,23,158,12*74
$GPGSV,5,3,17,25,82,293,32,28,10,270,20,29,24,005,26,32,00,221,*7D
$GPGSV,5,4,17,36,52,277,,40,86,351,29,41,58,082,,49,32,274,*77
$GPGSV,5,5,17,50,10,089,*4A
$GLGSV,3,1,09,65,07,200,,70,07,043,10,71,41,077,14,72,46,155,25*69
$GLGSV,3,2,09,74,17,164,,75,58,208,36,76,37,306,36,86,08,353,*6D
$GLGSV,3,3,09,87,04,312,20*55
$GNGLL,0419.72268,S,05539.82385,E,074154.00,A,A*62
$GNRMC,074155.00,A,0419.72274,S,05539.82383,E,0.043,,220525,,,A*74
$GNVTG,,T,,M,0.043,N,0.081,K,A*33
$GNGGA,074155.00,0419.72274,S,05539.82383,E,1,12,0.91,23.2,M,-47.6,M,,*4D
$GNGSA,A,3,25,12,23,15,18,05,24,29,13,,,,1.73,0.91,1.47*11
$GNGSA,A,3,75,71,72,76,70,,,,,,,,1.73,0.91,1.47*14
$GPGSV,5,1,17,05,18,028,24,10,25,218,,12,59,143,26,13,10,084,10*75
$GPGSV,5,2,17,15,44,106,26,18,25,317,27,23,66,240,38,24,23,158,13*74
$GPGSV,5,3,17,25,82,293,32,28,10,270,19,29,24,005,27,32,00,221,*76
$GPGSV,5,4,17,36,52,277,,40,86,351,28,41,58,082,,49,32,274,*76
$GPGSV,5,5,17,50,10,089,*4A
$GLGSV,3,1,09,65,07,200,,70,07,043,11,71,41,077,15,72,46,155,26*6A
$GLGSV,3,2,09,74,17,164,,75,58,208,36,76,37,306,36,86,08,353,*6D
$GLGSV,3,3,09,87,04,312,20*55
$GNGLL,0419.72274,S,05539.82383,E,074155.00,A,A*68
$GNRMC,074156.00,A,0419.72280,S,05539.82378,E,0.085,,220525,,,A*72
$GNVTG,,T,,M,0.085,N,0.158,K,A*3C
$GNGGA,074156.00,0419.72280,S,05539.82378,E,1,12,0.91,22.8,M,-47.6,M,,*4A
$GNGSA,A,3,25,12,23,15,18,05,24,29,13,,,,1.73,0.91,1.47*11
$GNGSA,A,3,75,71,72,76,70,,,,,,,,1.73,0.91,1.47*14
$GPGSV,5,1,17,05,18,028,24,10,25,218,,12,59,143,27,13,10,084,13*77
$GPGSV,5,2,17,15,44,106,25,18,25,317,27,23,66,240,38,24,23,158,13*77
$GPGSV,5,3,17,25,82,293,32,28,10,270,19,29,24,005,27,32,00,221,*76
$GPGSV,5,4,17,36,52,277,,40,86,351,28,41,58,082,,49,32,274,*76
$GPGSV,5,5,17,50,10,089,*4A
$GLGSV,3,1,09,65,07,200,,70,07,043,12,71,41,077,14,72,46,155,26*68
$GLGSV,3,2,09,74,17,164,,75,58,208,36,76,37,306,35,86,08,353,*6E
$GLGSV,3,3,09,87,04,312,20*55
$GNGLL,0419.72280,S,05539.82378,E,074156.00,A,A*64
$GNRMC,074157.00,A,0419.72283,S,05539.82376,E,0.038,,220525,,,A*78
$GNVTG,,T,,M,0.038,N,0.070,K,A*31
$GNGGA,074157.00,0419.72283,S,05539.82376,E,1,12,0.90,22.6,M,-47.6,M,,*49
$GNGSA,A,3,25,12,23,15,18,05,24,29,13,,,,1.70,0.90,1.44*10
$GNGSA,A,3,75,71,72,76,70,,,,,,,,1.70,0.90,1.44*15
$GPGSV,5,1,17,05,18,028,24,10,25,218,17,12,59,143,26,13,10,084,13*70
$GPGSV,5,2,17,15,44,106,23,18,25,317,27,23,66,240,38,24,23,158,12*70
$GPGSV,5,3,17,25,82,293,32,28,10,270,20,29,24,005,26,32,00,221,*7D
$GPGSV,5,4,17,36,52,277,,40,86,351,28,41,58,082,,49,32,274,*76
$GPGSV,5,5,17,50,10,089,*4A
$GLGSV,3,1,09,65,07,200,,70,07,043,09,71,41,077,16,72,46,155,26*60
$GLGSV,3,2,09,74,17,164,,75,58,208,36,76,37,306,34,86,08,353,*6F
$GLGSV,3,3,09,87,04,312,20*55
$GNGLL,0419.72283,S,05539.82376,E,074157.00,A,A*68
$GNRMC,074158.00,A,0419.72287,S,05539.82372,E,0.054,,220525,,,A*7D
$GNVTG,,T,,M,0.054,N,0.100,K,A*3D
$GNGGA,074158.00,0419.72287,S,05539.82372,E,1,12,0.91,22.4,M,-47.6,M,,*45
$GNGSA,A,3,25,12,23,15,18,05,24,29,13,,,,1.73,0.91,1.47*11
$GNGSA,A,3,75,71,72,76,70,,,,,,,,1.73,0.91,1.47*14
$GPGSV,5,1,17,05,18,028,24,10,25,218,18,12,59,143,26,13,10,084,13*7F
$GPGSV,5,2,17,15,44,106,20,18,25,317,27,23,66,240,38,24,23,158,11*70
$GPGSV,5,3,17,25,82,293,32,28,10,270,20,29,24,005,26,32,00,221,*7D
$GPGSV,5,4,17,36,52,277,,40,86,351,29,41,58,082,,49,32,274,*77
$GPGSV,5,5,17,50,10,089,*4A
$GLGSV,3,1,09,65,07,200,,70,07,043,11,71,41,077,15,72,46,155,27*6B
$GLGSV,3,2,09,74,17,164,,75,58,208,36,76,37,306,33,86,08,353,*68
$GLGSV,3,3,09,87,04,312,20*55
$GNGLL,0419.72287,S,05539.82372,E,074158.00,A,A*67
$GNRMC,074159.00,A,0419.72289,S,05539.82369,E,0.094,,220525,,,A*74
$GNVTG,,T,,M,0.094,N,0.174,K,A*32
$GNGGA,074159.00,0419.72289,S,05539.82369,E,1,12,0.91,22.3,M,-47.6,M,,*47
$GNGSA,A,3,25,12,23,15,18,05,24,29,13,,,,1.73,0.91,1.47*11
$GNGSA,A,3,75,71,72,76,70,,,,,,,,1.73,0.91,1.47*14
$GPGSV,5,1,17,05,18,028,23,10,25,218,18,12,59,143,25,13,10,084,13*7B
$GPGSV,5,2,17,15,44,106,16,18,25,317,27,23,66,240,39,24,23,158,09*7D
$GPGSV,5,3,17,25,82,293,33,28,10,270,19,29,24,005,27,32,00,221,*77
$GPGSV,5,4,17,36,52,277,,40,86,351,27,41,58,082,,49,32,274,*79
$GPGSV,5,5,17,50,10,089,*4A
$GLGSV,3,1,09,65,07,200,,70,07,043,09,71,41,077,15,72,46,155,27*62
$GLGSV,3,2,09,74,17,164,,75,58,208,36,76,37,306,33,86,08,353,*68
$GLGSV,3,3,09,87,04,312,20*55
$GNGLL,0419.72289,S,05539.82369,E,074159.00,A,A*62
$GNRMC,074200.00,A,0419.72297,S,05539.82366,E,0.107,,220525,,,A*70
$GNVTG,,T,,M,0.107,N,0.198,K,A*3B
$GNGGA,074200.00,0419.72297,S,05539.82366,E,1,12,0.93,21.9,M,-47.6,M,,*43
$GNGSA,A,3,25,12,23,15,18,05,24,29,,,,,1.83,0.93,1.58*10
$GNGSA,A,3,75,71,72,76,70,,,,,,,,1.83,0.93,1.58*17
$GPGSV,5,1,17,05,18,028,23,10,25,218,,12,59,143,26,13,10,084,*73
$GPGSV,5,2,17,15,44,106,17,18,25,317,27,23,66,240,39,24,23,158,09*7C
$GPGSV,5,3,17,25,82,293,33,28,10,270,19,29,24,005,27,32,00,221,*77
$GPGSV,5,4,17,36,52,277,,40,86,351,28,41,58,082,,49,32,274,*76
$GPGSV,5,5,17,50,10,089,*4A
$GLGSV,3,1,09,65,07,200,,70,07,043,09,71,41,077,13,72,46,155,27*64
$GLGSV,3,2,09,74,17,164,,75,58,208,37,76,37,306,33,86,08,353,*69
$GLGSV,3,3,09,87,04,312,21*54
$GNGLL,0419.72297,S,05539.82366,E,074200.00,A,A*6D
$GNRMC,074201.00,A,0419.72300,S,05539.82363,E,0.063,,220525,,,A*78
$GNVTG,,T,,M,0.063,N,0.117,K,A*3F
$GNGGA,074201.00,0419.72300,S,05539.82363,E,1,12,1.26,21.7,M,-47.6,M,,*49
$GNGSA,A,3,25,12,23,15,18,05,29,,,,,,2.56,1.26,2.23*1D
$GNGSA,A,3,75,71,72,76,70,,,,,,,,2.56,1.26,2.23*1C
$GPGSV,5,1,17,05,18,028,23,10,25,218,,12,59,143,26,13,10,084,17*75
$GPGSV,5,2,17,15,44,106,18,18,25,317,26,23,66,240,39,24,23,158,08*73
$GPGSV,5,3,17,25,82,293,33,28,10,270,19,29,24,005,27,32,00,221,*77
$GPGSV,5,4,17,36,52,277,,40,86,351,28,41,58,082,,49,32,274,*76
$GPGSV,5,5,17,50,10,089,*4A
$GLGSV,3,1,09,65,07,200,,70,07,043,09,71,41,077,13,72,46,155,27*64
$GLGSV,3,2,09,74,17,164,,75,58,208,37,76,37,306,33,86,08,353,*69
$GLGSV,3,3,09,87,04,312,20*55
$GNGLL,0419.72300,S,05539.82363,E,074201.00,A,A*66
$GNRMC,074202.00,A,0419.72301,S,05539.82360,E,0.008,,220525,,,A*74
$GNVTG,,T,,M,0.008,N,0.014,K,A*30
$GNGGA,074202.00,0419.72301,S,05539.82360,E,1,12,0.91,21.7,M,-47.6,M,,*45
$GNGSA,A,3,25,12,23,15,18,05,24,29,,,,,1.73,0.91,1.47*13
$GNGSA,A,3,75,71,72,76,70,,,,,,,,1.73,0.91,1.47*14
$GPGSV,5,1,17,05,18,028,23,10,25,218,,12,59,143,25,13,10,084,14*75
$GPGSV,5,2,17,15,44,106,17,18,25,317,27,23,66,240,39,24,23,158,11*75
$GPGSV,5,3,17,25,82,293,33,28,10,270,21,29,24,005,28,32,00,221,*73
$GPGSV,5,4,17,36,52,277,,40,86,351,29,41,58,082,,49,32,274,*77
$GPGSV,5,5,17,50,10,089,*4A
$GLGSV,3,1,09,65,07,200,,70,07,043,09,71,41,077,13,72,46,155,27*64
$GLGSV,3,2,09,74,17,164,,75,58,208,37,76,37,306,32,86,08,353,*68
$GLGSV,3,3,09,87,04,312,20*55
$GNGLL,0419.72301,S,05539.82360,E,074202.00,A,A*67
$GNRMC,074203.00,A,0419.72302,S,05539.82356,E,0.064,,220525,,,A*79
$GNVTG,,T,,M,0.064,N,0.118,K,A*37
$GNGGA,074203.00,0419.72302,S,05539.82356,E,1,12,1.39,21.6,M,-47.6,M,,*40
$GNGSA,A,3,25,12,23,15,18,05,24,29,,,,,3.01,1.39,2.67*16
$GNGSA,A,3,75,71,72,76,70,,,,,,,,3.01,1.39,2.67*11
$GPGSV,5,1,17,05,18,028,22,10,25,218,,12,59,143,23,13,10,084,12*74
$GPGSV,5,2,17,15,44,106,18,18,25,317,27,23,66,240,39,24,23,158,10*7B
$GPGSV,5,3,17,25,82,293,33,28,10,270,20,29,24,005,27,32,00,221,*7D
$GPGSV,5,4,17,36,52,277,,40,86,351,29,41,58,082,,49,32,274,*77
$GPGSV,5,5,17,50,10,089,*4A
$GLGSV,3,1,09,65,07,200,,70,07,043,08,71,41,077,11,72,46,155,27*67
$GLGSV,3,2,09,74,17,164,,75,58,208,37,76,37,306,32,86,08,353,*68
$GLGSV,3,3,09,87,04,312,20*55
$GNGLL,0419.72302,S,05539.82356,E,074203.00,A,A*60
$GNRMC,074204.00,A,0419.72294,S,05539.82356,E,0.107,,220525,,,A*74
$GNVTG,,T,,M,0.107,N,0.198,K,A*3B
$GNGGA,074204.00,0419.72294,S,05539.82356,E,1,12,0.91,21.9,M,-47.6,M,,*45
$GNGSA,A,3,25,12,23,15,18,05,24,29,,,,,1.73,0.91,1.47*13
$GNGSA,A,3,75,71,72,76,70,,,,,,,,1.73,0.91,1.47*14
$GPGSV,5,1,17,05,18,028,22,10,25,218,18,12,59,143,23,13,10,084,11*7E
$GPGSV,5,2,17,15,44,106,19,18,25,317,26,23,66,240,38,24,23,158,10*7A
$GPGSV,5,3,17,25,82,293,32,28,10,270,20,29,24,005,26,32,00,221,*7D
$GPGSV,5,4,17,36,52,277,,40,86,351,29,41,58,082,,49,32,274,*77
$GPGSV,5,5,17,50,10,089,*4A
$GLGSV,3,1,09,65,07,200,,70,07,043,08,71,41,077,11,72,46,155,28*68
$GLGSV,3,2,09,74,17,164,,75,58,208,37,76,37,306,33,86,08,353,*69
$GLGSV,3,3,09,87,04,312,20*55
$GNGLL,0419.72294,S,05539.82356,E,074204.00,A,A*69
$GNRMC,074205.00,A,0419.72290,S,05539.82354,E,0.119,,220525,,,A*7C
$GNVTG,,T,,M,0.119,N,0.220,K,A*34
$GNGGA,074205.00,0419.72290,S,05539.82354,E,1,12,0.91,22.0,M,-47.6,M,,*48
$GNGSA,A,3,25,12,23,15,18,05,24,29,,,,,1.73,0.91,1.47*13
$GNGSA,A,3,75,71,72,76,70,,,,,,,,1.73,0.91,1.47*14
$GPGSV,5,1,17,05,18,028,21,10,25,218,16,12,59,143,22,13,10,084,09*7B
$GPGSV,5,2,17,15,44,106,18,18,25,317,24,23,66,240,38,24,23,158,10*79
$GPGSV,5,3,17,25,82,293,31,28,10,270,19,29,24,005,27,32,00,221,*75
$GPGSV,5,4,17,36,52,277,,40,86,351,29,41,58,082,,49,32,274,*77
$GPGSV,5,5,17,50,10,089,*4A
$GLGSV,3,1,09,65,07,200,,70,07,043,10,71,41,077,17,72,46,155,28*67
$GLGSV,3,2,09,74,17,164,,75,58,208,36,76,37,306,33,86,08,353,*68
$GLGSV,3,3,09,87,04,312,20*55
$GNGLL,0419.72290,S,05539.82354,E,074205.00,A,A*6E
$GNRMC,074206.00,A,0419.72289,S,05539.82348,E,0.006,,220525,,,A*75
$GNVTG,,T,,M,0.006,N,0.011,K,A*3B
$GNGGA,074206.00,0419.72289,S,05539.82348,E,1,12,1.29,22.0,M,-47.6,M,,*4C
$GNGSA,A,3,25,12,23,15,18,05,24,29,,,,,2.91,1.29,2.61*19
$GNGSA,A,3,75,71,72,76,70,,,,,,,,2.91,1.29,2.61*1E
$GPGSV,5,1,17,05,18,028,21,10,25,218,,12,59,143,20,13,10,084,08*7F
$GPGSV,5,2,17,15,44,106,18,18,25,317,22,23,66,240,38,24,23,158,10*7F
$GPGSV,5,3,17,25,82,293,31,28,10,270,20,29,24,005,26,32,00,221,*7E
$GPGSV,5,4,17,36,52,277,,40,86,351,29,41,58,082,,49,32,274,*77
$GPGSV,5,5,17,50,10,089,*4A
$GLGSV,3,1,09,65,07,200,,70,07,043,10,71,41,077,17,72,46,155,28*67
$GLGSV,3,2,09,74,17,164,,75,58,208,37,76,37,306,33,86,08,353,*69
$GLGSV,3,3,09,87,04,312,20*55
$GNGLL,0419.72289,S,05539.82348,E,074206.00,A,A*68
$GNRMC,074207.00,A,0419.72286,S,05539.82341,E,0.104,,220525,,,A*71
$GNVTG,,T,,M,0.104,N,0.193,K,A*33
$GNGGA,074207.00,0419.72286,S,05539.82341,E,1,12,0.91,22.1,M,-47.6,M,,*48
$GNGSA,A,3,25,12,23,15,18,05,24,29,,,,,1.73,0.91,1.47*13
$GNGSA,A,3,75,71,72,76,70,,,,,,,,1.73,0.91,1.47*14
$GPGSV,5,1,17,05,18,028,20,10,25,218,,12,59,143,19,13,10,084,07*7B
$GPGSV,5,2,17,15,44,106,18,18,25,317,22,23,66,240,38,24,23,158,10*7F
$GPGSV,5,3,17,25,82,293,31,28,10,270,21,29,24,005,26,32,00,221,*7F
$GPGSV,5,4,17,36,52,277,,40,86,351,29,41,58,082,,49,32,274,*77
$GPGSV,5,5,17,50,10,089,*4A
$GLGSV,3,1,09,65,07,200,,70,07,043,10,71,41,077,17,72,46,155,28*67
$GLGSV,3,2,09,74,17,164,,75,58,208,37,76,37,306,34,86,08,353,*6E
$GLGSV,3,3,09,87,04,312,20*55
$GNGLL,0419.72286,S,05539.82341,E,074207.00,A,A*6F
$GNRMC,074208.00,A,0419.72283,S,05539.82333,E,0.093,,220525,,,A*71
$GNVTG,,T,,M,0.093,N,0.173,K,A*32
$GNGGA,074208.00,0419.72283,S,05539.82333,E,1,12,1.26,22.2,M,-47.6,M,,*49
$GNGSA,A,3,25,12,23,15,18,05,29,,,,,,2.57,1.26,2.23*1C
$GNGSA,A,3,75,71,72,76,70,,,,,,,,2.57,1.26,2.23*1D
$GPGSV,5,1,17,05,18,028,19,10,25,218,,12,59,143,17,13,10,084,07*7F
$GPGSV,5,2,17,15,44,106,16,18,25,317,21,23,66,240,38,24,23,158,11*73
$GPGSV,5,3,17,25,82,293,30,28,10,270,21,29,24,005,26,32,00,221,*7E
$GPGSV,5,4,17,36,52,277,,40,86,351,29,41,58,082,,49,32,274,*77
$GPGSV,5,5,17,50,10,089,*4A
$GLGSV,3,1,09,65,07,200,,70,07,043,10,71,41,077,17,72,46,155,28*67
$GLGSV,3,2,09,74,17,164,,75,58,208,37,76,37,306,33,86,08,353,*69
$GLGSV,3,3,09,87,04,312,20*55
$GNGLL,0419.72283,S,05539.82333,E,074208.00,A,A*60
$GNRMC,074209.00,A,0419.72277,S,05539.82327,E,0.030,,220525,,,A*77
$GNVTG,,T,,M,0.030,N,0.056,K,A*3D
$GNGGA,074209.00,0419.72277,S,05539.82327,E,1,12,1.29,22.3,M,-47.6,M,,*48
$GNGSA,A,3,25,12,23,15,18,05,29,,,,,,2.91,1.29,2.61*1F
$GNGSA,A,3,75,71,72,76,70,,,,,,,,2.91,1.29,2.61*1E
$GPGSV,5,1,17,05,18,028,18,10,25,218,,12,59,143,18,13,10,084,08*7E
$GPGSV,5,2,17,15,44,106,13,18,25,317,21,23,66,240,38,24,23,158,11*76
$GPGSV,5,3,17,25,82,293,30,28,10,270,20,29,24,005,26,32,00,221,*7F
$GPGSV,5,4,17,36,52,277,,40,86,351,28,41,58,082,,49,32,274,*76
$GPGSV,5,5,17,50,10,089,*4A
$GLGSV,3,1,09,65,08,199,,70,07,043,10,71,41,077,16,72,47,154,28*6A
$GLGSV,3,2,09,74,17,164,,75,58,208,36,76,37,306,33,86,08,353,*68
$GLGSV,3,3,09,87,04,312,20*55
$GNGLL,0419.72277,S,05539.82327,E,074209.00,A,A*6F
$GNRMC,074210.00,A,0419.72271,S,05539.82323,E,0.030,,220525,,,A*7D
$GNVTG,,T,,M,0.030,N,0.055,K,A*3E
$GNGGA,074210.00,0419.72271,S,05539.82323,E,1,12,1.26,22.5,M,-47.6,M,,*4B
$GNGSA,A,3,25,12,23,15,18,05,29,,,,,,2.57,1.26,2.23*1C
$GNGSA,A,3,75,71,72,76,70,,,,,,,,2.57,1.26,2.23*1D
$GPGSV,5,1,17,05,18,028,19,10,25,218,,12,59,143,20,13,10,084,08*74
$GPGSV,5,2,17,15,44,106,12,18,25,317,21,23,66,240,38,24,23,158,12*74
$GPGSV,5,3,17,25,82,293,30,28,10,270,20,29,24,005,26,32,00,221,*7F
$GPGSV,5,4,17,36,52,277,,40,86,351,29,41,58,082,,49,32,274,*77
$GPGSV,5,5,17,50,10,089,*4A
$GLGSV,3,1,09,65,08,199,,70,07,043,10,71,41,077,16,72,47,154,28*6A
$GLGSV,3,2,09,74,17,164,,75,58,208,36,76,37,306,32,86,08,353,*69
$GLGSV,3,3,09,87,04,312,20*55
$GNGLL,0419.72271,S,05539.82323,E,074210.00,A,A*65
$GNRMC,074211.00,A,0419.72265,S,05539.82319,E,0.023,,220525,,,A*72
$GNVTG,,T,,M,0.023,N,0.042,K,A*3A
$GNGGA,074211.00,0419.72265,S,05539.82319,E,1,12,1.30,22.7,M,-47.6,M,,*43
$GNGSA,A,3,25,12,23,15,18,05,29,,,,,,2.91,1.30,2.61*17
$GNGSA,A,3,75,71,72,76,70,,,,,,,,2.91,1.30,2.61*16
$GPGSV,5,1,17,05,18,028,20,10,25,218,,12,59,143,21,13,10,084,07*70
$GPGSV,5,2,17,15,44,106,12,18,25,317,21,23,66,240,38,24,23,158,12*74
$GPGSV,5,3,17,25,82,293,30,28,10,270,19,29,24,005,26,32,00,221,*75
$GPGSV,5,4,17,36,52,277,,40,86,351,29,41,58,082,,49,32,274,*77
$GPGSV,5,5,17,50,10,089,*4A
$GLGSV,3,1,09,65,08,199,,70,07,043,11,71,41,077,12,72,47,154,28*6F
$GLGSV,3,2,09,74,17,164,,75,58,208,36,76,37,306,32,86,08,353,*69
$GLGSV,3,3,09,87,04,312,21*54
$GNGLL,0419.72265,S,05539.82319,E,074211.00,A,A*68
$GNRMC,074212.00,A,0419.72261,S,05539.82317,E,0.091,,220525,,,A*72
$GNVTG,,T,,M,0.091,N,0.169,K,A*3B
$GNGGA,074212.00,0419.72261,S,05539.82317,E,1,12,1.30,22.8,M,-47.6,M,,*45
$GNGSA,A,3,25,12,23,15,18,05,29,,,,,,2.91,1.30,2.61*17
$GNGSA,A,3,75,71,72,76,70,,,,,,,,2.91,1.30,2.61*16
$GPGSV,5,1,17,05,18,028,19,10,25,218,,12,59,143,21,13,10,084,07*7A
$GPGSV,5,2,17,15,44,106,17,18,25,317,23,23,66,240,38,24,23,158,12*73
$GPGSV,5,3,17,25,82,293,30,28,10,270,20,29,24,005,26,32,00,221,*7F
$GPGSV,5,4,17,36,52,277,,40,86,351,29,41,58,082,,49,32,274,*77
$GPGSV,5,5,17,50,10,089,*4A
$GLGSV,3,1,09,65,08,199,,70,07,043,10,71,41,077,11,72,47,154,28*6D
$GLGSV,3,2,09,74,17,164,,75,58,208,36,76,37,306,32,86,08,353,*69
$GLGSV,3,3,09,87,04,312,22*57
$GNGLL,0419.72261,S,05539.82317,E,074212.00,A,A*61
$GNRMC,074213.00,A,0419.72255,S,05539.82314,E,0.110,,220525,,,A*7F
$GNVTG,,T,,M,0.110,N,0.203,K,A*3C
$GNGGA,074213.00,0419.72255,S,05539.82314,E,1,12,1.26,22.8,M,-47.6,M,,*47
$GNGSA,A,3,25,12,23,15,18,05,29,,,,,,2.57,1.26,2.23*1C
$GNGSA,A,3,75,71,72,76,70,,,,,,,,2.57,1.26,2.23*1D
$GPGSV,5,1,17,05,18,028,19,10,25,218,18,12,59,143,21,13,10,084,08*7C
$GPGSV,5,2,17,15,44,106,19,18,25,317,24,23,66,240,38,24,23,158,12*7A
$GPGSV,5,3,17,25,82,293,30,28,10,270,20,29,24,005,26,32,00,221,*7F
$GPGSV,5,4,17,36,52,277,,40,86,351,28,41,58,082,,49,32,274,*76
$GPGSV,5,5,17,50,10,089,*4A
$GLGSV,3,1,09,65,08,199,,70,07,043,10,71,41,077,11,72,47,154,28*6D
$GLGSV,3,2,09,74,17,164,,75,58,208,36,76,37,306,31,86,08,353,*6A
$GLGSV,3,3,09,87,04,312,21*54
$GNGLL,0419.72255,S,05539.82314,E,074213.00,A,A*64
$GNRMC,074214.00,A,0419.72250,S,05539.82314,E,0.097,,220525,,,A*73
$GNVTG,,T,,M,0.097,N,0.179,K,A*3C
$GNGGA,074214.00,0419.72250,S,05539.82314,E,1,12,1.26,23.0,M,-47.6,M,,*4C
$GNGSA,A,3,25,12,23,15,18,05,29,,,,,,2.57,1.26,2.23*1C
$GNGSA,A,3,75,71,72,76,70,,,,,,,,2.57,1.26,2.23*1D
$GPGSV,5,1,17,05,18,028,18,10,25,218,17,12,59,143,20,13,10,084,*7B
$GPGSV,5,2,17,15,44,106,20,18,25,317,23,23,66,240,38,24,23,158,09*7D
$GPGSV,5,3,17,25,82,293,30,28,10,270,20,29,24,005,26,32,00,221,*7F
$GPGSV,5,4,17,36,52,277,,40,86,351,28,41,58,082,,49,32,274,*76
$GPGSV,5,5,17,50,10,089,*4A
$GLGSV,3,1,09,65,08,199,,70,07,043,11,71,41,077,11,72,47,154,28*6C
$GLGSV,3,2,09,74,17,164,,75,58,208,36,76,37,306,32,86,08,353,*69
$GLGSV,3,3,09,87,04,312,21*54
$GNGLL,0419.72250,S,05539.82314,E,074214.00,A,A*66
$GNRMC,074215.00,A,0419.72245,S,05539.82311,E,0.047,,220525,,,A*7E
$GNVTG,,T,,M,0.047,N,0.086,K,A*30
$GNGGA,074215.00,0419.72245,S,05539.82311,E,1,12,1.30,23.1,M,-47.6,M,,*4A
$GNGSA,A,3,25,12,23,15,18,05,29,,,,,,2.91,1.30,2.61*17
$GNGSA,A,3,75,71,72,76,70,,,,,,,,2.91,1.30,2.61*16
$GPGSV,5,1,17,05,18,028,19,10,25,218,,12,59,143,21,13,10,084,*7D
$GPGSV,5,2,17,15,44,106,18,18,25,317,23,23,66,240,38,24,23,158,09*76
$GPGSV,5,3,17,25,82,293,29,28,10,270,20,29,24,005,27,32,00,221,*76
$GPGSV,5,4,17,36,52,277,,40,86,351,28,41,58,082,,49,32,274,*76
$GPGSV,5,5,17,50,10,089,*4A
$GLGSV,3,1,09,65,08,199,,70,07,043,10,71,41,076,09,72,47,154,28*65
$GLGSV,3,2,09,74,17,164,,75,58,208,35,76,37,306,32,86,08,353,*6A
$GLGSV,3,3,09,87,04,312,21*54
$GNGLL,0419.72245,S,05539.82311,E,074215.00,A,A*66
$GNRMC,074216.00,A,0419.72238,S,05539.82308,E,0.085,,220525,,,A*71
$GNVTG,,T,,M,0.085,N,0.158,K,A*3C
$GNGGA,074216.00,0419.72238,S,05539.82308,E,1,12,1.26,23.5,M,-47.6,M,,*48
$GNGSA,A,3,25,12,23,15,18,05,29,,,,,,2.57,1.26,2.23*1C
$GNGSA,A,3,75,71,72,76,70,,,,,,,,2.57,1.26,2.23*1D
$GPGSV,5,1,17,05,18,028,19,10,25,218,,12,59,143,22,13,10,084,*7E
$GPGSV,5,2,17,15,44,106,16,18,25,317,22,23,66,240,38,24,23,158,09*79
$GPGSV,5,3,17,25,82,293,29,28,10,270,20,29,24,005,27,32,00,221,*76
$GPGSV,5,4,17,36,52,277,,40,86,351,27,41,58,082,,49,32,274,*79
$GPGSV,5,5,17,50,10,089,*4A
$GLGSV,3,1,09,65,08,199,,70,07,043,09,71,41,076,11,72,47,154,27*6B
$GLGSV,3,2,09,74,17,164,,75,58,208,35,76,37,306,31,86,08,353,*69
$GLGSV,3,3,09,87,04,312,22*57
$GNGLL,0419.72238,S,05539.82308,E,074216.00,A,A*67
$GNRMC,074217.00,A,0419.72235,S,05539.82304,E,0.058,,220525,,,A*71
$GNVTG,,T,,M,0.058,N,0.107,K,A*36
$GNGGA,074217.00,0419.72235,S,05539.82304,E,1,12,1.26,23.6,M,-47.6,M,,*4B
$GNGSA,A,3,25,12,23,15,18,05,29,,,,,,2.57,1.26,2.23*1C
$GNGSA,A,3,75,71,72,76,70,,,,,,,,2.57,1.26,2.23*1D
$GPGSV,5,1,17,05,18,028,20,10,25,218,,12,59,143,23,13,10,084,*75
$GPGSV,5,2,17,15,44,106,17,18,25,317,21,23,66,240,38,24,23,158,09*7B
$GPGSV,5,3,17,25,82,293,30,28,10,270,20,29,24,005,27,32,00,221,*7E
$GPGSV,5,4,17,36,52,277,,40,86,351,26,41,58,082,,49,32,274,*78
$GPGSV,5,5,17,50,10,089,*4A
$GLGSV,3,1,09,65,08,199,,70,07,043,11,71,41,076,09,72,47,154,28*64
$GLGSV,3,2,09,74,17,164,,75,58,208,35,76,37,306,31,86,08,353,*69
$GLGSV,3,3,09,87,04,312,21*54
$GNGLL,0419.72235,S,05539.82304,E,074217.00,A,A*67
$GNRMC,074218.00,A,0419.72230,S,05539.82307,E,0.188,,220525,,,A*74
$GNVTG,,T,,M,0.188,N,0.349,K,A*32
$GNGGA,074218.00,0419.72230,S,05539.82307,E,1,11,1.30,23.8,M,-47.6,M,,*48
$GNGSA,A,3,25,12,23,15,18,05,29,,,,,,2.91,1.30,2.61*17
$GNGSA,A,3,75,71,72,76,,,,,,,,,2.91,1.30,2.61*11
$GPGSV,5,1,17,05,18,028,19,10,25,218,21,12,59,143,23,13,10,084,*7C
$GPGSV,5,2,17,15,44,106,20,18,25,317,21,23,66,240,38,24,23,158,*76
$GPGSV,5,3,17,25,82,293,29,28,10,270,20,29,24,005,27,32,00,221,*76
$GPGSV,5,4,17,36,52,277,,40,86,351,26,41,58,082,,49,32,274,*78
$GPGSV,5,5,17,50,10,089,*4A
$GLGSV,3,1,09,65,08,199,,70,07,043,07,71,41,076,09,72,47,154,27*6C
$GLGSV,3,2,09,74,16,163,,75,58,208,33,76,37,306,31,86,08,353,*69
$GLGSV,3,3,09,87,04,312,21*54
$GNGLL,0419.72230,S,05539.82307,E,074218.00,A,A*6E
$GNRMC,074219.00,A,0419.72227,S,05539.82304,E,0.090,,220525,,,A*78
$GNVTG,,T,,M,0.090,N,0.167,K,A*34
$GNGGA,074219.00,0419.72227,S,05539.82304,E,1,12,1.30,23.9,M,-47.6,M,,*4E
$GNGSA,A,3,25,12,23,15,18,05,29,,,,,,2.91,1.30,2.61*17
