$GNRMC,073702.00,A,0419.72876,S,05539.81027,E,0.140,,220525,,,A*73
$GNVTG,,T,,M,0.140,N,0.260,K,A*3C
$GNGGA,073702.00,0419.72876,S,05539.81027,E,1,12,1.63,23.6,M,-47.6,M,,*40
$GNGSA,A,3,25,12,23,15,18,05,24,29,,,,,3.55,1.63,3.16*1F
$GNGSA,A,3,75,71,72,76,,,,,,,,,3.55,1.63,3.16*1F
$GPGSV,4,1,16,05,20,028,20,10,23,217,06,12,61,140,22,13,11,086,15*7F
$GPGSV,4,2,16,15,44,109,25,18,26,315,32,23,65,235,23,24,23,159,10*74
$GPGSV,4,3,16,25,80,307,27,28,10,272,,29,23,003,14,36,52,277,36*72
$GPGSV,4,4,16,40,86,351,,41,58,082,,49,32,274,,50,10,089,*79
$GLGSV,3,1,09,65,05,201,,70,09,045,,71,42,081,18,72,44,157,18*6B
$GLGSV,3,2,09,74,19,164,,75,60,211,26,76,35,308,31,86,08,351,*68
$GLGSV,3,3,09,87,04,310,*55
$GNGLL,0419.72876,S,05539.81027,E,073702.00,A,A*6D
$GNRMC,073703.00,A,0419.72875,S,05539.81007,E,0.574,,220525,,,A*70
$GNVTG,,T,,M,0.574,N,1.062,K,A*3E
$GNGGA,073703.00,0419.72875,S,05539.81007,E,1,11,1.29,24.0,M,-47.6,M,,*4C
$GNGSA,A,3,25,12,23,15,18,05,29,,,,,,2.81,1.29,2.50*1C
$GNGSA,A,3,75,71,72,76,,,,,,,,,2.81,1.29,2.50*1A
$GPGSV,4,1,16,05,20,028,17,10,23,217,07,12,61,140,22,13,11,086,12*7D
$GPGSV,4,2,16,15,44,109,25,18,26,315,32,23,65,235,22,24,23,159,*74
$GPGSV,4,3,16,25,80,307,26,28,10,272,,29,23,003,13,36,52,277,33*71
$GPGSV,4,4,16,40,86,351,,41,58,082,,49,32,274,,50,10,089,*79
$GLGSV,3,1,09,65,05,201,,70,09,045,,71,42,081,19,72,44,157,18*6A
$GLGSV,3,2,09,74,19,164,,75,60,211,26,76,35,308,30,86,08,351,*69
$GLGSV,3,3,09,87,04,310,*55
$GNGLL,0419.72875,S,05539.81007,E,073703.00,A,A*6D
$GNRMC,073704.00,A,0419.72880,S,05539.81003,E,0.102,,220525,,,A*7C
$GNVTG,,T,,M,0.102,N,0.188,K,A*3F
$GNGGA,073704.00,0419.72880,S,05539.81003,E,1,10,1.29,23.9,M,-47.6,M,,*4A
$GNGSA,A,3,25,12,23,15,18,05,,,,,,,2.81,1.29,2.50*17
$GNGSA,A,3,75,71,72,76,,,,,,,,,2.81,1.29,2.50*1A
$GPGSV,4,1,16,05,20,028,18,10,23,217,08,12,61,140,20,13,11,086,09*75
$GPGSV,4,2,16,15,44,109,24,18,26,315,30,23,65,235,22,24,23,159,*77
$GPGSV,4,3,16,25,80,307,27,28,10,272,,29,23,003,09,36,52,277,33*7B
$GPGSV,4,4,16,40,86,351,28,41,58,082,,49,32,274,,50,10,089,*73
$GLGSV,3,1,09,65,05,201,,70,09,045,,71,42,081,18,72,44,157,17*64
$GLGSV,3,2,09,74,19,164,,75,60,211,27,76,35,308,31,86,08,351,*69
$GLGSV,3,3,09,87,04,310,*55
$GNGLL,0419.72880,S,05539.81003,E,073704.00,A,A*64
$GNRMC,073705.00,A,0419.72878,S,05539.81013,E,0.526,,220525,,,A*79
$GNVTG,,T,,M,0.526,N,0.973,K,A*31
$GNGGA,073705.00,0419.72878,S,05539.81013,E,1,11,1.19,23.7,M,-47.6,M,,*41
$GNGSA,A,3,25,12,23,15,18,05,40,,,,,,2.35,1.19,2.03*19
$GNGSA,A,3,75,71,72,76,,,,,,,,,2.35,1.19,2.03*10
$GPGSV,4,1,16,05,20,028,20,10,23,217,08,12,61,140,21,13,11,086,09*7F
$GPGSV,4,2,16,15,44,109,24,18,26,315,31,23,65,235,23,24,23,159,*77
$GPGSV,4,3,16,25,80,307,27,28,10,272,,29,23,003,06,36,52,277,34*73
$GPGSV,4,4,16,40,86,351,27,41,58,082,,49,32,274,,50,10,089,*7C
$GLGSV,3,1,09,65,05,201,,70,09,045,,71,42,081,16,72,44,157,18*65
$GLGSV,3,2,09,74,19,164,,75,60,211,27,76,35,308,32,86,08,351,*6A
$GLGSV,3,3,09,87,04,310,*55
$GNGLL,0419.72878,S,05539.81013,E,073705.00,A,A*63
$GNRMC,073706.00,A,0419.72870,S,05539.81016,E,0.416,,220525,,,A*75
$GNVTG,,T,,M,0.416,N,0.771,K,A*3F
$GNGGA,073706.00,0419.72870,S,05539.81016,E,1,10,1.29,23.8,M,-47.6,M,,*42
$GNGSA,A,3,25,12,23,15,18,05,,,,,,,2.81,1.29,2.50*17
$GNGSA,A,3,75,71,72,76,,,,,,,,,2.81,1.29,2.50*1A
$GPGSV,4,1,16,05,20,028,20,10,23,217,08,12,61,140,23,13,11,086,08*7C
$GPGSV,4,2,16,15,44,109,23,18,26,315,31,23,65,235,23,24,23,159,*70
$GPGSV,4,3,16,25,80,307,27,28,10,272,,29,23,003,04,36,52,277,34*71
$GPGSV,4,4,16,40,86,351,,41,58,082,,49,32,274,,50,10,089,*79
$GLGSV,3,1,09,65,05,201,,70,09,045,,71,42,081,18,72,44,157,21*61
$GLGSV,3,2,09,74,19,164,,75,60,211,27,76,35,308,33,86,08,351,*6B
$GLGSV,3,3,09,87,04,310,*55
$GNGLL,0419.72870,S,05539.81016,E,073706.00,A,A*6D
$GNRMC,073707.00,A,0419.72868,S,05539.81014,E,0.221,,220525,,,A*7D
$GNVTG,,T,,M,0.221,N,0.409,K,A*31
$GNGGA,073707.00,0419.72868,S,05539.81014,E,1,10,1.29,23.8,M,-47.6,M,,*48
$GNGSA,A,3,25,12,23,15,18,05,,,,,,,2.81,1.29,2.50*17
$GNGSA,A,3,75,71,72,76,,,,,,,,,2.81,1.29,2.50*1A
$GPGSV,4,1,16,05,20,028,21,10,23,217,08,12,61,140,24,13,11,086,08*7A
$GPGSV,4,2,16,15,44,109,24,18,26,315,32,23,65,235,23,24,23,159,*74
$GPGSV,4,3,16,25,80,307,28,28,10,272,,29,23,003,,36,52,277,35*7B
$GPGSV,4,4,16,40,86,351,,41,58,082,,49,32,274,,50,10,089,*79
$GLGSV,3,1,09,65,05,201,,70,09,045,,71,42,081,19,72,44,157,22*63
$GLGSV,3,2,09,74,19,164,,75,60,211,27,76,35,308,33,86,08,351,*6B
$GLGSV,3,3,09,87,04,310,*55
$GNGLL,0419.72868,S,05539.81014,E,073707.00,A,A*67
$GNRMC,073708.00,A,0419.72860,S,05539.80999,E,0.096,,220525,,,A*79
$GNVTG,,T,,M,0.096,N,0.178,K,A*3C
$GNGGA,073708.00,0419.72860,S,05539.80999,E,1,10,1.29,24.2,M,-47.6,M,,*4F
$GNGSA,A,3,25,12,23,15,18,05,,,,,,,2.81,1.29,2.50*17
$GNGSA,A,3,75,71,72,76,,,,,,,,,2.81,1.29,2.50*1A
$GPGSV,4,1,16,05,20,028,23,10,23,217,,12,61,140,25,13,11,086,07*7E
$GPGSV,4,2,16,15,44,109,25,18,26,315,34,23,65,235,21,24,23,159,*71
$GPGSV,4,3,16,25,80,307,28,28,10,272,,29,23,003,,36,52,277,35*7B
$GPGSV,4,4,16,40,86,351,,41,58,082,,49,32,274,,50,10,089,*79
$GLGSV,3,1,09,65,05,201,,70,09,045,,71,42,081,19,72,44,157,23*62
$GLGSV,3,2,09,74,19,164,,75,60,211,27,76,35,308,34,86,08,351,*6C
$GLGSV,3,3,09,87,04,310,*55
$GNGLL,0419.72860,S,05539.80999,E,073708.00,A,A*6D
$GNRMC,073709.00,A,0419.72846,S,05539.80988,E,0.138,,220525,,,A*79
$GNVTG,,T,,M,0.138,N,0.255,K,A*35
$GNGGA,073709.00,0419.72846,S,05539.80988,E,1,10,1.29,24.8,M,-47.6,M,,*40
$GNGSA,A,3,25,12,23,15,18,05,,,,,,,2.81,1.29,2.50*17
$GNGSA,A,3,75,71,72,76,,,,,,,,,2.81,1.29,2.50*1A
$GPGSV,4,1,16,05,20,028,23,10,23,217,,12,61,140,25,13,11,086,08*71
$GPGSV,4,2,16,15,44,109,25,18,26,315,34,23,65,235,29,24,23,159,16*7E
$GPGSV,4,3,16,25,80,307,29,28,10,272,,29,23,003,15,36,52,277,34*7F
$GPGSV,4,4,16,40,86,351,,41,58,082,,49,32,274,,50,10,089,*79
$GLGSV,3,1,09,65,06,200,,70,09,045,,71,42,081,18,72,44,157,23*61
$GLGSV,3,2,09,74,19,164,,75,60,211,26,76,35,308,34,86,08,351,*6D
$GLGSV,3,3,09,87,04,310,21*56
$GNGLL,0419.72846,S,05539.80988,E,073709.00,A,A*68
$GNRMC,073710.00,A,0419.72846,S,05539.80989,E,0.077,,220525,,,A*7A
$GNVTG,,T,,M,0.077,N,0.143,K,A*3B
$GNGGA,073710.00,0419.72846,S,05539.80989,E,1,10,1.33,24.6,M,-47.6,M,,*4C
$GNGSA,A,3,25,12,23,15,18,05,13,,,,,,2.45,1.33,2.06*15
$GNGSA,A,3,75,72,76,,,,,,,,,,2.45,1.33,2.06*1C
$GPGSV,4,1,16,05,20,028,23,10,23,217,,12,61,140,21,13,11,086,12*7E
$GPGSV,4,2,16,15,44,109,26,18,26,315,33,23,65,235,29,24,23,159,13*7F
$GPGSV,4,3,16,25,80,307,29,28,10,272,,29,23,003,14,36,52,277,34*7E
$GPGSV,4,4,16,40,86,351,,41,58,082,,49,32,274,,50,10,089,*79
$GLGSV,3,1,09,65,06,200,,70,09,045,,71,42,081,,72,44,157,20*6B
$GLGSV,3,2,09,74,19,164,,75,60,211,28,76,35,308,35,86,08,351,*62
$GLGSV,3,3,09,87,04,310,20*57
$GNGLL,0419.72846,S,05539.80989,E,073710.00,A,A*61
$GNRMC,073711.00,A,0419.72836,S,05539.80985,E,0.031,,220525,,,A*72
$GNVTG,,T,,M,0.031,N,0.058,K,A*32
$GNGGA,073711.00,0419.72836,S,05539.80985,E,1,10,1.33,25.0,M,-47.6,M,,*41
$GNGSA,A,3,25,12,23,15,18,05,13,,,,,,2.45,1.33,2.06*15
$GNGSA,A,3,75,72,76,,,,,,,,,,2.45,1.33,2.06*1C
$GPGSV,4,1,16,05,20,028,23,10,23,217,,12,61,140,20,13,11,086,12*7F
$GPGSV,4,2,16,15,44,109,27,18,26,315,33,23,65,235,29,24,23,159,12*7F
$GPGSV,4,3,16,25,80,307,30,28,10,272,,29,23,003,15,36,52,277,34*77
$GPGSV,4,4,16,40,86,351,29,41,58,082,,49,32,274,,50,10,089,*72
$GLGSV,3,1,09,65,06,200,,70,09,045,,71,42,081,,72,44,157,19*61
$GLGSV,3,2,09,74,19,164,,75,60,211,28,76,35,308,36,86,08,351,*61
$GLGSV,3,3,09,87,04,310,18*5C
$GNGLL,0419.72836,S,05539.80985,E,073711.00,A,A*6B
$GNRMC,073712.00,A,0419.72834,S,05539.80980,E,0.062,,220525,,,A*70
$GNVTG,,T,,M,0.062,N,0.114,K,A*3D
$GNGGA,073712.00,0419.72834,S,05539.80980,E,1,12,1.46,25.4,M,-47.6,M,,*41
$GNGSA,A,3,25,12,23,15,18,05,29,13,40,,,,2.83,1.46,2.43*13
$GNGSA,A,3,75,72,76,,,,,,,,,,2.83,1.46,2.43*15
$GPGSV,4,1,16,05,20,028,22,10,23,217,,12,61,140,19,13,11,086,13*75
$GPGSV,4,2,16,15,44,109,28,18,26,315,33,23,65,235,29,24,23,159,11*73
$GPGSV,4,3,16,25,80,307,30,28,10,272,,29,23,003,16,36,52,277,35*75
$GPGSV,4,4,16,40,86,351,30,41,58,082,,49,32,274,,50,10,089,*7A
$GLGSV,3,1,09,65,06,200,,70,09,045,,71,42,081,18,72,44,157,17*66
$GLGSV,3,2,09,74,19,164,,75,60,211,27,76,35,308,36,86,08,351,*6E
$GLGSV,3,3,09,87,04,310,15*51
$GNGLL,0419.72834,S,05539.80980,E,073712.00,A,A*6F
$GNRMC,073713.00,A,0419.72836,S,05539.80978,E,0.065,,220525,,,A*73
$GNVTG,,T,,M,0.065,N,0.120,K,A*3D
$GNGGA,073713.00,0419.72836,S,05539.80978,E,1,12,1.46,25.6,M,-47.6,M,,*47
$GNGSA,A,3,25,12,23,15,18,05,29,13,40,,,,2.83,1.46,2.43*13
$GNGSA,A,3,75,72,76,,,,,,,,,,2.83,1.46,2.43*15
$GPGSV,4,1,16,05,20,028,21,10,23,217,,12,61,140,20,13,11,086,13*7C
$GPGSV,4,2,16,15,44,109,28,18,26,315,33,23,65,235,28,24,23,159,10*73
$GPGSV,4,3,16,25,80,307,30,28,10,272,,29,23,003,17,36,52,277,35*74
$GPGSV,4,4,16,40,86,351,30,41,58,082,,49,32,274,,50,10,089,*7A
$GLGSV,3,1,09,65,06,200,,70,09,045,,71,42,081,,72,44,157,21*6A
$GLGSV,3,2,09,74,19,164,,75,60,211,26,76,35,308,36,86,08,351,*6F
$GLGSV,3,3,09,87,04,310,13*57
$GNGLL,0419.72836,S,05539.80978,E,073713.00,A,A*6B
$GNRMC,073714.00,A,0419.72842,S,05539.80976,E,0.053,,220525,,,A*7C
$GNVTG,,T,,M,0.053,N,0.098,K,A*3A
$GNGGA,073714.00,0419.72842,S,05539.80976,E,1,12,1.46,25.7,M,-47.6,M,,*4C
$GNGSA,A,3,25,12,23,15,18,05,24,29,13,40,,,2.83,1.46,2.43*15
$GNGSA,A,3,75,72,76,,,,,,,,,,2.83,1.46,2.43*15
$GPGSV,4,1,16,05,20,028,22,10,23,217,20,12,61,140,21,13,11,086,12*7D
$GPGSV,4,2,16,15,44,109,27,18,26,315,33,23,65,235,30,24,23,159,11*74
$GPGSV,4,3,16,25,80,307,29,28,10,272,,29,23,003,18,36,52,277,34*72
$GPGSV,4,4,16,40,86,351,29,41,58,082,,49,32,274,,50,10,089,*72
$GLGSV,3,1,09,65,06,200,,70,08,045,,71,42,081,,72,44,157,23*69
$GLGSV,3,2,09,74,19,164,,75,60,211,26,76,35,308,35,86,08,351,*6C
$GLGSV,3,3,09,87,04,310,08*5D
$GNGLL,0419.72842,S,05539.80976,E,073714.00,A,A*61
$GNRMC,073715.00,A,0419.72847,S,05539.80972,E,0.067,,220525,,,A*7B
$GNVTG,,T,,M,0.067,N,0.123,K,A*3C
$GNGGA,073715.00,0419.72847,S,05539.80972,E,1,12,1.46,25.8,M,-47.6,M,,*43
$GNGSA,A,3,25,12,23,15,18,05,24,29,13,40,,,2.83,1.46,2.43*15
$GNGSA,A,3,75,72,76,,,,,,,,,,2.83,1.46,2.43*15
$GPGSV,4,1,16,05,20,028,24,10,23,217,19,12,61,140,20,13,11,086,12*70
$GPGSV,4,2,16,15,44,109,27,18,26,315,33,23,65,235,30,24,23,159,12*77
$GPGSV,4,3,16,25,80,307,28,28,10,272,,29,23,003,20,36,52,277,34*78
$GPGSV,4,4,16,40,86,351,30,41,58,082,,49,32,274,,50,10,089,*7A
$GLGSV,3,1,09,65,06,200,,70,08,045,,71,41,080,,72,44,157,23*6B
$GLGSV,3,2,09,74,19,164,,75,60,211,26,76,35,308,36,86,08,351,*6F
$GLGSV,3,3,09,87,04,310,10*54
$GNGLL,0419.72847,S,05539.80972,E,073715.00,A,A*61
$GNRMC,073716.00,A,0419.72852,S,05539.80967,E,0.017,,220525,,,A*7F
$GNVTG,,T,,M,0.017,N,0.032,K,A*3A
$GNGGA,073716.00,0419.72852,S,05539.80967,E,1,12,1.46,26.0,M,-47.6,M,,*4B
$GNGSA,A,3,25,12,23,15,18,05,24,29,40,,,,2.83,1.46,2.43*17
$GNGSA,A,3,75,72,76,,,,,,,,,,2.83,1.46,2.43*15
$GPGSV,4,1,16,05,20,028,25,10,23,217,17,12,61,140,19,13,11,086,10*77
$GPGSV,4,2,16,15,44,109,28,18,26,315,33,23,65,235,30,24,23,159,10*7A
$GPGSV,4,3,16,25,80,307,29,28,10,272,,29,23,003,21,36,52,277,35*79
$GPGSV,4,4,16,40,86,351,31,41,58,082,,49,32,274,,50,10,089,*7B
$GLGSV,3,1,09,65,06,200,,70,08,045,,71,41,080,,72,45,157,22*6B
$GLGSV,3,2,09,74,19,164,,75,60,211,26,76,35,308,36,86,08,351,*6F
$GLGSV,3,3,09,87,04,310,08*5D
$GNGLL,0419.72852,S,05539.80967,E,073716.00,A,A*62
$GNRMC,073717.00,A,0419.72853,S,05539.80959,E,0.198,,220525,,,A*74
$GNVTG,,T,,M,0.198,N,0.367,K,A*3F
$GNGGA,073717.00,0419.72853,S,05539.80959,E,1,11,1.22,26.3,M,-47.6,M,,*44
$GNGSA,A,3,25,12,23,15,18,05,29,40,,,,,2.37,1.22,2.03*18
$GNGSA,A,3,75,72,76,,,,,,,,,,2.37,1.22,2.03*1C
$GPGSV,4,1,16,05,20,028,24,10,23,217,14,12,61,140,17,13,11,086,08*72
$GPGSV,4,2,16,15,44,109,27,18,26,315,33,23,65,235,29,24,23,159,09*75
$GPGSV,4,3,16,25,80,307,29,28,10,272,,29,23,003,21,36,52,277,34*78
$GPGSV,4,4,16,40,86,351,31,41,58,082,,49,32,274,,50,10,089,*7B
$GLGSV,3,1,09,65,06,200,,70,08,045,,71,41,080,,72,45,157,23*6A
$GLGSV,3,2,09,74,19,164,,75,60,211,26,76,35,308,36,86,08,351,*6F
$GLGSV,3,3,09,87,04,310,08*5D
$GNGLL,0419.72853,S,05539.80959,E,073717.00,A,A*6F
$GNRMC,073718.00,A,0419.72855,S,05539.80958,E,0.049,,220525,,,A*71
$GNVTG,,T,,M,0.049,N,0.091,K,A*38
$GNGGA,073718.00,0419.72855,S,05539.80958,E,1,12,1.22,26.3,M,-47.6,M,,*4F
$GNGSA,A,3,25,12,23,15,18,05,29,10,13,40,,,2.37,1.22,2.03*1B
$GNGSA,A,3,75,72,76,,,,,,,,,,2.37,1.22,2.03*1C
$GPGSV,4,1,16,05,20,028,22,10,23,217,14,12,61,140,16,13,11,086,11*7D
$GPGSV,4,2,16,15,44,109,28,18,26,315,33,23,65,235,30,24,23,159,09*72
$GPGSV,4,3,16,25,80,307,29,28,10,272,,29,23,003,21,36,52,277,34*78
$GPGSV,4,4,16,40,86,351,31,41,58,082,,49,32,274,,50,10,089,*7B
$GLGSV,3,1,09,65,06,200,,70,08,045,,71,41,080,,72,45,157,22*6B
$GLGSV,3,2,09,74,19,164,,75,60,211,25,76,35,308,36,86,08,351,*6C
$GLGSV,3,3,09,87,04,310,08*5D
$GNGLL,0419.72855,S,05539.80958,E,073718.00,A,A*67
$GNRMC,073719.00,A,0419.72845,S,05539.80959,E,0.200,,220525,,,A*7F
$GNVTG,,T,,M,0.200,N,0.370,K,A*3B
$GNGGA,073719.00,0419.72845,S,05539.80959,E,1,12,0.91,26.7,M,-47.6,M,,*43
$GNGSA,A,3,25,12,23,15,18,05,29,10,13,40,,,1.66,0.91,1.39*1F
$GNGSA,A,3,75,72,76,,,,,,,,,,1.66,0.91,1.39*18
$GPGSV,4,1,16,05,20,028,21,10,23,217,14,12,61,140,15,13,11,086,13*7F
$GPGSV,4,2,16,15,44,109,27,18,26,315,33,23,65,235,31,24,23,159,09*7C
$GPGSV,4,3,16,25,80,307,31,28,10,272,,29,23,003,19,36,52,277,35*7B
$GPGSV,4,4,16,40,86,351,30,41,58,082,,49,32,274,,50,10,089,*7A
$GLGSV,3,1,09,65,06,200,,70,08,045,,71,41,080,,72,45,157,23*6A
$GLGSV,3,2,09,74,19,164,,75,60,210,25,76,35,308,36,86,08,351,*6D
$GLGSV,3,3,09,87,04,310,09*5C
$GNGLL,0419.72845,S,05539.80959,E,073719.00,A,A*66
$GNRMC,073720.00,A,0419.72842,S,05539.80964,E,0.071,,220525,,,A*78
$GNVTG,,T,,M,0.071,N,0.131,K,A*38
$GNGGA,073720.00,0419.72842,S,05539.80964,E,1,12,0.91,26.5,M,-47.6,M,,*42
$GNGSA,A,3,25,12,23,15,18,05,29,10,13,40,,,1.66,0.91,1.39*1F
$GNGSA,A,3,75,72,76,,,,,,,,,,1.66,0.91,1.39*18
$GPGSV,4,1,16,05,20,028,20,10,23,217,15,12,61,140,15,13,11,086,14*78
$GPGSV,4,2,16,15,44,109,26,18,26,315,33,23,65,235,33,24,23,159,10*77
$GPGSV,4,3,16,25,80,307,32,28,10,272,,29,23,003,21,36,52,277,35*73
$GPGSV,4,4,16,40,86,351,31,41,58,082,,49,32,274,,50,10,089,*7B
$GLGSV,3,1,09,65,06,200,,70,08,045,,71,41,080,,72,45,157,21*68
$GLGSV,3,2,09,74,19,164,,75,60,210,25,76,36,308,36,86,08,351,*6E
$GLGSV,3,3,09,87,04,310,13*57
$GNGLL,0419.72842,S,05539.80964,E,073720.00,A,A*65
$GNRMC,073721.00,A,0419.72834,S,05539.80957,E,0.246,,220525,,,A*7E
$GNVTG,,T,,M,0.246,N,0.456,K,A*3A
$GNGGA,073721.00,0419.72834,S,05539.80957,E,1,12,0.91,27.1,M,-47.6,M,,*47
$GNGSA,A,3,25,12,23,15,18,05,29,10,13,40,,,1.66,0.91,1.39*1F
$GNGSA,A,3,75,72,76,,,,,,,,,,1.66,0.91,1.39*18
$GPGSV,4,1,16,05,20,028,21,10,23,217,12,12,61,140,15,13,11,086,16*7C
$GPGSV,4,2,16,15,44,109,24,18,26,315,33,23,65,235,33,24,23,159,09*7D
$GPGSV,4,3,16,25,80,307,31,28,10,272,,29,23,003,23,36,52,277,36*71
$GPGSV,4,4,16,40,86,351,31,41,58,082,,49,32,274,,50,10,089,*7B
$GLGSV,3,1,09,65,06,200,,70,08,045,,71,41,080,22,72,45,157,20*69
$GLGSV,3,2,09,74,19,164,,75,60,210,25,76,36,308,36,86,08,351,*6E
$GLGSV,3,3,09,87,04,310,16*52
$GNGLL,0419.72834,S,05539.80957,E,073721.00,A,A*65
$GNRMC,073722.00,A,0419.72828,S,05539.80956,E,0.166,,220525,,,A*70
$GNVTG,,T,,M,0.166,N,0.308,K,A*37
$GNGGA,073722.00,0419.72828,S,05539.80956,E,1,12,0.91,27.2,M,-47.6,M,,*4B
$GNGSA,A,3,25,12,23,15,18,05,29,10,13,40,,,1.66,0.91,1.39*1F
$GNGSA,A,3,75,72,76,,,,,,,,,,1.66,0.91,1.39*18
$GPGSV,4,1,16,05,20,028,22,10,23,217,12,12,61,140,13,13,11,086,16*79
$GPGSV,4,2,16,15,44,109,24,18,26,315,33,23,65,235,33,24,23,159,08*7C
$GPGSV,4,3,16,25,80,307,31,28,10,272,,29,23,003,21,36,52,277,36*73
$GPGSV,4,4,16,40,86,351,31,41,58,082,,49,32,274,,50,10,089,*7B
$GLGSV,3,1,09,65,06,200,,70,08,045,,71,41,080,21,72,45,157,19*60
$GLGSV,3,2,09,74,19,164,,75,60,210,22,76,36,308,36,86,08,351,*69
$GLGSV,3,3,09,87,04,310,17*53
$GNGLL,0419.72828,S,05539.80956,E,073722.00,A,A*6A
$GNRMC,073723.00,A,0419.72837,S,05539.80951,E,0.256,,220525,,,A*78
$GNVTG,,T,,M,0.256,N,0.473,K,A*3C
$GNGGA,073723.00,0419.72837,S,05539.80951,E,1,12,0.91,27.0,M,-47.6,M,,*41
$GNGSA,A,3,25,12,23,15,18,05,29,10,13,40,,,1.66,0.91,1.39*1F
$GNGSA,A,3,75,72,76,,,,,,,,,,1.66,0.91,1.39*18
$GPGSV,4,1,16,05,20,028,22,10,23,217,13,12,61,140,11,13,11,086,15*79
$GPGSV,4,2,16,15,44,109,23,18,26,315,33,23,65,235,33,24,23,159,08*7B
$GPGSV,4,3,16,25,80,307,30,28,10,272,,29,23,003,20,36,52,277,35*70
$GPGSV,4,4,16,40,86,351,30,41,58,082,,49,32,274,,50,10,089,*7A
$GLGSV,3,1,09,65,06,200,,70,08,045,,71,41,080,21,72,45,157,19*60
$GLGSV,3,2,09,74,19,164,,75,60,210,20,76,36,308,36,86,08,351,*6B
$GLGSV,3,3,09,87,04,310,18*5C
$GNGLL,0419.72837,S,05539.80951,E,073723.00,A,A*62
$GNRMC,073724.00,A,0419.72845,S,05539.80945,E,0.188,,220525,,,A*7F
$GNVTG,,T,,M,0.188,N,0.349,K,A*32
$GNGGA,073724.00,0419.72845,S,05539.80945,E,1,12,0.85,26.7,M,-47.6,M,,*45
$GNGSA,A,3,25,12,23,15,18,05,29,10,13,40,,,1.63,0.85,1.39*1F
$GNGSA,A,3,75,71,72,76,,,,,,,,,1.63,0.85,1.39*1E
$GPGSV,4,1,16,05,20,028,21,10,23,217,12,12,61,140,13,13,11,086,14*78
$GPGSV,4,2,16,15,44,109,23,18,26,315,33,23,65,235,33,24,23,159,08*7B
$GPGSV,4,3,16,25,80,307,30,28,10,272,,29,23,003,19,36,52,277,36*79
$GPGSV,4,4,16,40,86,351,29,41,58,082,,49,32,274,,50,10,089,*72
$GLGSV,3,1,09,65,06,200,,70,08,045,,71,41,080,22,72,45,157,20*69
$GLGSV,3,2,09,74,19,164,,75,60,210,16,76,36,308,36,86,08,351,*6E
$GLGSV,3,3,09,87,04,310,17*53
$GNGLL,0419.72845,S,05539.80945,E,073724.00,A,A*65
$GNRMC,073725.00,A,0419.72832,S,05539.80926,E,0.204,,220525,,,A*7C
$GNVTG,,T,,M,0.204,N,0.377,K,A*38
$GNGGA,073725.00,0419.72832,S,05539.80926,E,1,12,0.91,27.5,M,-47.6,M,,*47
$GNGSA,A,3,25,12,23,15,18,05,24,29,10,13,40,,1.67,0.91,1.40*16
$GNGSA,A,3,75,71,72,76,,,,,,,,,1.67,0.91,1.40*11
$GPGSV,4,1,16,05,20,028,21,10,23,217,14,12,61,140,20,13,11,086,14*7E
$GPGSV,4,2,16,15,44,109,22,18,26,315,33,23,65,235,32,24,23,159,11*73
$GPGSV,4,3,16,25,80,307,31,28,10,272,,29,23,003,19,36,52,277,35*7B
$GPGSV,4,4,16,40,86,351,31,41,58,082,,49,32,274,,50,10,089,*7B
$GLGSV,3,1,09,65,06,200,,70,08,045,,71,41,080,21,72,45,157,20*6A
$GLGSV,3,2,09,74,19,164,,75,60,210,16,76,36,308,36,86,08,351,*6E
$GLGSV,3,3,09,87,04,310,17*53
$GNGLL,0419.72832,S,05539.80926,E,073725.00,A,A*61
$GNRMC,073726.00,A,0419.72806,S,05539.80918,E,0.519,,220525,,,A*7E
$GNVTG,,T,,M,0.519,N,0.961,K,A*3E
$GNGGA,073726.00,0419.72806,S,05539.80918,E,1,12,0.91,28.3,M,-47.6,M,,*47
$GNGSA,A,3,25,12,23,15,18,05,24,29,10,13,40,,1.67,0.91,1.40*16
$GNGSA,A,3,75,71,72,76,,,,,,,,,1.67,0.91,1.40*11
$GPGSV,4,1,16,05,20,028,23,10,23,217,14,12,61,140,25,13,11,086,13*7E
$GPGSV,4,2,16,15,44,109,20,18,26,315,33,23,65,235,31,24,23,159,15*76
$GPGSV,4,3,16,25,80,307,31,28,10,272,,29,23,003,19,36,52,277,34*7A
$GPGSV,4,4,16,40,86,351,29,41,58,082,,49,32,274,,50,10,089,*72
$GLGSV,3,1,09,65,06,200,,70,08,045,,71,41,080,18,72,45,157,21*61
$GLGSV,3,2,09,74,19,164,,75,60,210,18,76,36,308,35,86,08,351,*63
$GLGSV,3,3,09,87,04,310,18*5C
$GNGLL,0419.72806,S,05539.80918,E,073726.00,A,A*68
$GNRMC,073727.00,A,0419.72783,S,05539.80907,E,0.194,,220525,,,A*72
$GNVTG,,T,,M,0.194,N,0.359,K,A*3E
$GNGGA,073727.00,0419.72783,S,05539.80907,E,1,12,0.91,29.2,M,-47.6,M,,*4A
$GNGSA,A,3,25,12,23,15,18,05,24,29,10,40,,,1.67,0.91,1.40*14
$GNGSA,A,3,75,71,72,76,,,,,,,,,1.67,0.91,1.40*11
$GPGSV,4,1,16,05,20,028,22,10,23,217,12,12,61,140,25,13,11,086,09*72
$GPGSV,4,2,16,15,44,109,19,18,26,315,33,23,65,235,30,24,23,159,14*7C
$GPGSV,4,3,16,25,80,307,30,28,10,272,,29,23,003,18,36,52,277,35*7B
$GPGSV,4,4,16,40,86,351,29,41,58,082,,49,32,274,,50,10,089,*72
$GLGSV,3,1,09,65,06,200,,70,08,045,,71,41,080,17,72,45,157,20*6F
$GLGSV,3,2,09,74,19,164,,75,60,210,19,76,36,308,36,86,08,351,*61
$GLGSV,3,3,09,87,04,310,20*57
$GNGLL,0419.72783,S,05539.80907,E,073727.00,A,A*65
$GNRMC,073728.00,A,0419.72789,S,05539.80907,E,0.041,,220525,,,A*7E
$GNVTG,,T,,M,0.041,N,0.077,K,A*38
$GNGGA,073728.00,0419.72789,S,05539.80907,E,1,12,0.85,29.1,M,-47.6,M,,*49
$GNGSA,A,3,25,12,23,15,18,05,24,29,10,13,40,,1.63,0.85,1.39*19
$GNGSA,A,3,75,71,72,76,,,,,,,,,1.63,0.85,1.39*1E
$GPGSV,4,1,16,05,20,028,23,10,23,217,12,12,61,140,24,13,11,086,10*7A
$GPGSV,4,2,16,15,44,109,23,18,26,315,33,23,65,235,31,24,23,159,12*72
$GPGSV,4,3,16,25,80,307,30,28,10,272,05,29,23,003,16,36,52,277,35*70
$GPGSV,4,4,16,40,86,351,28,41,58,082,,49,32,274,,50,10,089,*73
$GLGSV,3,1,09,65,06,200,,70,08,045,,71,41,080,16,72,45,157,20*6E
$GLGSV,3,2,09,74,19,164,,75,60,210,19,76,36,308,36,86,08,351,*61
$GLGSV,3,3,09,87,04,310,21*56
$GNGLL,0419.72789,S,05539.80907,E,073728.00,A,A*60
$GNRMC,073729.00,A,0419.72799,S,05539.80914,E,0.083,,220525,,,A*72
$GNVTG,,T,,M,0.083,N,0.154,K,A*36
$GNGGA,073729.00,0419.72799,S,05539.80914,E,1,12,0.85,28.8,M,-47.6,M,,*43
$GNGSA,A,3,25,12,23,15,18,05,24,29,10,40,,,1.63,0.85,1.39*1B
$GNGSA,A,3,75,71,72,76,,,,,,,,,1.63,0.85,1.39*1E
$GPGSV,4,1,16,05,20,028,23,10,23,217,13,12,61,140,26,13,11,086,12*7B
$GPGSV,4,2,16,15,44,109,26,18,26,315,34,23,65,235,31,24,23,159,12*70
$GPGSV,4,3,16,25,80,307,30,28,10,272,10,29,23,003,13,36,52,277,35*71
$GPGSV,4,4,16,40,86,351,27,41,58,082,,49,32,274,,50,10,089,*7C
$GLGSV,3,1,09,65,06,200,,70,08,045,,71,41,080,15,72,45,157,18*66
$GLGSV,3,2,09,74,19,164,,75,60,210,18,76,36,308,37,86,08,351,*61
$GLGSV,3,3,09,87,04,310,21*56
$GNGLL,0419.72799,S,05539.80914,E,073729.00,A,A*62
$GNRMC,073730.00,A,0419.72811,S,05539.80922,E,0.139,,220525,,,A*70
$GNVTG,,T,,M,0.139,N,0.258,K,A*39
$GNGGA,073730.00,0419.72811,S,05539.80922,E,1,12,0.85,28.5,M,-47.6,M,,*4C
$GNGSA,A,3,25,12,23,15,18,05,24,29,10,40,,,1.63,0.85,1.39*1B
$GNGSA,A,3,75,71,72,76,,,,,,,,,1.63,0.85,1.39*1E
$GPGSV,4,1,16,05,20,028,22,10,23,217,14,12,61,140,26,13,11,086,13*7C
$GPGSV,4,2,16,15,44,109,26,18,26,315,34,23,65,235,30,24,23,159,11*72
$GPGSV,4,3,16,25,80,307,30,28,10,272,14,29,23,003,14,36,52,277,35*72
$GPGSV,4,4,16,40,86,351,28,41,58,082,,49,32,274,,50,10,089,*73
$GLGSV,3,1,09,65,06,200,,70,08,045,,71,41,080,15,72,45,157,16*68
$GLGSV,3,2,09,74,19,164,,75,60,210,19,76,36,308,37,86,08,352,*63
$GLGSV,3,3,09,87,04,310,21*56
$GNGLL,0419.72811,S,05539.80922,E,073730.00,A,A*60
$GNRMC,073731.00,A,0419.72825,S,05539.80928,E,0.074,,220525,,,A*74
$GNVTG,,T,,M,0.074,N,0.137,K,A*3B
$GNGGA,073731.00,0419.72825,S,05539.80928,E,1,12,0.85,28.1,M,-47.6,M,,*44
$GNGSA,A,3,25,12,23,15,18,05,24,29,10,40,,,1.63,0.85,1.39*1B
$GNGSA,A,3,75,71,72,76,,,,,,,,,1.63,0.85,1.39*1E
$GPGSV,4,1,16,05,20,028,22,10,23,217,14,12,61,140,24,13,11,086,13*7E
$GPGSV,4,2,16,15,44,109,26,18,26,315,33,23,65,235,29,24,23,159,12*7E
$GPGSV,4,3,16,25,80,307,30,28,10,272,16,29,23,003,16,36,52,277,35*72
$GPGSV,4,4,16,40,86,351,29,41,58,082,,49,32,274,,50,10,089,*72
$GLGSV,3,1,09,65,06,200,,70,08,045,,71,41,080,14,72,45,157,14*6B
$GLGSV,3,2,09,74,19,164,,75,60,210,19,76,36,308,37,86,08,352,*63
$GLGSV,3,3,09,87,04,310,21*56
$GNGLL,0419.72825,S,05539.80928,E,073731.00,A,A*6C
$GNRMC,073732.00,A,0419.72823,S,05539.80938,E,0.388,,220525,,,A*70
$GNVTG,,T,,M,0.388,N,0.719,K,A*31
$GNGGA,073732.00,0419.72823,S,05539.80938,E,1,12,1.15,28.0,M,-47.6,M,,*49
$GNGSA,A,3,25,12,23,15,18,05,24,29,10,13,40,,2.33,1.15,2.03*1D
$GNGSA,A,3,75,71,72,76,,,,,,,,,2.33,1.15,2.03*1A
$GPGSV,4,1,16,05,20,028,21,10,23,217,18,12,61,140,22,13,11,086,13*77
$GPGSV,4,2,16,15,44,109,27,18,26,315,32,23,65,235,31,24,23,159,11*74
$GPGSV,4,3,16,25,80,307,29,28,10,272,15,29,23,003,20,36,52,277,35*7C
$GPGSV,4,4,16,40,86,351,27,41,58,082,,49,32,274,,50,10,089,*7C
$GLGSV,3,1,09,65,06,200,,70,08,045,,71,41,080,14,72,45,157,13*6C
$GLGSV,3,2,09,74,19,164,,75,60,210,20,76,36,308,37,86,08,352,*69
$GLGSV,3,3,09,87,04,310,20*57
$GNGLL,0419.72823,S,05539.80938,E,073732.00,A,A*68
$GNRMC,073733.00,A,0419.72833,S,05539.80937,E,0.232,,220525,,,A*7F
$GNVTG,,T,,M,0.232,N,0.429,K,A*31
$GNGGA,073733.00,0419.72833,S,05539.80937,E,1,12,0.85,28.1,M,-47.6,M,,*4F
$GNGSA,A,3,25,12,23,15,18,05,29,10,13,40,,,1.63,0.85,1.39*1F
$GNGSA,A,3,75,71,72,76,,,,,,,,,1.63,0.85,1.39*1E
$GPGSV,4,1,16,05,20,028,22,10,23,217,19,12,61,140,25,13,11,086,13*72
$GPGSV,4,2,16,15,44,109,27,18,26,315,32,23,65,235,33,24,23,159,09*7F
$GPGSV,4,3,16,25,80,307,28,28,10,272,,29,23,003,21,36,52,277,36*7B
$GPGSV,4,4,16,40,86,351,30,41,58,082,,49,32,274,,50,10,089,*7A
$GLGSV,3,1,09,65,06,200,,70,08,045,,71,41,080,14,72,45,157,13*6C
$GLGSV,3,2,09,74,19,164,,75,60,210,21,76,36,308,36,86,08,352,*69
$GLGSV,3,3,09,87,04,310,20*57
$GNGLL,0419.72833,S,05539.80937,E,073733.00,A,A*67
$GNRMC,073734.00,A,0419.72828,S,05539.80941,E,0.089,,220525,,,A*71
$GNVTG,,T,,M,0.089,N,0.166,K,A*3D
$GNGGA,073734.00,0419.72828,S,05539.80941,E,1,12,0.85,28.5,M,-47.6,M,,*47
$GNGSA,A,3,25,12,23,15,18,05,29,10,13,40,,,1.63,0.85,1.39*1F
$GNGSA,A,3,75,71,72,76,,,,,,,,,1.63,0.85,1.39*1E
$GPGSV,4,1,16,05,20,028,23,10,23,217,19,12,61,140,25,13,11,086,13*73
$GPGSV,4,2,16,15,44,109,28,18,26,315,34,23,65,235,32,24,23,159,08*76
$GPGSV,4,3,16,25,80,307,28,28,10,272,,29,23,003,20,36,52,277,36*7A
$GPGSV,4,4,16,40,86,351,30,41,58,082,,49,32,274,,50,10,089,*7A
$GLGSV,3,1,09,65,06,200,,70,08,045,,71,41,080,17,72,45,157,12*6E
$GLGSV,3,2,09,74,19,164,,75,60,210,22,76,36,308,37,86,08,352,*6B
$GLGSV,3,3,09,87,04,310,20*57
$GNGLL,0419.72828,S,05539.80941,E,073734.00,A,A*6B
$GNRMC,073735.00,A,0419.72829,S,05539.80949,E,0.111,,220525,,,A*79
$GNVTG,,T,,M,0.111,N,0.205,K,A*3B
$GNGGA,073735.00,0419.72829,S,05539.80949,E,1,12,0.79,28.6,M,-47.6,M,,*4F
$GNGSA,A,3,25,12,23,15,18,05,29,10,13,40,,,1.43,0.79,1.19*1C
$GNGSA,A,3,75,71,72,76,,,,,,,,,1.43,0.79,1.19*1D
$GPGSV,4,1,16,05,20,028,23,10,23,217,18,12,61,140,24,13,11,086,13*73
$GPGSV,4,2,16,15,44,109,29,18,26,315,34,23,65,235,33,24,23,159,09*77
$GPGSV,4,3,16,25,80,307,29,28,10,272,,29,23,003,21,36,52,277,36*7A
$GPGSV,4,4,16,40,86,351,32,41,58,082,,49,32,274,,50,10,089,*78
$GLGSV,3,1,09,65,06,200,,70,08,045,,71,41,080,18,72,45,157,10*63
$GLGSV,3,2,09,74,19,164,,75,60,210,21,76,36,308,37,86,08,352,*68
$GLGSV,3,3,09,87,04,310,20*57
$GNGLL,0419.72829,S,05539.80949,E,073735.00,A,A*63
$GNRMC,073736.00,A,0419.72836,S,05539.80955,E,0.255,,220525,,,A*7A
$GNVTG,,T,,M,0.255,N,0.473,K,A*3F
$GNGGA,073736.00,0419.72836,S,05539.80955,E,1,12,0.90,28.5,M,-47.6,M,,*4B
$GNGSA,A,3,25,12,23,15,18,05,29,10,13,40,,,1.68,0.90,1.41*1F
$GNGSA,A,3,75,71,76,,,,,,,,,,1.68,0.90,1.41*1B
$GPGSV,4,1,16,05,20,028,22,10,23,217,17,12,61,140,23,13,11,086,13*7A
$GPGSV,4,2,16,15,44,109,29,18,26,315,33,23,65,235,33,24,23,159,08*71
$GPGSV,4,3,16,25,80,307,28,28,10,272,,29,23,003,19,36,52,277,35*73
$GPGSV,4,4,16,40,86,351,31,41,58,082,,49,32,274,,50,10,089,*7B
$GLGSV,3,1,09,65,06,200,,70,08,045,,71,41,080,17,72,45,157,08*65
$GLGSV,3,2,09,74,19,164,,75,60,210,20,76,36,308,38,86,08,352,*66
$GLGSV,3,3,09,87,04,310,19*5D
$GNGLL,0419.72836,S,05539.80955,E,073736.00,A,A*63
$GNRMC,073737.00,A,0419.72837,S,05539.80965,E,0.170,,220525,,,A*7D
$GNVTG,,T,,M,0.170,N,0.314,K,A*3D
$GNGGA,073737.00,0419.72837,S,05539.80965,E,1,12,0.90,28.5,M,-47.6,M,,*48
$GNGSA,A,3,25,12,23,15,18,05,29,10,13,40,,,1.68,0.90,1.41*1F
$GNGSA,A,3,75,71,76,,,,,,,,,,1.68,0.90,1.41*1B
$GPGSV,4,1,16,05,20,028,23,10,23,217,18,12,61,140,24,13,11,086,13*73
$GPGSV,4,2,16,15,44,109,28,18,26,315,33,23,65,235,34,24,23,159,07*78
$GPGSV,4,3,16,25,80,307,28,28,10,272,,29,23,003,17,36,52,277,35*7D
$GPGSV,4,4,16,40,86,351,30,41,58,082,,49,32,274,,50,10,089,*7A
$GLGSV,3,1,09,65,06,200,,70,08,045,,71,41,080,19,72,45,157,08*6B
$GLGSV,3,2,09,74,19,164,,75,60,210,21,76,36,308,37,86,08,352,*68
$GLGSV,3,3,09,87,04,310,18*5C
$GNGLL,0419.72837,S,05539.80965,E,073737.00,A,A*60
$GNRMC,073738.00,A,0419.72838,S,05539.80973,E,0.086,,220525,,,A*72
$GNVTG,,T,,M,0.086,N,0.159,K,A*3E
$GNGGA,073738.00,0419.72838,S,05539.80973,E,1,12,0.79,28.5,M,-47.6,M,,*48
$GNGSA,A,3,25,12,23,15,18,05,29,10,13,40,,,1.43,0.79,1.19*1C
$GNGSA,A,3,75,71,72,76,,,,,,,,,1.43,0.79,1.19*1D
$GPGSV,4,1,16,05,20,028,23,10,23,217,17,12,61,140,26,13,11,086,12*7F
$GPGSV,4,2,16,15,44,109,28,18,26,315,33,23,65,235,33,24,23,159,*78
$GPGSV,4,3,16,25,80,307,28,28,10,272,,29,23,003,19,36,52,277,34*72
$GPGSV,4,4,16,40,86,351,31,41,58,082,,49,32,274,,50,10,089,*7B
$GLGSV,3,1,09,65,06,200,,70,08,045,,71,41,080,20,72,45,157,09*60
$GLGSV,3,2,09,74,19,164,,75,60,210,22,76,36,308,37,86,08,352,*6B
$GLGSV,3,3,09,87,04,310,18*5C
$GNGLL,0419.72838,S,05539.80973,E,073738.00,A,A*67
$GNRMC,073739.00,A,0419.72836,S,05539.80979,E,0.019,,220525,,,A*71
$GNVTG,,T,,M,0.019,N,0.035,K,A*33
$GNGGA,073739.00,0419.72836,S,05539.80979,E,1,12,0.90,28.7,M,-47.6,M,,*48
$GNGSA,A,3,25,12,23,15,18,05,29,10,13,40,,,1.68,0.90,1.41*1F
$GNGSA,A,3,75,71,76,,,,,,,,,,1.68,0.90,1.41*1B
$GPGSV,4,1,16,05,20,028,22,10,23,217,17,12,61,140,23,13,11,086,12*7B
$GPGSV,4,2,16,15,44,109,27,18,26,315,33,23,65,235,33,24,23,159,*77
$GPGSV,4,3,16,25,80,307,27,28,10,272,,29,23,003,21,36,52,277,34*76
$GPGSV,4,4,16,40,86,351,31,41,58,082,,49,32,274,,50,10,089,*7B
$GLGSV,3,1,09,65,06,200,,70,08,045,,71,41,080,19,72,45,157,08*6B
$GLGSV,3,2,09,74,19,164,,75,60,210,24,76,36,308,37,86,08,352,*6D
$GLGSV,3,3,09,87,04,310,17*53
$GNGLL,0419.72836,S,05539.80979,E,073739.00,A,A*62
$GNRMC,073740.00,A,0419.72826,S,05539.80990,E,0.141,,220525,,,A*75
$GNVTG,,T,,M,0.141,N,0.261,K,A*3C
$GNGGA,073740.00,0419.72826,S,05539.80990,E,1,12,0.94,29.0,M,-47.6,M,,*42
$GNGSA,A,3,25,12,23,15,18,05,29,10,13,40,,,1.72,0.94,1.44*15
$GNGSA,A,3,75,71,76,,,,,,,,,,1.72,0.94,1.44*11
$GPGSV,4,1,16,05,20,028,20,10,23,217,18,12,61,140,22,13,11,086,12*77
$GPGSV,4,2,16,15,44,109,27,18,26,315,33,23,65,235,32,24,23,159,*76
$GPGSV,4,3,16,25,80,307,27,28,10,272,,29,23,003,22,36,52,277,34*75
$GPGSV,4,4,16,40,86,351,31,41,58,082,,49,32,274,,50,10,089,*7B
$GLGSV,3,1,09,65,06,200,,70,08,045,,71,41,080,21,72,45,157,07*6F
$GLGSV,3,2,09,74,19,164,,75,60,210,25,76,36,308,37,86,08,352,*6C
$GLGSV,3,3,09,87,04,310,17*53
$GNGLL,0419.72826,S,05539.80990,E,073740.00,A,A*6A
$GNRMC,073741.00,A,0419.72815,S,05539.80999,E,0.067,,220525,,,A*78
$GNVTG,,T,,M,0.067,N,0.125,K,A*3A
$GNGGA,073741.00,0419.72815,S,05539.80999,E,1,12,0.84,29.3,M,-47.6,M,,*48
$GNGSA,A,3,25,12,23,15,18,05,29,10,13,40,,,1.46,0.84,1.20*11
$GNGSA,A,3,75,71,72,76,,,,,,,,,1.46,0.84,1.20*10
$GPGSV,4,1,16,05,20,028,20,10,23,217,19,12,61,140,24,13,11,086,12*70
$GPGSV,4,2,16,15,44,109,27,18,26,315,33,23,65,235,33,24,23,159,*77
$GPGSV,4,3,16,25,80,307,28,28,10,272,,29,23,003,20,36,52,277,34*78
$GPGSV,4,4,16,40,86,351,32,41,58,082,,49,32,274,,50,10,089,*78
$GLGSV,3,1,09,65,06,200,,70,08,045,,71,41,080,21,72,45,157,14*6D
$GLGSV,3,2,09,74,19,164,,75,60,210,25,76,36,308,37,86,08,352,*6C
$GLGSV,3,3,09,87,04,310,19*5D
$GNGLL,0419.72815,S,05539.80999,E,073741.00,A,A*62
$GNRMC,073742.00,A,0419.72806,S,05539.81010,E,0.165,,220525,,,A*73
$GNVTG,,T,,M,0.165,N,0.306,K,A*3A
$GNGGA,073742.00,0419.72806,S,05539.81010,E,1,12,0.90,29.6,M,-47.6,M,,*40
$GNGSA,A,3,25,12,23,15,18,05,29,10,13,,,,1.83,0.90,1.59*17
$GNGSA,A,3,75,71,72,76,,,,,,,,,1.83,0.90,1.59*12
$GPGSV,4,1,16,05,20,028,20,10,23,217,20,12,61,140,26,13,11,086,12*78
$GPGSV,4,2,16,15,44,109,27,18,26,315,32,23,65,235,32,24,23,159,*77
$GPGSV,4,3,16,25,80,307,28,28,10,272,,29,23,003,18,36,52,277,35*72
$GPGSV,4,4,16,40,86,351,33,41,58,082,,49,32,274,,50,10,089,*79
$GLGSV,3,1,09,65,06,200,,70,08,045,,71,41,080,22,72,45,157,14*6E
$GLGSV,3,2,09,74,19,164,,75,60,210,26,76,36,308,37,86,08,352,*6F
$GLGSV,3,3,09,87,04,310,19*5D
$GNGLL,0419.72806,S,05539.81010,E,073742.00,A,A*6A
$GNRMC,073743.00,A,0419.72799,S,05539.81023,E,0.203,,220525,,,A*78
$GNVTG,,T,,M,0.203,N,0.375,K,A*3D
$GNGGA,073743.00,0419.72799,S,05539.81023,E,1,12,0.90,29.7,M,-47.6,M,,*49
$GNGSA,A,3,25,12,23,15,18,05,29,10,13,,,,1.83,0.90,1.59*17
$GNGSA,A,3,75,71,72,76,,,,,,,,,1.83,0.90,1.59*12
$GPGSV,4,1,16,05,20,028,21,10,23,217,21,12,61,140,25,13,11,086,12*7B
$GPGSV,4,2,16,15,44,109,28,18,26,315,32,23,65,235,32,24,23,159,*78
$GPGSV,4,3,16,25,80,307,28,28,10,272,,29,23,003,15,36,52,277,34*7E
$GPGSV,4,4,16,40,86,351,32,41,58,082,,49,32,274,,50,10,089,*78
$GLGSV,3,1,09,65,06,200,,70,08,045,,71,41,080,21,72,45,157,15*6C
$GLGSV,3,2,09,74,19,164,,75,60,210,26,76,36,308,37,86,08,352,*6F
$GLGSV,3,3,09,87,04,310,19*5D
$GNGLL,0419.72799,S,05539.81023,E,073743.00,A,A*62
$GNRMC,073744.00,A,0419.72803,S,05539.81033,E,0.057,,220525,,,A*71
$GNVTG,,T,,M,0.057,N,0.105,K,A*3B
$GNGGA,073744.00,0419.72803,S,05539.81033,E,1,12,0.90,29.7,M,-47.6,M,,*43
$GNGSA,A,3,25,12,23,15,18,05,29,10,,,,,1.83,0.90,1.59*15
$GNGSA,A,3,75,71,72,76,,,,,,,,,1.83,0.90,1.59*12
$GPGSV,4,1,16,05,20,028,20,10,23,217,22,12,61,141,25,13,11,086,*7B
$GPGSV,4,2,16,15,44,109,28,18,26,315,33,23,65,235,32,24,23,159,*79
$GPGSV,4,3,16,25,80,307,28,28,10,272,,29,23,003,16,36,52,277,34*7D
$GPGSV,4,4,16,40,86,351,32,41,58,082,,49,32,274,,50,10,089,*78
$GLGSV,3,1,09,65,06,200,,70,08,045,,71,41,080,20,72,45,157,15*6D
$GLGSV,3,2,09,74,19,164,,75,60,210,26,76,36,308,37,86,08,352,*6F
$GLGSV,3,3,09,87,04,310,19*5D
$GNGLL,0419.72803,S,05539.81033,E,073744.00,A,A*68
$GNRMC,073745.00,A,0419.72799,S,05539.81045,E,0.030,,220525,,,A*7C
$GNVTG,,T,,M,0.030,N,0.056,K,A*3D
$GNGGA,073745.00,0419.72799,S,05539.81045,E,1,12,0.90,30.0,M,-47.6,M,,*40
$GNGSA,A,3,25,12,23,15,18,05,29,10,,,,,1.83,0.90,1.59*15
$GNGSA,A,3,75,71,72,76,,,,,,,,,1.83,0.90,1.59*12
$GPGSV,4,1,16,05,20,028,18,10,23,217,23,12,61,141,25,13,11,085,18*7B
$GPGSV,4,2,16,15,44,109,28,18,26,315,33,23,65,235,32,24,23,159,*79
$GPGSV,4,3,16,25,80,307,28,28,10,272,,29,23,003,17,36,52,277,34*7C
$GPGSV,4,4,16,40,86,351,32,41,58,082,,49,32,274,,50,10,089,*78
$GLGSV,3,1,09,65,06,200,,70,08,045,,71,41,080,20,72,45,157,15*6D
$GLGSV,3,2,09,74,19,164,,75,60,210,26,76,36,308,37,86,08,352,*6F
$GLGSV,3,3,09,87,04,310,20*57
$GNGLL,0419.72799,S,05539.81045,E,073745.00,A,A*64
$GNRMC,073746.00,A,0419.72796,S,05539.81057,E,0.101,,220525,,,A*70
$GNVTG,,T,,M,0.101,N,0.187,K,A*33
$GNGGA,073746.00,0419.72796,S,05539.81057,E,1,12,0.90,30.1,M,-47.6,M,,*4E
$GNGSA,A,3,25,12,23,15,18,05,29,10,,,,,1.83,0.90,1.59*15
$GNGSA,A,3,75,71,72,76,,,,,,,,,1.83,0.90,1.59*12
$GPGSV,4,1,16,05,20,028,18,10,23,217,24,12,61,141,25,13,11,085,17*73
$GPGSV,4,2,16,15,44,109,27,18,26,315,33,23,65,235,33,24,23,159,*77
$GPGSV,4,3,16,25,80,307,28,28,10,272,,29,23,003,18,36,52,277,35*72
$GPGSV,4,4,16,40,86,351,32,41,58,082,,49,32,274,,50,10,089,*78
$GLGSV,3,1,09,65,06,200,,70,08,045,,71,41,080,21,72,45,157,15*6C
$GLGSV,3,2,09,74,19,164,,75,60,210,26,76,36,308,37,86,08,352,*6F
$GLGSV,3,3,09,87,04,310,21*56
$GNGLL,0419.72796,S,05539.81057,E,073746.00,A,A*6B
$GNRMC,073747.00,A,0419.72799,S,05539.81066,E,0.106,,220525,,,A*7B
$GNVTG,,T,,M,0.106,N,0.197,K,A*35
$GNGGA,073747.00,0419.72799,S,05539.81066,E,1,12,0.96,30.1,M,-47.6,M,,*44
$GNGSA,A,3,25,12,23,15,18,05,29,10,,,,,1.88,0.96,1.62*10
$GNGSA,A,3,75,71,72,76,,,,,,,,,1.88,0.96,1.62*17
$GPGSV,4,1,16,05,20,028,20,10,23,217,24,12,61,141,25,13,11,085,15*7A
$GPGSV,4,2,16,15,44,108,26,18,26,315,34,23,65,235,32,24,23,159,*71
$GPGSV,4,3,16,25,80,307,29,28,10,272,,29,23,003,17,36,52,277,35*7C
$GPGSV,4,4,16,40,86,351,32,41,58,082,,49,32,274,,50,10,089,*78
$GLGSV,3,1,09,65,06,200,,70,08,045,,71,41,080,24,72,45,157,08*65
$GLGSV,3,2,09,74,19,164,,75,60,210,27,76,36,308,37,86,08,352,*6E
$GLGSV,3,3,09,87,04,310,21*56
$GNGLL,0419.72799,S,05539.81066,E,073747.00,A,A*67
$GNRMC,073748.00,A,0419.72790,S,05539.81070,E,0.166,,220525,,,A*7C
$GNVTG,,T,,M,0.166,N,0.307,K,A*38
$GNGGA,073748.00,0419.72790,S,05539.81070,E,1,12,0.90,30.4,M,-47.6,M,,*46
$GNGSA,A,3,25,12,23,15,18,05,29,10,,,,,1.83,0.90,1.60*1F
$GNGSA,A,3,75,71,72,76,,,,,,,,,1.83,0.90,1.60*18
$GPGSV,4,1,16,05,20,028,20,10,23,217,25,12,61,141,25,13,11,085,13*7D
$GPGSV,4,2,16,15,44,108,24,18,26,315,34,23,65,235,33,24,23,159,*72
$GPGSV,4,3,16,25,80,307,29,28,10,272,,29,23,003,16,36,52,277,34*7C
$GPGSV,4,4,16,40,86,351,31,41,58,082,,49,32,274,,50,10,089,*7B
$GLGSV,3,1,09,65,06,200,,70,08,045,,71,41,080,24,72,45,157,08*65
$GLGSV,3,2,09,74,19,164,,75,60,210,27,76,36,308,37,86,08,352,*6E
$GLGSV,3,3,09,87,04,310,20*57
$GNGLL,0419.72790,S,05539.81070,E,073748.00,A,A*66
$GNRMC,073749.00,A,0419.72770,S,05539.81074,E,0.235,,220525,,,A*72
$GNVTG,,T,,M,0.235,N,0.436,K,A*38
$GNGGA,073749.00,0419.72770,S,05539.81074,E,1,12,0.90,31.2,M,-47.6,M,,*4A
$GNGSA,A,3,25,12,23,15,18,05,29,10,,,,,1.83,0.90,1.60*1F
$GNGSA,A,3,75,71,72,76,,,,,,,,,1.83,0.90,1.60*18
$GPGSV,4,1,16,05,20,028,21,10,23,217,24,12,61,141,26,13,11,085,11*7C
$GPGSV,4,2,16,15,44,108,23,18,26,315,34,23,65,235,33,24,23,159,*75
$GPGSV,4,3,16,25,80,307,29,28,10,272,,29,23,003,14,36,52,277,35*7F
$GPGSV,4,4,16,40,86,351,31,41,58,082,,49,32,274,,50,10,089,*7B
$GLGSV,3,1,09,65,06,200,,70,08,045,,71,41,080,24,72,45,157,12*6E
$GLGSV,3,2,09,74,19,164,,75,60,210,26,76,36,308,37,86,08,352,*6F
$GLGSV,3,3,09,87,04,310,19*5D
$GNGLL,0419.72770,S,05539.81074,E,073749.00,A,A*6D
$GNRMC,073750.00,A,0419.72763,S,05539.81072,E,0.335,,220525,,,A*7F
$GNVTG,,T,,M,0.335,N,0.620,K,A*3C
$GNGGA,073750.00,0419.72763,S,05539.81072,E,1,12,0.90,31.6,M,-47.6,M,,*42
$GNGSA,A,3,25,12,23,15,18,05,29,10,,,,,1.83,0.90,1.60*1F
$GNGSA,A,3,75,71,72,76,,,,,,,,,1.83,0.90,1.60*18
$GPGSV,4,1,16,05,20,028,20,10,23,217,24,12,61,141,26,13,11,085,10*7C
$GPGSV,4,2,16,15,44,108,22,18,26,315,34,23,65,235,33,24,23,159,*74
$GPGSV,4,3,16,25,80,307,29,28,10,272,,29,23,003,15,36,52,277,35*7E
$GPGSV,4,4,16,40,86,351,32,41,58,082,,49,32,274,,50,10,089,*78
$GLGSV,3,1,09,65,06,200,,70,08,045,,71,41,080,26,72,45,157,16*68
$GLGSV,3,2,09,74,19,164,,75,60,210,26,76,36,308,37,86,08,352,*6F
$GLGSV,3,3,09,87,04,310,20*57
$GNGLL,0419.72763,S,05539.81072,E,073750.00,A,A*61
$GNRMC,073751.00,A,0419.72754,S,05539.81080,E,0.078,,220525,,,A*7D
$GNVTG,,T,,M,0.078,N,0.145,K,A*32
$GNGGA,073751.00,0419.72754,S,05539.81080,E,1,12,0.90,31.9,M,-47.6,M,,*45
$GNGSA,A,3,25,12,23,15,18,05,29,10,,,,,1.83,0.90,1.60*1F
$GNGSA,A,3,75,71,72,76,,,,,,,,,1.83,0.90,1.60*18
$GPGSV,4,1,16,05,20,028,20,10,23,217,25,12,61,141,25,13,11,085,10*7E
$GPGSV,4,2,16,15,44,108,22,18,26,315,34,23,65,235,33,24,23,159,*74
$GPGSV,4,3,16,25,80,307,29,28,10,272,,29,23,003,19,36,52,277,35*72
$GPGSV,4,4,16,40,86,351,32,41,58,082,,49,32,274,,50,10,089,*78
$GLGSV,3,1,09,65,06,200,,70,08,045,,71,41,080,27,72,45,157,15*6A
$GLGSV,3,2,09,74,19,164,,75,60,210,27,76,36,308,37,86,08,352,*6E
$GLGSV,3,3,09,87,04,310,21*56
$GNGLL,0419.72754,S,05539.81080,E,073751.00,A,A*69
$GNRMC,073752.00,A,0419.72742,S,05539.81086,E,0.098,,220525,,,A*71
$GNVTG,,T,,M,0.098,N,0.181,K,A*34
$GNGGA,073752.00,0419.72742,S,05539.81086,E,1,12,0.85,32.3,M,-47.6,M,,*4A
$GNGSA,A,3,25,12,23,15,18,05,29,10,13,,,,1.58,0.85,1.33*19
$GNGSA,A,3,75,71,72,76,,,,,,,,,1.58,0.85,1.33*1C
$GPGSV,4,1,16,05,20,028,20,10,23,217,25,12,61,141,24,13,11,085,14*7B
$GPGSV,4,2,16,15,44,108,22,18,26,315,34,23,65,235,32,24,23,159,14*70
$GPGSV,4,3,16,25,80,307,29,28,10,272,,29,23,003,22,36,52,277,35*7A
$GPGSV,4,4,16,40,86,351,31,41,58,082,,49,32,274,,50,10,089,*7B
$GLGSV,3,1,09,65,06,200,,70,08,045,,71,41,080,27,72,45,157,16*69
$GLGSV,3,2,09,74,19,164,,75,60,210,27,76,36,308,37,86,08,352,*6E
$GLGSV,3,3,09,87,04,310,22*55
$GNGLL,0419.72742,S,05539.81086,E,073752.00,A,A*6B
$GNRMC,073753.00,A,0419.72735,S,05539.81086,E,0.034,,220525,,,A*76
$GNVTG,,T,,M,0.034,N,0.063,K,A*3F
$GNGGA,073753.00,0419.72735,S,05539.81086,E,1,12,0.88,32.5,M,-47.6,M,,*40
$GNGSA,A,3,25,12,23,15,18,05,29,10,13,,,,1.60,0.88,1.34*18
$GNGSA,A,3,75,71,72,76,,,,,,,,,1.60,0.88,1.34*1D
$GPGSV,4,1,16,05,20,028,20,10,23,217,24,12,61,141,21,13,11,085,15*7E
$GPGSV,4,2,16,15,44,108,21,18,26,315,33,23,65,235,33,24,23,159,16*77
$GPGSV,4,3,16,25,80,307,29,28,10,272,,29,23,003,23,36,52,277,35*7B
$GPGSV,4,4,16,40,86,351,30,41,58,082,,49,32,274,,50,10,089,*7A
$GLGSV,3,1,09,65,06,200,,70,08,045,,71,41,080,26,72,45,157,16*68
$GLGSV,3,2,09,74,19,164,,75,60,210,27,76,36,308,37,86,08,352,*6E
$GLGSV,3,3,09,87,04,310,22*55
$GNGLL,0419.72735,S,05539.81086,E,073753.00,A,A*6A
$GNRMC,073754.00,A,0419.72718,S,05539.81088,E,0.042,,220525,,,A*71
$GNVTG,,T,,M,0.042,N,0.078,K,A*34
$GNGGA,073754.00,0419.72718,S,05539.81088,E,1,12,0.93,33.0,M,-47.6,M,,*48
$GNGSA,A,3,25,12,23,15,18,05,29,10,13,,,,1.63,0.93,1.34*11
$GNGSA,A,3,75,71,76,,,,,,,,,,1.63,0.93,1.34*11
$GPGSV,4,1,16,05,20,028,19,10,23,217,25,12,61,141,22,13,11,085,15*76
$GPGSV,4,2,16,15,44,108,21,18,26,315,34,23,65,236,33,24,23,159,16*73
$GPGSV,4,3,16,25,80,307,29,28,10,272,,29,23,003,25,36,52,277,35*7D
$GPGSV,4,4,16,40,86,351,31,41,58,082,,49,32,274,,50,10,089,*7B
$GLGSV,3,1,09,65,06,200,,70,08,045,,71,41,080,24,72,45,157,*6D
$GLGSV,3,2,09,74,19,164,,75,60,210,26,76,36,308,37,86,08,352,*6F
$GLGSV,3,3,09,87,04,310,22*55
$GNGLL,0419.72718,S,05539.81088,E,073754.00,A,A*6C
$GNRMC,073755.00,A,0419.72706,S,05539.81090,E,0.042,,220525,,,A*76
$GNVTG,,T,,M,0.042,N,0.077,K,A*3B
$GNGGA,073755.00,0419.72706,S,05539.81090,E,1,12,0.93,33.3,M,-47.6,M,,*4C
$GNGSA,A,3,25,12,23,15,18,05,29,10,13,,,,1.63,0.93,1.34*11
$GNGSA,A,3,75,71,76,,,,,,,,,,1.63,0.93,1.34*11
$GPGSV,4,1,16,05,20,028,16,10,23,217,24,12,61,141,23,13,11,085,15*79
$GPGSV,4,2,16,15,44,108,20,18,26,315,35,23,65,236,33,24,23,159,15*70
$GPGSV,4,3,16,25,80,307,29,28,10,272,,29,23,003,25,36,52,277,35*7D
$GPGSV,4,4,16,40,86,351,31,41,58,082,,49,32,274,,50,10,089,*7B
$GLGSV,3,1,09,65,06,200,,70,08,045,,71,41,080,23,72,45,157,*6A
$GLGSV,3,2,09,74,19,164,,75,60,210,27,76,36,308,37,86,08,352,*6E
$GLGSV,3,3,09,87,04,310,22*55
$GNGLL,0419.72706,S,05539.81090,E,073755.00,A,A*6B
$GNRMC,073756.00,A,0419.72700,S,05539.81097,E,0.141,,220525,,,A*76
$GNVTG,,T,,M,0.141,N,0.261,K,A*3C
$GNGGA,073756.00,0419.72700,S,05539.81097,E,1,12,0.84,33.5,M,-47.6,M,,*4E
$GNGSA,A,3,25,12,23,15,18,05,29,10,13,,,,1.57,0.84,1.33*17
$GNGSA,A,3,75,71,76,,,,,,,,,,1.57,0.84,1.33*17
$GPGSV,4,1,16,05,20,028,15,10,23,217,24,12,61,141,23,13,11,085,16*79
$GPGSV,4,2,16,15,44,108,20,18,26,315,35,23,65,236,33,24,23,159,13*76
$GPGSV,4,3,16,25,81,304,29,28,10,272,,29,23,003,24,36,52,277,35*7E
$GPGSV,4,4,16,40,86,351,31,41,58,082,,49,32,274,,50,10,089,*7B
$GLGSV,3,1,09,65,06,200,,70,08,045,,71,41,080,22,72,45,157,19*63
$GLGSV,3,2,09,74,19,164,,75,60,210,27,76,36,308,37,86,08,352,*6E
$GLGSV,3,3,09,87,04,310,20*57
$GNGLL,0419.72700,S,05539.81097,E,073756.00,A,A*69
$GNRMC,073757.00,A,0419.72690,S,05539.81087,E,0.263,,220525,,,A*7D
$GNVTG,,T,,M,0.263,N,0.487,K,A*31
$GNGGA,073757.00,0419.72690,S,05539.81087,E,1,12,0.84,34.2,M,-47.6,M,,*46
$GNGSA,A,3,25,12,23,15,18,05,29,10,13,,,,1.57,0.84,1.33*17
$GNGSA,A,3,75,71,76,,,,,,,,,,1.57,0.84,1.33*17
$GPGSV,4,1,16,05,20,028,15,10,23,217,25,12,61,141,23,13,11,085,15*7B
$GPGSV,4,2,16,15,44,108,20,18,26,315,35,23,65,236,32,24,23,159,15*71
$GPGSV,4,3,16,25,81,304,28,28,10,272,,29,23,003,24,36,52,277,34*7E
$GPGSV,4,4,16,40,86,351,31,41,58,082,,49,32,274,,50,10,089,*7B
$GLGSV,3,1,09,65,06,200,,70,08,045,,71,41,080,20,72,45,157,19*61
$GLGSV,3,2,09,74,19,164,,75,60,210,26,76,36,308,37,86,08,352,*6F
$GLGSV,3,3,09,87,04,310,20*57
$GNGLL,0419.72690,S,05539.81087,E,073757.00,A,A*61
$GNRMC,073758.00,A,0419.72681,S,05539.81098,E,0.192,,220525,,,A*71
$GNVTG,,T,,M,0.192,N,0.355,K,A*34
$GNGGA,073758.00,0419.72681,S,05539.81098,E,1,12,0.80,34.4,M,-47.6,M,,*45
$GNGSA,A,3,25,12,23,15,18,05,24,29,10,13,,,1.56,0.80,1.34*13
$GNGSA,A,3,75,71,76,,,,,,,,,,1.56,0.80,1.34*15
$GPGSV,4,1,16,05,20,028,16,10,23,217,25,12,61,141,24,13,11,085,14*7E
$GPGSV,4,2,16,15,44,108,19,18,26,315,35,23,65,236,32,24,23,159,16*78
$GPGSV,4,3,16,25,81,304,27,28,10,272,,29,23,003,22,36,52,277,34*77
$GPGSV,4,4,16,40,86,351,31,41,58,082,,49,32,274,,50,10,089,*7B
$GLGSV,3,1,09,65,06,200,,70,08,045,,71,41,080,20,72,45,157,17*6F
$GLGSV,3,2,09,74,19,164,,75,60,210,27,76,36,308,37,86,08,352,*6E
$GLGSV,3,3,09,87,04,310,19*5D
$GNGLL,0419.72681,S,05539.81098,E,073758.00,A,A*60
$GNRMC,073759.00,A,0419.72679,S,05539.81089,E,0.470,,220525,,,A*7E
$GNVTG,,T,,M,0.470,N,0.871,K,A*30
$GNGGA,073759.00,0419.72679,S,05539.81089,E,1,12,0.80,34.8,M,-47.6,M,,*4F
$GNGSA,A,3,25,12,23,15,18,05,24,29,10,13,,,1.56,0.80,1.34*13
$GNGSA,A,3,75,71,76,,,,,,,,,,1.56,0.80,1.34*15
$GPGSV,4,1,16,05,20,028,15,10,23,217,24,12,61,141,22,13,11,085,11*7F
$GPGSV,4,2,16,15,44,108,17,18,26,315,35,23,65,236,32,24,23,159,16*76
$GPGSV,4,3,16,25,81,304,28,28,10,272,,29,23,003,21,36,52,277,34*7B
$GPGSV,4,4,16,40,86,351,31,41,58,082,,49,32,274,,50,10,089,*7B
$GLGSV,3,1,09,65,06,200,,70,08,045,,71,41,080,21,72,45,157,15*6C
$GLGSV,3,2,09,74,19,164,,75,60,210,28,76,36,308,38,86,08,352,*6E
$GLGSV,3,3,09,87,04,310,19*5D
$GNGLL,0419.72679,S,05539.81089,E,073759.00,A,A*66
$GNRMC,073800.00,A,0419.72676,S,05539.81088,E,0.317,,220525,,,A*75
$GNVTG,,T,,M,0.317,N,0.587,K,A*32
$GNGGA,073800.00,0419.72676,S,05539.81088,E,1,12,0.84,35.1,M,-47.6,M,,*4E
$GNGSA,A,3,25,12,23,15,18,05,24,29,10,,,,1.61,0.84,1.37*12
$GNGSA,A,3,75,71,76,,,,,,,,,,1.61,0.84,1.37*16
$GPGSV,4,1,16,05,20,028,14,10,23,217,24,12,61,141,23,13,11,085,09*76
$GPGSV,4,2,16,15,44,108,15,18,26,315,36,23,65,236,32,24,23,159,15*74
$GPGSV,4,3,16,25,81,304,28,28,10,272,,29,23,004,21,36,52,277,35*7D
$GPGSV,4,4,16,40,86,351,30,41,58,082,,49,32,274,,50,10,089,*7A
$GLGSV,3,1,09,65,06,200,,70,08,045,,71,41,080,22,72,45,157,13*69
$GLGSV,3,2,09,74,19,164,,75,60,210,28,76,36,308,37,86,08,352,*61
$GLGSV,3,3,09,87,04,310,19*5D
$GNGLL,0419.72676,S,05539.81088,E,073800.00,A,A*6B
$GNRMC,073801.00,A,0419.72677,S,05539.81087,E,0.396,,220525,,,A*73
$GNVTG,,T,,M,0.396,N,0.733,K,A*36
$GNGGA,073801.00,0419.72677,S,05539.81087,E,1,12,0.84,35.2,M,-47.6,M,,*42
$GNGSA,A,3,25,12,23,15,18,05,24,29,10,,,,1.61,0.84,1.37*12
$GNGSA,A,3,75,71,76,,,,,,,,,,1.61,0.84,1.37*16
$GPGSV,4,1,16,05,20,028,12,10,23,217,25,12,61,141,22,13,11,085,08*71
$GPGSV,4,2,16,15,44,108,16,18,26,315,36,23,65,236,32,24,23,159,15*77
$GPGSV,4,3,16,25,81,304,29,28,10,272,,29,23,004,21,36,52,277,35*7C
$GPGSV,4,4,16,40,86,351,31,41,58,082,,49,32,274,,50,10,089,*7B
$GLGSV,3,1,09,65,06,200,,70,08,045,,71,41,080,23,72,45,157,09*63
$GLGSV,3,2,09,74,19,164,,75,60,210,28,76,36,308,37,86,08,352,*61
$GLGSV,3,3,09,87,04,310,19*5D
$GNGLL,0419.72677,S,05539.81087,E,073801.00,A,A*64
$GNRMC,073802.00,A,0419.72677,S,05539.81088,E,0.186,,220525,,,A*7C
$GNVTG,,T,,M,0.186,N,0.344,K,A*31
$GNGGA,073802.00,0419.72677,S,05539.81088,E,1,12,0.80,35.3,M,-47.6,M,,*4B
$GNGSA,A,3,25,12,23,15,18,05,24,29,10,,,,1.56,0.80,1.34*11
$GNGSA,A,3,75,71,76,,,,,,,,,,1.56,0.80,1.34*15
$GPGSV,4,1,16,05,20,028,13,10,23,217,25,12,61,141,22,13,11,085,08*70
$GPGSV,4,2,16,15,44,108,16,18,26,315,35,23,65,236,32,24,23,159,16*77
$GPGSV,4,3,16,25,81,304,29,28,10,272,,29,23,004,20,36,52,277,35*7D
$GPGSV,4,4,16,40,86,351,31,41,58,082,,49,32,274,,50,10,089,*7B
$GLGSV,3,1,09,65,06,200,,70,08,045,,71,41,080,23,72,45,157,08*62
$GLGSV,3,2,09,74,19,164,,75,60,210,28,76,36,308,37,86,08,352,*61
$GLGSV,3,3,09,87,04,310,18*5C
$GNGLL,0419.72677,S,05539.81088,E,073802.00,A,A*68
$GNRMC,073803.00,A,0419.72663,S,05539.81121,E,0.576,,220525,,,A*71
$GNVTG,,T,,M,0.576,N,1.066,K,A*38
$GNGGA,073803.00,0419.72663,S,05539.81121,E,1,12,0.84,35.2,M,-47.6,M,,*48
$GNGSA,A,3,25,12,23,15,18,05,24,29,10,,,,1.61,0.84,1.37*12
$GNGSA,A,3,75,71,76,,,,,,,,,,1.61,0.84,1.37*16
$GPGSV,4,1,16,05,20,028,17,10,23,217,26,12,61,141,20,13,11,085,08*75
$GPGSV,4,2,16,15,44,108,16,18,26,315,35,23,65,236,32,24,23,159,18*79
$GPGSV,4,3,16,25,81,304,29,28,10,272,,29,23,004,19,36,52,277,35*77
$GPGSV,4,4,16,40,86,351,30,41,58,082,,49,32,274,,50,10,089,*7A
$GLGSV,3,1,09,65,06,200,,70,08,045,,71,41,080,22,72,45,157,08*63
$GLGSV,3,2,09,74,19,164,,75,60,210,28,76,36,308,37,86,08,352,*61
$GLGSV,3,3,09,87,04,310,17*53
$GNGLL,0419.72663,S,05539.81121,E,073803.00,A,A*6E
$GNRMC,073804.00,A,0419.72657,S,05539.81129,E,0.096,,220525,,,A*72
$GNVTG,,T,,M,0.096,N,0.178,K,A*3C
$GNGGA,073804.00,0419.72657,S,05539.81129,E,1,12,0.84,35.1,M,-47.6,M,,*43
$GNGSA,A,3,25,12,23,15,18,05,24,29,10,,,,1.61,0.84,1.37*12
$GNGSA,A,3,75,71,76,,,,,,,,,,1.61,0.84,1.37*16
$GPGSV,4,1,16,05,20,028,19,10,23,217,26,12,61,141,17,13,11,085,08*7F
$GPGSV,4,2,16,15,44,108,17,18,26,315,35,23,65,236,31,24,23,159,20*70
$GPGSV,4,3,16,25,81,304,29,28,10,272,,29,23,004,18,36,52,277,35*76
$GPGSV,4,4,16,40,86,351,29,41,58,082,,49,32,274,,50,10,089,*72
$GLGSV,3,1,09,65,06,200,,70,08,045,,71,41,080,20,72,45,157,08*61
$GLGSV,3,2,09,74,19,164,,75,60,210,29,76,36,308,37,86,08,352,*60
$GLGSV,3,3,09,87,04,310,16*52
$GNGLL,0419.72657,S,05539.81129,E,073804.00,A,A*66
$GNRMC,073805.00,A,0419.72655,S,05539.81130,E,0.056,,220525,,,A*75
$GNVTG,,T,,M,0.056,N,0.104,K,A*3B
$GNGGA,073805.00,0419.72655,S,05539.81130,E,1,12,0.80,35.2,M,-47.6,M,,*4F
$GNGSA,A,3,25,12,23,15,18,05,24,29,10,,,,1.56,0.80,1.34*11
$GNGSA,A,3,75,71,76,,,,,,,,,,1.56,0.80,1.34*15
$GPGSV,4,1,16,05,20,028,19,10,23,217,25,12,61,141,15,13,11,085,08*7E
$GPGSV,4,2,16,15,44,108,19,18,26,315,35,23,65,236,31,24,23,159,20*7E
$GPGSV,4,3,16,25,81,304,29,28,10,272,,29,23,004,18,36,52,277,35*76
$GPGSV,4,4,16,40,86,351,29,41,58,082,,49,32,274,,50,10,089,*72
$GLGSV,3,1,09,65,06,200,,70,08,045,,71,41,080,20,72,45,157,08*61
$GLGSV,3,2,09,74,19,164,,75,60,210,29,76,36,308,37,86,08,352,*60
$GLGSV,3,3,09,87,04,310,16*52
$GNGLL,0419.72655,S,05539.81130,E,073805.00,A,A*6D
$GNRMC,073806.00,A,0419.72651,S,05539.81152,E,0.143,,220525,,,A*73
$GNVTG,,T,,M,0.143,N,0.264,K,A*3B
$GNGGA,073806.00,0419.72651,S,05539.81152,E,1,12,0.84,34.9,M,-47.6,M,,*42
$GNGSA,A,3,25,12,23,15,18,05,24,29,10,,,,1.61,0.84,1.37*12
$GNGSA,A,3,75,71,76,,,,,,,,,,1.61,0.84,1.37*16
$GPGSV,4,1,16,05,20,028,19,10,23,217,25,12,61,141,15,13,11,085,08*7E
$GPGSV,4,2,16,15,44,108,20,18,26,315,35,23,65,236,32,24,23,159,19*7D
$GPGSV,4,3,16,25,81,304,29,28,10,272,,29,23,004,18,36,52,277,34*77
$GPGSV,4,4,16,40,86,351,29,41,58,082,,49,32,274,,50,10,089,*72
$GLGSV,3,1,09,65,06,200,,70,08,045,,71,41,080,20,72,45,157,09*60
$GLGSV,3,2,09,74,19,164,,75,60,210,29,76,36,308,37,86,08,352,*60
$GLGSV,3,3,09,87,04,310,17*53
$GNGLL,0419.72651,S,05539.81152,E,073806.00,A,A*6E
$GNRMC,073807.00,A,0419.72645,S,05539.81187,E,0.553,,220525,,,A*7A
$GNVTG,,T,,M,0.553,N,1.025,K,A*38
$GNGGA,073807.00,0419.72645,S,05539.81187,E,1,12,0.84,34.4,M,-47.6,M,,*43
$GNGSA,A,3,25,12,23,15,18,05,24,29,10,,,,1.61,0.84,1.37*12
$GNGSA,A,3,75,71,72,76,,,,,,,,,1.61,0.84,1.37*13
$GPGSV,4,1,16,05,20,028,19,10,23,217,25,12,61,141,16,13,11,085,08*7D
$GPGSV,4,2,16,15,44,108,20,18,26,315,35,23,65,236,31,24,23,159,18*7F
$GPGSV,4,3,16,25,81,304,29,28,10,272,,29,23,004,20,36,52,277,35*7D
$GPGSV,4,4,16,40,86,351,29,41,58,082,,49,32,274,,50,10,089,*72
$GLGSV,3,1,09,65,06,200,,70,08,045,,71,41,080,20,72,45,157,11*69
$GLGSV,3,2,09,74,19,164,,75,60,210,29,76,36,308,36,86,08,352,*61
$GLGSV,3,3,09,87,04,310,14*50
$GNGLL,0419.72645,S,05539.81187,E,073807.00,A,A*62
$GNRMC,073808.00,A,0419.72640,S,05539.81194,E,0.311,,220525,,,A*72
$GNVTG,,T,,M,0.311,N,0.577,K,A*3B
$GNGGA,073808.00,0419.72640,S,05539.81194,E,1,12,0.80,34.5,M,-47.6,M,,*4E
$GNGSA,A,3,25,12,23,15,18,05,24,29,10,13,,,1.56,0.80,1.34*13
$GNGSA,A,3,75,71,72,76,,,,,,,,,1.56,0.80,1.34*10
$GPGSV,4,1,16,05,20,028,18,10,23,217,24,12,61,141,17,13,11,085,14*71
$GPGSV,4,2,16,15,44,108,18,18,26,315,35,23,65,236,31,24,23,159,19*75
$GPGSV,4,3,16,25,81,304,29,28,10,272,,29,23,004,21,36,52,277,35*7C
$GPGSV,4,4,16,40,86,351,30,41,58,082,,49,32,274,,50,10,089,*7A
$GLGSV,3,1,09,65,06,200,,70,08,045,,71,41,080,21,72,45,157,12*6B
$GLGSV,3,2,09,74,19,164,,75,60,210,29,76,36,308,36,86,08,352,*61
$GLGSV,3,3,09,87,04,310,13*57
$GNGLL,0419.72640,S,05539.81194,E,073808.00,A,A*6A
$GNRMC,073809.00,A,0419.72641,S,05539.81209,E,0.266,,220525,,,A*74
$GNVTG,,T,,M,0.266,N,0.492,K,A*30
$GNGGA,073809.00,0419.72641,S,05539.81209,E,1,12,0.80,34.4,M,-47.6,M,,*48
$GNGSA,A,3,25,12,23,15,18,05,24,29,10,13,,,1.56,0.80,1.34*13
$GNGSA,A,3,75,71,76,,,,,,,,,,1.56,0.80,1.34*15
$GPGSV,4,1,16,05,20,028,16,10,23,217,23,12,61,141,18,13,11,085,09*7B
$GPGSV,4,2,16,15,44,108,18,18,26,315,35,23,65,236,32,24,23,159,19*76
$GPGSV,4,3,16,25,81,304,29,28,10,272,,29,23,004,22,36,52,277,35*7F
$GPGSV,4,4,16,40,86,351,31,41,58,082,,49,32,274,,50,10,089,*7B
$GLGSV,3,1,09,65,06,200,,70,08,045,,71,41,080,20,72,45,157,09*60
$GLGSV,3,2,09,74,19,164,,75,59,210,28,76,36,308,36,86,08,352,*6A
$GLGSV,3,3,09,87,04,310,10*54
$GNGLL,0419.72641,S,05539.81209,E,073809.00,A,A*6D
$GNRMC,073810.00,A,0419.72645,S,05539.81213,E,0.071,,220525,,,A*77
$GNVTG,,T,,M,0.071,N,0.132,K,A*3B
$GNGGA,073810.00,0419.72645,S,05539.81213,E,1,12,0.76,34.3,M,-47.6,M,,*41
$GNGSA,A,3,25,12,23,15,18,05,24,29,10,13,,,1.43,0.76,1.21*1A
$GNGSA,A,3,75,71,76,,,,,,,,,,1.43,0.76,1.21*1C
$GPGSV,4,1,16,05,20,028,16,10,23,217,24,12,61,141,19,13,11,085,11*74
$GPGSV,4,2,16,15,44,108,18,18,26,315,35,23,65,236,28,24,23,159,19*7D
$GPGSV,4,3,16,25,81,304,28,28,10,272,,29,23,004,21,36,52,277,35*7D
$GPGSV,4,4,16,40,86,351,31,41,58,082,,49,32,274,,50,10,089,*7B
$GLGSV,3,1,09,65,06,200,,70,08,045,,71,41,080,21,72,45,157,08*60
$GLGSV,3,2,09,74,19,164,,75,59,210,29,76,36,308,37,86,08,352,*6A
$GLGSV,3,3,09,87,04,310,08*5D
$GNGLL,0419.72645,S,05539.81213,E,073810.00,A,A*6A
$GNRMC,073811.00,A,0419.72645,S,05539.81216,E,0.078,,220525,,,A*7A
$GNVTG,,T,,M,0.078,N,0.145,K,A*32
$GNGGA,073811.00,0419.72645,S,05539.81216,E,1,12,0.80,34.4,M,-47.6,M,,*4B
$GNGSA,A,3,25,12,23,15,18,05,24,29,10,13,,,1.56,0.80,1.34*13
$GNGSA,A,3,75,71,76,,,,,,,,,,1.56,0.80,1.34*15
$GPGSV,4,1,16,05,20,028,18,10,23,217,23,12,61,141,20,13,11,085,11*77
$GPGSV,4,2,16,15,44,108,18,18,26,315,35,23,65,236,29,24,23,159,19*7C
$GPGSV,4,3,16,25,81,304,28,28,10,272,,29,23,004,20,36,52,277,34*7D
$GPGSV,4,4,16,40,86,351,30,41,58,082,,49,32,274,,50,10,089,*7A
$GLGSV,3,1,09,65,06,200,,70,08,045,,71,41,080,22,72,45,157,08*63
$GLGSV,3,2,09,74,19,164,,75,59,210,29,76,36,308,36,86,08,352,*6B
$GLGSV,3,3,09,87,04,310,*55
$GNGLL,0419.72645,S,05539.81216,E,073811.00,A,A*6E
$GNRMC,073812.00,A,0419.72641,S,05539.81224,E,0.154,,220525,,,A*73
$GNVTG,,T,,M,0.154,N,0.285,K,A*32
$GNGGA,073812.00,0419.72641,S,05539.81224,E,1,12,0.80,34.5,M,-47.6,M,,*4C
$GNGSA,A,3,25,12,23,15,18,05,24,29,10,13,,,1.56,0.80,1.34*13
$GNGSA,A,3,75,71,76,,,,,,,,,,1.56,0.80,1.34*15
$GPGSV,4,1,16,05,20,028,18,10,23,217,23,12,61,141,21,13,11,085,11*76
$GPGSV,4,2,16,15,44,108,18,18,26,315,35,23,65,236,30,24,23,159,18*75
$GPGSV,4,3,16,25,81,304,27,28,10,272,,29,23,004,21,36,52,277,34*73
$GPGSV,4,4,16,40,86,351,31,41,58,082,,49,32,274,,50,10,089,*7B
$GLGSV,3,1,09,65,06,200,,70,08,045,,71,41,080,23,72,45,157,07*6D
$GLGSV,3,2,09,74,19,164,,75,59,210,30,76,36,308,36,86,08,352,*63
$GLGSV,3,3,09,87,04,310,*55
$GNGLL,0419.72641,S,05539.81224,E,073812.00,A,A*68
$GNRMC,073813.00,A,0419.72638,S,05539.81228,E,0.263,,220525,,,A*77
$GNVTG,,T,,M,0.263,N,0.488,K,A*3E
$GNGGA,073813.00,0419.72638,S,05539.81228,E,1,12,0.80,34.8,M,-47.6,M,,*42
$GNGSA,A,3,25,12,23,15,18,05,24,29,10,13,,,1.56,0.80,1.34*13
$GNGSA,A,3,75,71,76,,,,,,,,,,1.56,0.80,1.34*15
$GPGSV,4,1,16,05,20,028,18,10,23,217,22,12,61,141,20,13,11,085,11*76
$GPGSV,4,2,16,15,44,108,15,18,26,315,35,23,65,236,30,24,23,159,19*79
$GPGSV,4,3,16,25,81,304,27,28,10,272,,29,23,004,23,36,52,277,34*71
$GPGSV,4,4,16,40,86,351,31,41,58,082,,49,32,274,,50,10,089,*7B
$GLGSV,3,1,09,65,06,200,,70,08,045,,71,41,080,24,72,45,157,08*65
$GLGSV,3,2,09,74,19,164,,75,59,210,30,76,36,308,37,86,08,352,*62
$GLGSV,3,3,09,87,04,310,*55
$GNGLL,0419.72638,S,05539.81228,E,073813.00,A,A*6B
$GNRMC,073814.00,A,0419.72629,S,05539.81213,E,0.149,,220525,,,A*73
$GNVTG,,T,,M,0.149,N,0.276,K,A*32
$GNGGA,073814.00,0419.72629,S,05539.81213,E,1,12,0.80,35.3,M,-47.6,M,,*47
$GNGSA,A,3,25,12,23,15,18,05,24,29,10,13,,,1.56,0.80,1.34*13
$GNGSA,A,3,75,71,76,,,,,,,,,,1.56,0.80,1.34*15
$GPGSV,4,1,16,05,20,028,20,10,23,217,21,12,61,141,20,13,11,085,11*7E
$GPGSV,4,2,16,15,44,108,12,18,26,315,35,23,65,236,30,24,23,159,19*7E
$GPGSV,4,3,16,25,81,304,28,28,10,272,,29,23,004,24,36,52,277,34*79
$GPGSV,4,4,16,40,86,351,31,41,58,082,,49,32,274,,50,10,089,*7B
$GLGSV,3,1,09,65,06,200,,70,08,045,,71,41,080,24,72,45,157,08*65
$GLGSV,3,2,09,74,19,164,,75,59,210,30,76,36,308,37,86,08,352,*62
$GLGSV,3,3,09,87,04,310,*55
$GNGLL,0419.72629,S,05539.81213,E,073814.00,A,A*64
$GNRMC,073815.00,A,0419.72627,S,05539.81224,E,0.324,,220525,,,A*71
$GNVTG,,T,,M,0.324,N,0.600,K,A*3E
$GNGGA,073815.00,0419.72627,S,05539.81224,E,1,12,0.80,35.2,M,-47.6,M,,*4D
$GNGSA,A,3,25,12,23,15,18,05,24,29,10,13,,,1.56,0.80,1.34*13
$GNGSA,A,3,75,71,76,,,,,,,,,,1.56,0.80,1.34*15
$GPGSV,4,1,16,05,20,028,20,10,23,217,20,12,61,141,20,13,11,085,11*7F
$GPGSV,4,2,16,15,44,108,10,18,26,315,36,23,65,236,30,24,23,159,18*7E
$GPGSV,4,3,16,25,81,304,28,28,10,272,,29,23,004,22,36,52,277,34*7F
$GPGSV,4,4,16,40,86,351,31,41,58,082,,49,32,274,,50,10,089,*7B
$GLGSV,3,1,09,65,06,200,,70,08,044,,71,41,080,24,72,45,157,08*64
$GLGSV,3,2,09,74,19,164,,75,59,210,29,76,36,308,37,86,08,352,*6A
$GLGSV,3,3,09,87,04,310,*55
$GNGLL,0419.72627,S,05539.81224,E,073815.00,A,A*6F
$GNRMC,073816.00,A,0419.72622,S,05539.81228,E,0.200,,220525,,,A*7C
$GNVTG,,T,,M,0.200,N,0.370,K,A*3B
$GNGGA,073816.00,0419.72622,S,05539.81228,E,1,12,0.76,35.5,M,-47.6,M,,*49
$GNGSA,A,3,25,12,23,15,18,05,24,29,10,13,,,1.43,0.76,1.21*1A
$GNGSA,A,3,75,71,76,,,,,,,,,,1.43,0.76,1.21*1C
$GPGSV,4,1,16,05,20,028,22,10,23,217,21,12,61,141,21,13,11,085,11*7D
$GPGSV,4,2,16,15,44,108,14,18,26,315,35,23,65,236,30,24,23,159,19*78
$GPGSV,4,3,16,25,81,304,28,28,10,272,,29,23,004,20,36,52,277,34*7D
$GPGSV,4,4,16,40,86,351,31,41,58,082,,49,32,274,,50,10,089,*7B
$GLGSV,3,1,09,65,06,200,,70,08,044,,71,41,080,24,72,45,157,08*64
$GLGSV,3,2,09,74,19,164,,75,59,210,30,76,36,308,37,86,08,352,*62
$GLGSV,3,3,09,87,04,310,*55
$GNGLL,0419.72622,S,05539.81228,E,073816.00,A,A*65
$GNRMC,073817.00,A,0419.72625,S,05539.81228,E,0.155,,220525,,,A*79
$GNVTG,,T,,M,0.155,N,0.288,K,A*3E
$GNGGA,073817.00,0419.72625,S,05539.81228,E,1,12,0.80,35.4,M,-47.6,M,,*47
$GNGSA,A,3,25,12,23,15,18,05,24,29,10,13,,,1.56,0.80,1.34*13
$GNGSA,A,3,75,71,76,,,,,,,,,,1.56,0.80,1.34*15
$GPGSV,4,1,16,05,20,028,22,10,23,217,21,12,61,141,23,13,11,085,11*7F
$GPGSV,4,2,16,15,44,108,15,18,26,315,35,23,65,236,30,24,23,159,20*73
$GPGSV,4,3,16,25,81,304,29,28,10,272,,29,23,004,19,36,52,277,34*76
$GPGSV,4,4,16,40,86,351,30,41,58,082,,49,32,274,,50,10,089,*7A
$GLGSV,3,1,09,65,06,200,,70,08,044,,71,41,080,25,72,45,157,07*6A
$GLGSV,3,2,09,74,19,164,,75,59,210,30,76,36,308,37,86,08,352,*62
$GLGSV,3,3,09,87,04,310,*55
$GNGLL,0419.72625,S,05539.81228,E,073817.00,A,A*63
$GNRMC,073818.00,A,0419.72624,S,05539.81231,E,0.246,,220525,,,A*7E
$GNVTG,,T,,M,0.246,N,0.455,K,A*39
$GNGGA,073818.00,0419.72624,S,05539.81231,E,1,12,0.84,35.5,M,-47.6,M,,*44
$GNGSA,A,3,25,12,23,15,18,05,24,29,10,13,,,1.61,0.84,1.37*10
$GNGSA,A,3,75,71,76,,,,,,,,,,1.61,0.84,1.37*16
$GPGSV,4,1,16,05,20,028,23,10,23,217,21,12,61,141,25,13,11,085,11*78
$GPGSV,4,2,16,15,44,108,17,18,26,315,35,23,65,236,29,24,23,159,20*79
$GPGSV,4,3,16,25,81,304,29,28,10,272,,29,23,004,20,36,52,277,34*7C
$GPGSV,4,4,16,40,86,351,30,41,58,082,,49,32,274,,50,10,089,*7A
$GLGSV,3,1,09,65,06,200,,70,08,044,,71,41,080,25,72,45,157,07*6A
$GLGSV,3,2,09,74,19,164,,75,59,210,30,76,36,308,37,86,08,352,*62
$GLGSV,3,3,09,87,04,310,*55
$GNGLL,0419.72624,S,05539.81231,E,073818.00,A,A*65
$GNRMC,073819.00,A,0419.72625,S,05539.81250,E,0.206,,220525,,,A*7D
$GNVTG,,T,,M,0.206,N,0.382,K,A*30
$GNGGA,073819.00,0419.72625,S,05539.81250,E,1,12,0.80,35.0,M,-47.6,M,,*42
$GNGSA,A,3,25,12,23,15,18,05,24,29,10,13,,,1.46,0.80,1.22*15
$GNGSA,A,3,75,71,76,,,,,,,,,,1.46,0.80,1.22*13
$GPGSV,4,1,16,05,20,028,22,10,23,217,20,12,61,141,25,13,11,085,11*78
$GPGSV,4,2,16,15,44,108,10,18,26,315,35,23,65,236,29,24,23,159,19*74
$GPGSV,4,3,16,25,81,304,28,28,10,272,,29,23,004,19,36,52,277,34*77
