$GNRMC,035729.00,A,0419.72647,S,05539.92718,E,0.053,,030625,,,A*7E
$GNVTG,,T,,M,0.053,N,0.098,K,A*3A
$GNGGA,035729.00,0419.72647,S,05539.92718,E,1,12,0.56,9.4,M,-47.6,M,,*73
$GNGSA,A,3,24,05,20,11,15,12,13,22,18,29,25,,1.07,0.56,0.91*10
$GNGSA,A,3,78,77,81,82,66,88,67,79,,,,,1.07,0.56,0.91*12
$GPGSV,5,1,17,05,56,138,32,11,27,020,15,12,28,358,27,13,21,161,31*72
$GPGSV,5,2,17,14,05,125,30,15,27,196,22,18,19,227,36,20,49,076,38*74
$GPGSV,5,3,17,22,18,110,33,24,63,254,31,25,06,333,27,29,10,295,38*7A
$GPGSV,5,4,17,36,52,277,36,40,86,350,36,41,58,082,,49,32,274,*7D
$GPGSV,5,5,17,50,10,089,39*40
$GLGSV,3,1,10,66,13,130,30,67,15,184,30,76,05,148,17,77,46,126,22*66
$GLGSV,3,2,10,78,55,014,26,79,10,343,32,81,37,325,39,82,34,263,41*6D
$GLGSV,3,3,10,83,03,223,,88,07,011,35*6E
$GNGLL,0419.72647,S,05539.92718,E,035729.00,A,A*63
$GNRMC,035730.00,A,0419.72647,S,05539.92717,E,0.035,,030625,,,A*79
$GNVTG,,T,,M,0.035,N,0.065,K,A*38
$GNGGA,035730.00,0419.72647,S,05539.92717,E,1,12,0.54,9.4,M,-47.6,M,,*76
$GNGSA,A,3,24,05,20,11,15,12,13,22,18,29,25,,1.04,0.54,0.89*18
$GNGSA,A,3,78,77,81,82,66,88,67,79,,,,,1.04,0.54,0.89*1A
$GPGSV,5,1,17,05,56,138,25,11,27,020,15,12,28,358,26,13,21,160,26*72
$GPGSV,5,2,17,14,05,125,24,15,27,196,19,18,19,227,35,20,49,076,35*77
$GPGSV,5,3,17,22,18,110,29,24,63,254,23,25,06,333,26,29,10,295,32*79
$GPGSV,5,4,17,36,52,277,29,40,86,350,32,41,58,082,,49,32,274,*77
$GPGSV,5,5,17,50,10,089,34*4D
$GLGSV,3,1,10,66,13,130,21,67,15,184,28,76,05,148,16,77,46,126,21*6D
$GLGSV,3,2,10,78,55,014,25,79,10,343,26,81,37,325,34,82,34,263,38*68
$GLGSV,3,3,10,83,03,223,,88,07,011,32*69
$GNGLL,0419.72647,S,05539.92717,E,035730.00,A,A*64
$GNRMC,035731.00,A,0419.72645,S,05539.92717,E,0.034,,030625,,,A*7B
$GNVTG,,T,,M,0.034,N,0.064,K,A*38
$GNGGA,035731.00,0419.72645,S,05539.92717,E,1,12,0.54,9.4,M,-47.6,M,,*75
$GNGSA,A,3,24,05,20,11,15,12,13,22,18,29,25,,1.04,0.54,0.89*18
$GNGSA,A,3,78,77,81,82,66,88,67,79,,,,,1.04,0.54,0.89*1A
$GPGSV,5,1,17,05,56,138,32,11,27,020,11,12,28,358,25,13,21,160,31*75
$GPGSV,5,2,17,14,05,126,26,15,27,196,18,18,19,227,39,20,49,076,39*77
$GPGSV,5,3,17,22,18,110,35,24,63,254,25,25,06,333,26,29,10,295,38*78
$GPGSV,5,4,17,36,52,277,34,40,86,350,38,41,58,082,,49,32,274,*71
$GPGSV,5,5,17,50,10,089,40*4E
$GLGSV,3,1,10,66,13,130,21,67,15,184,28,76,05,148,12,77,46,126,19*62
$GLGSV,3,2,10,78,55,014,23,79,10,343,27,81,37,325,34,82,34,263,38*6F
$GLGSV,3,3,10,83,03,223,,88,07,011,34*6F
$GNGLL,0419.72645,S,05539.92717,E,035731.00,A,A*67
$GNRMC,035732.00,A,0419.72644,S,05539.92717,E,0.003,,030625,,,A*7D
$GNVTG,,T,,M,0.003,N,0.006,K,A*38
$GNGGA,035732.00,0419.72644,S,05539.92717,E,1,12,0.54,9.4,M,-47.6,M,,*77
$GNGSA,A,3,24,05,20,11,15,12,13,22,18,29,25,,1.04,0.54,0.89*18
$GNGSA,A,3,78,77,81,82,66,88,67,79,,,,,1.04,0.54,0.89*1A
$GPGSV,5,1,17,05,56,138,31,11,27,020,17,12,28,358,27,13,21,160,31*72
$GPGSV,5,2,17,14,05,126,31,15,27,195,14,18,19,227,37,20,49,076,39*70
$GPGSV,5,3,17,22,18,110,34,24,63,254,30,25,06,333,27,29,10,295,36*72
$GPGSV,5,4,17,36,52,277,34,40,86,350,36,41,58,082,,49,32,274,*7F
$GPGSV,5,5,17,50,10,089,39*40
$GLGSV,3,1,10,66,13,130,22,67,15,184,29,76,05,148,12,77,46,126,20*6A
$GLGSV,3,2,10,78,55,014,25,79,10,343,32,81,37,325,38,82,34,263,42*6C
$GLGSV,3,3,10,83,03,223,,88,07,011,39*62
$GNGLL,0419.72644,S,05539.92717,E,035732.00,A,A*65
$GNRMC,035733.00,A,0419.72644,S,05539.92717,E,0.048,,030625,,,A*73
$GNVTG,,T,,M,0.048,N,0.088,K,A*31
$GNGGA,035733.00,0419.72644,S,05539.92717,E,1,12,0.54,9.5,M,-47.6,M,,*77
$GNGSA,A,3,24,05,20,11,15,12,13,22,18,29,25,,1.04,0.54,0.89*18
$GNGSA,A,3,78,77,81,82,66,88,67,79,,,,,1.04,0.54,0.89*1A
$GPGSV,5,1,17,05,56,138,31,11,27,020,17,12,28,358,28,13,21,160,31*7D
$GPGSV,5,2,17,14,05,126,30,15,27,195,12,18,19,227,38,20,49,076,39*78
$GPGSV,5,3,17,22,18,110,35,24,63,254,30,25,06,333,28,29,10,295,36*7C
$GPGSV,5,4,17,36,52,277,34,40,86,350,36,41,58,082,,49,32,274,*7F
$GPGSV,5,5,17,50,10,089,39*40
$GLGSV,3,1,10,66,13,130,24,67,15,184,31,76,05,148,16,77,46,126,23*62
$GLGSV,3,2,10,78,55,014,27,79,10,343,32,81,37,325,39,82,34,263,42*6F
$GLGSV,3,3,10,83,03,223,,88,07,011,38*63
$GNGLL,0419.72644,S,05539.92717,E,035733.00,A,A*64
$GNRMC,035734.00,A,0419.72644,S,05539.92718,E,0.008,,030625,,,A*7F
$GNVTG,,T,,M,0.008,N,0.014,K,A*30
$GNGGA,035734.00,0419.72644,S,05539.92718,E,1,12,0.54,9.5,M,-47.6,M,,*7F
$GNGSA,A,3,24,05,20,11,15,12,13,22,18,29,25,,1.04,0.54,0.89*18
$GNGSA,A,3,78,77,81,82,66,88,67,79,,,,,1.04,0.54,0.89*1A
$GPGSV,5,1,17,05,56,138,31,11,27,020,17,12,28,358,28,13,21,160,31*7D
$GPGSV,5,2,17,14,05,126,31,15,27,195,11,18,19,227,38,20,49,076,39*7A
$GPGSV,5,3,17,22,18,110,35,24,63,254,30,25,06,333,28,29,10,295,37*7D
$GPGSV,5,4,17,36,52,277,34,40,86,350,36,41,58,082,,49,32,274,*7F
$GPGSV,5,5,17,50,10,089,40*4E
$GLGSV,3,1,10,66,13,130,25,67,15,184,31,76,05,148,16,77,46,126,23*63
$GLGSV,3,2,10,78,55,014,27,79,10,343,32,81,37,325,39,82,34,263,42*6F
$GLGSV,3,3,10,83,03,223,,88,07,011,40*6C
$GNGLL,0419.72644,S,05539.92718,E,035734.00,A,A*6C
$GNRMC,035735.00,A,0419.72644,S,05539.92719,E,0.032,,030625,,,A*76
$GNVTG,,T,,M,0.032,N,0.060,K,A*3A
$GNGGA,035735.00,0419.72644,S,05539.92719,E,1,12,0.56,9.6,M,-47.6,M,,*7E
$GNGSA,A,3,24,05,20,15,12,13,22,18,29,25,,,1.05,0.56,0.89*1B
$GNGSA,A,3,78,77,81,82,66,88,67,79,,,,,1.05,0.56,0.89*19
$GPGSV,5,1,17,05,56,138,31,11,27,020,17,12,28,358,28,13,21,160,31*7D
$GPGSV,5,2,17,14,05,126,31,15,27,195,16,18,19,228,38,20,49,076,40*7C
$GPGSV,5,3,17,22,18,110,35,24,63,254,30,25,06,333,28,29,10,295,37*7D
$GPGSV,5,4,17,36,52,277,35,40,86,350,37,41,58,082,,49,32,274,*7F
$GPGSV,5,5,17,50,10,089,40*4E
$GLGSV,3,1,10,66,13,130,24,67,15,184,30,76,05,148,18,77,46,126,23*6D
$GLGSV,3,2,10,78,55,014,26,79,10,343,32,81,37,325,39,82,34,263,42*6E
$GLGSV,3,3,10,83,03,223,,88,07,011,38*63
$GNGLL,0419.72644,S,05539.92719,E,035735.00,A,A*6C
$GNRMC,035736.00,A,0419.72644,S,05539.92720,E,0.028,,030625,,,A*74
$GNVTG,,T,,M,0.028,N,0.052,K,A*30
$GNGGA,035736.00,0419.72644,S,05539.92720,E,1,12,0.56,9.6,M,-47.6,M,,*77
$GNGSA,A,3,24,05,20,15,12,13,22,18,29,25,,,1.05,0.56,0.89*1B
$GNGSA,A,3,78,77,81,82,66,88,67,79,,,,,1.05,0.56,0.89*19
$GPGSV,5,1,17,05,56,138,31,11,27,020,17,12,28,358,29,13,21,160,32*7F
$GPGSV,5,2,17,14,05,126,32,15,27,195,16,18,19,228,39,20,49,076,40*7E
$GPGSV,5,3,17,22,18,110,35,24,63,254,31,25,06,333,28,29,10,295,37*7C
$GPGSV,5,4,17,36,52,277,35,40,86,350,38,41,58,082,,49,32,274,*70
$GPGSV,5,5,17,50,10,089,40*4E
$GLGSV,3,1,10,66,13,130,25,67,15,184,30,76,05,148,17,77,46,126,24*64
$GLGSV,3,2,10,78,55,014,26,79,10,343,32,81,37,325,39,82,34,263,43*6F
$GLGSV,3,3,10,83,03,223,,88,07,011,39*62
$GNGLL,0419.72644,S,05539.92720,E,035736.00,A,A*65
$GNRMC,035737.00,A,0419.72643,S,05539.92722,E,0.025,,030625,,,A*7D
$GNVTG,,T,,M,0.025,N,0.046,K,A*38
$GNGGA,035737.00,0419.72643,S,05539.92722,E,1,12,0.56,9.7,M,-47.6,M,,*72
$GNGSA,A,3,24,05,20,15,12,13,22,18,29,25,,,1.05,0.56,0.89*1B
$GNGSA,A,3,78,77,81,82,66,88,67,79,,,,,1.05,0.56,0.89*19
$GPGSV,5,1,17,05,56,138,31,11,27,020,11,12,28,358,28,13,21,160,31*7B
$GPGSV,5,2,17,14,05,126,31,15,27,195,15,18,19,228,37,20,49,075,40*73
$GPGSV,5,3,17,22,18,110,35,24,63,254,31,25,06,333,28,29,10,295,36*7D
$GPGSV,5,4,17,36,52,277,35,40,86,350,36,41,58,082,,49,32,274,*7E
$GPGSV,5,5,17,50,10,089,39*40
$GLGSV,3,1,10,66,13,130,25,67,15,184,30,76,05,148,18,77,46,126,24*6B
$GLGSV,3,2,10,78,55,014,26,79,10,343,32,81,37,325,39,82,34,263,43*6F
$GLGSV,3,3,10,83,03,223,,88,07,011,38*63
$GNGLL,0419.72643,S,05539.92722,E,035737.00,A,A*61
$GNRMC,035738.00,A,0419.72643,S,05539.92723,E,0.031,,030625,,,A*76
$GNVTG,,T,,M,0.031,N,0.058,K,A*32
$GNGGA,035738.00,0419.72643,S,05539.92723,E,1,12,0.54,9.7,M,-47.6,M,,*7E
$GNGSA,A,3,24,05,20,11,15,12,13,22,18,29,25,,1.04,0.54,0.89*18
$GNGSA,A,3,78,77,81,82,66,88,67,79,,,,,1.04,0.54,0.89*1A
$GPGSV,5,1,17,05,56,138,30,11,27,020,12,12,28,358,29,13,21,160,32*7B
$GPGSV,5,2,17,14,05,126,31,15,27,195,17,18,19,228,37,20,49,075,40*71
$GPGSV,5,3,17,22,18,111,34,24,63,254,30,25,06,333,28,29,10,295,38*72
$GPGSV,5,4,17,36,52,277,34,40,86,350,37,41,58,082,,49,32,274,*7E
$GPGSV,5,5,17,50,10,089,39*40
$GLGSV,3,1,10,66,13,130,27,67,15,184,29,76,05,148,16,77,46,126,23*68
$GLGSV,3,2,10,78,55,014,26,79,10,343,33,81,37,325,39,82,34,263,41*6C
$GLGSV,3,3,10,83,03,223,,88,07,011,38*63
$GNGLL,0419.72643,S,05539.92723,E,035738.00,A,A*6F
$GNRMC,035739.00,A,0419.72643,S,05539.92724,E,0.037,,030625,,,A*76
$GNVTG,,T,,M,0.037,N,0.068,K,A*37
$GNGGA,035739.00,0419.72643,S,05539.92724,E,1,12,0.54,9.7,M,-47.6,M,,*78
$GNGSA,A,3,24,05,20,11,15,12,13,22,18,29,25,,1.04,0.54,0.89*18
$GNGSA,A,3,78,77,81,82,66,88,67,79,,,,,1.04,0.54,0.89*1A
$GPGSV,5,1,17,05,56,138,29,11,27,020,12,12,28,358,28,13,21,160,32*72
$GPGSV,5,2,17,14,05,126,31,15,27,195,22,18,19,228,37,20,49,075,40*77
$GPGSV,5,3,17,22,18,111,34,24,63,254,33,25,06,333,29,29,10,295,37*7F
$GPGSV,5,4,17,36,52,277,36,40,86,350,36,41,58,082,,49,32,274,*7D
$GPGSV,5,5,17,50,10,089,39*40
$GLGSV,3,1,10,66,13,130,28,67,15,184,27,76,05,148,15,77,46,126,23*6A
$GLGSV,3,2,10,78,55,014,27,79,10,343,33,81,37,325,39,82,34,263,41*6D
$GLGSV,3,3,10,83,03,223,,88,07,011,38*63
$GNGLL,0419.72643,S,05539.92724,E,035739.00,A,A*69
$GNRMC,035740.00,A,0419.72642,S,05539.92724,E,0.014,,030625,,,A*78
$GNVTG,,T,,M,0.014,N,0.025,K,A*3F
$GNGGA,035740.00,0419.72642,S,05539.92724,E,1,12,0.54,9.8,M,-47.6,M,,*78
$GNGSA,A,3,24,05,20,11,15,12,13,22,18,29,25,,1.04,0.54,0.89*18
$GNGSA,A,3,78,77,81,82,66,88,67,79,,,,,1.04,0.54,0.89*1A
$GPGSV,5,1,17,05,56,138,30,11,27,020,12,12,28,358,32,13,21,160,33*70
$GPGSV,5,2,17,14,05,126,30,15,27,195,26,18,19,228,37,20,49,075,40*72
$GPGSV,5,3,17,22,18,111,34,24,63,253,32,25,06,333,28,29,10,295,36*79
$GPGSV,5,4,17,36,52,277,38,40,86,350,36,41,58,082,,49,32,274,*73
$GPGSV,5,5,17,50,10,089,39*40
$GLGSV,3,1,10,66,13,130,27,67,15,184,28,76,05,148,18,77,46,126,24*60
$GLGSV,3,2,10,78,55,014,29,79,10,343,35,81,37,325,38,82,34,263,43*66
$GLGSV,3,3,10,83,03,223,,88,07,011,37*6C
$GNGLL,0419.72642,S,05539.92724,E,035740.00,A,A*66
$GNRMC,035741.00,A,0419.72640,S,05539.92725,E,0.014,,030625,,,A*7A
$GNVTG,,T,,M,0.014,N,0.025,K,A*3F
$GNGGA,035741.00,0419.72640,S,05539.92725,E,1,12,0.56,9.8,M,-47.6,M,,*78
$GNGSA,A,3,24,05,20,15,12,13,22,18,29,25,,,1.05,0.56,0.89*1B
$GNGSA,A,3,78,77,81,82,66,88,67,79,,,,,1.05,0.56,0.89*19
$GPGSV,5,1,17,05,56,138,30,11,27,020,,12,28,358,30,13,21,160,32*70
$GPGSV,5,2,17,14,05,126,30,15,27,195,24,18,19,228,37,20,49,075,40*70
$GPGSV,5,3,17,22,18,111,34,24,63,253,30,25,06,333,27,29,10,295,36*74
$GPGSV,5,4,17,36,52,277,35,40,86,350,33,41,58,082,,49,32,274,*7B
$GPGSV,5,5,17,50,10,089,39*40
$GLGSV,3,1,10,66,13,130,28,67,15,184,30,76,05,148,18,77,46,126,23*61
$GLGSV,3,2,10,78,55,014,28,79,10,343,33,81,37,325,38,82,34,263,43*61
$GLGSV,3,3,10,83,03,223,,88,07,011,38*63
$GNGLL,0419.72640,S,05539.92725,E,035741.00,A,A*64
$GNRMC,035742.00,A,0419.72639,S,05539.92724,E,0.011,,030625,,,A*73
$GNVTG,,T,,M,0.011,N,0.021,K,A*3E
$GNGGA,035742.00,0419.72639,S,05539.92724,E,1,12,0.56,9.8,M,-47.6,M,,*74
$GNGSA,A,3,24,05,20,15,12,13,22,18,29,25,,,1.05,0.56,0.89*1B
$GNGSA,A,3,78,77,81,82,66,88,67,79,,,,,1.05,0.56,0.89*19
$GPGSV,5,1,17,05,56,138,30,11,27,020,22,12,28,358,29,13,21,160,31*7B
$GPGSV,5,2,17,14,05,126,34,15,27,195,20,18,19,228,39,20,49,075,40*7E
$GPGSV,5,3,17,22,18,111,34,24,63,253,30,25,06,333,27,29,10,295,36*74
$GPGSV,5,4,17,36,52,277,35,40,86,350,36,41,58,082,,49,32,274,*7E
$GPGSV,5,5,17,50,10,089,40*4E
$GLGSV,3,1,10,66,13,130,27,67,15,184,29,76,05,148,15,77,46,126,23*6B
$GLGSV,3,2,10,78,55,014,27,79,10,343,32,81,37,325,37,82,34,263,41*62
$GLGSV,3,3,10,83,03,223,,88,07,011,38*63
$GNGLL,0419.72639,S,05539.92724,E,035742.00,A,A*68
$GNRMC,035743.00,A,0419.72639,S,05539.92724,E,0.009,,030625,,,A*7B
$GNVTG,,T,,M,0.009,N,0.017,K,A*32
$GNGGA,035743.00,0419.72639,S,05539.92724,E,1,12,0.56,9.9,M,-47.6,M,,*74
$GNGSA,A,3,24,05,20,15,12,13,22,18,29,25,,,1.05,0.56,0.89*1B
$GNGSA,A,3,78,77,81,82,66,88,67,79,,,,,1.05,0.56,0.89*19
$GPGSV,5,1,17,05,56,138,30,11,27,020,21,12,28,358,27,13,21,160,31*76
$GPGSV,5,2,17,14,05,126,32,15,27,195,16,18,19,228,38,20,49,075,40*7C
$GPGSV,5,3,17,22,18,111,36,24,63,253,30,25,06,333,28,29,10,295,37*78
$GPGSV,5,4,17,36,52,277,35,40,86,350,37,41,58,082,,49,32,274,*7F
$GPGSV,5,5,17,50,10,089,40*4E
$GLGSV,3,1,10,66,13,130,26,67,15,184,28,76,05,148,10,77,46,126,22*6F
$GLGSV,3,2,10,78,55,014,26,79,10,343,32,81,37,325,37,82,34,263,41*63
$GLGSV,3,3,10,83,03,223,,88,07,011,37*6C
$GNGLL,0419.72639,S,05539.92724,E,035743.00,A,A*69
$GNRMC,035744.00,A,0419.72639,S,05539.92724,E,0.009,,030625,,,A*7C
$GNVTG,,T,,M,0.009,N,0.017,K,A*32
$GNGGA,035744.00,0419.72639,S,05539.92724,E,1,12,0.56,9.9,M,-47.6,M,,*73
$GNGSA,A,3,24,05,20,15,12,13,22,18,29,25,,,1.05,0.56,0.89*1B
$GNGSA,A,3,78,77,81,82,66,88,67,79,,,,,1.05,0.56,0.89*19
$GPGSV,5,1,17,05,56,138,31,11,27,020,19,12,28,358,28,13,21,160,31*73
$GPGSV,5,2,17,14,05,126,32,15,27,195,13,18,19,228,39,20,49,075,41*79
$GPGSV,5,3,17,22,18,111,36,24,63,253,30,25,06,333,29,29,10,295,37*79
$GPGSV,5,4,17,36,52,277,35,40,86,350,37,41,58,082,,49,32,274,*7F
$GPGSV,5,5,17,50,10,089,40*4E
$GLGSV,3,1,10,66,13,130,25,67,15,184,27,76,05,148,09,77,46,126,21*68
$GLGSV,3,2,10,78,55,014,26,79,10,343,31,81,37,325,37,82,34,263,41*60
$GLGSV,3,3,10,83,03,223,,88,07,011,37*6C
$GNGLL,0419.72639,S,05539.92724,E,035744.00,A,A*6E
$GNRMC,035745.00,A,0419.72639,S,05539.92723,E,0.002,,030625,,,A*71
$GNVTG,,T,,M,0.002,N,0.005,K,A*3A
$GNGGA,035745.00,0419.72639,S,05539.92723,E,1,12,0.54,9.9,M,-47.6,M,,*77
$GNGSA,A,3,24,05,20,11,15,12,13,22,18,29,25,,1.04,0.54,0.89*18
$GNGSA,A,3,78,77,81,82,66,88,67,79,,,,,1.04,0.54,0.89*1A
$GPGSV,5,1,17,05,56,138,30,11,27,020,18,12,28,358,27,13,21,160,31*7C
$GPGSV,5,2,17,14,05,126,31,15,27,195,11,18,19,228,38,20,49,075,40*78
$GPGSV,5,3,17,22,18,111,35,24,63,253,30,25,06,333,29,29,10,296,37*79
$GPGSV,5,4,17,36,52,277,35,40,86,350,37,41,58,082,,49,32,274,*7F
$GPGSV,5,5,17,50,10,089,40*4E
$GLGSV,3,1,10,66,13,130,25,67,15,184,26,76,05,148,11,77,46,126,20*61
$GLGSV,3,2,10,78,55,014,25,79,10,343,32,81,37,325,37,82,34,263,41*60
$GLGSV,3,3,10,83,03,223,,88,07,011,38*63
$GNGLL,0419.72639,S,05539.92723,E,035745.00,A,A*68
$GNRMC,035746.00,A,0419.72638,S,05539.92723,E,0.015,,030625,,,A*75
$GNVTG,,T,,M,0.015,N,0.027,K,A*3C
$GNGGA,035746.00,0419.72638,S,05539.92723,E,1,12,0.54,9.8,M,-47.6,M,,*74
$GNGSA,A,3,24,05,20,11,15,12,13,22,18,29,25,,1.04,0.54,0.89*18
$GNGSA,A,3,78,77,81,82,66,88,67,79,,,,,1.04,0.54,0.89*1A
$GPGSV,5,1,17,05,56,138,30,11,27,020,17,12,28,358,27,13,21,160,31*73
$GPGSV,5,2,17,14,05,126,31,15,27,195,15,18,19,228,37,20,49,075,40*73
$GPGSV,5,3,17,22,18,111,35,24,63,253,30,25,06,333,29,29,10,296,37*79
$GPGSV,5,4,17,36,52,277,35,40,86,350,37,41,58,082,,49,32,274,*7F
$GPGSV,5,5,17,50,10,089,39*40
$GLGSV,3,1,10,66,13,130,25,67,15,184,27,76,05,148,14,77,46,126,20*65
$GLGSV,3,2,10,78,55,014,25,79,10,343,32,81,37,325,37,82,34,263,41*60
$GLGSV,3,3,10,83,03,223,,88,07,011,39*62
$GNGLL,0419.72638,S,05539.92723,E,035746.00,A,A*6A
$GNRMC,035747.00,A,0419.72638,S,05539.92722,E,0.021,,030625,,,A*72
$GNVTG,,T,,M,0.021,N,0.040,K,A*3A
$GNGGA,035747.00,0419.72638,S,05539.92722,E,1,12,0.54,9.8,M,-47.6,M,,*74
$GNGSA,A,3,24,05,20,11,15,12,13,22,18,29,25,,1.04,0.54,0.89*18
$GNGSA,A,3,78,77,81,82,66,88,67,79,,,,,1.04,0.54,0.89*1A
$GPGSV,5,1,17,05,56,138,30,11,27,020,18,12,28,358,26,13,21,160,31*7D
$GPGSV,5,2,17,14,05,126,32,15,27,195,16,18,19,228,37,20,49,075,41*72
$GPGSV,5,3,17,22,18,111,36,24,63,253,30,25,06,333,29,29,10,296,37*7A
$GPGSV,5,4,17,36,52,277,35,40,86,350,36,41,58,082,,49,32,274,*7E
$GPGSV,5,5,17,50,10,089,40*4E
$GLGSV,3,1,10,66,13,130,25,67,15,184,27,76,05,148,13,77,46,126,20*62
$GLGSV,3,2,10,78,55,014,25,79,10,343,32,81,37,325,37,82,34,263,41*60
$GLGSV,3,3,10,83,03,223,,88,07,011,39*62
$GNGLL,0419.72638,S,05539.92722,E,035747.00,A,A*6A
$GNRMC,035748.00,A,0419.72638,S,05539.92722,E,0.014,,030625,,,A*7B
$GNVTG,,T,,M,0.014,N,0.025,K,A*3F
$GNGGA,035748.00,0419.72638,S,05539.92722,E,1,12,0.54,9.8,M,-47.6,M,,*7B
$GNGSA,A,3,24,05,20,11,15,12,13,22,18,29,25,,1.04,0.54,0.89*18
$GNGSA,A,3,78,77,81,82,66,88,67,79,,,,,1.04,0.54,0.89*1A
$GPGSV,5,1,17,05,56,138,31,11,27,020,19,12,28,358,26,13,21,160,31*7D
$GPGSV,5,2,17,14,05,126,32,15,27,195,16,18,19,228,37,20,49,075,41*72
$GPGSV,5,3,17,22,18,111,35,24,63,253,30,25,06,333,30,29,10,296,38*7E
$GPGSV,5,4,17,36,52,277,35,40,86,350,37,41,58,082,,49,32,274,*7F
$GPGSV,5,5,17,50,10,089,40*4E
$GLGSV,3,1,10,66,13,130,25,67,15,184,28,76,05,148,11,77,46,126,20*6F
$GLGSV,3,2,10,78,55,014,25,79,10,343,33,81,37,325,37,82,34,263,41*61
$GLGSV,3,3,10,83,03,223,,88,07,011,38*63
$GNGLL,0419.72638,S,05539.92722,E,035748.00,A,A*65
$GNRMC,035749.00,A,0419.72637,S,05539.92721,E,0.023,,030625,,,A*72
$GNVTG,,T,,M,0.023,N,0.042,K,A*3A
$GNGGA,035749.00,0419.72637,S,05539.92721,E,1,12,0.54,9.8,M,-47.6,M,,*76
$GNGSA,A,3,24,05,20,11,15,12,13,22,18,29,25,,1.04,0.54,0.89*18
$GNGSA,A,3,78,77,81,82,66,88,67,79,,,,,1.04,0.54,0.89*1A
$GPGSV,5,1,17,05,56,138,31,11,27,020,19,12,28,358,26,13,21,160,31*7D
$GPGSV,5,2,17,14,05,126,32,15,27,195,15,18,19,228,37,20,49,075,41*71
$GPGSV,5,3,17,22,18,111,36,24,63,253,31,25,06,333,30,29,10,296,38*7C
$GPGSV,5,4,17,36,52,277,36,40,86,350,37,41,58,082,,49,32,274,*7C
$GPGSV,5,5,17,50,10,089,40*4E
$GLGSV,3,1,10,66,13,130,25,67,15,184,28,76,05,148,11,77,46,126,19*65
$GLGSV,3,2,10,78,55,014,25,79,10,343,32,81,37,325,37,82,34,263,41*60
$GLGSV,3,3,10,83,03,223,,88,07,011,38*63
$GNGLL,0419.72637,S,05539.92721,E,035749.00,A,A*68
$GNRMC,035750.00,A,0419.72636,S,05539.92720,E,0.006,,030625,,,A*7D
$GNVTG,,T,,M,0.006,N,0.012,K,A*38
$GNGGA,035750.00,0419.72636,S,05539.92720,E,1,12,0.54,9.9,M,-47.6,M,,*7F
$GNGSA,A,3,24,05,20,11,15,12,13,22,18,29,25,,1.04,0.54,0.89*18
$GNGSA,A,3,78,77,81,82,66,88,67,79,,,,,1.04,0.54,0.89*1A
$GPGSV,5,1,17,05,56,138,31,11,27,020,19,12,28,358,26,13,21,160,32*7E
$GPGSV,5,2,17,14,05,126,32,15,27,195,15,18,19,228,37,20,49,075,41*71
$GPGSV,5,3,17,22,18,111,36,24,63,253,30,25,06,333,30,29,10,296,38*7D
$GPGSV,5,4,17,36,52,277,36,40,86,350,37,41,58,082,,49,32,274,*7C
$GPGSV,5,5,17,50,10,089,40*4E
$GLGSV,3,1,10,66,13,130,25,67,15,184,29,76,05,148,12,77,46,126,18*66
$GLGSV,3,2,10,78,55,014,24,79,10,343,33,81,37,325,37,82,34,263,41*60
$GLGSV,3,3,10,83,03,223,,88,07,011,38*63
$GNGLL,0419.72636,S,05539.92720,E,035750.00,A,A*60
$GNRMC,035751.00,A,0419.72635,S,05539.92720,E,0.016,,030625,,,A*7E
$GNVTG,,T,,M,0.016,N,0.030,K,A*39
$GNGGA,035751.00,0419.72635,S,05539.92720,E,1,12,0.54,9.9,M,-47.6,M,,*7D
$GNGSA,A,3,24,05,20,11,15,12,13,22,18,29,25,,1.04,0.54,0.89*18
$GNGSA,A,3,78,77,81,82,66,88,67,79,,,,,1.04,0.54,0.89*1A
$GPGSV,5,1,17,05,56,138,31,11,27,020,18,12,28,358,27,13,21,160,33*7F
$GPGSV,5,2,17,14,05,126,32,15,27,195,11,18,19,228,37,20,49,075,41*75
$GPGSV,5,3,17,22,18,111,36,24,63,253,30,25,06,333,30,29,10,296,38*7D
$GPGSV,5,4,17,36,52,277,36,40,86,350,37,41,58,082,,49,32,274,*7C
$GPGSV,5,5,17,50,10,089,40*4E
$GLGSV,3,1,10,66,13,130,26,67,15,184,29,76,05,148,09,77,46,126,18*6F
$GLGSV,3,2,10,78,55,014,25,79,10,343,33,81,37,325,37,82,34,263,42*62
$GLGSV,3,3,10,83,03,223,,88,07,011,38*63
$GNGLL,0419.72635,S,05539.92720,E,035751.00,A,A*62
$GNRMC,035752.00,A,0419.72633,S,05539.92719,E,0.023,,030625,,,A*77
$GNVTG,,T,,M,0.023,N,0.043,K,A*3B
$GNGGA,035752.00,0419.72633,S,05539.92719,E,1,12,0.54,10.0,M,-47.6,M,,*43
$GNGSA,A,3,24,05,20,11,15,12,13,22,18,29,25,,1.04,0.54,0.89*18
$GNGSA,A,3,78,77,81,82,66,88,67,79,,,,,1.04,0.54,0.89*1A
$GPGSV,5,1,17,05,56,138,31,11,27,020,15,12,28,358,26,13,21,160,32*72
$GPGSV,5,2,17,14,05,126,33,15,27,195,14,18,19,228,37,20,49,075,41*71
$GPGSV,5,3,17,22,18,111,37,24,63,253,29,25,06,333,30,29,10,296,38*74
$GPGSV,5,4,17,36,52,277,36,40,86,350,37,41,58,082,,49,32,274,*7C
$GPGSV,5,5,17,50,10,089,40*4E
$GLGSV,3,1,10,66,13,130,25,67,15,184,30,76,05,148,14,77,46,126,19*69
$GLGSV,3,2,10,78,55,014,26,79,10,343,33,81,37,325,37,82,34,263,42*61
$GLGSV,3,3,10,83,03,223,,88,07,011,37*6C
$GNGLL,0419.72633,S,05539.92719,E,035752.00,A,A*6D
$GNRMC,035753.00,A,0419.72632,S,05539.92719,E,0.002,,030625,,,A*74
$GNVTG,,T,,M,0.002,N,0.003,K,A*3C
$GNGGA,035753.00,0419.72632,S,05539.92719,E,1,12,0.54,10.0,M,-47.6,M,,*43
$GNGSA,A,3,24,05,20,11,15,12,13,22,18,29,25,,1.04,0.54,0.89*18
$GNGSA,A,3,78,77,81,82,66,88,67,79,,,,,1.04,0.54,0.89*1A
$GPGSV,5,1,17,05,56,138,31,11,27,020,12,12,28,358,24,13,21,160,31*74
$GPGSV,5,2,17,14,05,126,33,15,27,195,16,18,19,228,38,20,49,075,40*7D
$GPGSV,5,3,17,22,18,111,36,24,63,253,28,25,06,333,29,29,10,296,36*72
$GPGSV,5,4,17,36,52,277,33,40,86,350,37,41,58,082,,49,32,274,*79
$GPGSV,5,5,17,50,10,089,40*4E
$GLGSV,3,1,10,66,13,130,25,67,15,184,30,76,05,148,11,77,46,126,19*6C
$GLGSV,3,2,10,78,55,014,26,79,10,343,33,81,37,325,38,82,34,263,41*6D
$GLGSV,3,3,10,83,03,223,,88,07,011,37*6C
$GNGLL,0419.72632,S,05539.92719,E,035753.00,A,A*6D
$GNRMC,035754.00,A,0419.72631,S,05539.92719,E,0.018,,030625,,,A*7B
$GNVTG,,T,,M,0.018,N,0.034,K,A*33
$GNGGA,035754.00,0419.72631,S,05539.92719,E,1,12,0.54,10.0,M,-47.6,M,,*47
$GNGSA,A,3,24,05,20,11,15,12,13,22,18,29,25,,1.04,0.54,0.89*18
$GNGSA,A,3,78,77,81,82,66,88,67,79,,,,,1.04,0.54,0.89*1A
$GPGSV,5,1,17,05,56,138,30,11,27,020,12,12,28,358,23,13,21,160,30*73
$GPGSV,5,2,17,14,05,126,33,15,27,195,16,18,19,228,37,20,49,075,40*72
$GPGSV,5,3,17,22,18,111,36,24,63,253,27,25,06,333,29,29,10,296,37*7C
$GPGSV,5,4,17,36,52,277,34,40,86,350,36,41,58,082,,49,32,274,*7F
$GPGSV,5,5,17,50,10,089,40*4E
$GLGSV,3,1,10,66,13,130,24,67,15,184,30,76,05,148,11,77,46,126,20*67
$GLGSV,3,2,10,78,55,014,27,79,10,343,32,81,37,325,38,82,34,263,41*6D
$GLGSV,3,3,10,83,03,223,,88,07,011,38*63
$GNGLL,0419.72631,S,05539.92719,E,035754.00,A,A*69
$GNRMC,035755.00,A,0419.72629,S,05539.92719,E,0.032,,030625,,,A*7B
$GNVTG,,T,,M,0.032,N,0.059,K,A*30
$GNGGA,035755.00,0419.72629,S,05539.92719,E,1,12,0.54,10.1,M,-47.6,M,,*4E
$GNGSA,A,3,24,05,20,11,15,12,13,22,18,29,25,,1.04,0.54,0.89*18
$GNGSA,A,3,78,77,81,82,66,88,67,79,,,,,1.04,0.54,0.89*1A
$GPGSV,5,1,17,05,56,138,30,11,27,020,15,12,28,358,22,13,21,160,30*75
$GPGSV,5,2,17,14,05,126,33,15,27,195,16,18,19,228,37,20,49,075,40*72
$GPGSV,5,3,17,22,18,111,36,24,63,253,27,25,06,333,29,29,10,296,37*7C
$GPGSV,5,4,17,36,52,277,34,40,86,350,35,41,58,082,,49,32,274,*7C
$GPGSV,5,5,17,50,10,089,39*40
$GLGSV,3,1,10,66,13,130,24,67,15,184,31,76,05,148,10,77,46,126,20*67
$GLGSV,3,2,10,78,55,014,28,79,10,343,32,81,37,325,38,82,34,263,41*62
$GLGSV,3,3,10,83,03,223,,88,07,011,38*63
$GNGLL,0419.72629,S,05539.92719,E,035755.00,A,A*61
$GNRMC,035756.00,A,0419.72628,S,05539.92719,E,0.015,,030625,,,A*7C
$GNVTG,,T,,M,0.015,N,0.028,K,A*33
$GNGGA,035756.00,0419.72628,S,05539.92719,E,1,12,0.54,10.1,M,-47.6,M,,*4C
$GNGSA,A,3,24,05,20,11,15,12,13,22,18,29,25,,1.04,0.54,0.89*18
$GNGSA,A,3,78,77,81,82,66,88,67,79,,,,,1.04,0.54,0.89*1A
$GPGSV,5,1,17,05,56,138,30,11,27,020,15,12,28,358,23,13,21,160,30*74
$GPGSV,5,2,17,14,05,126,32,15,27,195,16,18,19,228,37,20,49,075,40*73
$GPGSV,5,3,17,22,18,111,36,24,63,253,27,25,06,333,28,29,10,296,37*7D
$GPGSV,5,4,17,36,52,277,34,40,86,350,36,41,58,082,,49,32,274,*7F
$GPGSV,5,5,17,50,10,089,39*40
$GLGSV,3,1,10,66,13,130,25,67,15,184,30,76,05,148,11,77,46,126,21*67
$GLGSV,3,2,10,78,55,014,28,79,10,343,32,81,37,325,38,82,34,263,41*62
$GLGSV,3,3,10,83,03,223,,88,07,011,37*6C
$GNGLL,0419.72628,S,05539.92719,E,035756.00,A,A*63
$GNRMC,035757.00,A,0419.72626,S,05539.92719,E,0.033,,030625,,,A*77
$GNVTG,,T,,M,0.033,N,0.061,K,A*3A
$GNGGA,035757.00,0419.72626,S,05539.92719,E,1,12,0.54,10.2,M,-47.6,M,,*40
$GNGSA,A,3,24,05,20,11,15,12,13,22,18,29,25,,1.04,0.54,0.89*18
$GNGSA,A,3,78,77,81,82,66,88,67,79,,,,,1.04,0.54,0.89*1A
$GPGSV,5,1,17,05,56,138,30,11,27,020,17,12,28,358,22,13,21,160,31*76
$GPGSV,5,2,17,14,05,126,32,15,27,195,14,18,19,228,38,20,49,075,40*7E
$GPGSV,5,3,17,22,18,111,36,24,63,253,28,25,06,333,28,29,10,296,37*72
$GPGSV,5,4,17,36,52,277,35,40,86,350,34,41,58,082,,49,32,274,*7C
$GPGSV,5,5,17,50,10,089,40*4E
$GLGSV,3,1,10,66,13,130,25,67,15,184,31,76,05,148,11,77,46,126,21*66
$GLGSV,3,2,10,78,55,014,27,79,10,343,33,81,37,325,38,82,34,263,41*6C
$GLGSV,3,3,10,83,03,223,,88,07,011,38*63
$GNGLL,0419.72626,S,05539.92719,E,035757.00,A,A*6C
$GNRMC,035758.00,A,0419.72625,S,05539.92719,E,0.030,,030625,,,A*78
$GNVTG,,T,,M,0.030,N,0.055,K,A*3E
$GNGGA,035758.00,0419.72625,S,05539.92719,E,1,12,0.54,10.2,M,-47.6,M,,*4C
$GNGSA,A,3,24,05,20,11,15,12,13,22,18,29,25,,1.04,0.54,0.89*18
$GNGSA,A,3,78,77,81,82,66,88,67,79,,,,,1.04,0.54,0.89*1A
$GPGSV,5,1,17,05,56,138,31,11,27,020,20,12,28,358,23,13,21,160,31*72
$GPGSV,5,2,17,14,05,126,32,15,27,195,13,18,19,228,37,20,49,075,39*78
$GPGSV,5,3,17,22,18,111,36,24,63,253,28,25,06,333,28,29,10,296,37*72
$GPGSV,5,4,17,36,52,277,35,40,86,350,35,41,58,082,,49,32,274,*7D
$GPGSV,5,5,17,50,10,089,40*4E
$GLGSV,3,1,10,66,13,130,26,67,15,184,30,76,05,148,10,77,46,126,21*65
$GLGSV,3,2,10,78,55,014,27,79,10,343,33,81,37,325,38,82,34,263,41*6C
$GLGSV,3,3,10,83,03,223,,88,07,011,37*6C
$GNGLL,0419.72625,S,05539.92719,E,035758.00,A,A*60
$GNRMC,035759.00,A,0419.72624,S,05539.92719,E,0.018,,030625,,,A*72
$GNVTG,,T,,M,0.018,N,0.034,K,A*33
$GNGGA,035759.00,0419.72624,S,05539.92719,E,1,12,0.54,10.3,M,-47.6,M,,*4D
$GNGSA,A,3,24,05,20,11,15,12,13,22,18,29,25,,1.04,0.54,0.89*18
$GNGSA,A,3,78,77,81,82,66,88,67,79,,,,,1.04,0.54,0.89*1A
$GPGSV,5,1,17,05,56,138,32,11,27,020,21,12,28,358,26,13,21,160,31*75
$GPGSV,5,2,17,14,05,126,33,15,27,195,14,18,19,228,37,20,49,075,40*70
$GPGSV,5,3,17,22,18,111,37,24,63,253,29,25,06,333,29,29,10,296,38*7C
$GPGSV,5,4,17,36,52,277,35,40,86,350,36,41,58,082,,49,32,274,*7E
$GPGSV,5,5,17,50,10,089,41*4F
$GLGSV,3,1,10,66,13,130,25,67,15,184,30,76,05,148,09,77,46,126,23*6C
$GLGSV,3,2,10,78,55,014,27,79,10,343,33,81,37,325,38,82,34,263,41*6C
$GLGSV,3,3,10,83,03,223,,88,07,011,36*6D
$GNGLL,0419.72624,S,05539.92719,E,035759.00,A,A*60
$GNRMC,035800.00,A,0419.72623,S,05539.92720,E,0.006,,030625,,,A*73
$GNVTG,,T,,M,0.006,N,0.012,K,A*38
$GNGGA,035800.00,0419.72623,S,05539.92720,E,1,12,0.54,10.3,M,-47.6,M,,*43
$GNGSA,A,3,24,05,20,11,15,12,13,22,18,29,25,,1.04,0.54,0.89*18
$GNGSA,A,3,78,77,81,82,66,88,67,79,,,,,1.04,0.54,0.89*1A
$GPGSV,5,1,17,05,56,138,31,11,27,020,23,12,28,358,27,13,21,160,30*74
$GPGSV,5,2,17,14,05,126,32,15,27,195,14,18,19,228,36,20,49,075,39*7E
$GPGSV,5,3,17,22,18,111,37,24,63,253,29,25,06,333,28,29,10,296,36*73
$GPGSV,5,4,17,36,52,277,35,40,86,350,35,41,58,082,,49,32,274,*7D
$GPGSV,5,5,17,50,10,089,39*40
$GLGSV,3,1,10,66,13,130,25,67,15,184,30,76,05,148,15,77,46,126,23*61
$GLGSV,3,2,10,78,55,014,27,79,10,343,32,81,37,325,37,82,34,263,41*62
$GLGSV,3,3,10,83,03,223,,88,07,011,37*6C
$GNGLL,0419.72623,S,05539.92720,E,035800.00,A,A*6E
$GNRMC,035801.00,A,0419.72623,S,05539.92720,E,0.010,,030625,,,A*75
$GNVTG,,T,,M,0.010,N,0.018,K,A*35
$GNGGA,035801.00,0419.72623,S,05539.92720,E,1,12,0.54,10.3,M,-47.6,M,,*42
$GNGSA,A,3,24,05,20,11,15,12,13,22,18,29,25,,1.04,0.54,0.89*18
$GNGSA,A,3,78,77,81,82,66,88,67,79,,,,,1.04,0.54,0.89*1A
$GPGSV,5,1,17,05,56,138,31,11,27,020,22,12,28,358,28,13,21,160,30*7A
$GPGSV,5,2,17,14,05,126,31,15,27,195,13,18,19,228,37,20,49,075,39*7B
$GPGSV,5,3,17,22,18,111,34,24,63,253,30,25,06,333,28,29,10,296,37*79
$GPGSV,5,4,17,36,52,277,35,40,86,350,35,41,58,082,,49,32,274,*7D
$GPGSV,5,5,17,50,10,089,38*41
$GLGSV,3,1,10,66,13,130,26,67,15,184,30,76,05,148,15,77,46,126,23*62
$GLGSV,3,2,10,78,55,014,26,79,10,343,32,81,37,325,37,82,34,263,41*63
$GLGSV,3,3,10,83,03,223,,88,07,011,37*6C
$GNGLL,0419.72623,S,05539.92720,E,035801.00,A,A*6F
$GNRMC,035802.00,A,0419.72621,S,05539.92719,E,0.005,,030625,,,A*7A
$GNVTG,,T,,M,0.005,N,0.010,K,A*39
$GNGGA,035802.00,0419.72621,S,05539.92719,E,1,12,0.54,10.3,M,-47.6,M,,*49
$GNGSA,A,3,24,05,20,11,15,12,13,22,18,29,25,,1.04,0.54,0.89*18
$GNGSA,A,3,78,77,81,82,66,88,67,79,,,,,1.04,0.54,0.89*1A
$GPGSV,5,1,17,05,56,138,32,11,27,020,20,12,28,358,27,13,21,160,31*75
$GPGSV,5,2,17,14,05,126,31,15,27,195,16,18,19,228,38,20,49,075,41*7E
$GPGSV,5,3,17,22,18,111,37,24,63,253,31,25,06,333,29,29,10,296,39*74
$GPGSV,5,4,17,36,52,277,36,40,86,350,37,41,58,082,,49,32,274,*7C
$GPGSV,5,5,17,50,10,089,40*4E
$GLGSV,3,1,10,66,13,130,26,67,15,184,31,76,05,148,15,77,46,126,23*63
$GLGSV,3,2,10,78,55,014,27,79,10,343,32,81,37,325,38,82,34,263,41*6D
$GLGSV,3,3,10,83,03,223,,88,07,011,35*6E
$GNGLL,0419.72621,S,05539.92719,E,035802.00,A,A*64
$GNRMC,035803.00,A,0419.72620,S,05539.92719,E,0.008,,030625,,,A*77
$GNVTG,,T,,M,0.008,N,0.015,K,A*31
$GNGGA,035803.00,0419.72620,S,05539.92719,E,1,12,0.54,10.3,M,-47.6,M,,*49
$GNGSA,A,3,24,05,20,11,15,12,13,22,18,29,25,,1.04,0.54,0.89*18
$GNGSA,A,3,78,77,81,82,66,88,67,79,,,,,1.04,0.54,0.89*1A
$GPGSV,5,1,17,05,56,138,32,11,27,020,19,12,28,358,27,13,21,160,31*7F
$GPGSV,5,2,17,14,05,126,32,15,27,195,19,18,19,228,38,20,49,075,40*73
$GPGSV,5,3,17,22,18,111,36,24,63,253,31,25,06,333,29,29,10,296,38*74
$GPGSV,5,4,17,36,52,277,36,40,86,350,36,41,58,082,,49,32,274,*7D
$GPGSV,5,5,17,50,10,089,40*4E
$GLGSV,3,1,10,66,13,130,26,67,15,184,30,76,05,148,15,77,46,126,23*62
$GLGSV,3,2,10,78,55,014,27,79,10,343,33,81,37,325,38,82,34,263,41*6C
$GLGSV,3,3,10,83,03,223,,88,07,011,37*6C
$GNGLL,0419.72620,S,05539.92719,E,035803.00,A,A*64
$GNRMC,035804.00,A,0419.72621,S,05539.92719,E,0.029,,030625,,,A*72
$GNVTG,,T,,M,0.029,N,0.053,K,A*30
$GNGGA,035804.00,0419.72621,S,05539.92719,E,1,12,0.54,10.3,M,-47.6,M,,*4F
$GNGSA,A,3,24,05,20,11,15,12,13,22,18,29,25,,1.04,0.54,0.89*18
$GNGSA,A,3,78,77,81,82,66,88,67,79,,,,,1.04,0.54,0.89*1A
$GPGSV,5,1,17,05,56,138,32,11,27,020,19,12,28,358,27,13,21,160,31*7F
$GPGSV,5,2,17,14,05,126,32,15,27,195,19,18,19,228,38,20,49,075,40*73
$GPGSV,5,3,17,22,18,111,36,24,63,253,31,25,06,333,29,29,10,296,38*74
$GPGSV,5,4,17,36,52,277,36,40,86,350,37,41,58,082,,49,32,274,*7C
$GPGSV,5,5,17,50,10,089,40*4E
$GLGSV,3,1,10,66,13,130,26,67,15,184,30,76,05,148,15,77,46,126,24*65
$GLGSV,3,2,10,78,55,014,27,79,10,343,33,81,37,325,38,82,34,263,42*6F
$GLGSV,3,3,10,83,03,223,,88,07,011,38*63
$GNGLL,0419.72621,S,05539.92719,E,035804.00,A,A*62
$GNRMC,035805.00,A,0419.72620,S,05539.92719,E,0.031,,030625,,,A*7B
$GNVTG,,T,,M,0.031,N,0.057,K,A*3D
$GNGGA,035805.00,0419.72620,S,05539.92719,E,1,12,0.54,10.3,M,-47.6,M,,*4F
$GNGSA,A,3,24,05,20,11,15,12,13,22,18,29,25,,1.04,0.54,0.89*18
$GNGSA,A,3,78,77,81,82,66,88,67,79,,,,,1.04,0.54,0.89*1A
$GPGSV,5,1,17,05,56,138,36,11,27,020,22,12,28,358,31,13,21,160,33*76
$GPGSV,5,2,17,14,05,126,33,15,27,195,22,18,19,228,40,20,49,075,43*76
$GPGSV,5,3,17,22,18,111,38,24,63,253,33,25,06,333,32,29,10,296,40*7D
$GPGSV,5,4,17,36,52,277,38,40,86,350,39,41,58,082,,49,32,274,*7C
$GPGSV,5,5,17,50,10,089,42*4C
$GLGSV,3,1,10,66,13,130,26,67,15,184,25,76,05,148,16,77,46,126,23*65
$GLGSV,3,2,10,78,55,014,27,79,10,343,31,81,37,325,36,82,34,263,39*6F
$GLGSV,3,3,10,83,03,223,,88,07,011,34*6F
$GNGLL,0419.72620,S,05539.92719,E,035805.00,A,A*62
$GNRMC,035806.00,A,0419.72618,S,05539.92719,E,0.019,,030625,,,A*79
$GNVTG,,T,,M,0.019,N,0.036,K,A*30
$GNGGA,035806.00,0419.72618,S,05539.92719,E,1,12,0.54,10.3,M,-47.6,M,,*47
$GNGSA,A,3,24,05,20,11,15,12,13,22,18,29,25,,1.04,0.54,0.89*18
$GNGSA,A,3,78,77,81,82,66,88,67,79,,,,,1.04,0.54,0.89*1A
$GPGSV,5,1,17,05,56,138,34,11,27,020,22,12,28,358,30,13,21,160,34*72
$GPGSV,5,2,17,14,05,126,34,15,27,195,21,18,19,228,40,20,49,075,43*72
$GPGSV,5,3,17,22,18,111,38,24,63,253,34,25,06,333,32,29,10,296,41*7B
$GPGSV,5,4,17,36,52,277,38,40,86,350,39,41,58,082,,49,32,274,*7C
$GPGSV,5,5,17,50,10,089,42*4C
$GLGSV,3,1,10,66,13,130,23,67,15,184,25,76,05,148,17,77,46,126,22*60
$GLGSV,3,2,10,78,55,014,27,79,10,343,31,81,37,325,36,82,34,263,40*61
$GLGSV,3,3,10,83,03,223,,88,07,011,35*6E
$GNGLL,0419.72618,S,05539.92719,E,035806.00,A,A*6A
$GNRMC,035807.00,A,0419.72617,S,05539.92719,E,0.022,,030625,,,A*7F
$GNVTG,,T,,M,0.022,N,0.041,K,A*38
$GNGGA,035807.00,0419.72617,S,05539.92719,E,1,12,0.56,10.3,M,-47.6,M,,*4B
$GNGSA,A,3,24,05,20,11,12,13,22,18,29,25,,,1.06,0.56,0.89*1C
$GNGSA,A,3,78,77,81,82,66,88,67,79,,,,,1.06,0.56,0.89*1A
$GPGSV,5,1,17,05,56,138,34,11,27,020,22,12,28,358,30,13,21,160,34*72
$GPGSV,5,2,17,14,05,126,35,15,27,195,19,18,19,228,39,20,49,075,43*76
$GPGSV,5,3,17,22,18,111,37,24,63,253,34,25,06,333,31,29,10,296,41*77
$GPGSV,5,4,17,36,52,277,38,40,86,350,39,41,58,082,,49,32,274,*7C
$GPGSV,5,5,17,50,10,089,42*4C
$GLGSV,3,1,10,66,13,130,22,67,15,184,26,76,05,148,12,77,46,126,22*67
$GLGSV,3,2,10,78,55,014,26,79,10,343,32,81,37,325,37,82,34,263,40*62
$GLGSV,3,3,10,83,03,223,,88,07,011,36*6D
$GNGLL,0419.72617,S,05539.92719,E,035807.00,A,A*64
$GNRMC,035808.00,A,0419.72615,S,05539.92718,E,0.056,,030625,,,A*70
$GNVTG,,T,,M,0.056,N,0.103,K,A*3C
$GNGGA,035808.00,0419.72615,S,05539.92718,E,1,12,0.56,10.4,M,-47.6,M,,*40
$GNGSA,A,3,24,05,20,11,12,13,22,18,29,25,,,1.06,0.56,0.89*1C
$GNGSA,A,3,78,77,81,82,66,88,67,79,,,,,1.06,0.56,0.89*1A
$GPGSV,5,1,17,05,56,138,33,11,27,020,24,12,28,358,29,13,21,160,34*7B
$GPGSV,5,2,17,14,05,126,34,15,27,195,16,18,19,228,39,20,49,075,42*79
$GPGSV,5,3,17,22,18,111,38,24,63,253,32,25,06,333,31,29,10,296,41*7E
$GPGSV,5,4,17,36,52,277,38,40,86,350,38,41,58,082,,49,32,274,*7D
$GPGSV,5,5,17,50,10,089,42*4C
$GLGSV,3,1,10,66,13,130,23,67,15,184,26,76,05,148,12,77,46,126,22*66
$GLGSV,3,2,10,78,55,014,26,79,10,343,33,81,37,325,37,82,34,263,40*63
$GLGSV,3,3,10,83,03,223,,88,07,011,35*6E
$GNGLL,0419.72615,S,05539.92718,E,035808.00,A,A*68
$GNRMC,035809.00,A,0419.72613,S,05539.92717,E,0.020,,030625,,,A*79
$GNVTG,,T,,M,0.020,N,0.038,K,A*34
$GNGGA,035809.00,0419.72613,S,05539.92717,E,1,12,0.56,10.4,M,-47.6,M,,*48
$GNGSA,A,3,24,05,20,11,12,13,22,18,29,25,,,1.06,0.56,0.89*1C
$GNGSA,A,3,78,77,81,82,66,88,67,79,,,,,1.06,0.56,0.89*1A
$GPGSV,5,1,17,05,56,138,33,11,27,020,25,12,28,358,29,13,21,160,34*7A
$GPGSV,5,2,17,14,05,126,34,15,27,195,16,18,19,228,39,20,49,075,42*79
$GPGSV,5,3,17,22,18,111,38,24,63,253,31,25,06,333,31,29,10,296,40*7C
$GPGSV,5,4,17,36,52,277,38,40,86,350,38,41,58,082,,49,32,274,*7D
$GPGSV,5,5,17,50,10,089,42*4C
$GLGSV,3,1,10,66,13,130,24,67,15,184,26,76,05,148,12,77,46,126,21*62
$GLGSV,3,2,10,78,55,014,26,79,10,343,32,81,37,325,37,82,34,263,40*62
$GLGSV,3,3,10,83,03,223,,88,07,011,35*6E
$GNGLL,0419.72613,S,05539.92717,E,035809.00,A,A*60
$GNRMC,035810.00,A,0419.72611,S,05539.92716,E,0.020,,030625,,,A*72
$GNVTG,,T,,M,0.020,N,0.036,K,A*3A
$GNGGA,035810.00,0419.72611,S,05539.92716,E,1,12,0.56,10.4,M,-47.6,M,,*43
$GNGSA,A,3,24,05,20,11,12,13,22,18,29,25,,,1.06,0.56,0.89*1C
$GNGSA,A,3,78,77,81,82,66,88,67,79,,,,,1.06,0.56,0.89*1A
$GPGSV,5,1,17,05,56,138,32,11,27,020,26,12,28,358,28,13,21,160,33*7E
$GPGSV,5,2,17,14,05,126,34,15,27,195,21,18,19,228,39,20,49,075,42*7D
$GPGSV,5,3,17,22,18,111,39,24,63,253,30,25,06,333,31,29,10,296,41*7D
$GPGSV,5,4,17,36,52,277,38,40,86,350,38,41,58,082,,49,32,274,*7D
$GPGSV,5,5,17,50,10,089,42*4C
$GLGSV,3,1,10,66,13,129,25,67,15,184,26,76,05,148,12,77,46,126,21*6B
$GLGSV,3,2,10,78,55,014,26,79,10,343,32,81,37,325,37,82,34,263,41*63
$GLGSV,3,3,10,83,03,223,,88,07,011,35*6E
$GNGLL,0419.72611,S,05539.92716,E,035810.00,A,A*6B
$GNRMC,035811.00,A,0419.72610,S,05539.92715,E,0.011,,030625,,,A*73
$GNVTG,,T,,M,0.011,N,0.020,K,A*3F
$GNGGA,035811.00,0419.72610,S,05539.92715,E,1,12,0.56,10.4,M,-47.6,M,,*40
$GNGSA,A,3,24,05,20,11,12,13,22,18,29,25,,,1.06,0.56,0.89*1C
$GNGSA,A,3,78,77,81,82,66,88,67,79,,,,,1.06,0.56,0.89*1A
$GPGSV,5,1,17,05,56,138,31,11,27,020,26,12,28,358,28,13,21,160,33*7D
$GPGSV,5,2,17,14,05,126,33,15,27,195,21,18,19,228,38,20,49,075,42*7B
$GPGSV,5,3,17,22,18,111,38,24,63,253,30,25,06,333,31,29,10,296,40*7D
$GPGSV,5,4,17,36,52,277,38,40,86,350,37,41,58,082,,49,32,274,*72
$GPGSV,5,5,17,50,10,089,41*4F
$GLGSV,3,1,10,66,13,129,25,67,15,183,27,76,05,148,14,77,46,126,21*6B
$GLGSV,3,2,10,78,55,014,26,79,10,343,32,81,37,325,37,82,34,263,40*62
$GLGSV,3,3,10,83,03,223,,88,07,011,36*6D
$GNGLL,0419.72610,S,05539.92715,E,035811.00,A,A*68
$GNRMC,035812.00,A,0419.72608,S,05539.92715,E,0.058,,030625,,,A*74
$GNVTG,,T,,M,0.058,N,0.107,K,A*36
$GNGGA,035812.00,0419.72608,S,05539.92715,E,1,12,0.56,10.4,M,-47.6,M,,*4A
$GNGSA,A,3,24,05,20,11,12,13,22,18,29,25,,,1.06,0.56,0.89*1C
$GNGSA,A,3,78,77,81,82,66,88,67,79,,,,,1.06,0.56,0.89*1A
$GPGSV,5,1,17,05,56,138,32,11,27,020,25,12,28,358,28,13,21,160,33*7D
$GPGSV,5,2,17,14,05,126,33,15,27,195,19,18,19,228,38,20,49,075,41*73
$GPGSV,5,3,17,22,18,111,38,24,63,253,30,25,06,333,31,29,10,296,40*7D
$GPGSV,5,4,17,36,52,277,37,40,86,350,38,41,58,082,,49,32,274,*72
$GPGSV,5,5,17,50,10,089,41*4F
$GLGSV,3,1,11,66,13,129,25,67,15,183,27,68,00,226,,76,05,148,12*60
$GLGSV,3,2,11,77,46,126,21,78,55,014,26,79,10,343,31,81,37,325,36*6B
$GLGSV,3,3,11,82,34,263,41,83,03,223,,88,07,011,35*50
$GNGLL,0419.72608,S,05539.92715,E,035812.00,A,A*62
$GNRMC,035813.00,A,0419.72606,S,05539.92715,E,0.034,,030625,,,A*71
$GNVTG,,T,,M,0.034,N,0.062,K,A*3E
$GNGGA,035813.00,0419.72606,S,05539.92715,E,1,12,0.56,10.5,M,-47.6,M,,*44
$GNGSA,A,3,24,05,20,11,12,13,22,18,29,25,,,1.06,0.56,0.89*1C
$GNGSA,A,3,78,77,81,82,66,88,67,79,,,,,1.06,0.56,0.89*1A
$GPGSV,5,1,17,05,56,138,33,11,27,020,26,12,28,358,28,13,21,160,32*7E
$GPGSV,5,2,17,14,05,126,33,15,27,195,19,18,19,228,38,20,49,075,42*70
$GPGSV,5,3,17,22,18,111,38,24,63,253,31,25,06,333,30,29,10,296,40*7D
$GPGSV,5,4,17,36,52,277,38,40,86,350,37,41,58,082,,49,32,274,*72
$GPGSV,5,5,17,50,10,089,42*4C
$GLGSV,3,1,11,66,13,129,25,67,15,183,28,68,00,226,,76,05,148,13*6E
$GLGSV,3,2,11,77,46,126,21,78,55,014,27,79,10,343,32,81,37,325,36*69
$GLGSV,3,3,11,82,34,263,40,83,03,223,,88,07,011,35*51
$GNGLL,0419.72606,S,05539.92715,E,035813.00,A,A*6D
$GNRMC,035814.00,A,0419.72605,S,05539.92714,E,0.012,,030625,,,A*70
$GNVTG,,T,,M,0.012,N,0.022,K,A*3E
$GNGGA,035814.00,0419.72605,S,05539.92714,E,1,12,0.54,10.5,M,-47.6,M,,*43
$GNGSA,A,3,24,05,20,11,15,12,13,22,18,29,25,,1.04,0.54,0.89*18
$GNGSA,A,3,78,77,81,82,66,88,67,79,,,,,1.04,0.54,0.89*1A
$GPGSV,5,1,17,05,56,138,33,11,27,020,26,12,28,358,28,13,21,160,32*7E
$GPGSV,5,2,17,14,05,126,33,15,27,195,20,18,19,228,38,20,49,075,42*7A
$GPGSV,5,3,17,22,18,111,38,24,63,253,30,25,06,333,31,29,10,296,40*7D
$GPGSV,5,4,17,36,52,277,38,40,86,350,37,41,58,082,,49,32,274,*72
$GPGSV,5,5,17,50,10,089,41*4F
$GLGSV,3,1,11,66,13,129,26,67,15,183,28,68,00,226,,76,05,148,10*6E
$GLGSV,3,2,11,77,46,126,21,78,55,014,27,79,10,343,32,81,37,325,36*69
$GLGSV,3,3,11,82,34,263,41,83,03,223,,88,07,011,36*53
$GNGLL,0419.72605,S,05539.92714,E,035814.00,A,A*68
$GNRMC,035815.00,A,0419.72604,S,05539.92714,E,0.038,,030625,,,A*78
$GNVTG,,T,,M,0.038,N,0.070,K,A*31
$GNGGA,035815.00,0419.72604,S,05539.92714,E,1,12,0.54,10.5,M,-47.6,M,,*43
$GNGSA,A,3,24,05,20,11,15,12,13,22,18,29,25,,1.04,0.54,0.89*18
$GNGSA,A,3,78,77,81,82,66,88,67,79,,,,,1.04,0.54,0.89*1A
$GPGSV,5,1,17,05,56,138,33,11,27,020,26,12,28,358,28,13,21,160,32*7E
$GPGSV,5,2,17,14,05,126,33,15,27,195,20,18,19,228,39,20,49,075,42*7B
$GPGSV,5,3,17,22,18,111,38,24,63,253,31,25,06,333,31,29,10,296,40*7C
$GPGSV,5,4,17,36,52,277,38,40,86,350,38,41,58,082,,49,32,274,*7D
$GPGSV,5,5,17,50,10,089,41*4F
$GLGSV,3,1,11,66,13,129,25,67,15,183,28,68,00,226,,76,05,148,13*6E
$GLGSV,3,2,11,77,46,126,20,78,55,014,27,79,10,343,32,81,37,325,37*69
$GLGSV,3,3,11,82,34,263,41,83,03,223,,88,07,011,36*53
$GNGLL,0419.72604,S,05539.92714,E,035815.00,A,A*68
$GNRMC,035816.00,A,0419.72604,S,05539.92714,E,0.017,,030625,,,A*76
$GNVTG,,T,,M,0.017,N,0.032,K,A*3A
$GNGGA,035816.00,0419.72604,S,05539.92714,E,1,12,0.54,10.5,M,-47.6,M,,*40
$GNGSA,A,3,24,05,20,11,15,12,13,22,18,29,25,,1.04,0.54,0.89*18
$GNGSA,A,3,78,77,81,82,66,88,67,79,,,,,1.04,0.54,0.89*1A
$GPGSV,5,1,17,05,56,138,33,11,27,020,27,12,28,358,29,13,21,160,32*7E
$GPGSV,5,2,17,14,05,126,33,15,27,195,21,18,19,228,39,20,49,075,42*7A
$GPGSV,5,3,17,22,18,111,37,24,63,253,31,25,06,333,31,29,10,296,40*73
$GPGSV,5,4,17,36,52,277,38,40,86,350,38,41,58,082,,49,32,274,*7D
$GPGSV,5,5,17,50,10,089,42*4C
$GLGSV,3,1,11,66,13,129,26,67,15,183,28,68,00,226,,76,05,148,13*6D
$GLGSV,3,2,11,77,46,126,21,78,55,014,27,79,10,343,33,81,37,325,37*69
$GLGSV,3,3,11,82,34,263,41,83,03,223,,88,07,011,36*53
$GNGLL,0419.72604,S,05539.92714,E,035816.00,A,A*6B
$GNRMC,035817.00,A,0419.72603,S,05539.92714,E,0.012,,030625,,,A*75
$GNVTG,,T,,M,0.012,N,0.023,K,A*3F
$GNGGA,035817.00,0419.72603,S,05539.92714,E,1,12,0.54,10.6,M,-47.6,M,,*45
$GNGSA,A,3,24,05,20,11,15,12,13,22,18,29,25,,1.04,0.54,0.89*18
$GNGSA,A,3,78,77,81,82,66,88,67,79,,,,,1.04,0.54,0.89*1A
$GPGSV,5,1,17,05,56,138,33,11,27,020,27,12,28,358,30,13,21,160,32*76
$GPGSV,5,2,17,14,05,126,32,15,27,195,20,18,19,228,39,20,49,075,42*7A
$GPGSV,5,3,17,22,18,111,37,24,63,253,31,25,06,333,31,29,10,296,40*73
$GPGSV,5,4,17,36,52,277,37,40,86,350,37,41,58,082,,49,32,274,*7D
$GPGSV,5,5,17,50,10,089,42*4C
$GLGSV,3,1,11,66,13,129,25,67,15,183,28,68,00,226,,76,05,148,15*68
$GLGSV,3,2,11,77,46,126,21,78,55,014,27,79,10,343,33,81,37,325,37*69
$GLGSV,3,3,11,82,34,263,41,83,03,223,,88,07,011,36*53
$GNGLL,0419.72603,S,05539.92714,E,035817.00,A,A*6D
$GNRMC,035818.00,A,0419.72601,S,05539.92714,E,0.036,,030625,,,A*7E
$GNVTG,,T,,M,0.036,N,0.068,K,A*36
$GNGGA,035818.00,0419.72601,S,05539.92714,E,1,12,0.54,10.5,M,-47.6,M,,*4B
$GNGSA,A,3,24,05,20,11,15,12,13,22,18,29,25,,1.05,0.54,0.89*19
$GNGSA,A,3,78,77,81,82,66,88,67,79,,,,,1.05,0.54,0.89*1B
$GPGSV,5,1,17,05,56,138,33,11,27,020,26,12,28,358,29,13,21,160,32*7F
$GPGSV,5,2,17,14,05,126,32,15,27,195,21,18,19,228,38,20,49,075,40*78
$GPGSV,5,3,17,22,18,111,37,24,63,253,31,25,06,333,31,29,10,296,39*7D
$GPGSV,5,4,17,36,52,277,37,40,86,350,37,41,58,082,,49,32,274,*7D
$GPGSV,5,5,17,50,10,089,42*4C
$GLGSV,3,1,11,66,13,129,24,67,15,183,28,68,00,226,,76,05,148,16*6A
$GLGSV,3,2,11,77,46,126,20,78,55,014,27,79,10,343,33,81,37,325,37*68
$GLGSV,3,3,11,82,34,263,41,83,03,223,,88,07,011,36*53
$GNGLL,0419.72601,S,05539.92714,E,035818.00,A,A*60
$GNRMC,035819.00,A,0419.72603,S,05539.92714,E,0.010,,030625,,,A*79
$GNVTG,,T,,M,0.010,N,0.019,K,A*34
$GNGGA,035819.00,0419.72603,S,05539.92714,E,1,12,0.54,10.4,M,-47.6,M,,*49
$GNGSA,A,3,24,05,20,11,15,12,13,22,18,29,25,,1.05,0.54,0.89*19
$GNGSA,A,3,78,77,81,82,66,88,67,79,,,,,1.05,0.54,0.89*1B
$GPGSV,5,1,17,05,56,138,29,11,27,020,21,12,28,358,30,13,21,160,31*78
$GPGSV,5,2,17,14,05,126,32,15,27,195,15,18,19,228,37,20,49,075,39*7E
$GPGSV,5,3,17,22,18,111,35,24,63,253,28,25,06,333,28,29,10,296,38*7E
$GPGSV,5,4,17,36,52,277,35,40,86,350,37,41,58,082,,49,32,274,*7F
$GPGSV,5,5,17,50,10,089,39*40
$GLGSV,3,1,11,66,13,129,30,67,15,183,25,68,00,226,,76,05,148,18*6C
$GLGSV,3,2,11,77,46,126,17,78,55,014,26,79,10,343,34,81,37,325,41*6B
$GLGSV,3,3,11,82,34,263,42,83,03,223,,88,07,011,37*51
$GNGLL,0419.72603,S,05539.92714,E,035819.00,A,A*63
$GNRMC,035820.00,A,0419.72604,S,05539.92715,E,0.020,,030625,,,A*76
$GNVTG,,T,,M,0.020,N,0.037,K,A*3B
$GNGGA,035820.00,0419.72604,S,05539.92715,E,1,12,0.54,10.4,M,-47.6,M,,*45
$GNGSA,A,3,24,05,20,11,15,12,13,22,18,29,25,,1.05,0.54,0.89*19
$GNGSA,A,3,78,77,81,82,66,88,67,79,,,,,1.05,0.54,0.89*1B
$GPGSV,5,1,17,05,56,138,28,11,27,020,20,12,28,358,28,13,21,160,29*78
$GPGSV,5,2,17,14,05,126,33,15,27,195,12,18,19,228,36,20,49,075,39*79
$GPGSV,5,3,17,22,18,111,34,24,63,253,27,25,06,333,28,29,10,296,37*7F
$GPGSV,5,4,17,36,52,277,33,40,86,350,35,41,58,082,,49,32,274,*7B
$GPGSV,5,5,17,50,10,089,38*41
$GLGSV,3,1,11,66,13,129,28,67,15,183,28,68,00,226,,76,05,148,17*67
$GLGSV,3,2,11,77,46,126,19,78,55,014,28,79,10,343,34,81,37,325,39*64
$GLGSV,3,3,11,82,34,263,42,83,03,223,,88,07,011,37*51
$GNGLL,0419.72604,S,05539.92715,E,035820.00,A,A*6F
$GNRMC,035821.00,A,0419.72605,S,05539.92716,E,0.015,,030625,,,A*73
$GNVTG,,T,,M,0.015,N,0.027,K,A*3C
$GNGGA,035821.00,0419.72605,S,05539.92716,E,1,12,0.54,10.4,M,-47.6,M,,*46
$GNGSA,A,3,24,05,20,11,15,12,13,22,18,29,25,,1.05,0.54,0.89*19
$GNGSA,A,3,78,77,81,82,66,88,67,79,,,,,1.05,0.54,0.89*1B
$GPGSV,5,1,17,05,56,138,29,11,27,020,20,12,28,358,28,13,21,160,30*71
$GPGSV,5,2,17,14,05,126,33,15,27,195,14,18,19,228,35,20,49,075,39*7C
$GPGSV,5,3,17,22,18,111,34,24,63,253,27,25,06,333,28,29,10,296,37*7F
$GPGSV,5,4,17,36,52,277,33,40,86,350,35,41,58,082,,49,32,274,*7B
$GPGSV,5,5,17,50,10,089,38*41
$GLGSV,3,1,11,66,13,129,28,67,15,183,28,68,00,226,,76,05,148,18*68
$GLGSV,3,2,11,77,45,127,18,78,55,014,28,79,10,343,34,81,37,325,37*69
$GLGSV,3,3,11,82,34,263,41,83,03,223,,88,07,011,34*51
$GNGLL,0419.72605,S,05539.92716,E,035821.00,A,A*6C
$GNRMC,035822.00,A,0419.72605,S,05539.92716,E,0.029,,030625,,,A*7F
$GNVTG,,T,,M,0.029,N,0.053,K,A*30
$GNGGA,035822.00,0419.72605,S,05539.92716,E,1,12,0.54,10.3,M,-47.6,M,,*42
$GNGSA,A,3,24,05,20,11,15,12,13,22,18,29,25,,1.05,0.54,0.89*19
$GNGSA,A,3,78,77,81,82,66,88,67,79,,,,,1.05,0.54,0.89*1B
$GPGSV,5,1,17,05,56,138,29,11,27,020,19,12,28,358,29,13,21,160,30*7A
$GPGSV,5,2,17,14,05,126,32,15,27,195,15,18,19,228,36,20,49,075,39*7F
$GPGSV,5,3,17,22,18,111,35,24,63,253,27,25,06,333,28,29,10,296,38*71
$GPGSV,5,4,17,36,52,277,34,40,86,350,38,41,58,082,,49,32,274,*71
$GPGSV,5,5,17,50,10,089,39*40
$GLGSV,3,1,11,66,13,129,26,67,15,183,29,68,00,226,,76,05,148,17*68
$GLGSV,3,2,11,77,45,127,18,78,55,014,27,79,10,343,32,81,37,325,37*60
$GLGSV,3,3,11,82,34,263,40,83,03,223,,88,07,011,36*52
$GNGLL,0419.72605,S,05539.92716,E,035822.00,A,A*6F
$GNRMC,035823.00,A,0419.72605,S,05539.92716,E,0.026,,030625,,,A*71
$GNVTG,,T,,M,0.026,N,0.047,K,A*3A
$GNGGA,035823.00,0419.72605,S,05539.92716,E,1,12,0.54,10.3,M,-47.6,M,,*43
$GNGSA,A,3,24,05,20,11,15,12,13,22,18,29,25,,1.05,0.54,0.89*19
$GNGSA,A,3,78,77,81,82,66,88,67,79,,,,,1.05,0.54,0.89*1B
$GPGSV,5,1,17,05,56,138,29,11,27,020,17,12,28,358,29,13,21,160,30*74
$GPGSV,5,2,17,14,05,126,31,15,27,195,16,18,19,228,36,20,49,075,39*7F
$GPGSV,5,3,17,22,18,111,35,24,63,253,27,25,06,333,28,29,10,296,38*71
$GPGSV,5,4,17,36,52,277,34,40,86,350,36,41,58,082,,49,32,274,*7F
$GPGSV,5,5,17,50,10,089,39*40
$GLGSV,3,1,11,66,13,129,27,67,15,183,29,68,00,226,,76,05,148,15*6B
$GLGSV,3,2,11,77,45,127,19,78,55,014,29,79,10,343,33,81,37,325,38*61
$GLGSV,3,3,11,82,34,263,41,83,03,223,,88,07,011,37*52
$GNGLL,0419.72605,S,05539.92716,E,035823.00,A,A*6E
$GNRMC,035824.00,A,0419.72608,S,05539.92716,E,0.018,,030625,,,A*76
$GNVTG,,T,,M,0.018,N,0.033,K,A*34
$GNGGA,035824.00,0419.72608,S,05539.92716,E,1,12,0.54,10.3,M,-47.6,M,,*49
$GNGSA,A,3,24,05,20,11,15,12,13,22,18,29,25,,1.05,0.54,0.89*19
$GNGSA,A,3,78,77,81,82,66,88,67,79,,,,,1.05,0.54,0.89*1B
$GPGSV,5,1,17,05,56,138,29,11,27,020,17,12,28,358,29,13,21,160,29*7C
$GPGSV,5,2,17,14,05,126,31,15,27,195,18,18,19,228,36,20,49,075,38*70
$GPGSV,5,3,17,22,18,111,35,24,63,253,27,25,06,333,28,29,10,296,38*71
$GPGSV,5,4,17,36,52,277,34,40,86,350,37,41,58,082,,49,32,274,*7E
$GPGSV,5,5,17,50,10,089,39*40
$GLGSV,3,1,11,66,13,129,27,67,15,183,29,68,00,226,,76,05,148,13*6D
$GLGSV,3,2,11,77,45,127,19,78,55,014,29,79,10,343,34,81,37,325,40*69
$GLGSV,3,3,11,82,34,263,42,83,03,223,,88,07,011,36*50
$GNGLL,0419.72608,S,05539.92716,E,035824.00,A,A*64
$GNRMC,035825.00,A,0419.72608,S,05539.92717,E,0.003,,030625,,,A*7C
$GNVTG,,T,,M,0.003,N,0.006,K,A*38
$GNGGA,035825.00,0419.72608,S,05539.92717,E,1,12,0.54,10.2,M,-47.6,M,,*48
$GNGSA,A,3,24,05,20,11,15,12,13,22,18,29,25,,1.05,0.54,0.89*19
$GNGSA,A,3,78,77,81,82,66,88,67,79,,,,,1.05,0.54,0.89*1B
$GPGSV,5,1,17,05,56,138,29,11,27,020,15,12,28,358,29,13,21,160,29*7E
$GPGSV,5,2,17,14,05,126,32,15,27,195,17,18,19,228,36,20,49,075,38*7C
$GPGSV,5,3,17,22,18,111,36,24,63,253,27,25,06,333,28,29,10,296,38*72
$GPGSV,5,4,17,36,52,277,34,40,86,350,36,41,58,082,,49,32,274,*7F
$GPGSV,5,5,17,50,10,089,39*40
$GLGSV,3,1,11,66,13,129,27,67,15,183,30,68,00,226,,76,05,148,12*64
$GLGSV,3,2,11,77,45,127,19,78,55,014,29,79,10,343,34,81,36,325,39*66
$GLGSV,3,3,11,82,34,263,41,83,03,223,,88,07,011,37*52
$GNGLL,0419.72608,S,05539.92717,E,035825.00,A,A*64
$GNRMC,035826.00,A,0419.72608,S,05539.92717,E,0.022,,030625,,,A*7C
$GNVTG,,T,,M,0.022,N,0.041,K,A*38
$GNGGA,035826.00,0419.72608,S,05539.92717,E,1,12,0.54,10.3,M,-47.6,M,,*4A
$GNGSA,A,3,24,05,20,11,15,12,13,22,18,29,25,,1.05,0.54,0.89*19
$GNGSA,A,3,78,77,81,82,66,88,67,79,,,,,1.05,0.54,0.89*1B
$GPGSV,5,1,17,05,56,138,29,11,27,020,16,12,28,358,29,13,21,160,29*7D
$GPGSV,5,2,17,14,05,126,31,15,27,195,15,18,19,228,36,20,49,075,38*7D
$GPGSV,5,3,17,22,18,111,35,24,63,253,26,25,06,333,27,29,10,296,38*7F
$GPGSV,5,4,17,36,52,277,33,40,86,350,35,41,58,082,,49,32,274,*7B
$GPGSV,5,5,17,50,10,089,39*40
$GLGSV,3,1,11,66,13,129,28,67,15,183,30,68,00,226,,76,05,148,12*6B
$GLGSV,3,2,11,77,45,127,20,78,55,014,30,79,10,343,34,81,36,325,39*64
$GLGSV,3,3,11,82,34,263,42,83,03,223,,88,07,011,37*51
$GNGLL,0419.72608,S,05539.92717,E,035826.00,A,A*67
$GNRMC,035827.00,A,0419.72608,S,05539.92717,E,0.009,,030625,,,A*74
$GNVTG,,T,,M,0.009,N,0.018,K,A*3D
$GNGGA,035827.00,0419.72608,S,05539.92717,E,1,12,0.54,10.3,M,-47.6,M,,*4B
$GNGSA,A,3,24,05,20,11,15,12,13,22,18,29,25,,1.05,0.54,0.89*19
$GNGSA,A,3,78,77,81,82,66,88,67,79,,,,,1.05,0.54,0.89*1B
$GPGSV,5,1,17,05,56,138,30,11,27,020,18,12,28,358,30,13,21,160,30*7B
$GPGSV,5,2,17,14,05,126,33,15,27,195,16,18,19,228,37,20,49,075,40*72
$GPGSV,5,3,17,22,18,111,37,24,63,253,27,25,06,333,28,29,10,296,39*72
$GPGSV,5,4,17,36,52,277,35,40,86,350,37,41,58,082,,49,32,274,*7F
$GPGSV,5,5,17,50,10,089,40*4E
$GLGSV,3,1,11,66,13,129,28,67,15,183,30,68,00,226,,76,05,148,14*6D
$GLGSV,3,2,11,77,45,127,21,78,55,014,30,79,10,343,35,81,36,325,39*64
$GLGSV,3,3,11,82,34,263,42,83,03,223,,88,07,011,37*51
$GNGLL,0419.72608,S,05539.92717,E,035827.00,A,A*66
$GNRMC,035828.00,A,0419.72607,S,05539.92716,E,0.011,,030625,,,A*7C
$GNVTG,,T,,M,0.011,N,0.021,K,A*3E
$GNGGA,035828.00,0419.72607,S,05539.92716,E,1,12,0.54,10.3,M,-47.6,M,,*4A
$GNGSA,A,3,24,05,20,11,15,12,13,22,18,29,25,,1.05,0.54,0.89*19
$GNGSA,A,3,78,77,81,82,66,88,67,79,,,,,1.05,0.54,0.89*1B
$GPGSV,5,1,17,05,56,138,31,11,27,020,18,12,28,358,31,13,21,160,30*7B
$GPGSV,5,2,17,14,05,126,33,15,27,195,15,18,19,228,37,20,49,075,40*71
$GPGSV,5,3,17,22,18,111,37,24,63,253,28,25,06,333,28,29,10,296,39*7D
$GPGSV,5,4,17,36,52,277,35,40,86,350,37,41,58,082,,49,32,274,*7F
$GPGSV,5,5,17,50,10,089,40*4E
$GLGSV,3,1,11,66,13,129,28,67,15,183,31,68,00,226,,76,05,148,15*6D
$GLGSV,3,2,11,77,45,127,21,78,55,014,29,79,10,343,34,81,36,325,39*6D
$GLGSV,3,3,11,82,34,263,42,83,03,223,,88,07,011,37*51
$GNGLL,0419.72607,S,05539.92716,E,035828.00,A,A*67
$GNRMC,035829.00,A,0419.72608,S,05539.92717,E,0.009,,030625,,,A*7A
$GNVTG,,T,,M,0.009,N,0.017,K,A*32
$GNGGA,035829.00,0419.72608,S,05539.92717,E,1,12,0.54,10.2,M,-47.6,M,,*44
$GNGSA,A,3,24,05,20,11,15,12,13,22,18,29,25,,1.05,0.54,0.89*19
$GNGSA,A,3,78,77,81,82,66,88,67,79,,,,,1.05,0.54,0.89*1B
$GPGSV,5,1,17,05,56,138,30,11,27,020,18,12,28,358,30,13,21,160,29*73
$GPGSV,5,2,17,14,05,126,33,15,27,195,15,18,19,228,36,20,49,075,39*7E
$GPGSV,5,3,17,22,18,111,36,24,63,253,27,25,06,333,28,29,10,296,38*72
$GPGSV,5,4,17,36,52,277,35,40,86,350,35,41,58,082,,49,32,274,*7D
$GPGSV,5,5,17,50,10,089,40*4E
$GLGSV,3,1,11,66,13,129,28,67,15,183,31,68,00,226,,76,05,148,16*6E
$GLGSV,3,2,11,77,45,127,21,78,55,014,29,79,10,343,34,81,36,325,39*6D
$GLGSV,3,3,11,82,34,263,42,83,03,223,,88,07,011,37*51
$GNGLL,0419.72608,S,05539.92717,E,035829.00,A,A*68
$GNRMC,035830.00,A,0419.72608,S,05539.92718,E,0.075,,030625,,,A*76
$GNVTG,,T,,M,0.075,N,0.138,K,A*35
$GNGGA,035830.00,0419.72608,S,05539.92718,E,1,12,0.56,10.2,M,-47.6,M,,*41
$GNGSA,A,3,24,05,20,11,15,12,13,22,18,29,25,,1.05,0.56,0.89*1B
$GNGSA,A,3,78,77,81,82,66,88,67,79,,,,,1.05,0.56,0.89*19
$GPGSV,5,1,17,05,56,138,29,11,27,020,19,12,28,358,29,13,21,160,31*7B
$GPGSV,5,2,17,14,05,126,33,15,27,195,18,18,19,228,36,20,49,075,40*7D
$GPGSV,5,3,17,22,18,111,32,24,63,253,27,25,06,333,29,29,10,296,38*77
$GPGSV,5,4,17,36,52,277,36,40,86,350,33,41,58,082,,49,32,274,*78
$GPGSV,5,5,17,50,10,089,41*4F
$GLGSV,3,1,11,66,13,129,28,67,15,183,31,68,00,226,,76,05,148,17*6F
$GLGSV,3,2,11,77,45,127,21,78,55,014,29,79,10,343,34,81,36,325,39*6D
$GLGSV,3,3,11,82,34,263,40,83,03,223,,88,07,011,37*53
$GNGLL,0419.72608,S,05539.92718,E,035830.00,A,A*6F
