b0L`>"$!
"IefM)e
)!2l@S ^#{4'V_l.#:R 
YyCAG:H(iGK#LGMBV
W
VX*b`>r9$GNRMC,065746.00,A,0419.87068,S,05539.86233,E,0.062,,230525,,,A*79
$GNVTG,,T,,M,0.062,N,0.115,K,A*3C
$GNGNS,065746.00,0419.87068,S,05539.86233,E,AA,15,0.83,26.0,-47.6,,*6B
$GNGGA,065746.00,0419.87068,S,05539.86233,E,1,12,0.83,26.0,M,-47.6,M,,*46
$GNGSA,A,3,24,05,13,15,12,29,18,25,23,40,,,1.39,0.83,1.12*18
$GNGSA,A,3,75,71,72,76,65,,,,,,,,1.39,0.83,1.12*1D
$GPGSV,5,1,17,05,36,033,34,10,09,213,,12,73,101,34,13,13,102,28*7D
$GPGSV,5,2,17,15,41,132,19,18,31,297,20,20,03,033,,23,50,213,29*7A
$GPGSV,5,3,17,24,30,173,19,25,64,339,28,28,06,288,,29,16,350,20*71
$GPGSV,5,4,17,36,52,277,,40,86,351,39,41,58,082,35,49,32,274,*70
$GPGSV,5,5,17,50,10,089,*4A
$GLGSV,3,1,09,65,29,176,16,71,12,058,17,72,40,105,18,75,35,166,22*66
$GLGSV,3,2,09,76,71,278,18,77,28,322,23,86,00,022,10,87,10,342,*62
$GLGSV,3,3,09,88,05,287,*54
$GNGLL,0419.87068,S,05539.86233,E,065746.00,A,A*67
$GNGRS,065746.00,1,-5.8,-0.9,0.8,-14.3,2.8,5.5,19.7,2.0,-1.5,119,,*48
$GNGRS,065746.00,1,32.9,11.7,-24.9,-12.7,-108,,,,,,,*46
$GNGST,065746.00,1097,,,,3.5,5.3,8.3*4B
$GNZDA,065746.00,23,05,2025,00,00*7F
$GNGBS,065746.00,3.5,5.3,8.3,,,,*52
$GNTXT,01,01,01,More than 100 frame errors, UART RX was disabled*70
$GNGGA,065747.00,0419.87069,S,05539.86248,E,1,12,0.98,26.5,M,-47.6,M,,*45
$GNGSA,A,3,24,05,13,15,12,29,18,25,23,40,,,1.57,0.98,1.23*18
$GNGSA,A,3,75,71,72,76,65,,,,,,,,1.57,0.98,1.23*1D
$GPGSV,5,1,17,05,36,033,29,10,09,213,,12,73,101,35,13,13,102,27*7F
$GPGSV,5,2,17,15,41,132,18,18,31,297,18,20,03,033,,23,50,213,28*71
$GPGSV,5,3,17,24,30,173,19,25,64,339,28,28,06,288,,29,16,350,18*7A
$GPGSV,5,4,17,36,52,277,,40,86,351,35,41,58,082,32,49,32,274,*7B
$GPGSV,5,5,17,50,10,089,*4A
$GLGSV,3,1,09,65,29,176,15,71,12,058,15,72,40,105,16,75,35,166,23*68
$GLGSV,3,2,09,76,71,278,17,77,28,322,22,86,00,022,10,87,10,342,*6C
$GLGSV,3,3,09,88,05,287,*54
$GNGLL,0419.87069,S,05539.86248,E,065747.00,A,A*6B
$GNGRS,065747.00,1,-5.3,-0.2,-1.3,-14.3,2.9,2.9,22.3,-0.6,-7.4,119,,*46
$GNGRS,065747.00,1,33.5,9.3,-18.0,-10.4,-97.3,,,,,,,*5A
$GNGST,065747.00,1138,,,,3.5,5.4,8.3*49
$GNZDA,065747.00,23,05,2025,00,00*7E
$GNGBS,065747.00,3.5,5.4,8.3,65,,97.5,67.4*59
$GNTXT,01,01,01,More than 100 frame errors, UART RX was disabled*70
b0L0>#!k
#Ief)
)!2b@S ^\{4%V_Z.!:R 
YyAG:H(iK#<LGMBVW
VX}b0>r$GNRMC,065748.00,A,0419.87076,S,05539.86257,E,0.119,,230525,,,A*77
$GNVTG,,T,,M,0.119,N,0.221,K,A*35
$GNGNS,065748.00,0419.87076,S,05539.86257,E,AA,14,1.01,26.3,-47.6,,*61
$GNGGA,065748.00,0419.87076,S,05539.86257,E,1,12,1.01,26.3,M,-47.6,M,,*4D
$GNGSA,A,3,24,05,13,15,12,29,18,25,23,40,,,1.62,1.01,1.27*1B
$GNGSA,A,3,75,71,76,65,,,,,,,,,1.62,1.01,1.27*1B
$GPGSV,5,1,17,05,35,033,31,10,09,213,,12,73,101,35,13,13,102,27*75
$GPGSV,5,2,17,15,41,132,18,18,31,297,16,20,03,033,,23,50,213,28*7F
$GPGSV,5,3,17,24,30,173,19,25,64,339,28,28,06,288,,29,16,350,16*74
$GPGSV,5,4,17,36,52,277,,40,86,351,37,41,58,082,33,49,32,274,*78
$GPGSV,5,5,17,50,10,089,*4A
$GLGSV,3,1,09,65,29,176,15,71,12,058,15,72,40,105,,75,35,166,30*6D
$GLGSV,3,2,09,76,71,278,15,77,28,322,21,86,00,022,11,87,10,342,*6C
$GLGSV,3,3,09,88,05,287,*54
$GNGLL,0419.87076,S,05539.86257,E,065748.00,A,A*64
$GNGRS,065748.00,1,-5.2,3.6,-1.3,-17.7,2.5,0.9,24.6,-2.5,-6.7,119,,*6B
$GNGRS,065748.00,1,21.1,9.0,-12.7,-83.1,,,,,,,,*6D
$GNGST,065748.00,1138,,,,3.5,5.4,8.2*47
$GNZDA,065748.00,23,05,2025,00,00*71
$GNGBS,065748.00,3.5,5.4,8.2,,,,*5A
$GNTXT,01,01,01,More than 100 frame errors, UART RX was disabled*70
b0L>!#!
&Ief)/
)!2@S ^{4&V_.":R 
YyUAKG:H(igK#.LG
MBVW
VX&b>rf$GNRMC,065750.00,A,0419.87083,S,05539.86263,E,0.029,,230525,,,A*71
$GNVTG,,T,,M,0.029,N,0.054,K,A*37
$GNGNS,065750.00,0419.87083,S,05539.86263,E,AA,14,0.86,26.6,-47.6,,*6E
$GNGGA,065750.00,0419.87083,S,05539.86263,E,1,12,0.86,26.6,M,-47.6,M,,*42
$GNGSA,A,3,24,05,13,15,12,29,18,25,23,40,,,1.42,0.86,1.14*17
$GNGSA,A,3,75,71,76,65,,,,,,,,,1.42,0.86,1.14*17
$GPGSV,5,1,17,05,35,033,33,10,09,213,,12,73,101,38,13,13,102,29*74
$GPGSV,5,2,17,15,41,132,20,18,31,297,22,20,03,033,,23,50,213,27*7C
$GPGSV,5,3,17,24,30,173,25,25,64,339,28,28,06,288,,29,16,350,18*75
$GPGSV,5,4,17,36,52,277,,40,86,351,38,41,58,082,34,49,32,274,*70
$GPGSV,5,5,17,50,10,089,*4A
$GLGSV,3,1,09,65,29,176,17,71,12,058,19,72,40,105,22,75,35,166,29*6B
$GLGSV,3,2,09,76,71,278,20,77,28,322,22,86,00,022,11,87,10,342,*69
$GLGSV,3,3,09,88,05,287,*54
$GNGLL,0419.87083,S,05539.86263,E,065750.00,A,A*60
$GNGRS,065750.00,1,-8.5,3.9,-5.7,-22.6,2.0,-0.9,19.9,4.6,-6.3,118,,*64
$GNGRS,065750.00,1,23.5,4.6,-12.7,-68.4,,,,,,,,*69
$GNGST,065750.00,83155,,,,3.5,5.3,7.9*7C
$GNZDA,065750.00,23,05,2025,00,00*78
$GNGBS,065750.00,3.5,5.3,7.9,,,,*50
b0L>#!
!Ief)D
).!2@S% ^{4!V_.:R 
YyAgG:H(iK#LG]MBVW
VXb>rv=2$GNRMC,065751.00,A,0419.87082,S,05539.86259,E,0.181,,230525,,,A*7B
$GNVTG,,T,,M,0.181,N,0.335,K,A*30
$GNGNS,065751.00,0419.87082,S,05539.86259,E,AA,14,0.86,26.6,-47.6,,*67
$GNGGA,065751.00,0419.87082,S,05539.86259,E,1,12,0.86,26.6,M,-47.6,M,,*4B
$GNGSA,A,3,24,05,13,15,12,29,18,25,23,40,,,1.42,0.86,1.14*17
$GNGSA,A,3,75,71,76,65,,,,,,,,,1.42,0.86,1.14*17
$GPGSV,5,1,17,05,35,033,29,10,09,213,,12,73,101,33,13,13,102,28*75
$GPGSV,5,2,17,15,41,132,22,18,31,297,22,20,03,033,,23,50,213,27*7E
$GPGSV,5,3,17,24,30,173,24,25,64,339,28,28,06,288,,29,16,350,16*7A
$GPGSV,5,4,17,36,52,277,,40,86,351,33,41,58,082,31,49,32,274,*7E
$GPGSV,5,5,17,50,10,089,*4A
$GLGSV,3,1,09,65,29,176,16,71,12,058,18,72,40,105,,75,35,166,28*6A
$GLGSV,3,2,09,76,71,278,15,77,28,322,23,86,00,022,09,87,10,342,*67
$GLGSV,3,3,09,88,05,287,*54
$GNGLL,0419.87082,S,05539.86259,E,065751.00,A,A*69
$GNGRS,065751.00,1,-8.0,4.2,-5.2,-24.9,2.0,-1.2,15.8,8.0,-5.6,118,,*6B
$GNGRS,065751.00,1,24.6,2.0,-14.4,-63.0,,,,,,,,*66
$GNGST,065751.00,1138,,,,3.5,5.3,7.9*4C
$GNZDA,065751.00,23,05,2025,00,00*79
$GNGBS,065751.00,3.5,5.3,7.9,,,,*51
$GNTXT,01,01,01,More than 100 frame errors, UART RX was disabled*70
b0L>!#!
'Ief)(
)!2_@S ^{4"V_.#:R 
YymAtG:H(iK#LG;MBVW
VXNb>rF"$GNRMC,065753.00,A,0419.87087,S,05539.86249,E,0.118,,230525,,,A*7D
$GNVTG,,T,,M,0.118,N,0.218,K,A*3E
$GNGNS,065753.00,0419.87087,S,05539.86249,E,AA,13,0.96,26.9,-47.6,,*68
$GNGGA,065753.00,0419.87087,S,05539.86249,E,1,12,0.96,26.9,M,-47.6,M,,*43
$GNGSA,A,3,24,05,13,15,12,18,25,23,40,,,,1.66,0.96,1.35*18
$GNGSA,A,3,75,71,76,65,,,,,,,,,1.66,0.96,1.35*13
$GPGSV,5,1,17,05,35,033,33,10,09,213,,12,73,101,39,13,13,102,28*74
$GPGSV,5,2,17,15,41,132,20,18,31,297,22,20,03,033,,23,50,213,25*7E
$GPGSV,5,3,17,24,30,173,22,25,64,339,27,28,06,288,,29,16,350,*74
$GPGSV,5,4,17,36,52,277,,40,86,351,34,41,58,082,35,49,32,274,*7D
$GNTXT,01,01,01,More than 100 frame errors, UART RX was disabled*70
$GNGSA,A,3,24,05,13,15,12,18,25,23,40,,,,1.64,0.97,1.32*1C
$GNGSA,A,3,75,76,65,,,,,,,,,,1.64,0.97,1.32*11
$GPGSV,5,1,17,05,35,033,30,10,09,213,,12,72,103,38,13,13,102,29*74
$GPGSV,5,2,17,15,41,132,23,18,31,297,24,20,03,033,,23,50,213,21*7F
$GPGSV,5,3,17,24,30,173,24,25,64,339,29,28,06,288,,29,16,350,*7C
$GPGSV,5,4,17,36,52,277,,40,86,351,37,41,58,082,32,49,32,274,*79
$GPGSV,5,5,17,50,10,089,*4A
$GLGSV,3,1,09,65,29,176,15,71,12,058,09,72,40,105,,75,35,166,28*69
$GLGSV,3,2,09,76,71,278,20,77,28,322,22,86,00,022,11,87,10,342,*69
$GLGSV,3,3,09,88,05,287,*54
$GNGLL,0419.87087,S,05539.86241,E,065756.00,A,A*62
$GNGRS,065756.00,1,-0.4,0.6,-3.4,-23.9,0.0,8.8,-1.3,-4.8,119,,,*70
$GNGRS,065756.00,1,12.3,-14.6,-51.7,,,,,,,,,*49
$GNGST,065756.00,1825,,,,3.5,5.4,7.9*49
$GNZDA,065756.00,23,05,2025,00,00*7E
$GNGBS,065756.00,3.5,5.4,7.9,,,,*51
$GNTXT,01,01,01,More than 100 frame errors, UART RX was disabled*70
$GNTXT,01,01,01,More than 100 frame errors, UART RX was disabled*70
$GNTXT,01,01,01,More than 100 frame errors, UART RX was disabled*70
b0L(>#!
%Hgf),
)!2@S ^{4#V_~.:R 
Yy}A$G:H(iK#LGZMBVW
VXb(>r9o$GNRMC,065759.00,A,0419.87093,S,05539.86238,E,0.104,,230525,,,A*79
$GNVTG,,T,,M,0.104,N,0.193,K,A*33
$GNGNS,065759.00,0419.87093,S,05539.86238,E,AA,13,0.94,26.3,-47.6,,*69
$GNGGA,065759.00,0419.87093,S,05539.86238,E,1,12,0.94,26.3,M,-47.6,M,,*42
$GNGSA,A,3,24,05,13,15,12,18,25,23,40,,,,1.60,0.94,1.30*19
$GNGSA,A,3,75,71,76,65,,,,,,,,,1.60,0.94,1.30*12
$GPGSV,5,1,17,05,35,033,31,10,09,213,,12,72,103,37,13,13,102,27*74
$GPGSV,5,2,17,15,41,131,20,18,31,297,27,20,03,033,,23,50,213,18*76
$GPGSV,5,3,17,24,30,173,22,25,64,339,31,28,06,288,,29,16,350,*73
$GPGSV,5,4,17,36,52,277,,40,86,351,35,41,58,082,31,49,32,274,*78
$GPGSV,5,5,17,50,10,089,*4A
$GLGSV,3,1,09,65,29,176,14,71,12,058,14,72,40,105,,75,35,166,28*64
$GLGSV,3,2,09,76,71,278,19,77,28,322,24,86,00,022,11,87,10,342,*65
$GLGSV,3,3,09,88,05,287,*54
$GNGLL,0419.87093,S,05539.86238,E,065759.00,A,A*66
$GNGRS,065759.00,1,4.1,6.7,-7.6,-25.2,-1.1,4.7,-5.3,-3.3,119,,,*79
$GNGRS,065759.00,1,7.9,-0.6,-11.9,-53.4,,,,,,,,*76
$GNGST,065759.00,1789,,,,3.6,5.2,7.8*4B
$GNZDA,065759.00,23,05,2025,00,00*71
$GNGBS,065759.00,3.6,5.2,7.8,,,,*5A
$GNTXT,01,01,01,More than 100 frame errors, UART RX was disabled*70
b0L> #!$
'Hgvf)
)e!2*L@S ^"{4&V_f.:R 
YyoAG:H(iK#LGMBV
W
VXyb>r=$GNRMC,065800.00,A,0419.87089,S,05539.86230,E,0.047,,230525,,,A*7F
$GNVTG,,T,,M,0.047,N,0.088,K,A*3E
$GNGNS,065800.00,0419.87089,S,05539.86230,E,AA,13,0.94,26.1,-47.6,,*6B
b0L>#!
"Hgnf)
)!2@S7 ^{4 V_w.:R 
YyA,G:XH(iK#LGMBVW
VXb>rA0$GNRMC,065801.00,A,0419.87091,S,05539.86227,E,0.124,,230525,,,A*75
$GNVTG,,T,,M,0.124,N,0.230,K,A*3B
$GNGNS,065801.00,0419.87091,S,05539.86227,E,AA,13,0.94,25.9,-47.6,,*6E
$GNGGA,065801.00,0419.87091,S,05539.86227,E,1,12,0.94,25.9,M,-47.6,M,,*45
$GNGSA,A,3,24,05,13,15,12,18,25,23,40,,,,1.60,0.94,1.30*19
$GNGSA,A,3,75,71,76,65,,,,,,,,,1.60,0.94,1.30*12
$GPGSV,5,1,17,05,35,033,30,10,09,213,,12,72,103,34,13,13,102,28*79
$GPGSV,5,2,17,15,41,131,18,18,31,297,27,20,03,033,,23,50,213,14*71
$GPGSV,5,3,17,24,30,173,22,25,64,339,20,28,06,288,,29,16,350,20*71
$GPGSV,5,4,17,36,52,277,,40,86,351,32,41,58,082,31,49,32,274,*7F
$GPGSV,5,5,17,50,10,089,*4A
$GLGSV,3,1,09,65,29,176,12,71,12,058,12,72,40,105,,75,35,166,29*65
$GLGSV,3,2,09,76,71,278,18,77,28,322,24,86,00,022,13,87,10,342,*66
$GLGSV,3,3,09,88,05,287,*54
$GNGLL,0419.87091,S,05539.86227,E,065801.00,A,A*68
$GNGRS,065801.00,1,7.0,5.0,-0.7,-22.8,-1.5,5.1,8.2,-5.0,119,,,*51
$GNGRS,065801.00,1,7.5,0.9,-14.0,-55.9,,,,,,,,*5D
$GNGST,065801.00,1726,,,,3.6,5.2,7.7*43
$GNZDA,065801.00,23,05,2025,00,00*73
$GNGBS,065801.00,3.6,5.2,7.7,,,,*57
b0L>#!v
$Hgbf)
),!u2@S ^{4"V_c. :R 
YyUAcG:H(iK#LGMBVW
VXb>rnE$GNRMC,065802.00,A,0419.87093,S,05539.86221,E,0.118,,230525,,,A*7D
$GNVTG,,T,,M,0.118,N,0.218,K,A*3E
$GNGNS,065802.00,0419.87093,S,05539.86221,E,AA,13,0.87,25.9,-47.6,,*6B
$GNGGA,065802.00,0419.87093,S,05539.86221,E,1,12,0.87,25.9,M,-47.6,M,,*40
$GNGSA,A,3,24,05,13,15,12,18,25,23,40,,,,1.51,0.87,1.24*1C
$GNGSA,A,3,75,71,76,65,,,,,,,,,1.51,0.87,1.24*17
$GPGSV,5,1,17,05,35,033,29,10,09,213,,12,72,103,36,13,13,102,29*72
$GPGSV,5,2,17,15,41,131,20,18,31,297,28,20,03,033,12,23,50,213,17*75
$GPGSV,5,3,17,24,30,173,22,25,64,339,27,28,06,288,,29,16,350,18*7D
$GPGSV,5,4,17,36,52,277,,40,86,351,34,41,58,082,32,49,32,274,*7A
$GPGSV,5,5,17,50,10,089,*4A
$GLGSV,3,1,09,65,29,176,12,71,12,058,11,72,40,105,,75,35,166,29*66
$GLGSV,3,2,09,76,71,278,17,77,28,322,23,86,00,022,11,87,10,342,*6C
$GLGSV,3,3,09,88,05,287,*54
$GNGLL,0419.87093,S,05539.86221,E,065802.00,A,A*6F
$GNGRS,065802.00,1,7.5,6.3,-5.8,-18.8,-1.6,0.4,5.1,-0.7,119,,,*5B
$GNGRS,065802.00,1,9.5,0.3,-13.6,3.5,,,,,,,,*49
$GNGST,065802.00,22494,,,,3.6,5.1,7.7*78
$GNZDA,065802.00,23,05,2025,00,00*70
$GNGBS,065802.00,3.6,5.1,7.7,,,,*57
b0L>#!
'Hg3f)
)E! 2@S ^{4%V_S. :R 
YyAQG:^H(iK#LGMBVW
VXib>rVI[$GNRMC,065803.00,A,0419.87091,S,05539.86213,E,0.044,,230525,,,A*77
$GNVTG,,T,,M,0.044,N,0.082,K,A*37
$GNGNS,065803.00,0419.87091,S,05539.86213,E,AA,13,0.87,25.7,-47.6,,*67
$GNGGA,065803.00,0419.87091,S,05539.86213,E,1,12,0.87,25.7,M,-47.6,M,,*4C
$GNGSA,A,3,24,05,13,15,12,18,25,23,40,,,,1.51,0.87,1.24*1C
$GNGSA,A,3,75,71,76,65,,,,,,,,,1.51,0.87,1.24*17
$GPGSV,5,1,17,05,35,033,30,10,09,213,,12,72,103,39,13,13,102,28*74
$GPGSV,5,2,17,15,41,131,23,18,31,297,28,20,03,033,09,23,50,213,21*79
$GPGSV,5,3,17,24,30,173,23,25,64,339,24,28,06,288,,29,16,350,17*70
$GPGSV,5,4,17,36,52,277,,40,86,351,37,41,58,082,32,49,32,274,*79
$GPGSV,5,5,17,50,10,089,*4A
$GLGSV,3,1,09,65,29,176,18,71,12,058,12,72,40,105,,75,35,166,29*6F
$GLGSV,3,2,09,76,71,278,15,77,28,322,23,86,00,022,09,87,10,342,*67
$GLGSV,3,3,09,88,05,287,*54
$GNGLL,0419.87091,S,05539.86213,E,065803.00,A,A*6D
$GNGRS,065803.00,1,7.3,1.4,-2.7,-16.6,-2.0,3.3,4.8,-0.7,119,,,*5D
$GNGRS,065803.00,1,2.1,0.9,-15.5,3.4,,,,,,,,*49
$GNGST,065803.00,33694,,,,3.6,5.1,7.7*7B
$GNZDA,065803.00,23,05,2025,00,00*71
$GNGBS,065803.00,3.6,5.1,7.7,,,,*56
b0L>##!
'Hg9f)s
)!2`@S ^{4#V_+.:R 
YyAG:H(iK#LGMBVW
VXb>r>M3h$GNRMC,065804.00,A,0419.87084,S,05539.86205,E,0.081,,230525,,,A*7A
$GNVTG,,T,,M,0.081,N,0.150,K,A*30
$GNGNS,065804.00,0419.87084,S,05539.86205,E,AA,13,0.87,25.5,-47.6,,*61
$GNGGA,065804.00,0419.87084,S,05539.86205,E,1,12,0.87,25.5,M,-47.6,M,,*4A
$GNGSA,A,3,24,05,13,15,12,18,25,23,40,,,,1.51,0.87,1.24*1C
$GNGSA,A,3,75,71,76,65,,,,,,,,,1.51,0.87,1.24*17
$GPGSV,5,1,17,05,35,033,35,10,09,213,,12,72,103,39,13,13,102,27*7E
$GPGSV,5,2,17,15,41,131,22,18,31,297,28,20,03,033,07,23,50,213,25*72
$GPGSV,5,3,17,24,30,173,22,25,64,339,27,28,06,288,,29,16,350,*74
$GPGSV,5,4,17,36,52,277,,40,86,351,35,41,58,082,31,49,32,274,*78
$GPGSV,5,5,17,50,10,089,*4A
$GLGSV,3,1,09,65,29,176,17,71,12,058,11,72,40,105,24,75,35,166,30*6D
$GLGSV,3,2,09,76,71,278,14,77,28,322,24,86,00,022,11,87,10,342,*68
$GLGSV,3,3,09,88,05,287,*54
$GNGLL,0419.87084,S,05539.86205,E,065804.00,A,A*69
$GNGRS,065804.00,1,9.2,2.0,-2.3,-14.2,-2.0,4.8,6.4,-1.6,118,,,*53
$GNGRS,065804.00,1,-3.8,2.4,-16.4,4.4,,,,,,,,*61
$GNGST,065804.00,1657,,,,3.6,5.0,7.6*42
$GNZDA,065804.00,23,05,2025,00,00*76
$GNGBS,065804.00,3.6,5.0,7.6,,,,*51
b0L>!#!
$HgIf)
)s!3@SQ ^{4"V_1. :R 
YyAG:@H(i3K#^LGpMBV
W
VXab>r&Q$GNRMC,065805.00,A,0419.87080,S,05539.86202,E,0.071,,230525,,,A*77
$GNVTG,,T,,M,0.071,N,0.131,K,A*38
$GNGNS,065805.00,0419.87080,S,05539.86202,E,AA,13,0.87,25.4,-47.6,,*62
$GNGGA,065805.00,0419.87080,S,05539.86202,E,1,12,0.87,25.4,M,-47.6,M,,*49
$GNGSA,A,3,24,05,13,15,12,18,25,23,40,,,,1.51,0.87,1.24*1C
$GNGSA,A,3,75,71,76,65,,,,,,,,,1.51,0.87,1.24*17
$GPGSV,5,1,17,05,35,033,33,10,09,213,,12,72,103,36,13,13,102,26*76
$GPGSV,5,2,17,15,41,131,25,18,31,297,28,20,03,033,09,23,51,214,24*7C
$GPGSV,5,3,17,24,30,173,22,25,64,339,30,28,06,288,,29,16,350,*72
$GPGSV,5,4,17,36,52,277,,40,86,351,34,41,58,082,32,49,32,274,*7A
$GPGSV,5,5,17,50,10,089,*4A
$GLGSV,3,1,09,65,29,176,17,71,12,058,08,72,40,105,21,75,35,166,30*60
$GLGSV,3,2,09,76,71,278,15,77,28,322,24,86,00,022,10,87,10,342,*68
$GLGSV,3,3,09,88,05,287,*54
$GNGLL,0419.87080,S,05539.86202,E,065805.00,A,A*6B
$GNGRS,065805.00,1,7.6,5.1,-5.1,-12.7,-1.8,1.2,3.4,-0.3,118,,,*5D
$GNGRS,065805.00,1,-6.7,3.2,-16.8,7.8,,,,,,,,*6E
$GNGST,065805.00,80140,,,,3.6,5.0,7.6*7B
$GNZDA,065805.00,23,05,2025,00,00*77
$GNGBS,065805.00,3.6,5.0,7.6,,,,*50
$GNTXT,01,01,01,More than 100 frame errors, UART RX was disabled*70
$GNTXT,01,01,01,More than 100 frame errors, UART RX was disabled*70
b0L8>#!
(Hg1f)
)n
!3)@R\ ^{4%V_-#:R 
YyAG:H(iK#LGWMBV
W
VXy"b8>r`jm$GNRMC,065809.00,A,0419.87067,S,05539.86179,E,0.023,,230525,,,A*7A
$GNVTG,,T,,M,0.023,N,0.042,K,A*3A
$GNGNS,065809.00,0419.87067,S,05539.86179,E,AA,14,0.87,24.9,-47.6,,*63
$GNGGA,065809.00,0419.87067,S,05539.86179,E,1,12,0.87,24.9,M,-47.6,M,,*4F
$GNGSA,A,3,24,05,13,15,12,18,25,23,40,,,,1.51,0.87,1.24*1C
$GNGSA,A,3,75,71,72,76,65,,,,,,,,1.51,0.87,1.24*12
$GPGSV,5,1,17,05,35,033,30,10,09,213,,12,72,103,40,13,13,102,26*74
$GPGSV,5,2,17,15,41,131,25,18,31,297,29,20,03,033,10,23,51,214,26*77
$GPGSV,5,3,17,24,30,172,23,25,64,338,29,28,06,288,,29,16,350,*7B
$GPGSV,5,4,17,36,52,277,,40,86,351,37,41,58,082,35,49,32,274,*7E
$GPGSV,5,5,17,50,10,089,*4A
$GLGSV,3,1,09,65,29,176,14,71,12,058,08,72,40,105,22,75,35,166,31*61
$GLGSV,3,2,09,76,71,278,19,77,28,322,23,86,00,022,10,87,10,342,*63
$GLGSV,3,3,09,88,05,287,*54
$GNGLL,0419.87067,S,05539.86179,E,065809.00,A,A*61
$GNGRS,065809.00,1,8.1,9.8,1.3,-8.8,-2.1,3.7,-1.6,1.8,118,,,*44
$GNGRS,065809.00,1,-5.8,17.5,-33.7,-19.6,15.2,,,,,,,*50
$GNGST,065809.00,3179277,,,,3.6,4.8,7.5*7E
$GNZDA,065809.00,23,05,2025,00,00*7B
$GNGBS,065809.00,3.6,4.8,7.5,,,,*56
b0L>#!
$Hgf)
)
!3j@RE^{4"V_-:R 
YyAG
:H(iK#
LGYMBVW
VX9b>rh=$GNRMC,065811.00,A,0419.87064,S,05539.86178,E,0.092,,230525,,,A*7B
$GNVTG,,T,,M,0.092,N,0.170,K,A*30
$GNGNS,065811.00,0419.87064,S,05539.86178,E,AA,14,0.87,24.6,-47.6,,*67
$GNGGA,065811.00,0419.87064,S,05539.86178,E,1,12,0.87,24.6,M,-47.6,M,,*4B
$GNGSA,A,3,24,05,13,15,12,18,25,23,40,,,,1.51,0.87,1.24*1C
$GNGSA,A,3,75,71,72,76,65,,,,,,,,1.51,0.87,1.24*12
$GPGSV,5,1,17,05,35,033,29,10,09,213,,12,72,103,36,13,13,102,24*7F
$GPGSV,5,2,17,15,41,131,26,18,31,297,27,20,03,033,10,23,51,214,22*7E
$GPGSV,5,3,17,24,30,172,25,25,64,338,29,28,06,287,,29,16,350,18*7B
$GPGSV,5,4,17,36,52,277,,40,86,351,34,41,58,082,31,49,32,274,*79
$GPGSV,5,5,17,50,10,089,*4A
$GLGSV,3,1,09,65,29,176,14,71,12,058,10,72,40,105,20,75,35,166,29*63
$GLGSV,3,2,09,76,71,278,25,77,28,322,24,86,00,022,08,87,10,342,*62
$GLGSV,3,3,09,88,05,287,*54
$GNGLL,0419.87064,S,05539.86178,E,065811.00,A,A*6A
$GNGRS,065811.00,1,8.7,7.5,1.5,-8.2,-1.2,2.7,-1.9,2.5,117,,,*4B
$GNGRS,065811.00,1,-2.5,18.2,-31.8,-19.6,12.7,,,,,,,*54
$GNGST,065811.00,3179277,,,,3.6,4.8,7.5*77
$GNZDA,065811.00,23,05,2025,00,00*72
$GNGBS,065811.00,3.6,4.8,7.5,,,,*5F
$GNTXT,01,01,01,More than 100 frame errors, UART RX was disabled*70
b0L>#!]
&Hgf)
)v!3; @RY^{4#V_-:R 
YyqAoG:H(iiK#HLGhMBV
W
VXb>r~l$GNRMC,065812.00,A,0419.87065,S,05539.86172,E,0.178,,230525,,,A*76
$GNVTG,,T,,M,0.178,N,0.330,K,A*33
$GNGNS,065812.00,0419.87065,S,05539.86172,E,AA,14,0.87,24.5,-47.6,,*6C
$GNGGA,065812.00,0419.87065,S,05539.86172,E,1,12,0.87,24.5,M,-47.6,M,,*40
$GNGSA,A,3,24,05,13,15,12,18,25,23,40,,,,1.51,0.87,1.24*1C
$GNGSA,A,3,75,71,72,76,65,,,,,,,,1.51,0.87,1.24*12
$GPGSV,5,1,17,05,35,033,28,10,09,213,,12,72,103,38,13,13,102,24*70
$GPGSV,5,2,17,15,41,131,26,18,31,297,25,20,03,033,09,23,51,214,17*72
$GPGSV,5,3,17,24,30,172,26,25,64,338,32,28,06,287,,29,16,350,*7B
$GPGSV,5,4,17,36,52,277,,40,86,351,35,41,58,082,31,49,32,274,*78
$GPGSV,5,5,17,50,10,089,*4A
$GLGSV,3,1,09,65,29,176,14,71,12,058,11,72,40,105,20,75,35,166,29*62
$GLGSV,3,2,09,76,71,278,24,77,28,322,24,86,00,022,10,87,10,342,*6A
$GLGSV,3,3,09,88,05,287,*54
$GNGLL,0419.87065,S,05539.86172,E,065812.00,A,A*62
$GNGRS,065812.00,1,5.7,8.6,2.4,-7.6,-1.1,3.7,-4.2,4.2,117,,,*4D
$GNGRS,065812.00,1,-1.8,18.2,-29.7,-19.4,13.9,,,,,,,*52
$GNGST,065812.00,3179277,,,,3.6,4.8,7.5*74
$GNZDA,065812.00,23,05,2025,00,00*71
$GNGBS,065812.00,3.6,4.8,7.5,,,,*5C
b0L>#!
'Hgf)q
)!3 @RH^"{4#V_-:R 
YyAG:H(iK#LG`MBVW
VXb>rfp$GNRMC,065813.00,A,0419.87066,S,05539.86167,E,0.100,,230525,,,A*7F
$GNVTG,,T,,M,0.100,N,0.185,K,A*30
$GNGNS,065813.00,0419.87066,S,05539.86167,E,AA,14,0.87,24.3,-47.6,,*6C
$GNGGA,065813.00,0419.87066,S,05539.86167,E,1,12,0.87,24.3,M,-47.6,M,,*40
$GNGSA,A,3,24,05,13,15,12,18,25,23,40,,,,1.51,0.87,1.24*1C
$GNGSA,A,3,75,71,72,76,65,,,,,,,,1.51,0.87,1.24*12
$GPGSV,5,1,17,05,35,033,28,10,09,213,,12,72,103,39,13,13,102,23*76
$GPGSV,5,2,17,15,41,131,26,18,31,297,26,20,03,033,08,23,51,214,16*71
$GPGSV,5,3,17,24,30,172,26,25,64,338,32,28,06,287,,29,16,350,17*7D
$GPGSV,5,4,17,36,52,277,,40,86,351,35,41,58,082,31,49,32,274,*78
$GPGSV,5,5,17,50,10,089,*4A
$GLGSV,3,1,09,65,29,176,15,71,12,058,16,72,40,105,20,75,35,166,30*6C
$GLGSV,3,2,09,76,71,278,23,77,28,322,25,86,00,022,11,87,10,342,*6D
$GLGSV,3,3,09,88,05,287,*54
$GNGLL,0419.87066,S,05539.86167,E,065813.00,A,A*64
$GNGRS,065813.00,1,4.6,4.5,1.4,-9.1,-1.2,7.1,-7.0,2.7,117,,,*4A
$GNGRS,065813.00,1,-3.2,-10.7,-28.8,-17.0,15.4,,,,,,,*74
$GNGST,065813.00,1657,,,,3.6,4.8,7.5*4E
$GNZDA,065813.00,23,05,2025,00,00*70
$GNGBS,065813.00,3.6,4.8,7.5,,,,*5D
$GNTXT,01,01,01,More than 100 frame errors, UART RX was disabled*70
$GNTXT,01,01,01,More than 100 frame errors, UART RX was disabled*70
$GNTXT,01,01,01,More than 100 frame errors, UART RX was disabled*70
b0Lx?#!
%Hgf)
)
!3T@RS^A{4%V_.#:R 
YyAG: H(i1K#lLGcMBVW
VX:
bx?r*$GNRMC,065817.00,A,0419.87062,S,05539.86146,E,0.040,,230525,,,A*79
$GNVTG,,T,,M,0.040,N,0.074,K,A*3A
$GNGNS,065817.00,0419.87062,S,05539.86146,E,AA,15,0.80,23.5,-47.6,,*68
$GNGGA,065817.00,0419.87062,S,05539.86146,E,1,12,0.80,23.5,M,-47.6,M,,*45
$GNGSA,A,3,24,05,13,15,12,29,18,25,23,40,,,1.35,0.80,1.09*1D
$GNGSA,A,3,75,71,72,76,65,,,,,,,,1.35,0.80,1.09*18
$GPGSV,5,1,17,05,35,033,27,10,09,213,,12,72,103,37,13,13,102,20*74
$GPGSV,5,2,17,15,41,131,26,18,31,297,27,20,03,033,10,23,51,214,18*77
$GPGSV,5,3,17,24,30,172,27,25,64,338,27,28,06,287,,29,16,350,18*77
$GPGSV,5,4,17,36,52,277,,40,86,351,37,41,58,082,35,49,32,274,*7E
$GPGSV,5,5,17,50,10,089,*4A
$GLGSV,3,1,09,65,29,176,17,71,12,058,09,72,40,105,18,75,35,166,28*62
$GLGSV,3,2,09,76,71,278,25,77,28,322,26,86,00,022,09,87,10,342,*61
$GLGSV,3,3,09,88,05,287,*54
$GNGLL,0419.87062,S,05539.86146,E,065817.00,A,A*67
$GNGRS,065817.00,1,0.8,6.6,1.3,-10.6,-0.5,10.9,6.6,0.8,0.2,118,,*41
$GNGRS,065817.00,1,-4.0,18.2,-30.2,-16.9,17.7,,,,,,,*5F
$GNGST,065817.00,3500,,,,3.6,4.8,7.5*49
$GNZDA,065817.00,23,05,2025,00,00*74
$GNGBS,065817.00,3.6,4.8,7.5,,,,*59
$GNTXT,01,01,01,More than 100 frame errors, UART RX was disabled*70
b0L`?#!P
%Hgf)
)!3 @RE^{4%V_.":R 
YyrAG:H(iK#LGMBVW
VXUb`?r$GNRMC,065818.00,A,0419.87058,S,05539.86143,E,0.034,,230525,,,A*79
$GNVTG,,T,,M,0.034,N,0.064,K,A*38
$GNGNS,065818.00,0419.87058,S,05539.86143,E,AA,15,0.80,23.3,-47.6,,*6D
$GNGGA,065818.00,0419.87058,S,05539.86143,E,1,12,0.80,23.3,M,-47.6,M,,*40
$GNGSA,A,3,24,05,13,15,12,29,18,25,23,40,,,1.35,0.80,1.09*1D
$GNGSA,A,3,75,71,72,76,65,,,,,,,,1.35,0.80,1.09*18
$GPGSV,5,1,17,05,35,033,27,10,09,213,,12,72,103,37,13,13,102,18*7F
$GPGSV,5,2,17,15,41,131,26,18,31,297,28,20,03,033,11,23,51,214,18*79
$GPGSV,5,3,17,24,30,172,29,25,64,338,32,28,06,287,,29,16,350,19*7C
$GPGSV,5,4,17,36,52,277,,40,86,351,37,41,58,082,34,49,32,274,*7F
$GPGSV,5,5,17,50,10,089,*4A
$GLGSV,3,1,09,65,29,176,19,71,12,058,13,72,40,105,20,75,35,166,29*6D
$GLGSV,3,2,09,76,71,278,26,77,28,322,28,86,00,022,11,87,10,342,*65
$GLGSV,3,3,09,88,05,287,*54
$GNGLL,0419.87058,S,05539.86143,E,065818.00,A,A*64
$GNGRS,065818.00,1,1.5,5.9,-0.2,-11.2,-0.3,7.5,5.2,0.7,-1.2,118,,*7E
$GNGRS,065818.00,1,-6.4,18.2,-31.1,-18.7,17.9,,,,,,,*5A
$GNGST,065818.00,4923,,,,3.6,4.8,7.5*4C
$GNZDA,065818.00,23,05,2025,00,00*7B
$GNGBS,065818.00,3.6,4.8,7.5,,,,*56
$GNTXT,01,01,01,More than 100 frame errors, UART RX was disabled*70
b0L0?#!
'Hgf)
)@!%3B@Rs^{4$V_B.":R 
YyOAXG
:H(iK#2LGMBVW
VXb0?r$GNRMC,065820.00,A,0419.87053,S,05539.86136,E,0.049,,230525,,,A*71
$GNVTG,,T,,M,0.049,N,0.092,K,A*3B
$GNGNS,065820.00,0419.87053,S,05539.86136,E,AA,14,0.87,23.1,-47.6,,*6B
$GNGGA,065820.00,0419.87053,S,05539.86136,E,1,12,0.87,23.1,M,-47.6,M,,*47
$GNGSA,A,3,24,05,13,15,12,18,25,23,40,,,,1.51,0.87,1.24*1C
$GNGSA,A,3,75,71,72,76,65,,,,,,,,1.51,0.87,1.24*12
$GPGSV,5,1,17,05,35,033,29,10,09,213,,12,72,103,39,13,13,102,18*7F
$GPGSV,5,2,17,15,41,131,26,18,31,297,27,20,03,033,08,23,51,214,21*74
$GPGSV,5,3,17,24,30,172,28,25,64,338,29,28,06,287,,29,16,350,19*77
$GPGSV,5,4,17,36,52,277,,40,86,351,36,41,58,082,34,49,32,274,*7E
$GPGSV,5,5,17,50,10,089,*4A
$GLGSV,3,1,09,65,29,176,20,71,12,058,10,72,40,105,20,75,35,166,29*64
$GLGSV,3,2,09,76,71,278,25,77,28,322,28,86,00,022,11,87,10,342,*66
$GLGSV,3,3,09,88,05,287,*54
$GNGLL,0419.87053,S,05539.86136,E,065820.00,A,A*66
$GNGRS,065820.00,1,1.3,2.5,1.3,-11.2,-0.1,5.8,1.2,-1.9,118,,,*7E
$GNGRS,065820.00,1,-2.1,18.1,-31.3,-15.5,16.2,,,,,,,*54
$GNGST,065820.00,3179277,,,,3.6,4.8,7.5*75
$GNZDA,065820.00,23,05,2025,00,00*70
$GNGBS,065820.00,3.6,4.8,7.5,,,,*5D
$GNTXT,01,01,01,More than 100 frame errors, UART RX was disabled*70
b0L?#!
$Hgf)8
)O!E3h@R^P{4#V_).:R 
YyAG:*H(i_K#-LGMBV
W
VXb?rI$GNRMC,065821.00,A,0419.87060,S,05539.86123,E,0.446,,230525,,,A*7F
$GNVTG,,T,,M,0.446,N,0.826,K,A*37
$GNGNS,065821.00,0419.87060,S,05539.86123,E,AA,14,0.87,23.2,-47.6,,*6D
$GNGGA,065821.00,0419.87060,S,05539.86123,E,1,12,0.87,23.2,M,-47.6,M,,*41
$GNGSA,A,3,24,05,13,15,12,18,25,23,40,,,,1.51,0.87,1.24*1C
$GNGSA,A,3,75,71,72,76,65,,,,,,,,1.51,0.87,1.24*12
$GPGSV,5,1,17,05,35,033,27,10,09,213,,12,72,103,36,13,13,102,17*71
$GPGSV,5,2,17,15,41,131,25,18,31,297,26,20,03,033,07,23,51,214,21*79
$GPGSV,5,3,17,24,30,172,27,25,64,338,23,28,06,287,,29,16,350,18*73
$GPGSV,5,4,17,36,52,277,,40,86,351,35,41,58,082,30,49,32,274,*79
$GPGSV,5,5,17,50,10,089,*4A
$GLGSV,3,1,09,65,29,176,19,71,12,058,15,72,40,105,21,75,35,166,28*6B
$GLGSV,3,2,09,76,71,278,25,77,28,322,27,86,00,022,10,87,10,342,*68
$GLGSV,3,3,09,88,05,287,*54
$GNGLL,0419.87060,S,05539.86123,E,065821.00,A,A*63
$GNGRS,065821.00,1,4.1,5.4,1.4,-12.2,0.3,5.9,2.3,-1.5,118,,,*5A
$GNGRS,065821.00,1,-2.1,18.3,-29.8,-13.4,15.0,,,,,,,*53
$GNGST,065821.00,3179277,,,,3.6,4.8,7.5*74
$GNZDA,065821.00,23,05,2025,00,00*71
$GNGBS,065821.00,3.6,4.8,7.5,,,,*5C
$GNTXT,01,01,01,More than 100 frame errors, UART RX was disabled*70
$GNTXT,01,01,01,More than 100 frame errors, UART RX was disabled*70
b0L?#!
'HgAf)
)!%3@Rd^{4$V_=.":R 
YyAG:H(i{K#LGJMBVW
VXb?rv8
$GNRMC,065823.00,A,0419.87064,S,05539.86113,E,0.131,,230525,,,A*7F
$GNVTG,,T,,M,0.131,N,0.243,K,A*3B
$GNGNS,065823.00,0419.87064,S,05539.86113,E,AA,14,0.88,22.8,-47.6,,*6C
$GNGGA,065823.00,0419.87064,S,05539.86113,E,1,12,0.88,22.8,M,-47.6,M,,*40
$GNGSA,A,3,24,05,13,15,12,18,25,23,40,,,,1.57,0.88,1.29*18
$GNGSA,A,3,75,71,72,76,65,,,,,,,,1.57,0.88,1.29*16
$GPGSV,5,1,17,05,35,033,28,10,09,213,,12,72,103,39,13,13,102,14*72
$GPGSV,5,2,17,15,41,131,25,18,31,297,24,20,03,033,09,23,51,214,21*75
$GPGSV,5,3,17,24,30,172,28,25,64,338,26,28,06,287,,29,16,350,*70
$GPGSV,5,4,17,36,52,277,,40,86,351,36,41,58,082,34,49,32,274,*7E
$GPGSV,5,5,17,50,10,089,*4A
$GLGSV,3,1,09,65,29,176,15,71,12,058,15,72,40,105,22,75,35,166,26*6A
$GLGSV,3,2,09,76,71,278,24,77,28,322,28,86,00,022,09,87,10,342,*6E
$GLGSV,3,3,09,88,05,287,*54
$GNGLL,0419.87064,S,05539.86113,E,065823.00,A,A*66
$GNGRS,065823.00,1,9.7,1.9,4.4,-8.2,0.7,9.1,-4.1,-5.9,118,,,*45
$GNGRS,065823.00,1,4.8,18.1,-29.5,-12.1,19.8,,,,,,,*7C
$GNGST,065823.00,3299292,,,,3.6,4.9,7.6*72
$GNZDA,065823.00,23,05,2025,00,00*73
$GNGBS,065823.00,3.6,4.9,7.6,,,,*5C
$GNTXT,01,01,01,More than 100 frame errors, UART RX was disabled*70
b0L ?#!
%Hg9f)
)!3(@R^{4$V_2. :R 
YyAG:H(iK#nLGMBVW
VXb ?r^r$GNRMC,065824.00,A,0419.87063,S,05539.86110,E,0.051,,230525,,,A*7B
$GNVTG,,T,,M,0.051,N,0.094,K,A*34
$GNGNS,065824.00,0419.87063,S,05539.86110,E,AA,14,0.88,22.7,-47.6,,*60
$GNGGA,065824.00,0419.87063,S,05539.86110,E,1,12,0.88,22.7,M,-47.6,M,,*4C
$GNGSA,A,3,24,05,13,15,12,18,25,23,40,,,,1.57,0.88,1.29*18
$GNGSA,A,3,75,71,72,76,65,,,,,,,,1.57,0.88,1.29*16
$GPGSV,5,1,17,05,35,033,29,10,09,213,,12,72,103,37,13,13,102,16*7F
$GPGSV,5,2,17,15,41,131,24,18,31,297,23,20,03,033,09,23,51,214,22*70
$GPGSV,5,3,17,24,30,172,30,25,64,338,27,28,06,287,,29,16,350,*78
$GPGSV,5,4,17,36,52,277,,40,86,351,36,41,58,082,32,49,32,274,*78
$GPGSV,5,5,17,50,10,089,*4A
$GLGSV,3,1,09,65,29,176,12,71,12,058,12,72,40,105,21,75,35,166,26*69
$GLGSV,3,2,09,76,71,278,25,77,28,322,27,86,00,022,08,87,10,342,*61
$GLGSV,3,3,09,88,05,287,*54
$GNGLL,0419.87063,S,05539.86110,E,065824.00,A,A*65
$GNGRS,065824.00,1,4.2,4.3,4.8,-8.2,0.6,9.9,0.1,-7.3,118,,,*61
$GNGRS,065824.00,1,1.1,17.9,-29.1,-11.5,16.9,,,,,,,*7D
$GNGST,065824.00,3299292,,,,3.6,5.0,7.6*7D
$GNZDA,065824.00,23,05,2025,00,00*74
$GNGBS,065824.00,3.6,5.0,7.6,,,,*53
$GNTXT,01,01,01,More than 100 frame errors, UART RX was disabled*70
b0L$?#!
$Hg^f)
)!3"@R^{4"V_6.:R 
YyAVG:aH(iK#LGMBVW
VXa`b$?rF$GNRMC,065825.00,A,0419.87065,S,05539.86101,E,0.182,,230525,,,A*73
$GNVTG,,T,,M,0.182,N,0.336,K,A*30
$GNGNS,065825.00,0419.87065,S,05539.86101,E,AA,14,0.94,22.6,-47.6,,*6B
$GNGGA,065825.00,0419.87065,S,05539.86101,E,1,12,0.94,22.6,M,-47.6,M,,*47
$GNGSA,A,3,24,05,13,15,12,18,25,23,40,,,,1.70,0.94,1.42*1D
$GNGSA,A,3,75,71,72,76,65,,,,,,,,1.70,0.94,1.42*13
$GPGSV,5,1,17,05,35,033,29,10,09,213,,12,72,103,36,13,13,102,16*7E
$GPGSV,5,2,17,15,41,131,23,18,31,297,23,20,03,033,08,23,51,214,24*70
$GPGSV,5,3,17,24,30,172,28,25,64,338,25,28,06,287,,29,16,350,*73
$GPGSV,5,4,17,36,52,277,,40,86,351,34,41,58,082,31,49,32,274,*79
$GPGSV,5,5,17,50,10,089,*4A
$GLGSV,3,1,09,65,29,176,09,71,12,058,14,72,40,105,19,75,35,166,24*6C
$GLGSV,3,2,09,76,71,278,25,77,28,322,27,86,00,022,06,87,10,342,*6F
$GLGSV,3,3,09,88,05,287,*54
$GNGLL,0419.87065,S,05539.86101,E,065825.00,A,A*62
$GNGRS,065825.00,1,9.0,1.9,5.3,-8.0,0.9,9.5,0.0,-4.8,118,,,*62
$GNGRS,065825.00,1,2.0,29.1,-29.0,-8.6,16.2,,,,,,,*4A
$GNGST,065825.00,1770,,,,3.7,5.1,7.7*44
$GNZDA,065825.00,23,05,2025,00,00*75
$GNGBS,065825.00,3.7,5.1,7.7,,,,*53
b0L(?#!r
%HgWft)
)!3@R^{4!V_.:R 
YyA>G:H(i}K#LGMBVW
VXXb(?r.B$GNRMC,065826.00,A,0419.87063,S,05539.86098,E,0.144,,230525,,,A*7D
$GNVTG,,T,,M,0.144,N,0.266,K,A*3E
$GNGNS,065826.00,0419.87063,S,05539.86098,E,AA,14,0.88,22.4,-47.6,,*60
$GNGGA,065826.00,0419.87063,S,05539.86098,E,1,12,0.88,22.4,M,-47.6,M,,*4C
$GNGSA,A,3,24,05,13,15,12,18,25,23,40,,,,1.56,0.88,1.29*19
$GNGSA,A,3,75,71,72,76,65,,,,,,,,1.56,0.88,1.29*17
$GPGSV,5,1,17,05,35,033,28,10,09,213,,12,72,103,37,13,13,102,14*7C
$GPGSV,5,2,17,15,41,131,22,18,31,297,21,20,03,033,,23,51,214,25*7A
$GPGSV,5,3,17,24,30,172,27,25,64,338,26,28,06,287,,29,16,350,*7F
$GPGSV,5,4,17,36,52,277,,40,86,351,33,41,58,082,31,49,32,274,*7E
$GPGSV,5,5,17,50,10,089,*4A
$GLGSV,3,1,09,65,29,176,16,71,12,058,15,72,40,105,16,75,35,166,24*6C
$GLGSV,3,2,09,76,71,278,23,77,28,322,27,86,00,022,09,87,10,342,*66
$GLGSV,3,3,09,88,05,287,*54
$GNGLL,0419.87063,S,05539.86098,E,065826.00,A,A*66
$GNGRS,065826.00,1,7.9,6.3,3.7,-6.1,0.9,11.7,-0.7,-5.7,118,,,*79
$GNGRS,065826.00,1,2.6,18.2,-29.5,-8.2,16.0,,,,,,,*4D
$GNGST,065826.00,151292,,,,3.7,5.2,7.7*49
$GNZDA,065826.00,23,05,2025,00,00*76
$GNGBS,065826.00,3.7,5.2,7.7,,,,*53
b0L,?#!
'Hg]f)
)i!3h@R^
D{4$V_..!:R 
Yy<A+G:H(iK#LGkMBVW
VX,b,?r$GNRMC,065827.00,A,0419.87062,S,05539.86106,E,0.117,,230525,,,A*7D
$GNVTG,,T,,M,0.117,N,0.217,K,A*3E
$GNGNS,065827.00,0419.87062,S,05539.86106,E,AA,14,0.87,22.3,-47.6,,*6E
$GNGGA,065827.00,0419.87062,S,05539.86106,E,1,12,0.87,22.3,M,-47.6,M,,*42
$GNGSA,A,3,24,05,13,15,12,18,25,23,40,,,,1.51,0.87,1.23*1B
$GNGSA,A,3,75,71,72,76,65,,,,,,,,1.51,0.87,1.23*15
$GPGSV,5,1,17,05,35,033,29,10,09,213,,12,72,103,39,13,13,102,11*76
$GPGSV,5,2,17,15,41,131,23,18,31,297,22,20,03,033,,23,51,214,26*7B
$GPGSV,5,3,17,24,30,172,27,25,64,338,29,28,06,287,,29,16,350,19*78
$GPGSV,5,4,17,36,52,277,,40,86,351,36,41,58,082,33,49,32,274,*79
$GPGSV,5,5,17,50,10,089,*4A
$GLGSV,3,1,09,65,29,176,15,71,12,058,18,72,40,105,16,75,35,166,25*63
$GLGSV,3,2,09,76,71,278,22,77,28,322,27,86,00,022,07,87,10,342,*69
$GLGSV,3,3,09,88,05,287,*54
$GNGLL,0419.87062,S,05539.86106,E,065827.00,A,A*60
$GNGRS,065827.00,1,6.2,-1.0,4.4,-5.3,0.9,11.3,-2.9,-5.9,118,,,*58
$GNGRS,065827.00,1,2.2,18.0,-29.0,-9.2,15.8,,,,,,,*45
$GNGST,065827.00,202425,,,,3.7,5.2,7.7*47
$GNZDA,065827.00,23,05,2025,00,00*77
$GNGBS,065827.00,3.7,5.2,7.7,,,,*52
$GNTXT,01,01,01,More than 100 frame errors, UART RX was disabled*70
$GNTXT,01,01,01,More than 100 frame errors, UART RX was disabled*70
$GNTXT,01,01,01,More than 100 frame errors, UART RX was disabled*70
b0L@?#!
%HgRfe)
)!3].@R 
^!{4#V_- :R 
Y
yhAMG:GH(imK#OLGKMBVW
VXpb@?r$GNRMC,065832.00,A,0419.87048,S,05539.86096,E,0.026,,230525,,,A*7A
$GNVTG,,T,,M,0.026,N,0.047,K,A*3A
$GNGNS,065832.00,0419.87048,S,05539.86096,E,AA,15,0.88,21.6,-47.6,,*62
$GNGGA,065832.00,0419.87048,S,05539.86096,E,1,12,0.88,21.6,M,-47.6,M,,*4F
$GNGSA,A,3,24,05,13,15,12,29,18,25,23,40,,,1.56,0.88,1.29*12
b0LG?#!
&Hg<f)(
)Z!3@R^C{4&V_?!:R 
YyAG:H(iyK#LG4MBVW
VXxbG?rn~p$GNRMC,065834.00,A,0419.87049,S,05539.86101,E,0.042,,230525,,,A*70
$GNVTG,,T,,M,0.042,N,0.078,K,A*34
$GNGNS,065834.00,0419.87049,S,05539.86101,E,AA,15,0.89,21.4,-47.6,,*69
$GNGGA,065834.00,0419.87049,S,05539.86101,E,1,12,0.89,21.4,M,-47.6,M,,*44
$GNGSA,A,3,24,05,13,15,12,29,18,25,23,40,,,1.66,0.89,1.41*1E
$GNGSA,A,3,75,71,72,76,65,,,,,,,,1.66,0.89,1.41*1B
$GPGSV,5,1,17,05,35,033,28,10,09,213,,12,72,103,38,13,13,102,18*7F
$GPGSV,5,2,17,15,41,131,28,18,31,297,19,20,03,033,09,23,51,214,27*70
$GPGSV,5,3,17,24,30,172,28,25,64,338,31,28,06,287,,29,16,350,18*7F
$GPGSV,5,4,17,36,52,277,,40,86,351,38,41,58,082,33,49,32,274,*77
$GPGSV,5,5,17,50,10,089,*4A
$GLGSV,3,1,09,65,29,176,17,71,12,058,12,72,40,105,13,75,35,166,19*61
$GLGSV,3,2,09,76,71,278,22,77,28,322,29,86,00,022,09,87,10,342,*69
$GLGSV,3,3,09,88,05,287,*54
$GNGLL,0419.87049,S,05539.86101,E,065834.00,A,A*6C
$GNGRS,065834.00,1,2.4,4.7,-6.0,3.0,0.6,49.3,6.0,-6.0,-6.3,161,,*54
$GNGRS,065834.00,1,5.4,-23.7,-11.6,-4.6,7.8,,,,,,,*53
$GNGST,065834.00,1770,,,,3.7,5.3,7.9*48
$GNZDA,065834.00,23,05,2025,00,00*75
$GNGBS,065834.00,3.7,5.3,7.9,,,,*5F
$GNTXT,01,01,01,More than 100 frame errors, UART RX was disabled*70
b0LK?#!b
(Hg,
fh)r
)!32i@Ry^I{4$V_>!:R 
Yy`A[G:H(iK#jLG0MBVW
VXYbK?rVV$GNRMC,065835.00,A,0419.87046,S,05539.86103,E,0.077,,230525,,,A*7A
$GNVTG,,T,,M,0.077,N,0.143,K,A*3B
$GNGNS,065835.00,0419.87046,S,05539.86103,E,AA,15,0.80,21.1,-47.6,,*69
$GNGGA,065835.00,0419.87046,S,05539.86103,E,1,12,0.80,21.1,M,-47.6,M,,*44
$GNGSA,A,3,24,05,13,15,12,29,18,25,23,40,,,1.43,0.80,1.18*1C
$GNGSA,A,3,75,71,72,76,65,,,,,,,,1.43,0.80,1.18*19
$GPGSV,5,1,17,05,35,033,28,10,09,213,,12,72,103,40,13,13,102,10*78
$GPGSV,5,2,17,15,41,131,27,18,31,297,14,20,03,033,08,23,51,214,25*71
$GPGSV,5,3,17,24,30,172,27,25,64,338,26,28,06,287,,29,16,350,19*77
$GPGSV,5,4,17,36,52,277,,40,86,351,36,41,58,082,33,49,32,274,*79
$GPGSV,5,5,17,50,10,089,*4A
$GLGSV,3,1,09,65,29,175,18,71,12,058,09,72,40,105,14,75,35,166,19*60
$GLGSV,3,2,09,76,71,278,23,77,28,322,28,86,00,022,11,87,10,342,*60
$GLGSV,3,3,09,88,05,287,*54
$GNGLL,0419.87046,S,05539.86103,E,065835.00,A,A*60
$GNGRS,065835.00,1,3.6,1.0,21.5,8.8,0.4,39.1,4.0,-1.3,-7.2,161,,*4B
$GNGRS,065835.00,1,6.2,17.9,2.5,-4.6,3.5,,,,,,,*66
$GNGST,065835.00,3184507,,,,3.8,5.4,7.9*7C
$GNZDA,065835.00,23,05,2025,00,00*74
$GNGBS,065835.00,3.8,5.4,7.9,,,,*56
b0LS?#!c
&Hgf)
)!3X@R^{4#V_6?:R 
YyAG:WH(iK#LGMBVW
VXbS?r&$GNRMC,065837.00,A,0419.87048,S,05539.86106,E,0.073,,230525,,,A*77
$GNVTG,,T,,M,0.073,N,0.135,K,A*3E
$GNGNS,065837.00,0419.87048,S,05539.86106,E,AA,15,0.83,20.7,-47.6,,*64
$GNGGA,065837.00,0419.87048,S,05539.86106,E,1,12,0.83,20.7,M,-47.6,M,,*49
$GNGSA,A,3,24,05,13,15,12,29,18,25,23,40,,,1.46,0.83,1.19*1B
$GNGSA,A,3,75,71,72,76,65,,,,,,,,1.46,0.83,1.19*1E
$GPGSV,5,1,17,05,35,033,27,10,09,213,,12,72,103,38,13,13,102,15*7D
$GPGSV,5,2,17,15,41,131,26,18,31,297,20,20,03,033,09,23,51,214,25*76
$GPGSV,5,3,17,24,30,172,26,25,64,338,27,28,06,287,,29,16,350,23*7E
$GPGSV,5,4,17,36,52,277,,40,86,351,35,41,58,082,29,49,32,274,*71
$GPGSV,5,5,17,50,10,089,*4A
$GLGSV,3,1,09,65,29,175,17,71,12,058,14,72,40,105,17,75,35,166,21*6B
$GLGSV,3,2,09,76,71,278,26,77,28,322,27,86,00,022,09,87,10,342,*63
$GLGSV,3,3,09,88,05,287,*54
$GNGLL,0419.87048,S,05539.86106,E,065837.00,A,A*69
$GNGRS,065837.00,1,5.3,-1.6,1.5,7.2,0.2,21.8,7.1,-2.6,-9.4,162,,*5F
$GNGRS,065837.00,1,4.6,-14.5,1.4,-1.0,2.6,,,,,,,*43
$GNGST,065837.00,1601,,,,3.8,5.4,8.0*42
$GNZDA,065837.00,23,05,2025,00,00*76
$GNGBS,065837.00,3.8,5.4,8.0,,,,*52
$GNTXT,01,01,01,More than 100 frame errors, UART RX was disabled*70
$GNTXT,01,01,01,More than 100 frame errors, UART RX was disabled*70
b0LP_?#!H
'Hgf;)4
)G!3 @R#^){4$V_(? :R 
YyzAyG:H(iK#LGMAVW
VXotbP_?r$GNRMC,065840.00,A,0419.87045,S,05539.86095,E,0.101,,230525,,,A*75
$GNVTG,,T,,M,0.101,N,0.187,K,A*33
$GNGNS,065840.00,0419.87045,S,05539.86095,E,AA,16,0.76,20.2,-47.6,,*6E
$GNGGA,065840.00,0419.87045,S,05539.86095,E,1,12,0.76,20.2,M,-47.6,M,,*40
$GNGSA,A,3,24,05,13,15,12,29,18,25,23,40,,,1.30,0.76,1.05*1D
$GNGSA,A,3,75,71,72,76,65,77,,,,,,,1.30,0.76,1.05*18
$GPGSV,5,1,17,05,35,033,28,10,09,213,,12,72,103,39,13,13,102,13*75
$GPGSV,5,2,17,15,41,131,23,18,31,297,26,20,03,033,08,23,51,214,25*74
$GPGSV,5,3,17,24,30,172,28,25,64,338,32,28,06,287,,29,16,350,24*73
$GPGSV,5,4,17,36,52,277,,40,86,351,36,41,58,082,32,49,32,274,*78
$GPGSV,5,5,17,50,10,089,*4A
$GLGSV,3,1,09,65,29,175,18,71,12,058,11,72,40,105,14,75,35,166,26*65
$GLGSV,3,2,09,76,71,278,26,77,28,321,28,86,00,022,07,87,10,342,*61
$GLGSV,3,3,09,88,05,287,*54
$GNGLL,0419.87045,S,05539.86095,E,065840.00,A,A*6F
$GNGRS,065840.00,1,2.6,-7.0,-17.3,5.6,-0.3,10.6,3.3,0.4,-7.7,162,,*41
$GNGRS,065840.00,1,5.2,-25.9,-0.8,2.8,1.2,-0.4,,,,,,*4E
$GNGST,065840.00,1566,,,,3.8,5.4,7.9*46
$GNZDA,065840.00,23,05,2025,00,00*76
$GNGBS,065840.00,3.8,5.4,7.9,,,,*54
b0L8c?#!9
%Hgf)
)4!3~ @RS^{4$V_?:R 
YyTAG:H(iK#>LG$MAVW
VX0b8c?reE$GNRMC,065841.00,A,0419.87049,S,05539.86090,E,0.123,,230525,,,A*7D
$GNVTG,,T,,M,0.123,N,0.228,K,A*35
$GNGNS,065841.00,0419.87049,S,05539.86090,E,AA,16,0.74,20.0,-47.6,,*66
$GNGGA,065841.00,0419.87049,S,05539.86090,E,1,12,0.74,20.0,M,-47.6,M,,*48
$GNGSA,A,3,24,05,13,15,12,29,18,25,23,40,,,1.29,0.74,1.05*17
$GNGSA,A,3,75,71,72,76,65,77,,,,,,,1.29,0.74,1.05*12
$GPGSV,5,1,17,05,35,033,27,10,09,213,,12,72,103,37,13,13,102,13*74
$GPGSV,5,2,17,15,41,131,25,18,31,297,24,20,03,033,07,23,51,214,26*7C
$GPGSV,5,3,17,24,30,172,29,25,64,338,32,28,06,287,,29,16,350,22*74
$GPGSV,5,4,17,36,52,277,,40,86,351,36,41,58,082,31,49,32,274,*7B
$GPGSV,5,5,17,50,10,089,*4A
$GLGSV,3,1,09,65,29,175,16,71,12,058,09,72,40,105,14,75,35,166,25*61
$GLGSV,3,2,09,76,71,278,23,77,28,321,28,86,00,022,09,87,10,342,*6A
$GLGSV,3,3,09,88,05,287,*54
$GNGLL,0419.87049,S,05539.86090,E,065841.00,A,A*67
$GNGRS,065841.00,1,3.8,-7.1,21.8,7.2,-0.5,5.2,3.1,0.8,-3.6,161,,*55
$GNGRS,065841.00,1,5.7,18.2,2.6,2.9,1.7,2.4,,,,,,*68
$GNGST,065841.00,2974093,,,,3.8,5.3,7.9*76
$GNZDA,065841.00,23,05,2025,00,00*77
$GNGBS,065841.00,3.8,5.3,7.9,,,,*52
$GNTXT,01,01,01,More than 100 frame errors, UART RX was disabled*70
$GNTXT,01,01,01,More than 100 frame errors, UART RX was disabled*70
$GNTXT,01,01,01,More than 100 frame errors, UART RX was disabled*70
$GNTXT,01,01,01,More than 100 frame errors, UART RX was disabled*70
$GNGLL,0419.87055,S,05539.86051,E,065846.00,A,A*60
$GNGRS,065846.00,1,3.4,-7.4,14.5,-5.2,-0.5,-1.8,1.1,6.3,1.1,161,,*7B
$GNGRS,065846.00,1,2.2,-5.0,2.6,6.6,7.3,6.0,,,,,,*77
$GNGST,065846.00,1548,,,,3.7,5.1,7.7*48
$GNZDA,065846.00,23,05,2025,00,00*70
$GNGBS,065846.00,3.7,5.1,7.7,,,,*56
$GNGGA,065847.00,0419.87054,S,05539.86046,E,1,12,0.72,19.3,M,-47.6,M,,*46
$GNGSA,A,3,24,05,13,15,12,29,18,25,23,40,,,1.26,0.72,1.03*18
$GNGSA,A,3,75,71,72,76,65,77,,,,,,,1.26,0.72,1.03*1D
$GPGSV,5,1,17,05,35,033,28,10,09,213,,12,72,103,39,13,13,102,20*75
$GPGSV,5,2,17,15,41,131,26,18,31,297,25,20,03,033,,23,51,214,26*79
$GPGSV,5,3,17,24,30,172,31,25,64,338,30,28,06,287,,29,16,350,25*78
$GPGSV,5,4,17,36,52,277,,40,86,351,38,41,58,082,35,49,32,274,*71
$GPGSV,5,5,17,50,10,089,*4A
$GLGSV,3,1,09,65,29,175,19,71,12,058,09,72,40,104,19,75,34,166,19*6C
$GLGSV,3,2,09,76,71,275,24,77,28,321,30,86,00,022,10,87,10,342,*61
$GLGSV,3,3,09,88,05,287,*54
$GNGLL,0419.87054,S,05539.86046,E,065847.00,A,A*66
$GNGRS,065847.00,1,-0.3,-6.4,12.7,-7.3,-0.3,-2.7,-1.5,3.5,2.0,161,,*77
$GNGRS,065847.00,1,2.5,18.3,2.5,6.9,7.8,9.1,,,,,,*6A
$GNGST,065847.00,2885147,,,,3.7,5.1,7.7*74
$GNZDA,065847.00,23,05,2025,00,00*71
$GNGBS,065847.00,3.7,5.1,7.7,,,,*57
b0L~?#!
'Hgf\)
)!3 @R^{4&V_>#:R 
YyVAxG:<H(hmK"xLGMA\VW
VXUb~?rL$GNRMC,065848.00,A,0419.87053,S,05539.86038,E,0.024,,230525,,,A*7B
$GNVTG,,T,,M,0.024,N,0.045,K,A*3A
$GNGNS,065848.00,0419.87053,S,05539.86038,E,AA,16,0.72,19.3,-47.6,,*69
$GNGGA,065848.00,0419.87053,S,05539.86038,E,1,12,0.72,19.3,M,-47.6,M,,*47
$GNGSA,A,3,24,05,13,15,12,29,18,25,23,40,,,1.26,0.72,1.03*18
$GNGSA,A,3,75,71,72,76,65,77,,,,,,,1.26,0.72,1.03*1D
$GPGSV,5,1,17,05,35,033,28,10,09,213,,12,72,103,39,13,13,102,20*75
$GPGSV,5,2,17,15,41,131,25,18,31,297,27,20,03,033,,23,51,214,26*78
$GPGSV,5,3,17,24,30,172,30,25,64,338,32,28,06,287,,29,16,350,25*7B
$GPGSV,5,4,17,36,52,277,,40,86,351,38,41,58,082,35,49,32,274,*71
$GPGSV,5,5,17,50,10,089,*4A
$GLGSV,3,1,09,65,29,175,17,71,12,058,16,72,40,104,19,75,34,166,17*62
$GLGSV,3,2,09,76,71,275,24,77,28,321,30,86,00,022,11,87,10,342,*60
$GLGSV,3,3,09,88,05,287,*54
$GNGLL,0419.87053,S,05539.86038,E,065848.00,A,A*67
$GNGRS,065848.00,1,-0.9,-2.6,8.6,-8.0,-0.5,-0.7,-3.6,1.4,2.0,161,,*44
$GNGRS,065848.00,1,-1.4,18.5,1.1,7.5,8.9,11.2,,,,,,*72
$GNGST,065848.00,2885147,,,,3.6,5.0,7.6*7A
$GNZDA,065848.00,23,05,2025,00,00*7E
$GNGBS,065848.00,3.6,5.0,7.6,,,,*59
b0Lx?#!
'Hgf)
)!3-p!@RE^{4&V_>#:R 
YyAG:H(hrK"LGMAgVW
VXbx?r$v$GNRMC,065849.00,A,0419.87051,S,05539.86034,E,0.060,,230525,,,A*74
$GNVTG,,T,,M,0.060,N,0.112,K,A*39
$GNGNS,065849.00,0419.87051,S,05539.86034,E,AA,16,0.76,19.2,-47.6,,*63
$GNGGA,065849.00,0419.87051,S,05539.86034,E,1,12,0.76,19.2,M,-47.6,M,,*4D
$GNGSA,A,3,24,05,13,15,12,29,18,25,23,40,,,1.30,0.76,1.05*1D
$GNGSA,A,3,75,71,72,76,65,77,,,,,,,1.30,0.76,1.05*18
$GPGSV,5,1,17,05,35,033,29,10,09,213,21,12,72,103,39,13,13,102,21*76
$GPGSV,5,2,17,15,41,131,25,18,31,297,27,20,03,033,,23,51,214,25*7B
$GPGSV,5,3,17,24,30,172,29,25,64,338,33,28,06,287,,29,16,350,24*73
$GPGSV,5,4,17,36,52,277,,40,86,351,38,41,58,082,35,49,32,274,*71
$GPGSV,5,5,17,50,10,089,*4A
$GLGSV,3,1,09,65,29,175,16,71,12,058,16,72,40,104,17,75,34,166,23*6A
$GLGSV,3,2,09,76,71,275,24,77,28,321,30,86,00,022,11,87,10,342,*60
$GLGSV,3,3,09,88,05,287,*54
$GNGLL,0419.87051,S,05539.86034,E,065849.00,A,A*68
$GNGRS,065849.00,1,1.1,2.0,5.0,-4.9,-0.3,0.0,-5.7,-1.9,5.6,161,,*4E
$GNGRS,065849.00,1,-2.5,-22.8,1.1,9.3,9.4,11.3,,,,,,*5D
$GNGST,065849.00,1595,,,,3.6,5.0,7.6*46
$GNZDA,065849.00,23,05,2025,00,00*7F
$GNGBS,065849.00,3.6,5.0,7.6,,,,*58
b0L`?#!I
'Hgfw)
)!3 "@R^{4&V_>#:R 
Yy'AG
:(H(hK"LG(MA)V
W
VXb`?r$GNRMC,065850.00,A,0419.87049,S,05539.86031,E,0.060,,230525,,,A*70
b0LH?#!
(Hgf)
)t!3!@RB^{4%V_>":R 
YyhAG:H(hdK"'LGMAVW
VX4bH?rE$GNRMC,065851.00,A,0419.87046,S,05539.86030,E,0.090,,230525,,,A*70
$GNVTG,,T,,M,0.090,N,0.167,K,A*34
$GNGNS,065851.00,0419.87046,S,05539.86030,E,AA,16,0.72,19.0,-47.6,,*6E
$GNGGA,065851.00,0419.87046,S,05539.86030,E,1,12,0.72,19.0,M,-47.6,M,,*40
$GNGSA,A,3,24,05,13,15,12,29,18,25,23,40,,,1.26,0.72,1.03*18
$GNGSA,A,3,75,71,72,76,65,77,,,,,,,1.26,0.72,1.03*1D
$GPGSV,5,1,17,05,35,033,27,10,09,213,,12,72,103,40,13,13,102,22*76
$GPGSV,5,2,17,15,41,131,25,18,31,297,27,20,03,033,,23,51,214,26*78
$GPGSV,5,3,17,24,30,172,30,25,64,338,33,28,06,287,,29,16,350,21*7E
$GPGSV,5,4,17,36,52,277,,40,86,351,37,41,58,082,34,49,32,274,*7F
$GPGSV,5,5,17,50,10,089,*4A
$GLGSV,3,1,09,65,29,175,15,71,12,058,15,72,40,104,17,75,34,166,25*6C
$GLGSV,3,2,09,76,71,275,26,77,28,321,30,86,00,022,13,87,10,342,*60
$GLGSV,3,3,09,88,05,287,*54
$GNGLL,0419.87046,S,05539.86030,E,065851.00,A,A*63
$GNGRS,065851.00,1,2.0,14.6,-0.7,-2.3,-0.3,1.4,-11.6,0.7,7.1,161,,*41
$GNGRS,065851.00,1,-4.7,18.1,3.6,11.5,6.9,11.7,,,,,,*41
$GNGST,065851.00,2885147,,,,3.6,4.9,7.5*79
$GNZDA,065851.00,23,05,2025,00,00*76
$GNGBS,065851.00,3.6,4.9,7.5,,,,*5A
b0L0?#![
(Hgf))
)!3d @R?^Q{4'V_>#:R 
Yy^AWG:H(h:K"LGuMAVW
VXb0?r$GNRMC,065852.00,A,0419.87044,S,05539.86025,E,0.093,,230525,,,A*76
$GNVTG,,T,,M,0.093,N,0.171,K,A*30
$GNGNS,065852.00,0419.87044,S,05539.86025,E,AA,16,0.72,19.0,-47.6,,*6B
$GNGGA,065852.00,0419.87044,S,05539.86025,E,1,12,0.72,19.0,M,-47.6,M,,*45
$GNGSA,A,3,24,05,13,15,12,29,18,25,23,40,,,1.26,0.72,1.03*18
$GNGSA,A,3,75,71,72,76,65,77,,,,,,,1.26,0.72,1.03*1D
$GPGSV,5,1,17,05,35,033,26,10,09,213,,12,72,103,40,13,13,102,20*75
$GPGSV,5,2,17,15,41,131,27,18,31,297,26,20,03,033,,23,51,214,28*75
$GPGSV,5,3,17,24,30,172,30,25,64,338,32,28,06,287,,29,16,350,20*7E
$GPGSV,5,4,17,36,52,277,,40,86,351,39,41,58,082,35,49,32,274,*70
$GPGSV,5,5,17,50,10,089,*4A
$GLGSV,3,1,09,65,29,175,20,71,12,058,17,72,40,104,19,75,34,166,28*6B
$GLGSV,3,2,09,76,71,275,27,77,28,321,30,86,00,022,07,87,10,342,*64
b0L?#!f
'Hgf})`
)!3W!@R^){4'V_>#:R 
Yy2AoG:DH(hUK"fLGMA.VW
VXPHb?r$GNRMC,065853.00,A,0419.87042,S,05539.86026,E,0.007,,230525,,,A*7F
$GNVTG,,T,,M,0.007,N,0.013,K,A*38
$GNGNS,065853.00,0419.87042,S,05539.86026,E,AA,16,0.72,18.6,-47.6,,*68
$GNGGA,065853.00,0419.87042,S,05539.86026,E,1,12,0.72,18.6,M,-47.6,M,,*46
$GNGSA,A,3,24,05,13,15,12,29,18,25,23,40,,,1.26,0.72,1.03*18
$GNGSA,A,3,75,71,72,76,65,77,,,,,,,1.26,0.72,1.03*1D
$GPGSV,5,1,17,05,35,033,25,10,09,213,,12,72,103,39,13,13,102,20*78
$GPGSV,5,2,17,15,41,131,25,18,31,297,26,20,03,033,,23,51,214,28*77
$GPGSV,5,3,17,24,30,172,30,25,64,338,33,28,06,287,,29,16,350,21*7E
$GPGSV,5,4,17,36,52,277,,40,86,351,39,41,58,082,35,49,32,274,*70
$GPGSV,5,5,17,50,10,089,*4A
$GLGSV,3,1,09,65,29,175,23,71,12,058,18,72,40,104,21,75,34,166,28*6C
$GLGSV,3,2,09,76,71,275,27,77,28,321,29,86,00,022,09,87,10,342,*62
$GLGSV,3,3,09,88,05,287,*54
$GNGLL,0419.87042,S,05539.86026,E,065853.00,A,A*62
$GNGRS,065853.00,1,6.8,11.3,-3.9,1.0,-0.4,5.5,-13.2,-6.2,3.4,160,,*45
$GNGRS,065853.00,1,-4.1,13.5,3.4,7.6,8.8,15.8,,,,,,*78
$GNGST,065853.00,1560,,,,3.6,4.8,7.4*4C
$GNZDA,065853.00,23,05,2025,00,00*74
$GNGBS,065853.00,3.6,4.8,7.4,,,,*58
$GNTXT,01,01,01,More than 100 frame errors, UART RX was disabled*70
b0L?#!
'Hgf$)
)!3b"@R9^{4&V_>":R 
Y
yAG:H(hBK"LGMA(VW
VX/b?r\}$GNRMC,065854.00,A,0419.87043,S,05539.86032,E,0.300,,230525,,,A*78
$GNVTG,,T,,M,0.300,N,0.555,K,A*3B
$GNGNS,065854.00,0419.87043,S,05539.86032,E,AA,16,0.72,18.4,-47.6,,*69
$GNGGA,065854.00,0419.87043,S,05539.86032,E,1,12,0.72,18.4,M,-47.6,M,,*47
$GNGSA,A,3,24,05,13,15,12,29,18,25,23,40,,,1.26,0.72,1.03*18
$GNGSA,A,3,75,71,72,76,65,77,,,,,,,1.26,0.72,1.03*1D
$GPGSV,5,1,17,05,35,033,27,10,09,213,,12,72,103,39,13,13,102,20*7A
$GPGSV,5,2,17,15,41,131,23,18,31,297,23,20,03,033,,23,51,214,29*75
$GPGSV,5,3,17,24,30,172,29,25,64,338,34,28,06,287,,29,16,350,23*73
$GPGSV,5,4,17,36,52,277,,40,86,351,38,41,58,082,34,49,32,274,*70
$GPGSV,5,5,17,50,10,089,*4A
$GLGSV,3,1,09,65,29,175,24,71,12,058,17,72,40,104,21,75,34,166,27*6B
$GLGSV,3,2,09,76,71,275,27,77,28,321,30,86,00,022,07,87,10,342,*64
$GLGSV,3,3,09,88,05,287,*54
$GNGLL,0419.87043,S,05539.86032,E,065854.00,A,A*61
$GNGRS,065854.00,1,4.2,9.1,-2.2,-3.1,-0.2,2.2,-13.2,-7.1,6.1,160,,*51
$GNGRS,065854.00,1,-3.5,10.3,3.2,7.7,7.1,13.2,,,,,,*74
$GNGST,065854.00,1548,,,,3.5,4.8,7.4*42
$GNZDA,065854.00,23,05,2025,00,00*73
$GNGBS,065854.00,3.5,4.8,7.4,,,,*5C
$GNTXT,01,01,01,More than 100 frame errors, UART RX was disabled*70
b0L?#!
&HgfG)V
)!3"@R6^{4&V_>":R 
Yy%AG:hH(hK"wLG
MAV
W
VXSb?rv3$GNRMC,065855.00,A,0419.87042,S,05539.86033,E,0.057,,230525,,,A*78
$GNVTG,,T,,M,0.057,N,0.106,K,A*38
$GNGNS,065855.00,0419.87042,S,05539.86033,E,AA,16,0.72,18.1,-47.6,,*6D
$GNGGA,065855.00,0419.87042,S,05539.86033,E,1,12,0.72,18.1,M,-47.6,M,,*43
$GNGSA,A,3,24,05,13,15,12,29,18,25,23,40,,,1.26,0.72,1.03*18
$GNGSA,A,3,75,71,72,76,65,77,,,,,,,1.26,0.72,1.03*1D
$GPGSV,5,1,17,05,35,033,28,10,09,213,,12,72,103,38,13,13,102,20*74
$GPGSV,5,2,17,15,41,131,21,18,31,297,22,20,03,033,,23,51,214,29*76
$GPGSV,5,3,17,24,30,172,29,25,64,338,34,28,06,287,,29,16,350,22*72
$GPGSV,5,4,17,36,52,277,,40,86,351,38,41,58,082,34,49,32,274,*70
$GPGSV,5,5,17,50,10,089,*4A
$GLGSV,3,1,09,65,29,175,23,71,12,058,18,72,40,104,21,75,34,166,28*6C
$GLGSV,3,2,09,76,71,275,30,77,28,321,30,86,00,022,10,87,10,342,*64
$GLGSV,3,3,09,88,05,287,*54
$GNGLL,0419.87042,S,05539.86033,E,065855.00,A,A*60
$GNGRS,065855.00,1,2.5,7.9,-4.4,0.9,0.2,2.7,-10.8,-7.1,2.1,160,,*54
$GNGRS,065855.00,1,-3.9,6.2,2.2,5.2,10.1,12.5,,,,,,*79
$GNGST,065855.00,1548,,,,3.5,4.7,7.3*4B
$GNZDA,065855.00,23,05,2025,00,00*72
$GNGBS,065855.00,3.5,4.7,7.3,,,,*55
b0L?#!
&Hg=f)
)!3L#@RE^{4&V_>#:R 
YyAG:FH(hK"LGMAVW
VXDb?r^>$GNRMC,065856.00,A,0419.87045,S,05539.86033,E,0.043,,230525,,,A*79
$GNVTG,,T,,M,0.043,N,0.080,K,A*32
b0L?#!i
'HgQf')z
)g!3_"@RO^}{4%V_u>$:R 
YyAG:lH(hK"LG2MAVW
WXBpb?rF$GNRMC,065857.00,A,0419.87045,S,05539.86032,E,0.143,,230525,,,A*78
$GNVTG,,T,,M,0.143,N,0.265,K,A*3A
$GNGNS,065857.00,0419.87045,S,05539.86032,E,AA,16,0.73,17.6,-47.6,,*60
$GNGGA,065857.00,0419.87045,S,05539.86032,E,1,12,0.73,17.6,M,-47.6,M,,*4E
$GNGSA,A,3,24,05,13,15,12,29,18,25,23,40,,,1.32,0.73,1.10*1E
$GNGSA,A,3,75,71,72,76,65,77,,,,,,,1.32,0.73,1.10*1B
$GPGSV,5,1,17,05,35,033,30,10,09,213,,12,72,103,39,13,13,102,21*7D
$GPGSV,5,2,17,15,41,131,22,18,31,297,21,20,03,033,,23,51,214,26*79
$GPGSV,5,3,17,24,30,172,31,25,64,338,34,28,06,287,,29,16,350,18*72
$GPGSV,5,4,17,36,52,277,,40,86,351,37,41,58,082,36,49,32,274,*7D
$GPGSV,5,5,17,50,10,089,*4A
$GLGSV,3,1,09,65,29,175,22,71,12,058,20,72,40,104,22,75,34,166,20*6D
$GNTXT,01,01,01,More than 100 frame errors, UART RX was disabled*70
b0L?"!
(Hgf)
)m! 3 @RB^{4%V_>":R 
YyAG:H(hK"QLGMAVW
WX0b?r;$GNRMC,065905.00,A,0419.87093,S,05539.86052,E,0.044,,230525,,,A*75
$GNVTG,,T,,M,0.044,N,0.082,K,A*37
$GNGNS,065905.00,0419.87093,S,05539.86052,E,AA,16,0.72,17.2,-47.6,,*6E
$GNGGA,065905.00,0419.87093,S,05539.86052,E,1,12,0.72,17.2,M,-47.6,M,,*40
$GNGSA,A,3,24,05,13,15,12,29,18,25,23,40,,,1.26,0.72,1.03*18
$GNGSA,A,3,75,71,72,76,65,77,,,,,,,1.26,0.72,1.03*1D
$GPGSV,5,1,17,05,34,033,29,10,09,213,,12,72,103,40,13,13,102,18*70
$GPGSV,5,2,17,15,41,131,22,18,31,297,15,20,03,033,,23,51,214,32*7B
$GPGSV,5,3,17,24,30,172,30,25,64,338,32,28,06,287,,29,16,350,23*7D
$GPGSV,5,4,17,36,52,277,,40,86,351,37,41,58,082,34,49,32,274,*7F
$GPGSV,5,5,17,50,10,089,*4A
$GLGSV,3,1,09,65,29,175,26,71,12,058,11,72,40,104,22,75,34,166,22*69
$GLGSV,3,2,09,76,71,275,31,77,28,321,28,86,00,023,07,87,10,343,*6A
$GLGSV,3,3,09,88,05,287,*54
$GNGLL,0419.87093,S,05539.86052,E,065905.00,A,A*6F
$GNGRS,065905.00,1,-2.7,7.2,-6.2,-3.7,1.3,-1.3,-16.8,-7.0,-2.9,160,,*58
$GNGRS,065905.00,1,5.9,-18.8,-12.5,2.4,11.6,6.8,,,,,,*6A
$GNGST,065905.00,72717,,,,3.2,4.2,6.2*71
$GNZDA,065905.00,23,05,2025,00,00*76
$GNGBS,065905.00,3.2,4.2,6.2,,,,*53
$GNTXT,01,01,01,More than 100 frame errors, UART RX was disabled*70
$GNTXT,01,01,01,More than 100 frame errors, UART RX was disabled*70
b0L?"!@
(HgmfB)
)\!3@!R#@Ra^}{4$V_Y>$:R 
YyAG:H(hK"LGMAVW
WXpb?rVCQ$GNRMC,065907.00,A,0419.87104,S,05539.86051,E,0.055,,230525,,,A*7B
$GNVTG,,T,,M,0.055,N,0.101,K,A*3D
$GNGNS,065907.00,0419.87104,S,05539.86051,E,AA,16,0.76,17.4,-47.6,,*62
$GNGGA,065907.00,0419.87104,S,05539.86051,E,1,12,0.76,17.4,M,-47.6,M,,*4C
$GNGSA,A,3,24,05,13,15,12,29,18,25,23,40,,,1.30,0.76,1.05*1D
$GNGSA,A,3,75,71,72,76,65,77,,,,,,,1.30,0.76,1.05*18
$GPGSV,5,1,17,05,34,033,30,10,09,213,,12,72,103,40,13,13,102,19*79
$GPGSV,5,2,17,15,41,131,23,18,31,297,18,20,03,033,,23,51,214,29*7D
$GPGSV,5,3,17,24,30,172,33,25,64,338,35,28,06,287,,29,16,350,24*7E
$GPGSV,5,4,17,36,52,277,,40,86,351,36,41,58,082,36,49,32,274,*7C
$GPGSV,5,5,17,50,10,089,*4A
$GLGSV,3,1,09,65,29,175,27,71,12,058,13,72,40,104,22,75,34,166,21*69
$GLGSV,3,2,09,76,71,275,27,77,28,321,28,86,00,023,08,87,10,343,*62
$GLGSV,3,3,09,88,05,287,*54
$GNGLL,0419.87104,S,05539.86051,E,065907.00,A,A*61
$GNGRS,065907.00,1,-4.3,3.2,-4.5,-10.1,1.1,-3.9,-14.4,-6.7,10.9,160,,*71
$GNGRS,065907.00,1,7.4,-46.9,-11.5,-0.7,12.3,7.1,,,,,,*4C
$GNGST,065907.00,1026,,,,3.1,4.1,6.1*41
$GNZDA,065907.00,23,05,2025,00,00*74
$GNGBS,065907.00,3.1,4.1,6.1,,,,*52
$GNTXT,01,01,01,More than 100 frame errors, UART RX was disabled*70
b0L?"!r

'HgSf)
)I!3 #@Rv^({4$V_7>$:R 
YyIAG:IH(hK"LLGnMAVW
WXb?r>G)$GNRMC,065908.00,A,0419.87108,S,05539.86053,E,0.070,,230525,,,A*7D
$GNVTG,,T,,M,0.070,N,0.130,K,A*38
$GNGNS,065908.00,0419.87108,S,05539.86053,E,AA,16,0.72,17.5,-47.6,,*66
$GNGGA,065908.00,0419.87108,S,05539.86053,E,1,12,0.72,17.5,M,-47.6,M,,*48
$GNGSA,A,3,24,05,13,15,12,29,18,25,23,40,,,1.26,0.72,1.03*18
$GNGSA,A,3,75,71,72,76,65,77,,,,,,,1.26,0.72,1.03*1D
$GPGSV,5,1,17,05,34,033,30,10,10,213,,12,72,103,39,13,13,102,18*7E
$GPGSV,5,2,17,15,41,131,26,18,31,297,21,20,03,033,,23,51,214,28*73
$GPGSV,5,3,17,24,30,172,32,25,64,338,35,28,06,287,,29,16,350,23*78
$GPGSV,5,4,17,36,52,277,,40,86,351,36,41,58,082,36,49,32,274,*7C
$GPGSV,5,5,17,50,10,089,*4A
$GLGSV,3,1,09,65,29,175,25,71,12,058,08,72,40,104,23,75,34,166,21*60
$GLGSV,3,2,09,76,71,275,27,77,28,321,28,86,00,023,08,87,10,343,*62
$GLGSV,3,3,09,88,05,287,*54
$GNGLL,0419.87108,S,05539.86053,E,065908.00,A,A*60
$GNGRS,065908.00,1,-5.5,3.7,-2.8,-10.2,0.8,-2.2,-14.6,-6.5,9.1,159,,*4C
$GNGRS,065908.00,1,5.9,18.7,-11.0,1.1,12.8,4.4,,,,,,*46
$GNGST,065908.00,2885147,,,,3.0,4.0,6.0*7F
$GNZDA,065908.00,23,05,2025,00,00*7B
$GNGBS,065908.00,3.0,4.0,6.0,,,,*5C
$GNTXT,01,01,01,More than 100 frame errors, UART RX was disabled*70
b0L?"! 

'Higf)
)!3#@R^.{4$V_>%:R 
Y
yPAG:H(h~K"LGMAVW
WXb?rO$GNRMC,065910.00,A,0419.87118,S,05539.86057,E,0.132,,230525,,,A*76
$GNVTG,,T,,M,0.132,N,0.245,K,A*3E
$GNGNS,065910.00,0419.87118,S,05539.86057,E,AA,16,0.79,17.8,-47.6,,*6C
$GNGGA,065910.00,0419.87118,S,05539.86057,E,1,12,0.79,17.8,M,-47.6,M,,*42
$GNGSA,A,3,24,05,13,15,12,29,18,25,23,40,,,1.39,0.79,1.15*1A
$GNGSA,A,3,75,71,72,76,65,77,,,,,,,1.39,0.79,1.15*1F
$GPGSV,5,1,17,05,34,033,31,10,10,213,,12,72,105,39,13,13,102,21*73
$GPGSV,5,2,17,15,41,131,27,18,31,297,22,20,03,033,,23,51,214,31*79
$GPGSV,5,3,17,24,30,172,31,25,64,338,35,28,06,287,,29,16,350,23*7B
$GPGSV,5,4,17,36,52,277,,40,86,351,36,41,58,082,37,49,32,274,*7D
$GPGSV,5,5,17,50,10,089,*4A
$GLGSV,3,1,09,65,29,175,24,71,12,058,12,72,40,104,24,75,34,166,18*67
$GLGSV,3,2,09,76,71,275,26,77,28,321,29,86,00,023,11,87,10,343,*6A
$GLGSV,3,3,09,88,05,287,*54
$GNGLL,0419.87118,S,05539.86057,E,065910.00,A,A*6C
$GNGRS,065910.00,1,-1.0,2.9,-6.3,-18.1,1.0,0.5,-13.8,-6.3,0.0,159,,*69
$GNGRS,065910.00,1,7.1,76.4,-11.5,2.8,14.7,1.7,,,,,,*4E
$GNGST,065910.00,1096,,,,3.0,4.0,5.9*47
$GNZDA,065910.00,23,05,2025,00,00*72
$GNGBS,065910.00,3.0,4.0,5.9,,,,*5F
$GNTXT,01,01,01,More than 100 frame errors, UART RX was disabled*70
$GPGSV,5,2,17,15,41,131,29,18,31,297,21,20,03,033,,23,51,214,30*75
$GPGSV,5,3,17,24,30,172,30,25,64,338,34,28,06,287,,29,16,350,22*7A
$GPGSV,5,4,17,36,52,277,,40,86,351,37,41,58,082,37,49,32,274,*7C
$GPGSV,5,5,17,50,10,089,*4A
$GLGSV,3,1,09,65,29,175,25,71,12,058,12,72,40,104,23,75,34,166,17*6E
$GLGSV,3,2,09,76,71,275,26,77,28,321,28,86,00,023,09,87,10,343,*62
$GLGSV,3,3,09,88,05,287,*54
$GNGLL,0419.87121,S,05539.86053,E,065911.00,A,A*63
$GNGRS,065911.00,1,0.5,0.1,-6.1,-22.2,1.5,0.5,-15.0,-5.7,-2.2,159,,*62
$GNGRS,065911.00,1,7.0,18.6,-11.0,4.3,15.4,5.6,,,,,,*4B
$GNGST,065911.00,2973941,,,,2.9,3.9,5.9*7D
$GNZDA,065911.00,23,05,2025,00,00*73
$GNGBS,065911.00,2.9,3.9,5.9,,,,*58
$GNTXT,01,01,01,More than 100 frame errors, UART RX was disabled*70
(hFK"LGMAVW
WXbP?rV$GNRMC,065912.00,A,0419.87130,S,05539.86043,E,0.026,,230525,,,A*7F
$GNVTG,,T,,M,0.026,N,0.049,K,A*34
$GNGNS,065912.00,0419.87130,S,05539.86043,E,AA,16,0.73,18.2,-47.6,,*6E
$GNGGA,065912.00,0419.87130,S,05539.86043,E,1,12,0.73,18.2,M,-47.6,M,,*40
$GNGSA,A,3,24,05,13,15,12,29,18,25,23,40,,,1.32,0.73,1.10*1E
$GNGSA,A,3,75,71,72,76,65,77,,,,,,,1.32,0.73,1.10*1B
$GPGSV,5,1,17,05,34,033,33,10,10,213,,12,72,105,40,13,13,101,19*77
$GPGSV,5,2,17,15,41,131,28,18,31,297,19,20,03,033,,23,51,214,29*77
$GPGSV,5,3,17,24,30,172,30,25,64,338,33,28,06,287,,29,16,350,21*7E
$GPGSV,5,4,17,36,52,277,,40,86,351,37,41,58,082,36,49,32,274,*7D
$GPGSV,5,5,17,50,10,089,*4A
$GLGSV,3,1,09,65,29,175,26,71,12,058,10,72,40,104,24,75,34,166,15*6A
$GLGSV,3,2,09,76,71,275,27,77,28,321,28,86,00,023,08,87,10,343,*62
$GLGSV,3,3,09,88,05,287,*54
$GNGLL,0419.87130,S,05539.86043,E,065912.00,A,A*61
$GNGRS,065912.00,1,1.9,-5.5,-7.0,-18.3,1.3,-0.6,-14.4,-5.3,2.7,159,,*49
$GNGRS,065912.00,1,7.4,19.0,-12.1,4.3,13.5,4.6,,,,,,*4F
$GNGST,065912.00,2973941,,,,2.9,3.9,5.8*7F
$GNZDA,065912.00,23,05,2025,00,00*70
$GNGBS,065912.00,2.9,3.9,5.8,,,,*5A
$GNTXT,01,01,01,More than 100 frame errors, UART RX was disabled*70
$GNTXT,01,01,01,More than 100 frame errors, UART RX was disabled*70
$GNTXT,01,01,01,More than 100 frame errors, UART RX was disabled*70
$GNGLL,0419.87153,S,05539.86013,E,065915.00,A,A*66
$GNGRS,065915.00,1,0.7,-2.7,-12.3,-28.4,0.9,-1.5,-11.4,-5.3,12.0,159,,*4D
$GNGRS,065915.00,1,2.0,19.4,-13.0,2.1,9.1,1.8,,,,,,*7D
$GNGST,065915.00,46545,,,,2.8,3.8,5.7*72
$GNZDA,065915.00,23,05,2025,00,00*77
$GNGBS,065915.00,2.8,3.8,5.7,,,,*52
$GNTXT,01,01,01,More than 100 frame errors, UART RX was disabled*70
b0L?"!

(Hi`e)m
*!3,"@R^{4$V_>>%:R 
YyAG:H(hK"9LGMAoVW
WXeqb?r~f:$GNRMC,065916.00,A,0419.87161,S,05539.86001,E,0.086,,230525,,,A*73
$GNVTG,,T,,M,0.086,N,0.160,K,A*34
$GNGNS,065916.00,0419.87161,S,05539.86001,E,AA,16,0.72,19.4,-47.6,,*6E
$GNGGA,065916.00,0419.87161,S,05539.86001,E,1,12,0.72,19.4,M,-47.6,M,,*40
$GNGSA,A,3,24,05,13,15,12,29,18,25,23,40,,,1.26,0.72,1.03*18
$GNGSA,A,3,75,71,72,76,65,77,,,,,,,1.26,0.72,1.03*1D
$GPGSV,5,1,17,05,34,033,30,10,10,213,,12,72,105,40,13,13,101,21*7F
$GPGSV,5,2,17,15,41,130,27,18,31,298,17,20,03,033,,23,51,214,27*76
$GPGSV,5,3,17,24,30,172,30,25,64,338,34,28,06,287,,29,16,350,23*7B
$GPGSV,5,4,17,36,52,277,,40,86,351,36,41,58,082,37,49,32,274,*7D
$GPGSV,5,5,17,50,10,089,*4A
$GLGSV,3,1,09,65,29,175,28,71,12,058,12,72,40,104,18,75,34,166,17*6B
$GLGSV,3,2,09,76,71,275,28,77,28,321,28,86,00,023,08,87,10,343,*6D
$GLGSV,3,3,09,88,05,287,*54
$GNGLL,0419.87161,S,05539.86001,E,065916.00,A,A*67
$GNGRS,065916.00,1,0.4,-2.5,-13.0,-24.5,1.0,-3.5,-11.2,-5.1,7.9,159,,*73
$GNGRS,065916.00,1,-2.0,-5.7,-15.1,4.0,9.8,3.7,,,,,,*44
$GNGST,065916.00,995,,,,2.8,3.8,5.6*73
$GNZDA,065916.00,23,05,2025,00,00*74
$GNGBS,065916.00,2.8,3.8,5.6,,,,*50
$GNTXT,01,01,01,More than 100 frame errors, UART RX was disabled*70
$GNTXT,01,01,01,More than 100 frame errors, UART RX was disabled*70
b0L?"!

'Hieef)
*S! 3!@RE^{4&V_)>#:R 
YyAG:0H(hK"0LGMAVW
WXWb?rNn
$GNRMC,065918.00,A,0419.87168,S,05539.85987,E,0.070,,230525,,,A*79
$GNVTG,,T,,M,0.070,N,0.129,K,A*30
$GNGNS,065918.00,0419.87168,S,05539.85987,E,AA,16,0.72,19.7,-47.6,,*6E
$GNGGA,065918.00,0419.87168,S,05539.85987,E,1,12,0.72,19.7,M,-47.6,M,,*40
$GNGSA,A,3,24,05,13,15,12,29,18,25,23,40,,,1.26,0.72,1.03*18
$GNGSA,A,3,75,71,72,76,65,77,,,,,,,1.26,0.72,1.03*1D
$GPGSV,5,1,17,05,34,033,30,10,10,213,,12,72,105,39,13,13,101,23*73
$GPGSV,5,2,17,15,41,130,25,18,31,298,21,20,02,033,,23,51,214,32*74
$GPGSV,5,3,17,24,30,172,30,25,64,338,33,28,06,287,,29,16,350,20*7F
$GPGSV,5,4,17,36,52,277,,40,86,351,38,41,58,082,35,49,32,274,*71
$GPGSV,5,5,17,50,10,089,*4A
$GLGSV,3,1,09,65,29,175,29,71,12,058,09,72,40,104,23,75,34,166,20*6C
$GLGSV,3,2,09,76,71,275,28,77,28,321,29,86,00,023,11,87,10,343,*64
$GLGSV,3,3,09,88,05,287,*54
$GNGLL,0419.87168,S,05539.85987,E,065918.00,A,A*64
$GNGRS,065918.00,1,5.0,0.3,-11.8,-22.8,1.0,-2.3,-14.5,-4.4,-3.0,159,,*75
$GNGRS,065918.00,1,-7.2,18.4,-13.4,7.6,7.8,4.9,,,,,,*5E
$GNGST,065918.00,2885147,,,,2.8,3.7,5.6*72
$GNZDA,065918.00,23,05,2025,00,00*7A
