b0L`tB! 
Hm0d(*:
+!5BQ&`{4V_:R 
YyAtG9H(f!K!LGM@KVWXX!0b`tBr$GNRMC,070202.00,A,0419.86342,S,05539.86609,E,0.365,,230525,,,A*7B
$GNVTG,,T,,M,0.365,N,0.676,K,A*3A
$GNGNS,070202.00,0419.86342,S,05539.86609,E,AA,14,0.82,14.9,-47.6,,*65
$GNGGA,070202.00,0419.86342,S,05539.86609,E,1,12,0.82,14.9,M,-47.6,M,,*49
$GNGSA,A,3,24,05,15,12,29,18,25,23,,,,,1.54,0.82,1.30*14
$GNGSA,A,3,75,71,72,76,65,77,,,,,,,1.54,0.82,1.30*17
$GPGSV,5,1,17,05,33,032,31,10,11,213,,12,72,109,25,13,13,100,16*73
$GPGSV,5,2,17,15,42,129,20,18,30,299,12,20,02,033,,23,53,215,20*7A
$GPGSV,5,3,17,24,29,171,13,25,66,337,23,28,07,286,,29,16,352,18*70
$GPGSV,5,4,17,36,52,277,,40,86,351,,41,58,082,,49,32,274,*7C
$GPGSV,5,5,17,50,10,089,*4A
$GLGSV,3,1,09,65,30,174,12,71,11,057,13,72,40,102,20,75,33,166,20*68
$GLGSV,3,2,09,76,71,271,29,77,29,320,18,86,00,024,09,87,09,344,*62
$GLGSV,3,3,09,88,05,289,*5A
$GNGLL,0419.86342,S,05539.86609,E,070202.00,A,A*61
$GNGRS,070202.00,1,13.0,0.2,10.8,0.5,-5.4,10.5,-2.2,-7.8,,,,*4C
$GNGRS,070202.00,1,1.9,19.9,-48.3,7.0,14.0,8.4,,,,,,*42
$GNGST,070202.00,3300425,,,,6.1,5.9,14*5D
$GNZDA,070202.00,23,05,2025,00,00*7E
$GNGBS,070202.00,6.1,5.9,13.9,,,,*68
$GNTXT,01,01,01,More than 100 frame errors, UART RX was disabled*70
b0LHxB#! 
Hmd*
+Q!5BQ>`N{4V_:R 
YyAG9H(fK!LGM@V
WXX!
EbHxBr/$GNRMC,070203.00,A,0419.86331,S,05539.86589,E,0.695,,230525,,,A*7F
$GNVTG,,T,,M,0.695,N,1.287,K,A*3B
$GNGNS,070203.00,0419.86331,S,05539.86589,E,AA,13,0.97,14.7,-47.6,,*66
$GNGGA,070203.00,0419.86331,S,05539.86589,E,1,12,0.97,14.7,M,-47.6,M,,*4D
$GNGSA,A,3,24,05,15,12,29,18,25,23,,,,,1.76,0.97,1.47*10
$GNGSA,A,3,75,71,72,76,77,,,,,,,,1.76,0.97,1.47*10
$GPGSV,5,1,17,05,33,032,35,10,11,213,,12,72,109,25,13,13,100,13*72
$GPGSV,5,2,17,15,42,129,18,18,30,299,13,20,02,033,,23,53,215,18*7B
$GPGSV,5,3,17,24,29,171,13,25,66,337,22,28,07,286,,29,16,352,18*71
$GPGSV,5,4,17,36,52,277,,40,86,351,,41,58,082,,49,32,274,*7C
$GPGSV,5,5,17,50,10,089,*4A
$GLGSV,3,1,09,65,30,174,09,71,11,057,09,72,40,102,19,75,33,166,20*63
$GLGSV,3,2,09,76,71,271,27,77,29,320,17,86,00,024,10,87,09,344,*6B
$GLGSV,3,3,09,88,05,289,*5A
$GNGLL,0419.86331,S,05539.86589,E,070203.00,A,A*6F
$GNGRS,070203.00,1,14.1,0.3,11.6,0.0,-6.9,13.6,-1.9,-6.3,,,,*4C
$GNGRS,070203.00,1,1.3,20.5,-41.9,6.6,10.5,,,,,,,*68
$GNGST,070203.00,3586708,,,,6.2,6.1,14*50
$GNZDA,070203.00,23,05,2025,00,00*7F
$GNGBS,070203.00,6.2,6.1,14.2,,,,*6D
b0L0|B'! 
Hmd*
+!5BQ}`F{4V_:R 
YyAG9mH(f_K!BLGzM@uV
WXX!'b0|Br$GNRMC,070204.00,A,0419.86331,S,05539.86572,E,0.149,,230525,,,A*7A
$GNVTG,,T,,M,0.149,N,0.276,K,A*32
$GNGNS,070204.00,0419.86331,S,05539.86572,E,AA,12,0.93,14.2,-47.6,,*65
$GNGGA,070204.00,0419.86331,S,05539.86572,E,1,12,0.93,14.2,M,-47.6,M,,*4F
$GNGSA,A,3,24,05,12,29,18,25,,,,,,,1.65,0.93,1.36*15
$GNGSA,A,3,75,71,72,76,65,77,,,,,,,1.65,0.93,1.36*13
$GPGSV,5,1,17,05,33,032,39,10,11,213,,12,72,109,27,13,13,100,11*7E
$GPGSV,5,2,17,15,42,129,,18,30,299,28,20,02,033,,23,53,215,*73
$GPGSV,5,3,17,24,29,171,16,25,66,337,25,28,07,286,,29,16,352,20*78
$GPGSV,5,4,17,36,52,277,,40,86,351,,41,58,082,,49,32,274,*7C
$GPGSV,5,5,17,50,10,089,*4A
$GLGSV,3,1,09,65,30,174,08,71,11,057,14,72,40,102,19,75,33,166,19*64
$GLGSV,3,2,09,76,71,271,27,77,29,320,20,86,00,024,10,87,09,344,*6F
$GLGSV,3,3,09,88,05,289,*5A
$GNGLL,0419.86331,S,05539.86572,E,070204.00,A,A*6C
$GNGRS,070204.00,1,-5.3,0.1,1.8,-7.0,7.9,-1.3,,,,,,*79
$GNGRS,070204.00,1,-1.9,6.2,-37.4,6.3,24.5,8.8,,,,,,*5B
$GNGST,070204.00,58,,,,6.2,6.0,14*6C
$GNZDA,070204.00,23,05,2025,00,00*78
$GNGBS,070204.00,6.2,6.0,14.1,,,,*68
b0LB&! 0
Hmds*
+!5/BQ7`{4V_0:R 
YyAG9H(fMK!LGM@V
WXX!bBre$GNRMC,070205.00,A,0419.86316,S,05539.86576,E,0.461,,230525,,,A*75
$GNVTG,,T,,M,0.461,N,0.853,K,A*30
$GNGNS,070205.00,0419.86316,S,05539.86576,E,AA,13,0.88,15.3,-47.6,,*6E
$GNGGA,070205.00,0419.86316,S,05539.86576,E,1,12,0.88,15.3,M,-47.6,M,,*45
$GNGSA,A,3,24,05,13,12,29,18,25,,,,,,1.58,0.88,1.31*14
$GNGSA,A,3,75,71,72,76,65,77,,,,,,,1.58,0.88,1.31*10
$GPGSV,5,1,17,05,33,032,38,10,11,213,17,12,72,109,29,13,13,100,14*72
$GPGSV,5,2,17,15,42,129,24,18,30,299,25,20,02,033,,23,53,215,16*7F
$GPGSV,5,3,17,24,29,171,15,25,66,337,25,28,07,286,,29,16,352,21*7A
$GPGSV,5,4,17,36,52,277,,40,86,351,29,41,58,082,,49,32,274,*77
$GPGSV,5,5,17,50,10,089,*4A
$GLGSV,3,1,09,65,30,174,09,71,11,057,11,72,40,102,21,75,33,166,20*61
$GLGSV,3,2,09,76,71,271,28,77,29,320,21,86,00,024,10,87,09,344,*61
$GLGSV,3,3,09,88,05,289,*5A
$GNGLL,0419.86316,S,05539.86576,E,070205.00,A,A*6C
$GNGRS,070205.00,1,12.1,0.5,-57.7,1.6,-8.1,4.2,0.6,,,,,*72
$GNGRS,070205.00,1,-1.0,19.6,-35.1,7.2,24.4,7.9,,,,,,*61
$GNGST,070205.00,3591633,,,,6.3,6.0,14*59
$GNZDA,070205.00,23,05,2025,00,00*79
$GNGBS,070205.00,6.3,6.0,14.1,,,,*68
$GNTXT,01,01,01,More than 100 frame errors, UART RX was disabled*70
b0LB#! [
Hmd=*
+!5{)
|BQ$`{4!V_R6:R 
YyAcG9H(fCK!ALGM@VWXX!ObBr=g$GNRMC,070206.00,A,0419.86313,S,05539.86572,E,0.237,,230525,,,A*72
$GNVTG,,T,,M,0.237,N,0.438,K,A*34
$GNGNS,070206.00,0419.86313,S,05539.86572,E,AA,14,0.87,15.8,-47.6,,*6F
$GNGGA,070206.00,0419.86313,S,05539.86572,E,1,12,0.87,15.8,M,-47.6,M,,*43
$GNGSA,A,3,24,05,13,12,29,18,25,40,,,,,1.45,0.87,1.16*16
$GNGSA,A,3,75,71,72,76,65,77,,,,,,,1.45,0.87,1.16*16
$GPGSV,5,1,17,05,33,032,35,10,11,213,16,12,72,109,30,13,13,100,13*71
$GPGSV,5,2,17,15,42,129,22,18,30,299,23,20,02,033,05,23,53,215,15*79
$GPGSV,5,3,17,24,29,171,10,25,66,337,31,28,07,286,,29,16,352,22*79
$GPGSV,5,4,17,36,52,277,,40,86,351,33,41,58,082,,49,32,274,*7C
$GPGSV,5,5,17,50,10,089,*4A
$GLGSV,3,1,09,65,30,174,11,71,11,057,12,72,40,102,23,75,33,166,21*68
$GLGSV,3,2,09,76,71,271,29,77,29,320,21,86,00,024,08,87,09,344,*69
$GLGSV,3,3,09,88,05,289,*5A
$GNGLL,0419.86313,S,05539.86572,E,070206.00,A,A*6E
$GNGRS,070206.00,1,11.5,0.9,-53.1,5.3,-8.4,1.7,-2.2,139,,,,*6C
$GNGRS,070206.00,1,0.6,19.7,-35.2,9.5,24.0,7.9,,,,,,*47
$GNGST,070206.00,4856426,,,,6.3,5.9,14*57
$GNZDA,070206.00,23,05,2025,00,00*7A
$GNGBS,070206.00,6.3,5.9,14.1,,,,*61
$GNTXT,01,01,01,More than 100 frame errors, UART RX was disabled*70
b0LB%! j
HmNd}*9
+!5,!BQ%`^{4V_5:R 
YyAIG9/H(fK!;LGM@3VWXX!"bBrv$GNRMC,070207.00,A,0419.86289,S,05539.86572,E,0.105,,230525,,,A*73
$GNVTG,,T,,M,0.105,N,0.194,K,A*35
$GNGNS,070207.00,0419.86289,S,05539.86572,E,AA,15,0.80,16.8,-47.6,,*69
$GNGGA,070207.00,0419.86289,S,05539.86572,E,1,12,0.80,16.8,M,-47.6,M,,*44
$GNGSA,A,3,24,05,13,15,12,29,18,25,40,,,,1.38,0.80,1.12*1B
$GNGSA,A,3,75,71,72,76,65,77,,,,,,,1.38,0.80,1.12*1F
$GPGSV,5,1,17,05,33,032,37,10,11,213,14,12,72,109,31,13,13,100,14*77
$GPGSV,5,2,17,15,42,129,22,18,30,299,21,20,02,033,08,23,53,215,15*76
$GPGSV,5,3,17,24,29,171,13,25,66,337,30,28,07,286,,29,16,352,24*7D
$GPGSV,5,4,17,36,52,277,,40,86,351,28,41,58,082,,49,32,274,*76
$GPGSV,5,5,17,50,10,089,*4A
$GLGSV,3,1,09,65,30,174,11,71,11,057,12,72,40,102,24,75,33,166,20*6E
$GLGSV,3,2,09,76,71,271,29,77,29,320,22,86,00,024,09,87,09,344,*6B
$GLGSV,3,3,09,88,05,289,*5A
$GNGLL,0419.86289,S,05539.86572,E,070207.00,A,A*6D
$GNGRS,070207.00,1,-3.6,1.1,-50.0,-12.2,0.8,-11.9,0.1,-2.2,138,,,*74
$GNGRS,070207.00,1,0.6,15.8,-34.1,1.8,18.6,8.2,,,,,,*4F
$GNGST,070207.00,1097,,,,6.2,5.8,14*66
$GNZDA,070207.00,23,05,2025,00,00*7B
$GNGBS,070207.00,6.2,5.8,13.8,,,,*6E
b0LB'! D
Hmwd*#
+
!5BQw`{4V_Z5:R 
YyA5G
9H(fLK!LGM@VWXX!UbBr^*$GNRMC,070208.00,A,0419.86288,S,05539.86554,E,0.349,,230525,,,A*73
$GNVTG,,T,,M,0.349,N,0.647,K,A*36
$GNGNS,070208.00,0419.86288,S,05539.86554,E,AA,15,0.80,16.4,-47.6,,*6F
$GNGGA,070208.00,0419.86288,S,05539.86554,E,1,12,0.80,16.4,M,-47.6,M,,*42
$GNGSA,A,3,24,05,13,15,12,29,18,25,40,,,,1.38,0.80,1.12*1B
$GNGSA,A,3,75,71,72,76,65,77,,,,,,,1.38,0.80,1.12*1F
$GPGSV,5,1,17,05,33,032,39,10,11,213,13,12,72,109,31,13,13,100,14*7E
$GPGSV,5,2,17,15,42,129,22,18,30,299,22,20,02,033,10,23,53,215,*78
$GPGSV,5,3,17,24,29,171,14,25,66,337,30,28,07,286,,29,16,352,24*7A
$GPGSV,5,4,17,36,52,277,,40,86,351,29,41,58,082,,49,32,274,*77
$GPGSV,5,5,17,50,10,089,*4A
$GLGSV,3,1,09,65,30,174,08,71,11,057,10,72,40,102,23,75,33,166,19*69
$GLGSV,3,2,09,76,71,271,29,77,29,320,22,86,00,024,08,87,09,344,*6A
$GLGSV,3,3,09,88,05,289,*5A
$GNGLL,0419.86288,S,05539.86554,E,070208.00,A,A*67
$GNGRS,070208.00,1,11.8,0.7,-43.7,-7.3,-1.4,-10.9,-3.0,-3.9,137,,,*57
$GNGRS,070208.00,1,-0.2,19.3,-35.1,4.5,3.1,10.2,,,,,,*63
$GNGST,070208.00,172593,,,,6.2,5.8,14*6D
$GNZDA,070208.00,23,05,2025,00,00*74
$GNGBS,070208.00,6.2,5.8,13.7,,,,*6E
$GNTXT,01,01,01,More than 100 frame errors, UART RX was disabled*70
b0LB'! 

Hm%dg*
+!5
BQG`8{4V_6:R 
YyEAfG9H(fK!JLGM@#VWXX!bBrF
$GNRMC,070209.00,A,0419.86266,S,05539.86549,E,0.194,,230525,,,A*7C
$GNVTG,,T,,M,0.194,N,0.359,K,A*3E
$GNGNS,070209.00,0419.86266,S,05539.86549,E,AA,15,0.80,17.3,-47.6,,*64
$GNGGA,070209.00,0419.86266,S,05539.86549,E,1,12,0.80,17.3,M,-47.6,M,,*49
$GNGSA,A,3,24,05,13,15,12,29,18,25,40,,,,1.38,0.80,1.12*1B
$GNGSA,A,3,75,71,72,76,65,77,,,,,,,1.38,0.80,1.12*1F
$GPGSV,5,1,17,05,33,032,39,10,11,213,10,12,72,109,31,13,13,100,15*7C
$GPGSV,5,2,17,15,42,129,22,18,30,299,21,20,02,033,12,23,53,215,17*7F
$GPGSV,5,3,17,24,29,171,10,25,66,337,29,28,07,286,,29,16,352,22*70
$GPGSV,5,4,17,36,52,277,,40,86,351,28,41,58,082,,49,32,274,*76
$GPGSV,5,5,17,50,10,089,*4A
$GLGSV,3,1,09,65,30,174,08,71,11,057,14,72,40,102,23,75,33,166,19*6D
$GLGSV,3,2,09,76,71,271,29,77,29,320,21,86,00,024,09,87,09,344,*68
$GLGSV,3,3,09,88,05,289,*5A
$GNGLL,0419.86266,S,05539.86549,E,070209.00,A,A*6A
$GNGRS,070209.00,1,12.4,0.3,-37.4,-0.5,-2.2,-9.7,-3.7,-1.8,140,,,*6B
$GNGRS,070209.00,1,0.7,17.5,-31.6,5.1,3.6,10.6,,,,,,*47
$GNGST,070209.00,3180731,,,,6.2,5.7,14*57
$GNZDA,070209.00,23,05,2025,00,00*75
$GNGBS,070209.00,6.2,5.7,13.7,,,,*60
$GNTXT,01,01,01,More than 100 frame errors, UART RX was disabled*70
$GNTXT,01,01,01,More than 100 frame errors, UART RX was disabled*70
$GNTXT,01,01,01,More than 100 frame errors, UART RX was disabled*70
b0L@B&! 
Hmd*
+r!5BQ`{4V_!9:R 
YyA
oG99H(fK!TLGM@WVWXX!:Wb@Br$GNRMC,070214.00,A,0419.86220,S,05539.86540,E,0.285,,230525,,,A*78
$GNVTG,,T,,M,0.285,N,0.529,K,A*3C
$GNGNS,070214.00,0419.86220,S,05539.86540,E,AA,15,0.80,19.3,-47.6,,*6D
$GNGGA,070214.00,0419.86220,S,05539.86540,E,1,12,0.80,19.3,M,-47.6,M,,*40
$GNGSA,A,3,24,05,13,15,12,29,18,25,40,,,,1.38,0.80,1.12*1B
$GNGSA,A,3,75,71,72,76,65,77,,,,,,,1.38,0.80,1.12*1F
$GPGSV,5,1,17,05,33,032,38,10,11,213,07,12,72,109,31,13,13,100,16*78
$GPGSV,5,2,17,15,42,129,25,18,30,299,18,20,02,033,,23,53,215,18*7E
$GPGSV,5,3,17,24,29,171,11,25,66,337,28,28,07,286,,29,16,352,21*73
$GPGSV,5,4,17,36,52,277,,40,86,351,27,41,58,082,,49,32,274,*79
$GPGSV,5,5,17,50,10,089,*4A
$GLGSV,3,1,09,65,30,174,10,71,11,057,17,72,40,102,21,75,33,166,21*6E
$GLGSV,3,2,09,76,71,271,27,77,29,320,21,86,00,024,06,87,09,344,*69
$GLGSV,3,3,09,88,05,289,*5A
$GNGLL,0419.86220,S,05539.86540,E,070214.00,A,A*6D
$GNGRS,070214.00,1,12.4,-0.2,-36.1,-3.4,-1.0,-12.8,-1.4,-3.0,146,,,*74
$GNGRS,070214.00,1,0.8,18.5,-28.1,4.9,3.7,8.5,,,,,,*76
$GNGST,070214.00,4496177,,,,5.8,5.6,13*55
$GNZDA,070214.00,23,05,2025,00,00*79
$GNGBS,070214.00,5.8,5.6,13.0,,,,*63
$GNTXT,01,01,01,More than 100 frame errors, UART RX was disabled*70
b0L(B%! 
Hmd*
+!5PBQ0`j{4V_M9:R 
YyA
[G9H(fK!LGzM@VWXX!b(Br!$GNRMC,070215.00,A,0419.86218,S,05539.86531,E,0.144,,230525,,,A*7A
$GNVTG,,T,,M,0.144,N,0.266,K,A*3E
$GNGNS,070215.00,0419.86218,S,05539.86531,E,AA,15,0.79,19.3,-47.6,,*67
$GNGGA,070215.00,0419.86218,S,05539.86531,E,1,12,0.79,19.3,M,-47.6,M,,*4A
$GNGSA,A,3,24,05,13,15,12,29,18,25,40,,,,1.32,0.79,1.06*12
$GNGSA,A,3,75,71,72,76,65,77,,,,,,,1.32,0.79,1.06*16
$GPGSV,5,1,17,05,33,032,37,10,11,213,07,12,72,109,30,13,13,100,15*75
$GPGSV,5,2,17,15,42,129,25,18,30,299,15,20,02,033,,23,53,215,16*7D
$GPGSV,5,3,17,24,29,171,08,25,66,337,28,28,07,286,,29,16,352,21*7B
$GPGSV,5,4,17,36,52,277,,40,86,351,27,41,58,082,,49,32,274,*79
$GPGSV,5,5,17,50,10,089,*4A
$GLGSV,3,1,09,65,30,174,10,71,11,057,17,72,40,102,21,75,33,166,20*6F
$GLGSV,3,2,09,76,71,271,29,77,29,320,21,86,00,024,09,87,09,344,*68
$GLGSV,3,3,09,88,05,289,*5A
$GNGLL,0419.86218,S,05539.86531,E,070215.00,A,A*61
$GNGRS,070215.00,1,12.3,-0.4,-39.7,-5.0,-0.6,-11.7,-0.7,-2.1,147,,,*77
$GNGRS,070215.00,1,0.2,19.8,-25.6,6.3,3.5,9.8,,,,,,*7D
$GNGST,070215.00,4343719,,,,5.7,5.6,13*5A
$GNZDA,070215.00,23,05,2025,00,00*78
$GNGBS,070215.00,5.7,5.6,12.9,,,,*65
$GNTXT,01,01,01,More than 100 frame errors, UART RX was disabled*70
$GNTXT,01,01,01,More than 100 frame errors, UART RX was disabled*70
b0LB#! 
HmYd4*m
+G!5BQ`{4V_:R 
YyA
=G9&H(fK!LGM@V
WXX!bBr)$GNRMC,070217.00,A,0419.86199,S,05539.86525,E,0.214,,230525,,,A*71
$GNVTG,,T,,M,0.214,N,0.397,K,A*37
$GNGNS,070217.00,0419.86199,S,05539.86525,E,AA,15,0.81,19.8,-47.6,,*66
$GNGGA,070217.00,0419.86199,S,05539.86525,E,1,12,0.81,19.8,M,-47.6,M,,*4B
$GNGSA,A,3,24,05,13,15,12,29,18,25,23,,,,1.49,0.81,1.26*1E
$GNGSA,A,3,75,71,72,76,65,77,,,,,,,1.49,0.81,1.26*1F
$GPGSV,5,1,17,05,33,032,35,10,11,213,06,12,72,109,31,13,13,100,12*70
$GPGSV,5,2,17,15,42,129,26,18,30,299,23,20,02,033,,23,53,215,16*7B
$GPGSV,5,3,17,24,29,171,16,25,66,337,27,28,07,286,,29,16,352,19*70
$GPGSV,5,4,17,36,52,277,,40,86,351,,41,58,082,,49,32,274,*7C
$GPGSV,5,5,17,50,10,089,*4A
$GLGSV,3,1,09,65,30,174,10,71,11,057,20,72,40,102,21,75,33,166,19*61
$GLGSV,3,2,09,76,71,271,26,77,29,320,24,86,00,024,10,87,09,344,*6A
$GLGSV,3,3,09,88,05,289,*5A
$GNGLL,0419.86199,S,05539.86525,E,070217.00,A,A*6C
$GNGRS,070217.00,1,12.0,-0.6,-40.4,-4.0,-1.7,-10.2,-1.9,5.0,-37.0,,,*5D
$GNGRS,070217.00,1,0.0,15.7,-25.3,3.9,3.2,7.1,,,,,,*74
$GNGST,070217.00,3301008,,,,5.5,5.6,13*5C
$GNZDA,070217.00,23,05,2025,00,00*7A
$GNGBS,070217.00,5.5,5.6,12.6,,,,*6A
b0LB$! 
Hmdm*l
+b!5_BQ`{4V_:R 
YyA
eG9LH(fK!LG\M@VWXX!)bBrn-[($GNRMC,070218.00,A,0419.86182,S,05539.86529,E,0.177,,230525,,,A*7E
$GNVTG,,T,,M,0.177,N,0.329,K,A*34
$GNGNS,070218.00,0419.86182,S,05539.86529,E,AA,15,0.78,20.1,-47.6,,*6A
$GNGGA,070218.00,0419.86182,S,05539.86529,E,1,12,0.78,20.1,M,-47.6,M,,*47
$GNGSA,A,3,24,05,13,15,12,29,18,25,23,,,,1.48,0.78,1.25*1A
$GNGSA,A,3,75,71,72,76,65,77,,,,,,,1.48,0.78,1.25*1B
$GPGSV,5,1,17,05,33,032,36,10,11,213,07,12,72,109,31,13,13,100,13*73
$GPGSV,5,2,17,15,42,129,27,18,30,299,22,20,02,033,,23,53,215,16*7B
$GPGSV,5,3,17,24,29,171,12,25,66,337,25,28,07,286,,29,16,352,19*76
$GPGSV,5,4,17,36,52,277,,40,86,351,,41,58,082,,49,32,274,*7C
$GPGSV,5,5,17,50,10,089,*4A
$GLGSV,3,1,09,65,30,174,10,71,11,057,19,72,40,102,21,75,33,166,18*6A
$GLGSV,3,2,09,76,71,271,27,77,29,320,24,86,00,024,11,87,09,344,*6A
$GLGSV,3,3,09,88,05,289,*5A
$GNGLL,0419.86182,S,05539.86529,E,070218.00,A,A*65
$GNGRS,070218.00,1,12.4,-0.6,-39.9,-4.0,-3.6,-10.4,-1.6,5.1,-27.2,,,*5D
$GNGRS,070218.00,1,1.4,16.1,-23.8,-4.2,3.6,6.5,,,,,,*56
$GNGST,070218.00,3182997,,,,5.5,5.6,12*54
$GNZDA,070218.00,23,05,2025,00,00*75
$GNGBS,070218.00,5.5,5.6,12.5,,,,*66
b0LB$! 
Hmd5*5
+!5,BQ>`{4V_5:R 
YyAG9OH(fK!LGM@V
WXX!VQbBrV13$GNRMC,070219.00,A,0419.86162,S,05539.86534,E,0.044,,230525,,,A*7C
$GNVTG,,T,,M,0.044,N,0.081,K,A*34
$GNGNS,070219.00,0419.86162,S,05539.86534,E,AA,15,0.78,20.8,-47.6,,*60
$GNGGA,070219.00,0419.86162,S,05539.86534,E,1,12,0.78,20.8,M,-47.6,M,,*4D
$GNGSA,A,3,24,05,13,15,12,29,18,25,23,,,,1.48,0.78,1.25*1A
$GNGSA,A,3,75,71,72,76,65,77,,,,,,,1.48,0.78,1.25*1B
$GPGSV,5,1,17,05,33,032,36,10,11,213,07,12,72,109,31,13,13,100,13*73
$GPGSV,5,2,17,15,42,129,27,18,30,299,24,20,02,033,,23,53,215,18*73
$GPGSV,5,3,17,24,29,171,11,25,66,337,25,28,07,286,,29,16,352,18*74
$GPGSV,5,4,17,36,52,277,,40,86,351,28,41,58,082,,49,32,274,*76
$GPGSV,5,5,17,50,10,089,*4A
$GLGSV,3,1,09,65,30,174,11,71,11,057,17,72,40,102,22,75,33,166,17*69
$GLGSV,3,2,09,76,71,271,28,77,29,320,24,86,00,024,10,87,09,344,*64
$GLGSV,3,3,09,88,05,289,*5A
$GNGLL,0419.86162,S,05539.86534,E,070219.00,A,A*66
$GNGRS,070219.00,1,-9.8,-0.6,-40.4,-2.0,-1.0,-10.4,-2.4,8.3,-31.1,,,*4C
$GNGRS,070219.00,1,1.9,13.6,-21.6,-0.3,20.4,7.9,,,,,,*6F
$GNGST,070219.00,62,,,,5.4,5.5,12*6C
$GNZDA,070219.00,23,05,2025,00,00*74
$GNGBS,070219.00,5.4,5.5,12.3,,,,*63
b0LB$! 
Hmd*h
+#!5dBQ`{4V_5:R 
YyA
1G9bH(fK!LGM@VWXX!xbBr>5$GNRMC,070220.00,A,0419.86161,S,05539.86529,E,0.043,,230525,,,A*7E
$GNVTG,,T,,M,0.043,N,0.080,K,A*32
$GNGNS,070220.00,0419.86161,S,05539.86529,E,AA,16,0.85,20.6,-47.6,,*6A
$GNGGA,070220.00,0419.86161,S,05539.86529,E,1,12,0.85,20.6,M,-47.6,M,,*44
$GNGSA,A,3,24,05,13,15,12,29,18,25,23,40,,,1.56,0.85,1.31*16
$GNGSA,A,3,75,71,72,76,65,77,,,,,,,1.56,0.85,1.31*13
$GPGSV,5,1,17,05,33,032,36,10,11,213,,12,72,109,31,13,13,100,15*72
$GPGSV,5,2,17,15,42,129,27,18,30,299,26,20,02,033,,23,53,215,20*7A
$GPGSV,5,3,17,24,29,171,09,25,66,337,25,28,07,286,,29,16,352,18*7D
$GPGSV,5,4,17,36,52,277,,40,86,351,29,41,58,082,,49,32,274,*77
$GPGSV,5,5,17,50,10,089,*4A
$GLGSV,3,1,09,65,31,174,10,71,11,057,17,72,40,102,23,75,33,166,17*68
$GLGSV,3,2,09,76,71,271,29,77,29,320,24,86,00,024,08,87,09,344,*6C
$GLGSV,3,3,09,88,05,289,*5A
$GNGLL,0419.86161,S,05539.86529,E,070220.00,A,A*63
$GNGRS,070220.00,1,11.9,-0.6,-42.2,-1.5,-5.3,-10.3,-4.8,7.0,-34.8,138,,*61
$GNGRS,070220.00,1,2.3,13.8,-21.0,0.2,3.1,6.9,,,,,,*7D
$GNGST,070220.00,3439479,,,,5.3,5.5,12*52
$GNZDA,070220.00,23,05,2025,00,00*7E
$GNGBS,070220.00,5.3,5.5,12.2,,,,*6F
$GNTXT,01,01,01,More than 100 frame errors, UART RX was disabled*70
b0LB$! 
Hm>d*
+!5{
BQ`X{4V_4:R 
YyA{G9CH(fuK!iLGmM@VWXX!bBr&9`$GNRMC,070221.00,A,0419.86129,S,05539.86530,E,0.061,,230525,,,A*7B
$GNVTG,,T,,M,0.061,N,0.113,K,A*39
$GNGNS,070221.00,0419.86129,S,05539.86530,E,AA,16,0.74,21.6,-47.6,,*60
$GNGGA,070221.00,0419.86129,S,05539.86530,E,1,12,0.74,21.6,M,-47.6,M,,*4E
$GNGSA,A,3,24,05,13,15,12,29,18,25,23,40,,,1.33,0.74,1.10*18
$GNGSA,A,3,75,71,72,76,65,77,,,,,,,1.33,0.74,1.10*1D
$GPGSV,5,1,17,05,33,032,36,10,11,213,,12,72,109,31,13,13,100,15*72
$GPGSV,5,2,17,15,42,129,27,18,30,299,26,20,02,033,,23,53,215,21*7B
$GPGSV,5,3,17,24,29,171,10,25,66,337,25,28,07,286,,29,16,352,18*75
$GPGSV,5,4,17,36,52,277,,40,86,351,30,41,58,082,,49,32,274,*7F
$GPGSV,5,5,17,50,10,089,*4A
$GLGSV,3,1,09,65,31,174,12,71,11,057,16,72,40,102,24,75,33,166,19*62
$GLGSV,3,2,09,76,71,271,29,77,29,320,23,86,00,024,11,87,09,344,*63
$GLGSV,3,3,09,88,05,289,*5A
$GNGLL,0419.86129,S,05539.86530,E,070221.00,A,A*66
$GNGRS,070221.00,1,12.8,-0.7,-41.0,-3.1,-1.9,-11.9,-5.3,7.2,-34.6,135,,*6A
$GNGRS,070221.00,1,3.6,13.5,-19.3,-1.5,3.8,6.6,,,,,,*50
$GNGST,070221.00,4205788,,,,5.3,5.4,12*51
$GNZDA,070221.00,23,05,2025,00,00*7F
$GNGBS,070221.00,5.3,5.4,12.1,,,,*6C
$GPGSV,5,3,17,24,29,171,12,25,66,337,24,28,07,286,,29,16,352,18*76
$GPGSV,5,4,17,36,52,277,,40,86,351,29,41,58,082,,49,32,274,*77
$GPGSV,5,5,17,50,10,089,*4A
$GLGSV,3,1,09,65,31,174,12,71,11,057,15,72,40,102,25,75,33,166,20*6A
$GLGSV,3,2,09,76,71,271,29,77,29,320,23,86,00,024,10,87,09,344,*62
$GLGSV,3,3,09,88,05,289,*5A
$GNGLL,0419.86099,S,05539.86526,E,070222.00,A,A*68
$GNGRS,070222.00,1,12.4,-0.9,-42.2,-3.5,-2.7,-12.2,-5.3,6.8,-29.3,140,,*6B
$GNGRS,070222.00,1,5.0,13.4,-19.2,-3.6,-7.0,6.1,,,,,,*74
$GNGST,070222.00,1026,,,,5.2,5.3,12*65
$GNZDA,070222.00,23,05,2025,00,00*7C
$GNGBS,070222.00,5.2,5.3,11.9,,,,*62
$GNTXT,01,01,01,More than 100 frame errors, UART RX was disabled*70
b0LhB$! 
 HmdQ*o
+$!5BBQM`3{4V_7:R 
YyAG9[H(fK!\LG)M@-V
WXX!@*bhBr@-$GNRMC,070223.00,A,0419.86075,S,05539.86539,E,0.495,,230525,,,A*77
$GNVTG,,T,,M,0.495,N,0.917,K,A*3A
$GNGNS,070223.00,0419.86075,S,05539.86539,E,AA,16,0.74,23.2,-47.6,,*65
$GNGGA,070223.00,0419.86075,S,05539.86539,E,1,12,0.74,23.2,M,-47.6,M,,*4B
$GNGSA,A,3,24,05,13,15,12,29,18,25,23,40,,,1.33,0.74,1.10*18
$GNGSA,A,3,75,71,72,76,65,77,,,,,,,1.33,0.74,1.10*1D
$GPGSV,5,1,17,05,33,032,36,10,11,213,,12,72,109,32,13,13,100,13*77
$GPGSV,5,2,17,15,42,129,27,18,30,299,24,20,02,033,,23,53,215,19*72
$GPGSV,5,3,17,24,29,171,13,25,66,337,25,28,07,286,,29,16,352,20*7D
$GPGSV,5,4,17,36,52,277,,40,86,351,29,41,58,082,,49,32,274,*77
$GPGSV,5,5,17,50,10,089,*4A
$GLGSV,3,1,09,65,31,174,12,71,11,057,16,72,40,102,25,75,33,166,21*68
$GLGSV,3,2,09,76,71,271,30,77,29,320,22,86,00,024,10,87,09,344,*6B
$GLGSV,3,3,09,88,05,289,*5A
$GNGLL,0419.86075,S,05539.86539,E,070223.00,A,A*65
$GNGRS,070223.00,1,12.6,-0.5,-42.7,-1.4,-3.3,-9.7,-4.8,5.9,-27.5,143,,*5B
$GNGRS,070223.00,1,6.0,11.2,-18.1,-2.2,3.8,5.6,,,,,,*50
$GNGST,070223.00,114280,,,,5.1,5.3,12*6C
$GNZDA,070223.00,23,05,2025,00,00*7D
$GNGBS,070223.00,5.1,5.3,11.9,,,,*60
$GNTXT,01,01,01,More than 100 frame errors, UART RX was disabled*70
b0LPB#! 
 HmQd*t
+!5g
BQa`{ 4V_$7:R 
YyA
~G9lH(fK!*LGM@V
WXX!8bPBrDj$GNRMC,070224.00,A,0419.86070,S,05539.86540,E,0.239,,230525,,,A*7B
$GNVTG,,T,,M,0.239,N,0.443,K,A*36
$GNGNS,070224.00,0419.86070,S,05539.86540,E,AA,16,0.77,23.1,-47.6,,*69
$GNGGA,070224.00,0419.86070,S,05539.86540,E,1,12,0.77,23.1,M,-47.6,M,,*47
$GNGSA,A,3,24,05,13,15,12,29,18,25,23,40,,,1.39,0.77,1.16*17
$GNGSA,A,3,75,71,72,76,65,77,,,,,,,1.39,0.77,1.16*12
$GPGSV,5,1,17,05,33,032,35,10,11,213,,12,72,109,32,13,13,100,14*73
$GPGSV,5,2,17,15,42,129,28,18,30,299,24,20,02,033,,23,53,215,18*7C
$GPGSV,5,3,17,24,29,171,10,25,66,337,25,28,07,286,,29,16,352,21*7F
$GPGSV,5,4,17,36,52,277,32,40,86,351,28,41,58,082,,49,32,274,*77
$GPGSV,5,5,17,50,10,089,*4A
$GLGSV,3,1,09,65,31,174,10,71,11,057,16,72,40,102,25,75,33,166,21*6A
$GLGSV,3,2,09,76,71,271,29,77,29,320,20,86,00,024,10,87,09,344,*61
$GLGSV,3,3,09,88,05,289,*5A
$GNGLL,0419.86070,S,05539.86540,E,070224.00,A,A*69
$GNGRS,070224.00,1,12.5,-0.5,-41.2,-1.4,-1.8,-8.5,-2.3,6.1,-27.1,141,,*53
$GNGRS,070224.00,1,5.5,8.8,-18.5,-5.9,3.8,6.5,,,,,,*6B
$GNGST,070224.00,180125,,,,5.0,5.3,12*6B
$GNZDA,070224.00,23,05,2025,00,00*7A
$GNGBS,070224.00,5.0,5.3,11.8,,,,*67
$GNTXT,01,01,01,More than 100 frame errors, UART RX was disabled*70
$GNTXT,01,01,01,More than 100 frame errors, UART RX was disabled*70
b0L B!! 
Hm|d*
+!5$BQ`{4V_"6:R 
YyA-G8H(fK!LGM@`VWXX!b BrLe$GNRMC,070226.00,A,0419.86071,S,05539.86529,E,0.135,,230525,,,A*78
$GNVTG,,T,,M,0.135,N,0.249,K,A*35
$GNGNS,070226.00,0419.86071,S,05539.86529,E,AA,16,0.80,22.5,-47.6,,*68
$GNGGA,070226.00,0419.86071,S,05539.86529,E,1,12,0.80,22.5,M,-47.6,M,,*46
$GNGSA,A,3,24,05,13,15,12,29,18,25,23,40,,,1.41,0.80,1.16*10
$GNGSA,A,3,75,71,72,76,65,77,,,,,,,1.41,0.80,1.16*15
$GPGSV,5,1,17,05,33,032,33,10,11,213,,12,72,109,31,13,13,100,08*7B
$GPGSV,5,2,17,15,42,129,28,18,30,299,21,20,02,033,,23,53,215,13*72
$GPGSV,5,3,17,24,29,171,13,25,66,337,24,28,07,286,,29,16,352,22*7E
$GPGSV,5,4,17,36,52,277,30,40,86,351,27,41,58,082,,49,32,274,*7A
$GPGSV,5,5,17,50,10,089,*4A
$GLGSV,3,1,09,65,31,174,12,71,11,056,18,72,40,102,24,75,33,166,20*67
$GLGSV,3,2,09,76,71,271,30,77,29,320,20,86,00,024,11,87,09,344,*68
$GLGSV,3,3,09,88,05,289,*5A
$GNGLL,0419.86071,S,05539.86529,E,070226.00,A,A*65
$GNGRS,070226.00,1,11.8,-0.9,-41.6,0.0,-1.3,-5.0,-5.4,5.1,-25.2,139,,*71
$GNGRS,070226.00,1,3.9,11.8,-15.1,-1.0,3.0,6.1,,,,,,*53
$GNGST,070226.00,3180635,,,,5.0,5.3,12*5C
$GNZDA,070226.00,23,05,2025,00,00*78
$GNGBS,070226.00,5.0,5.3,11.8,,,,*65
$GNTXT,01,01,01,More than 100 frame errors, UART RX was disabled*70
b0LB! 
 Hm%d*
+N!
55yBQ`{4V_5:R 
YyAG8|Hb0LB"! L
!Hm~ds*&
+-!5BQ`,{4V_5:R 
YyA
G8H(eK!LGzM@+VWXX!_bBr~T&$GNRMC,070228.00,A,0419.86072,S,05539.86515,E,0.147,,230525,,,A*7F
$GNVTG,,T,,M,0.147,N,0.272,K,A*38
$GNGNS,070228.00,0419.86072,S,05539.86515,E,AA,15,0.77,21.7,-47.6,,*60
$GNGGA,070228.00,0419.86072,S,05539.86515,E,1,12,0.77,21.7,M,-47.6,M,,*4D
$GNGSA,A,3,24,05,13,15,12,29,18,25,40,,,,1.34,0.77,1.11*1C
$GNGSA,A,3,75,71,72,76,65,77,,,,,,,1.34,0.77,1.11*18
$GPGSV,5,1,17,05,33,032,34,10,11,213,,12,72,109,33,13,13,100,12*75
$GPGSV,5,2,17,15,42,129,28,18,30,299,24,20,02,033,,23,53,215,09*7C
$GPGSV,5,3,17,24,29,171,17,25,66,337,25,28,07,286,,29,16,352,21*78
$GPGSV,5,4,17,36,52,277,31,40,86,351,28,41,58,082,,49,32,274,*74
$GPGSV,5,5,17,50,10,089,*4A
$GLGSV,3,1,09,65,31,174,10,71,11,056,17,72,40,101,22,75,33,166,17*6B
$GLGSV,3,2,09,76,71,271,30,77,29,320,19,86,00,024,11,87,09,344,*62
$GLGSV,3,3,09,88,05,289,*5A
$GNGLL,0419.86072,S,05539.86515,E,070228.00,A,A*67
$GNGRS,070228.00,1,-15.1,3.3,-6.5,2.9,-6.4,-4.7,-4.7,5.3,138,,,*71
$GNGRS,070228.00,1,6.5,9.4,-16.6,-3.9,6.4,5.5,,,,,,*68
$GNGST,070228.00,1443,,,,5.0,5.3,12*6A
$GNZDA,070228.00,23,05,2025,00,00*76
$GNGBS,070228.00,5.0,5.3,11.8,,,,*6B
b0LB#! 
!Hmkd*@
+h!5BQq`{4V_5:R 
YyA
.G86H(eK!LGM@VWXX!d=bBrfX$GNRMC,070229.00,A,0419.86074,S,05539.86518,E,0.093,,230525,,,A*7D
$GNVTG,,T,,M,0.093,N,0.173,K,A*32
$GNGNS,070229.00,0419.86074,S,05539.86518,E,AA,16,0.77,21.4,-47.6,,*6A
$GNGGA,070229.00,0419.86074,S,05539.86518,E,1,12,0.77,21.4,M,-47.6,M,,*44
$GNGSA,A,3,24,05,13,15,12,29,18,25,23,40,,,1.39,0.77,1.16*17
$GNGSA,A,3,75,71,72,76,65,77,,,,,,,1.39,0.77,1.16*12
$GPGSV,5,1,17,05,33,032,35,10,11,213,,12,72,109,33,13,13,100,14*72
$GPGSV,5,2,17,15,42,129,28,18,30,299,26,20,02,033,,23,53,215,13*75
$GPGSV,5,3,17,24,29,171,15,25,66,337,26,28,07,286,,29,16,352,20*78
$GPGSV,5,4,17,36,52,277,30,40,86,351,28,41,58,082,,49,32,274,*75
$GPGSV,5,5,17,50,10,089,*4A
$GLGSV,3,1,09,65,31,174,10,71,11,056,18,72,40,101,21,75,33,166,16*66
$GLGSV,3,2,09,76,71,271,31,77,29,320,18,86,00,024,09,87,09,344,*6B
$GLGSV,3,3,09,88,05,289,*5A
$GNGLL,0419.86074,S,05539.86518,E,070229.00,A,A*6D
$GNGRS,070229.00,1,11.9,4.2,21.8,3.2,-1.5,-2.6,-4.1,3.7,-19.2,137,,*7B
$GNGRS,070229.00,1,7.3,8.2,-15.1,-4.9,3.0,6.9,,,,,,*64
$GNGST,070229.00,3072755,,,,5.0,5.3,12*58
$GNZDA,070229.00,23,05,2025,00,00*77
$GNGBS,070229.00,5.0,5.3,11.8,,,,*6A
$GNTXT,01,01,01,More than 100 frame errors, UART RX was disabled*70
b0LB"! ]
 Hmd^*b
+]!+5xBQB`{4V_j5:R 
YyA
G8wH(ePK LGM@VWXX!,bBrN\y$GNRMC,070230.00,A,0419.86075,S,05539.86518,E,0.058,,230525,,,A*73
$GNVTG,,T,,M,0.058,N,0.108,K,A*39
$GNGNS,070230.00,0419.86075,S,05539.86518,E,AA,16,0.77,21.1,-47.6,,*66
$GNGGA,070230.00,0419.86075,S,05539.86518,E,1,12,0.77,21.1,M,-47.6,M,,*48
$GNGSA,A,3,24,05,13,15,12,29,18,25,23,40,,,1.39,0.77,1.16*17
$GNGSA,A,3,75,71,72,76,65,77,,,,,,,1.39,0.77,1.16*12
$GPGSV,5,1,17,05,33,032,34,10,11,213,,12,72,109,32,13,13,100,12*74
$GPGSV,5,2,17,15,42,129,28,18,30,299,27,20,02,033,06,23,53,215,17*76
$GPGSV,5,3,17,24,29,171,16,25,66,337,27,28,07,286,,29,16,352,19*70
$GPGSV,5,4,17,36,52,277,29,40,86,351,28,41,58,082,,49,32,274,*7D
$GPGSV,5,5,17,50,10,089,*4A
$GLGSV,3,1,09,65,31,174,10,71,11,056,19,72,40,101,22,75,32,166,17*64
$GLGSV,3,2,09,76,71,271,30,77,29,320,19,86,00,024,08,87,09,344,*6A
$GLGSV,3,3,09,88,05,289,*5A
$GNGLL,0419.86075,S,05539.86518,E,070230.00,A,A*64
$GNGRS,070230.00,1,11.8,3.5,21.4,3.5,-2.9,-0.1,-4.2,0.7,-19.3,137,,*72
$GNGRS,070230.00,1,5.1,8.9,-14.6,-0.6,2.8,4.4,,,,,,*6C
$GNGST,070230.00,3073137,,,,5.0,5.2,12*52
$GNZDA,070230.00,23,05,2025,00,00*7F
$GNGBS,070230.00,5.0,5.2,11.6,,,,*6D
$GNTXT,01,01,01,More than 100 frame errors, UART RX was disabled*70
b0LB!! 
!HmRd*[
+!5BQQ`{4V_25:R 
YyAG8H(eK xLGM@UVWXX!>!bBr6`Q^$GNRMC,070231.00,A,0419.86077,S,05539.86523,E,0.142,,230525,,,A*72
$GNVTG,,T,,M,0.142,N,0.264,K,A*3A
$GNGNS,070231.00,0419.86077,S,05539.86523,E,AA,16,0.86,20.8,-47.6,,*6B
$GNGGA,070231.00,0419.86077,S,05539.86523,E,1,12,0.86,20.8,M,-47.6,M,,*45
$GNGSA,A,3,24,05,13,15,12,29,18,25,23,40,,,1.49,0.86,1.21*1A
$GNGSA,A,3,75,71,72,76,65,77,,,,,,,1.49,0.86,1.21*1F
$GPGSV,5,1,17,05,33,032,33,10,11,213,,12,72,109,33,13,13,100,12*72
$GPGSV,5,2,17,15,42,129,27,18,30,299,26,20,02,033,08,23,53,215,13*72
$GPGSV,5,3,17,24,29,171,08,25,66,337,27,28,07,286,,29,16,352,20*75
$GPGSV,5,4,17,36,52,277,29,40,86,351,28,41,58,082,,49,32,274,*7D
$GPGSV,5,5,17,50,10,089,*4A
$GLGSV,3,1,09,65,31,174,09,71,11,056,19,72,40,101,23,75,32,166,17*6D
$GLGSV,3,2,09,76,71,268,31,77,29,320,19,86,00,024,12,87,09,344,*68
$GLGSV,3,3,09,88,05,289,*5A
$GNGLL,0419.86077,S,05539.86523,E,070231.00,A,A*6F
$GNGRS,070231.00,1,22.7,4.9,14.7,6.0,-4.3,-0.7,-5.3,0.8,-18.7,136,,*73
$GNGRS,070231.00,1,3.8,6.7,-16.3,-6.2,30.2,3.4,,,,,,*5B
$GNGST,070231.00,1494,,,,5.0,5.2,12*69
$GNZDA,070231.00,23,05,2025,00,00*7E
$GNGBS,070231.00,5.0,5.2,11.5,,,,*6F
$GNTXT,01,01,01,More than 100 frame errors, UART RX was disabled*70
b0LB!! 
!Hmd*
+F!5BQ*`T{4V_5:R 
YyAKG8H(eK LG}M?V
WXX!}bBrd)$GNRMC,070232.00,A,0419.86072,S,05539.86530,E,0.045,,230525,,,A*70
$GNVTG,,T,,M,0.045,N,0.083,K,A*37
$GNGNS,070232.00,0419.86072,S,05539.86530,E,AA,16,0.77,20.9,-47.6,,*60
$GNGGA,070232.00,0419.86072,S,05539.86530,E,1,12,0.77,20.9,M,-47.6,M,,*4E
$GNGSA,A,3,24,05,13,15,12,29,18,25,23,40,,,1.39,0.77,1.16*17
$GNGSA,A,3,75,71,72,76,65,77,,,,,,,1.39,0.77,1.16*12
$GPGSV,5,1,17,05,33,032,33,10,11,213,,12,72,109,33,13,13,100,11*71
$GPGSV,5,2,17,15,42,129,27,18,30,299,26,20,02,033,11,23,53,215,17*7E
$GPGSV,5,3,17,24,29,171,15,25,66,337,27,28,07,286,,29,16,352,22*7B
$GPGSV,5,4,17,36,52,277,29,40,86,351,29,41,58,082,,49,32,274,*7C
$GPGSV,5,5,17,50,10,089,*4A
$GLGSV,3,1,09,65,31,174,11,71,11,056,19,72,40,101,24,75,32,166,16*62
$GLGSV,3,2,09,76,71,268,31,77,30,319,18,86,00,024,10,87,09,344,*69
$GLGSV,3,3,09,88,05,289,*5A
$GNGLL,0419.86072,S,05539.86530,E,070232.00,A,A*6B
$GNGRS,070232.00,1,12.1,4.5,22.1,6.9,-3.7,-1.7,-7.0,0.4,-15.9,136,,*7F
$GNGRS,070232.00,1,3.8,7.2,-16.1,-6.4,3.3,5.1,,,,,,*6A
$GNGST,070232.00,3073726,,,,5.0,5.1,11*56
$GNZDA,070232.00,23,05,2025,00,00*7D
$GNGBS,070232.00,5.0,5.1,11.4,,,,*6E
$GNTXT,01,01,01,More than 100 frame errors, UART RX was disabled*70
b0LxB"! 
!Hmcd*
+!5BQ`{4V_b5:R 
YyA
JG8H(eK LGM?VWXX!bxBrh.$GNRMC,070233.00,A,0419.86067,S,05539.86537,E,0.054,,230525,,,A*72
$GNVTG,,T,,M,0.054,N,0.100,K,A*3D
$GNGNS,070233.00,0419.86067,S,05539.86537,E,AA,16,0.77,21.0,-47.6,,*6A
$GNGGA,070233.00,0419.86067,S,05539.86537,E,1,12,0.77,21.0,M,-47.6,M,,*44
$GNGSA,A,3,24,05,13,15,12,29,18,25,23,40,,,1.39,0.77,1.16*17
$GNGSA,A,3,75,71,72,76,65,77,,,,,,,1.39,0.77,1.16*12
$GPGSV,5,1,17,05,33,032,34,10,11,213,,12,72,109,33,13,13,100,09*7F
$GPGSV,5,2,17,15,42,129,28,18,30,299,26,20,02,033,11,23,53,215,17*71
$GPGSV,5,3,17,24,29,171,12,25,66,337,27,28,07,286,,29,16,352,25*7B
$GPGSV,5,4,17,36,52,277,30,40,86,351,30,41,58,082,,49,32,274,*7C
$GPGSV,5,5,17,50,10,089,*4A
$GLGSV,3,1,09,65,31,174,10,71,11,056,18,72,40,101,24,75,32,166,14*60
$GLGSV,3,2,09,76,71,268,31,77,30,319,17,86,00,024,08,87,09,344,*6F
$GLGSV,3,3,09,88,05,289,*5A
$GNGLL,0419.86067,S,05539.86537,E,070233.00,A,A*69
$GNGRS,070233.00,1,12.1,4.3,22.0,10.0,-4.1,-3.4,-7.4,0.3,-15.1,137,,*4D
$GNGRS,070233.00,1,2.2,7.7,-16.0,-3.0,3.3,4.5,,,,,,*60
$GNGST,070233.00,3076364,,,,5.0,5.1,11*50
$GNZDA,070233.00,23,05,2025,00,00*7C
$GNGBS,070233.00,5.0,5.1,11.4,,,,*6F
b0L`B"! 
!Hmod*w
+T!5BQ`"{4V_Y5:R 
YyAG8H(eWK fLGM?VWXX!"b`Brk$GNRMC,070234.00,A,0419.86060,S,05539.86545,E,0.097,,230525,,,A*78
$GNVTG,,T,,M,0.097,N,0.179,K,A*3C
$GNGNS,070234.00,0419.86060,S,05539.86545,E,AA,16,0.77,21.2,-47.6,,*6D
$GNGGA,070234.00,0419.86060,S,05539.86545,E,1,12,0.77,21.2,M,-47.6,M,,*43
$GNGSA,A,3,24,05,13,15,12,29,18,25,23,40,,,1.50,0.77,1.29*14
$GNGSA,A,3,75,71,72,76,65,77,,,,,,,1.50,0.77,1.29*11
$GPGSV,5,1,17,05,33,032,34,10,11,213,,12,72,109,33,13,13,100,11*76
$GPGSV,5,2,17,15,42,129,27,18,30,299,27,20,02,033,11,23,53,215,17*7F
$GPGSV,5,3,17,24,29,171,17,25,66,337,26,28,07,286,,29,16,352,27*7D
$GPGSV,5,4,17,36,52,277,30,40,86,351,30,41,58,082,,49,32,274,*7C
$GPGSV,5,5,17,50,10,089,*4A
$GLGSV,3,1,09,65,31,174,11,71,11,056,19,72,40,101,24,75,32,166,13*67
$GLGSV,3,2,09,76,71,268,31,77,30,319,16,86,00,024,07,87,09,344,*61
$GLGSV,3,3,09,88,05,289,*5A
$GNGLL,0419.86060,S,05539.86545,E,070234.00,A,A*6C
$GNGRS,070234.00,1,-10.1,6.8,-77.9,8.9,-4.0,-4.8,-9.4,-0.8,-12.5,137,,*59
$GNGRS,070234.00,1,1.0,7.2,-14.5,-3.0,-0.8,3.9,,,,,,*4A
$GNGST,070234.00,60,,,,4.9,5.0,11*6B
$GNZDA,070234.00,23,05,2025,00,00*7B
$GNGBS,070234.00,4.9,5.0,11.3,,,,*66
b0LHB"! 
!Hmcd*
+
!57BQ`{4V_5:R 
Y
yLA
EG8zH(eK LGM?VWXX!bHBro$GNRMC,070235.00,A,0419.86056,S,05539.86551,E,0.030,,230525,,,A*74
$GNVTG,,T,,M,0.030,N,0.055,K,A*3E
$GNGNS,070235.00,0419.86056,S,05539.86551,E,AA,16,0.77,21.3,-47.6,,*6D
$GNGGA,070235.00,0419.86056,S,05539.86551,E,1,12,0.77,21.3,M,-47.6,M,,*43
$GNGSA,A,3,24,05,13,15,12,29,18,25,23,40,,,1.50,0.77,1.29*14
$GNGSA,A,3,75,71,72,76,65,77,,,,,,,1.50,0.77,1.29*11
$GPGSV,5,1,17,05,33,032,34,10,11,213,,12,72,109,33,13,13,100,09*7F
$GPGSV,5,2,17,15,42,129,27,18,30,299,26,20,02,033,10,23,53,215,19*71
$GPGSV,5,3,17,24,29,171,20,25,66,337,27,28,07,286,,29,16,352,27*78
$GPGSV,5,4,17,36,52,277,31,40,86,351,29,41,58,082,,49,32,274,*75
$GPGSV,5,5,17,50,10,089,*4A
$GLGSV,3,1,09,65,31,174,10,71,11,056,19,72,40,101,24,75,32,166,12*67
$GLGSV,3,2,09,76,71,268,31,77,30,319,16,86,00,024,12,87,09,344,*65
$GLGSV,3,3,09,88,05,289,*5A
$GNGLL,0419.86056,S,05539.86551,E,070235.00,A,A*6D
$GNGRS,070235.00,1,12.1,1.4,22.1,10.0,-4.1,-6.2,-8.2,-1.0,-12.2,137,,*69
$GNGRS,070235.00,1,1.7,6.3,-15.4,-3.1,3.2,4.0,,,,,,*67
$GNGST,070235.00,3179594,,,,4.9,5.0,11*58
$GNZDA,070235.00,23,05,2025,00,00*7A
$GNGBS,070235.00,4.9,5.0,11.2,,,,*66
$GNTXT,01,01,01,More than 100 frame errors, UART RX was disabled*70
b0L0B"! 
 Hmrd*T
+!y5X:BQ>`{4V_5:R 
Y
yA
7G8H(e-K LGM?V
WXX!lb0Brsc$GNRMC,070236.00,A,0419.86058,S,05539.86559,E,0.080,,230525,,,A*7A
$GNVTG,,T,,M,0.080,N,0.147,K,A*37
$GNGNS,070236.00,0419.86058,S,05539.86559,E,AA,15,0.77,21.2,-47.6,,*6A
$GNGGA,070236.00,0419.86058,S,05539.86559,E,1,12,0.77,21.2,M,-47.6,M,,*47
$GNGSA,A,3,24,05,15,12,29,18,25,23,40,,,,1.50,0.77,1.29*16
$GNGSA,A,3,75,71,72,76,65,77,,,,,,,1.50,0.77,1.29*11
$GPGSV,5,1,17,05,33,032,34,10,11,213,,12,72,109,32,13,13,100,07*70
$GPGSV,5,2,17,15,42,129,27,18,30,299,26,20,02,033,11,23,53,215,21*7B
$GPGSV,5,3,17,24,29,171,17,25,66,337,28,28,07,286,,29,16,352,28*7C
$GPGSV,5,4,17,36,52,277,31,40,86,351,28,41,58,082,,49,32,274,*74
$GPGSV,5,5,17,50,10,089,*4A
$GLGSV,3,1,09,65,31,174,10,71,11,056,20,72,40,101,24,75,32,166,12*6D
$GLGSV,3,2,09,76,71,268,31,77,30,319,15,86,00,024,10,87,09,344,*64
$GLGSV,3,3,09,88,05,289,*5A
$GNGLL,0419.86058,S,05539.86559,E,070236.00,A,A*68
$GNGRS,070236.00,1,10.8,5.2,11.1,-4.0,-7.8,-8.6,-4.5,-9.4,138,,,*41
$GNGRS,070236.00,1,2.4,4.0,-14.9,-4.8,3.1,5.1,,,,,,*64
$GNGST,070236.00,67303,,,,4.9,4.9,11*56
$GNZDA,070236.00,23,05,2025,00,00*79
$GNGBS,070236.00,4.9,4.9,11.1,,,,*6E
b0LB"! 

 Hmd*X
+!35}
BQ`{4V_5:R 
YyA~G8H(eK LGM?0V
WXX!~^bBrw`$GNRMC,070237.00,A,0419.86059,S,05539.86564,E,0.005,,230525,,,A*79
$GNVTG,,T,,M,0.005,N,0.010,K,A*39
$GNGNS,070237.00,0419.86059,S,05539.86564,E,AA,16,0.81,21.1,-47.6,,*6D
$GNGGA,070237.00,0419.86059,S,05539.86564,E,1,12,0.81,21.1,M,-47.6,M,,*43
$GNGSA,A,3,24,05,13,15,12,29,18,25,23,40,,,1.56,0.81,1.34*17
$GNGSA,A,3,75,71,72,76,65,77,,,,,,,1.56,0.81,1.34*12
$GNTXT,01,01,01,More than 100 frame errors, UART RX was disabled*70
b0LC"! )
 Hmd*L
+@!5BQ`:{4V_)6:R 
YyA7G8AH(e\K LG7M?$VWXX!bCr{9A$GNRMC,070238.00,A,0419.86060,S,05539.86568,E,0.095,,230525,,,A*79
$GNVTG,,T,,M,0.095,N,0.176,K,A*31
$GNGNS,070238.00,0419.86060,S,05539.86568,E,AA,16,0.77,20.9,-47.6,,*64
$GNGGA,070238.00,0419.86060,S,05539.86568,E,1,12,0.77,20.9,M,-47.6,M,,*4A
$GNGSA,A,3,24,05,13,15,12,29,18,25,23,40,,,1.50,0.77,1.29*14
$GNGSA,A,3,75,71,72,76,65,77,,,,,,,1.50,0.77,1.29*11
$GPGSV,5,1,17,05,33,032,34,10,11,213,,12,72,109,32,13,13,100,09*7E
$GPGSV,5,2,17,15,42,129,27,18,30,299,26,20,02,033,09,23,53,215,22*71
$GPGSV,5,3,17,24,29,171,20,25,66,337,28,28,07,286,,29,16,352,26*76
$GPGSV,5,4,17,36,52,277,31,40,86,351,28,41,58,082,,49,32,274,*74
$GPGSV,5,5,17,50,10,089,*4A
$GLGSV,3,1,09,65,31,174,15,71,11,056,20,72,40,101,25,75,32,166,16*6D
$GLGSV,3,2,09,76,71,268,30,77,30,319,17,86,00,024,08,87,09,344,*6E
$GLGSV,3,3,09,88,05,289,*5A
$GNGLL,0419.86060,S,05539.86568,E,070238.00,A,A*6F
$GNGRS,070238.00,1,2.6,5.5,21.9,13.6,-2.5,-4.5,-9.6,-5.9,-6.3,139,,*6C
$GNGRS,070238.00,1,4.0,3.2,-17.0,5.7,3.1,5.5,,,,,,*40
$GNGST,070238.00,3179277,,,,4.8,4.8,11*57
$GNZDA,070238.00,23,05,2025,00,00*77
$GNGBS,070238.00,4.8,4.8,10.9,,,,*69
$GNTXT,01,01,01,More than 100 frame errors, UART RX was disabled*70
b0LC"! @
Hmdw*E
+
!5
BQ`L{4V_d6:R 
YyA8G8oH(e K LGM?3V
WXX!bCrv$GNRMC,070239.00,A,0419.86055,S,05539.86575,E,0.183,,230525,,,A*74
b0LC"! ?
Hmdr*
+O
!B=5 BQ`S{4V_6:R 
YyA+G8Hb0LC"! '
 Hmd*
+y!5@UBQ`/{4V_56:R 
YyAG8H(eK mL"GM?-VWXX!bCrFj$GNRMC,070241.00,A,0419.86053,S,05539.86583,E,0.061,,230525,,,A*79
$GNVTG,,T,,M,0.061,N,0.113,K,A*39
$GNGNS,070241.00,0419.86053,S,05539.86583,E,AA,16,0.77,21.2,-47.6,,*65
$GNTXT,01,01,01,More than 100 frame errors, UART RX was disabled*70
$GNTXT,01,01,01,More than 100 frame errors, UART RX was disabled*70
b0L@ C"! K
 Hm:d**{
+!5BQX`{4V_6:R 
YyAG8H(eK L G*M?VWXX!qb@ Cro$GNRMC,070246.00,A,0419.86049,S,05539.86616,E,0.021,,230525,,,A*7E
$GNVTG,,T,,M,0.021,N,0.039,K,A*34
$GNGNS,070246.00,0419.86049,S,05539.86616,E,AA,16,0.77,21.4,-47.6,,*60
$GNGGA,070246.00,0419.86049,S,05539.86616,E,1,12,0.77,21.4,M,-47.6,M,,*4E
$GNGSA,A,3,24,05,13,15,12,29,18,25,23,40,,,1.39,0.77,1.16*17
$GNGSA,A,3,75,71,72,76,65,77,,,,,,,1.39,0.77,1.16*12
$GPGSV,5,1,17,05,33,032,34,10,11,213,,12,72,109,32,13,13,100,14*72
$GPGSV,5,2,17,15,42,129,28,18,30,299,26,20,02,033,,23,53,215,25*70
$GPGSV,5,3,17,24,29,171,21,25,66,337,25,28,07,286,,29,16,352,27*7B
$GPGSV,5,4,17,36,52,277,30,40,86,351,30,41,58,082,,49,32,274,*7C
$GPGSV,5,5,17,50,10,089,*4A
$GLGSV,3,1,09,65,31,174,17,71,11,056,15,72,40,101,23,75,32,166,21*6B
$GLGSV,3,2,09,76,71,268,32,77,30,319,14,86,00,024,12,87,09,344,*64
$GLGSV,3,3,09,88,05,289,*5A
$GNGLL,0419.86049,S,05539.86616,E,070246.00,A,A*67
$GNGRS,070246.00,1,-11.1,5.9,-125,14.0,-4.5,-10.0,-4.9,0.9,-0.7,140,,*6F
$GNGRS,070246.00,1,5.2,-0.7,-15.1,-4.7,4.5,1.5,,,,,,*49
$GNGST,070246.00,1497,,,,4.5,4.7,10*68
$GNZDA,070246.00,23,05,2025,00,00*7E
$GNGBS,070246.00,4.5,4.7,10.2,,,,*69
$GNTXT,01,01,01,More than 100 frame errors, UART RX was disabled*70
b0L($C"! _
 Hmd*
+l!5BQ`{4V_6:R 
YyAG8H(eK L!GoM?VWXX!b($Cr$GNRMC,070247.00,A,0419.86043,S,05539.86624,E,0.041,,230525,,,A*72
$GNVTG,,T,,M,0.041,N,0.077,K,A*38
$GNGNS,070247.00,0419.86043,S,05539.86624,E,AA,16,0.77,21.7,-47.6,,*69
$GNGGA,070247.00,0419.86043,S,05539.86624,E,1,12,0.77,21.7,M,-47.6,M,,*47
$GNGSA,A,3,24,05,13,15,12,29,18,25,23,40,,,1.39,0.77,1.16*17
$GNGSA,A,3,75,71,72,76,65,77,,,,,,,1.39,0.77,1.16*12
$GPGSV,5,1,17,05,33,032,34,10,11,213,,12,72,109,32,13,13,100,11*77
$GPGSV,5,2,17,15,42,129,30,18,30,299,26,20,02,033,,23,53,215,27*7B
$GPGSV,5,3,17,24,29,171,21,25,66,337,25,28,07,286,,29,16,352,28*74
$GPGSV,5,4,17,36,52,277,31,40,86,351,30,41,58,082,,49,32,274,*7D
$GPGSV,5,5,17,50,10,089,*4A
$GLGSV,3,1,09,65,31,174,17,71,11,056,15,72,40,101,21,75,32,166,21*69
$GLGSV,3,2,09,76,71,268,33,77,30,319,12,86,00,024,11,87,09,344,*60
$GLGSV,3,3,09,88,05,289,*5A
$GNGLL,0419.86043,S,05539.86624,E,070247.00,A,A*6D
$GNGRS,070247.00,1,-11.3,6.1,22.3,5.1,-0.2,-10.4,-4.0,2.5,-3.4,140,,*50
$GNGRS,070247.00,1,4.6,0.2,-15.4,-4.0,5.3,1.6,,,,,,*63
$GNGST,070247.00,1497,,,,4.4,4.7,10*68
$GNZDA,070247.00,23,05,2025,00,00*7F
$GNGBS,070247.00,4.4,4.7,10.1,,,,*6A
$GNTXT,01,01,01,More than 100 frame errors, UART RX was disabled*70
b0L(C"! Z
Hmd*
+!5lBQ`{4V_6:R 
YyAG8H(eK YL!GM
?VWXX!c{b(CrU$GNRMC,070248.00,A,0419.86035,S,05539.86633,E,0.028,,230525,,,D*70
$GNVTG,,T,,M,0.028,N,0.052,K,D*35
$GNGNS,070248.00,0419.86035,S,05539.86633,E,DA,16,0.77,21.9,-47.6,,0000*6A
$GNGGA,070248.00,0419.86035,S,05539.86633,E,2,12,0.77,21.9,M,-47.6,M,,0000*42
$GNGSA,A,3,24,05,13,15,12,29,18,25,23,40,,,1.39,0.77,1.16*17
$GNGSA,A,3,75,71,72,76,65,77,,,,,,,1.39,0.77,1.16*12
$GPGSV,5,1,17,05,33,032,34,10,11,213,,12,72,109,31,13,13,100,11*74
$GPGSV,5,2,17,15,42,129,29,18,30,299,27,20,02,033,,23,53,215,27*72
$GPGSV,5,3,17,24,29,171,21,25,66,337,26,28,07,286,,29,16,352,29*76
$GPGSV,5,4,17,36,52,277,31,40,86,351,31,41,58,082,,49,32,274,*7C
$GPGSV,5,5,17,50,10,089,*4A
$GLGSV,3,1,09,65,31,174,17,71,11,056,16,72,40,101,20,75,32,166,20*6A
$GLGSV,3,2,09,76,71,268,33,77,30,319,10,86,00,024,11,87,09,344,*62
$GLGSV,3,3,09,88,05,289,*5A
$GNGLL,0419.86035,S,05539.86633,E,070248.00,A,D*60
$GNGRS,070248.00,1,-13.9,6.0,22.4,2.5,-2.4,-10.9,-3.6,1.8,-4.0,140,,*57
$GNGRS,070248.00,1,6.0,-0.6,-15.4,-3.7,4.2,4.7,,,,,,*45
$GNGST,070248.00,1521,,,,4.4,4.7,10*6B
$GNZDA,070248.00,23,05,2025,00,00*70
$GNGBS,070248.00,4.4,4.7,10.0,,,,*64
$GNTXT,01,01,01,More than 100 frame errors, UART RX was disabled*70
b0L+C"! [
 Hm
dB*
+C!5BQ`{ 4V_6:R 
YyAG8H(eK L!GM
?=VWXX!b+Cr$GNRMC,070249.00,A,0419.86032,S,05539.86642,E,0.097,,230525,,,D*74
$GNVTG,,T,,M,0.097,N,0.180,K,D*3F
$GNGNS,070249.00,0419.86032,S,05539.86642,E,DA,16,0.77,22.2,-47.6,,0000*62
$GNGGA,070249.00,0419.86032,S,05539.86642,E,2,12,0.77,22.2,M,-47.6,M,,0000*4A
$GNGSA,A,3,24,05,13,15,12,29,18,25,23,40,,,1.39,0.77,1.16*17
$GNGSA,A,3,75,71,72,76,65,77,,,,,,,1.39,0.77,1.16*12
$GPGSV,5,1,17,05,33,032,34,10,11,213,,12,72,109,32,13,13,100,10*76
$GPGSV,5,2,17,15,42,129,29,18,30,299,27,20,02,033,,23,53,215,25*70
$GPGSV,5,3,17,24,29,171,20,25,66,337,26,28,07,286,,29,16,352,29*77
$GPGSV,5,4,17,36,52,277,32,40,86,351,31,41,58,082,,49,32,274,*7F
$GPGSV,5,5,17,50,10,089,*4A
$GLGSV,3,1,09,65,31,174,17,71,11,056,16,72,40,101,17,75,32,166,19*64
$GLGSV,3,2,09,76,71,268,33,77,30,319,10,86,00,024,09,87,09,344,*6B
$GLGSV,3,3,09,88,05,289,*5A
$GNGLL,0419.86032,S,05539.86642,E,070249.00,A,D*60
$GNGRS,070249.00,1,-13.5,6.0,169,1.9,2.8,-13.3,-4.5,2.7,-3.3,141,,*54
$GNGRS,070249.00,1,4.6,-1.3,-16.6,-3.3,2.1,3.2,,,,,,*46
$GNGST,070249.00,1521,,,,4.4,4.6,10*6B
$GNZDA,070249.00,23,05,2025,00,00*71
$GNGBS,070249.00,4.4,4.6,9.9,,,,*55
$GNTXT,01,01,01,More than 100 frame errors, UART RX was disabled*70
$GNTXT,01,01,01,More than 100 frame errors, UART RX was disabled*70
b0L3C#! W
Hmd*
+'!5i:BQ>`{4V_7:R 
YyAG8H(eK sL GM?V
WXX!|b3CrV0~$GNRMC,070251.00,A,0419.86021,S,05539.86656,E,0.098,,230525,,,D*75
$GNVTG,,T,,M,0.098,N,0.181,K,D*31
$GNGNS,070251.00,0419.86021,S,05539.86656,E,DA,15,0.82,22.7,-47.6,,0000*60
$GNGGA,070251.00,0419.86021,S,05539.86656,E,2,12,0.82,22.7,M,-47.6,M,,0000*4B
$GNGSA,A,3,24,05,13,15,12,29,18,25,23,40,,,1.54,0.82,1.30*12
$GNGSA,A,3,75,71,72,76,65,,,,,,,,1.54,0.82,1.30*17
$GPGSV,5,1,17,05,33,032,35,10,11,213,,12,72,109,30,13,13,100,13*76
$GPGSV,5,2,17,15,42,129,28,18,30,299,27,20,02,033,,23,53,215,25*71
$GPGSV,5,3,17,24,29,171,17,25,66,337,25,28,07,286,,29,16,352,29*70
$GPGSV,5,4,17,36,52,277,31,40,86,351,31,41,58,082,,49,32,274,*7C
$GPGSV,5,5,17,50,10,089,*4A
$GLGSV,3,1,09,65,31,174,16,71,11,056,14,72,40,101,18,75,32,166,20*62
$GLGSV,3,2,09,76,71,268,32,77,30,319,08,86,00,024,10,87,09,344,*6B
$GLGSV,3,3,09,88,05,289,*5A
$GNGLL,0419.86021,S,05539.86656,E,070251.00,A,D*6E
$GNGRS,070251.00,1,-12.2,6.0,22.1,2.1,4.9,-15.0,-2.2,3.2,-1.5,141,,*72
$GNGRS,070251.00,1,1.1,-0.6,-15.7,-3.4,2.5,,,,,,,*67
$GNGST,070251.00,47,,,,4.3,4.6,9.8*4F
$GNZDA,070251.00,23,05,2025,00,00*78
$GNGBS,070251.00,4.3,4.6,9.8,,,,*5A
$GNTXT,01,01,01,More than 100 frame errors, UART RX was disabled*70
$GNGSA,A,3,75,71,72,76,65,,,,,,,,1.38,0.78,1.13*19
$GPGSV,5,1,17,05,33,032,34,10,11,213,,12,72,109,30,13,13,100,14*70
$GPGSV,5,2,17,15,42,129,29,18,30,299,26,20,02,033,,23,53,215,26*72
$GPGSV,5,3,17,24,29,171,15,25,66,337,25,28,07,286,,29,16,352,29*72
$GPGSV,5,4,17,36,52,277,32,40,86,351,31,41,58,082,,49,32,274,*7F
$GPGSV,5,5,17,50,10,089,*4A
$GLGSV,3,1,09,65,31,174,17,71,11,056,14,72,40,101,18,75,32,166,19*69
$GLGSV,3,2,09,76,71,268,32,77,30,319,08,86,00,024,10,87,09,344,*6B
$GLGSV,3,3,09,88,05,289,*5A
$GNGLL,0419.86014,S,05539.86663,E,070252.00,A,D*6D
$GNGRS,070252.00,1,-13.6,6.2,10.5,-2.7,1.9,-15.5,-1.4,4.4,-4.3,141,,*5F
$GNGRS,070252.00,1,2.7,1.9,-15.2,-3.1,2.0,,,,,,,*47
$GNGST,070252.00,1521,,,,4.3,4.5,9.8*4B
$GNZDA,070252.00,23,05,2025,00,00*7B
$GNGBS,070252.00,4.3,4.5,9.8,,,,*5A
$GNTXT,01,01,01,More than 100 frame errors, UART RX was disabled*70
b0L;C#! U
Hm?d*
+!5BQ^`{4V_6:R 
YyAG8H(eK L GM?VWXX!b;Cr&N$GNRMC,070253.00,A,0419.86003,S,05539.86670,E,0.050,,230525,,,D*77
$GNVTG,,T,,M,0.050,N,0.093,K,D*37
$GNGNS,070253.00,0419.86003,S,05539.86670,E,DA,15,0.82,23.4,-47.6,,0000*64
$GNGGA,070253.00,0419.86003,S,05539.86670,E,2,12,0.82,23.4,M,-47.6,M,,0000*4F
$GNGSA,A,3,24,05,13,15,12,29,18,25,23,40,,,1.54,0.82,1.30*12
$GNGSA,A,3,75,71,72,76,65,,,,,,,,1.54,0.82,1.30*17
$GPGSV,5,1,17,05,33,032,35,10,11,213,,12,72,109,30,13,13,100,14*71
$GPGSV,5,2,17,15,42,129,29,18,30,299,25,20,02,033,,23,53,215,26*71
$GPGSV,5,3,17,24,29,171,15,25,66,337,25,28,07,286,,29,16,352,28*73
$GPGSV,5,4,17,36,52,277,31,40,86,351,31,41,58,082,,49,32,274,*7C
$GPGSV,5,5,17,50,10,089,*4A
$GLGSV,3,1,09,65,31,174,17,71,11,056,14,72,40,101,17,75,32,166,20*6C
$GLGSV,3,2,09,76,71,268,32,77,30,319,,86,00,024,09,87,09,344,*6B
$GLGSV,3,3,09,88,05,289,*5A
$GNGLL,0419.86003,S,05539.86670,E,070253.00,A,D*68
$GNGRS,070253.00,1,-13.5,6.0,22.4,-0.7,-1.9,-12.9,-3.0,6.1,-3.6,140,,*79
$GNGRS,070253.00,1,1.6,1.7,-16.1,-2.9,1.5,,,,,,,*45
$GNGST,070253.00,49,,,,4.2,4.5,9.7*4E
$GNZDA,070253.00,23,05,2025,00,00*7A
$GNGBS,070253.00,4.2,4.5,9.7,,,,*55
$GNTXT,01,01,01,More than 100 frame errors, UART RX was disabled*70
$GNTXT,01,01,01,More than 100 frame errors, UART RX was disabled*70
b0LhCC#! 
God*
+H!5?SBQ`{ 4V_.7:R 
YyA1G8H(eK LGM?VWXX!Y=bhCCr$GNRMC,070255.00,A,0419.85989,S,05539.86683,E,0.117,,230525,,,D*77
$GNVTG,,T,,M,0.117,N,0.217,K,D*3B
$GNGNS,070255.00,0419.85989,S,05539.86683,E,DA,14,0.87,23.7,-47.6,,0000*61
$GNGGA,070255.00,0419.85989,S,05539.86683,E,2,12,0.87,23.7,M,-47.6,M,,0000*4B
$GNGSA,A,3,24,05,13,15,12,29,18,25,23,40,,,1.47,0.87,1.19*1E
$GNGSA,A,3,75,71,76,65,,,,,,,,,1.47,0.87,1.19*1E
$GPGSV,5,1,17,05,33,032,35,10,11,213,,12,71,111,31,13,13,100,12*7C
$GPGSV,5,2,17,15,42,129,30,18,30,299,26,20,02,033,,23,53,215,26*7A
$GPGSV,5,3,17,24,29,171,18,25,66,337,24,28,07,286,,29,16,352,28*7F
$GPGSV,5,4,17,36,52,277,32,40,86,351,30,41,58,082,,49,32,274,*7E
$GPGSV,5,5,17,50,10,089,*4A
$GLGSV,3,1,09,65,31,174,16,71,11,056,16,72,40,101,09,75,32,166,21*61
$GLGSV,3,2,09,76,71,268,31,77,30,319,,86,00,024,11,87,09,344,*61
$GLGSV,3,3,09,88,05,289,*5A
$GNGLL,0419.85989,S,05539.86683,E,070255.00,A,D*6A
$GNGRS,070255.00,1,-9.4,6.7,-69.9,-1.1,-1.1,-9.9,-1.8,6.9,-1.9,141,,*56
$GNGRS,070255.00,1,1.7,-0.8,-2.6,3.0,,,,,,,,*5C
$GNGST,070255.00,1608,,,,4.3,4.6,9.8*47
$GNZDA,070255.00,23,05,2025,00,00*7C
$GNGBS,070255.00,4.3,4.6,9.8,,,,*5E
b0LPGC#! u
GodH*8
+R!5[BQ`1{4V_/7:R 
YyAG8yH(e
K LGM?VWXX!rbPGCrg$GNRMC,070256.00,A,0419.85987,S,05539.86687,E,0.025,,230525,,,D*7E
$GNVTG,,T,,M,0.025,N,0.047,K,D*3C
$GNGNS,070256.00,0419.85987,S,05539.86687,E,DA,14,0.87,23.7,-47.6,,0000*68
$GNGGA,070256.00,0419.85987,S,05539.86687,E,2,12,0.87,23.7,M,-47.6,M,,0000*42
$GNGSA,A,3,24,05,13,15,12,29,18,25,23,40,,,1.47,0.87,1.19*1E
$GNGSA,A,3,75,71,76,65,,,,,,,,,1.47,0.87,1.19*1E
$GPGSV,5,1,17,05,33,032,35,10,11,213,,12,71,111,30,13,13,100,12*7D
$GPGSV,5,2,17,15,42,129,30,18,30,299,27,20,02,033,,23,53,215,25*78
$GPGSV,5,3,17,24,29,171,21,25,66,337,25,28,07,286,,29,16,352,27*7B
$GPGSV,5,4,17,36,52,277,31,40,86,351,30,41,58,082,,49,32,274,*7D
$GPGSV,5,5,17,50,10,089,*4A
$GLGSV,3,1,09,65,31,174,15,71,11,056,15,72,40,101,08,75,32,166,20*61
$GLGSV,3,2,09,76,71,268,31,77,30,319,,86,00,024,11,87,09,344,*61
$GLGSV,3,3,09,88,05,289,*5A
$GNGLL,0419.85987,S,05539.86687,E,070256.00,A,D*63
$GNGRS,070256.00,1,-9.3,6.3,21.2,0.6,-3.2,-9.8,-1.7,4.1,-1.0,141,,*5B
$GNGRS,070256.00,1,2.5,-1.4,-2.6,4.2,,,,,,,,*56
$GNGST,070256.00,1608,,,,4.2,4.6,9.8*45
$GNZDA,070256.00,23,05,2025,00,00*7F
$GNGBS,070256.00,4.2,4.6,9.8,,,,*5C
$GNTXT,01,01,01,More than 100 frame errors, UART RX was disabled*70
$GNTXT,01,01,01,More than 100 frame errors, UART RX was disabled*70
$GNTXT,01,01,01,More than 100 frame errors, UART RX was disabled*70
b^CrNv$GNRMC,070302.00,A,0419.85966,S,05539.86715,E,0.030,,230525,,,D*7F
$GNVTG,,T,,M,0.030,N,0.056,K,D*38
$GNGNS,070302.00,0419.85966,S,05539.86715,E,DA,14,0.88,24.1,-47.6,,0000*63
$GNGGA,070302.00,0419.85966,S,05539.86715,E,2,12,0.88,24.1,M,-47.6,M,,0000*49
$GNGSA,A,3,24,05,13,15,12,29,18,25,23,40,,,1.59,0.88,1.32*17
$GNGSA,A,3,75,71,76,65,,,,,,,,,1.59,0.88,1.32*17
$GPGSV,5,1,17,05,33,032,36,10,11,213,,12,71,111,30,13,13,100,10*7C
$GPGSV,5,2,17,15,42,128,31,18,30,300,27,20,02,033,,23,53,215,27*7B
$GPGSV,5,3,17,24,29,171,09,25,66,337,24,28,07,286,,29,16,352,25*72
$GPGSV,5,4,17,36,52,277,31,40,86,351,29,41,58,082,,49,32,274,*75
$GPGSV,5,5,17,50,10,089,*4A
$GLGSV,3,1,09,65,31,174,11,71,11,056,12,72,40,101,20,75,32,166,20*68
$GLGSV,3,2,09,76,71,268,33,77,30,319,,86,00,024,11,87,09,344,*63
$GLGSV,3,3,09,88,05,289,*5A
$GNGLL,0419.85966,S,05539.86715,E,070302.00,A,D*66
$GNGRS,070302.00,1,-18.7,4.4,21.3,-0.4,-1.8,-9.5,2.5,10.6,-1.0,140,,*5E
$GNGRS,070302.00,1,1.1,-1.1,-3.1,11.1,,,,,,,,*65
$GNGST,070302.00,86543,,,,4.1,4.5,9.6*78
$GNZDA,070302.00,23,05,2025,00,00*7F
$GNGBS,070302.00,4.1,4.5,9.6,,,,*52
$GNTXT,01,01,01,More than 100 frame errors, UART RX was disabled*70
$GNTXT,01,01,01,More than 100 frame errors, UART RX was disabled*70
b0LxjC%! 
Go
dV*
,!5gBQ`{4V_6:R 
YyA2G8H(eK LGEM?VWYX!bxjCr$GNRMC,070305.00,A,0419.85959,S,05539.86729,E,0.127,,230525,,,D*7C
$GNVTG,,T,,M,0.127,N,0.235,K,D*38
$GNGNS,070305.00,0419.85959,S,05539.86729,E,DA,13,0.90,24.4,-47.6,,0000*6C
$GNGGA,070305.00,0419.85959,S,05539.86729,E,2,12,0.90,24.4,M,-47.6,M,,0000*41
$GNGSA,A,3,24,05,13,15,12,29,18,25,23,40,,,1.53,0.90,1.23*14
$GNGSA,A,3,75,71,76,,,,,,,,,,1.53,0.90,1.23*17
$GPGSV,5,1,17,05,33,032,37,10,11,213,,12,71,111,29,13,13,100,10*75
$GPGSV,5,2,17,15,42,128,27,18,30,300,28,20,01,033,,23,53,216,25*71
$GPGSV,5,3,17,24,29,171,15,25,66,337,23,28,07,286,,29,16,352,22*7F
$GPGSV,5,4,17,36,52,277,31,40,86,351,30,41,58,082,,49,32,274,*7D
$GPGSV,5,5,17,50,10,089,*4A
$GLGSV,3,1,09,65,31,174,09,71,11,056,09,72,40,101,12,75,32,166,21*6B
$GLGSV,3,2,09,76,71,268,31,77,30,319,,86,00,024,12,87,09,345,*63
$GLGSV,3,3,09,88,05,289,*5A
$GNGLL,0419.85959,S,05539.86729,E,070305.00,A,D*62
$GNGRS,070305.00,1,10.2,2.6,21.3,10.4,2.9,-5.4,4.3,9.2,1.0,140,,*52
$GNGRS,070305.00,1,-0.2,-5.5,0.7,,,,,,,,,*7A
$GNGST,070305.00,451474,,,,4.1,4.4,9.6*45
$GNZDA,070305.00,23,05,2025,00,00*78
$GNGBS,070305.00,4.1,4.4,9.6,,,,*54
$GNTXT,01,01,01,More than 100 frame errors, UART RX was disabled*70
b0L0vC%! 
GodB*E
,E!5
3CQ`{ 4V_6:R 
Y
yA*G8H
(eK TL GM?VWYX!{b0vCrQ$GNRMC,070308.00,A,0419.85958,S,05539.86739,E,0.110,,230525,,,D*75
$GNVTG,,T,,M,0.110,N,0.204,K,D*3E
$GNGNS,070308.00,0419.85958,S,05539.86739,E,DA,15,0.88,24.5,-47.6,,0000*6F
$GNGGA,070308.00,0419.85958,S,05539.86739,E,2,12,0.88,24.5,M,-47.6,M,,0000*44
$GNGSA,A,3,24,05,13,15,12,29,18,25,23,40,,,1.59,0.88,1.32*17
$GNGSA,A,3,75,71,72,76,65,,,,,,,,1.59,0.88,1.32*12
$GPGSV,5,1,17,05,33,032,37,10,11,213,,12,71,111,30,13,13,100,11*7C
$GPGSV,5,2,17,15,42,128,26,18,30,300,28,20,01,033,,23,53,216,23*76
$GPGSV,5,3,17,24,29,171,10,25,67,337,27,28,07,286,,29,16,352,24*79
$GPGSV,5,4,17,36,52,277,32,40,86,351,29,41,58,082,,49,32,274,*76
$GPGSV,5,5,17,50,10,089,*4A
$GLGSV,3,1,09,65,31,174,09,71,11,056,11,72,40,101,10,75,32,166,18*6A
$GLGSV,3,2,09,76,71,268,32,77,30,319,,86,00,024,09,87,09,345,*6A
$GLGSV,3,3,09,88,05,289,*5A
$GNGLL,0419.85958,S,05539.86739,E,070308.00,A,D*6F
$GNGRS,070308.00,1,10.8,1.8,21.1,8.4,-0.7,-6.0,3.2,2.0,7.4,140,,*48
$GNGRS,070308.00,1,0.8,19.6,-21.1,-2.6,3.0,,,,,,,*71
$GNGST,070308.00,3441104,,,,4.1,4.4,9.7*79
$GNZDA,070308.00,23,05,2025,00,00*75
$GNGBS,070308.00,4.1,4.4,9.7,,,,*58
$GNTXT,01,01,01,More than 100 frame errors, UART RX was disabled*70
b0LzC%! 
Goud!**
,h!5Z CQp`>{4V_7:R 
YyFAG8H(eK LGM?VWYX!bzCr]$GNRMC,070309.00,A,0419.85962,S,05539.86740,E,0.045,,230525,,,D*72
$GNVTG,,T,,M,0.045,N,0.084,K,D*35
$GNGNS,070309.00,0419.85962,S,05539.86740,E,DA,14,0.88,24.3,-47.6,,0000*6E
$GNGGA,070309.00,0419.85962,S,05539.86740,E,2,12,0.88,24.3,M,-47.6,M,,0000*44
$GNGSA,A,3,24,05,13,15,12,29,18,25,23,40,,,1.59,0.88,1.32*17
$GNGSA,A,3,75,71,76,65,,,,,,,,,1.59,0.88,1.32*17
$GPGSV,5,1,17,05,33,032,37,10,11,213,,12,71,111,29,13,13,100,12*77
$GPGSV,5,2,17,15,42,128,27,18,30,300,29,20,01,033,,23,53,216,23*76
$GPGSV,5,3,17,24,29,171,11,25,67,337,28,28,07,286,,29,16,352,22*71
$GPGSV,5,4,17,36,52,277,31,40,86,351,29,41,58,082,,49,32,274,*75
$GPGSV,5,5,17,50,10,089,*4A
$GLGSV,3,1,09,65,31,174,09,71,11,056,09,72,40,101,09,75,32,166,20*60
$GLGSV,3,2,09,76,71,268,31,77,30,319,,86,00,024,13,87,09,345,*62
$GLGSV,3,3,09,88,05,289,*5A
$GNGLL,0419.85962,S,05539.86740,E,070309.00,A,D*69
$GNGRS,070309.00,1,10.6,1.8,20.8,8.1,1.2,-4.5,1.0,1.1,6.0,141,,*62
$GNGRS,070309.00,1,1.5,19.4,-0.6,2.5,,,,,,,,*49
$GNGST,070309.00,4857023,,,,4.2,4.4,9.7*73
$GNZDA,070309.00,23,05,2025,00,00*74
$GNGBS,070309.00,4.2,4.4,9.7,,,,*5A
b0L~C%! 
Godr*
,!5CQ`{4V_7:R 
YyAyG8OH(e`K LGM?V
WYX!b~Cr5!$GNRMC,070310.00,A,0419.85965,S,05539.86740,E,0.014,,230525,,,D*79
$GNVTG,,T,,M,0.014,N,0.026,K,D*39
$GNGNS,070310.00,0419.85965,S,05539.86740,E,DA,15,0.98,24.3,-47.6,,0000*61
$GNGGA,070310.00,0419.85965,S,05539.86740,E,2,12,0.98,24.3,M,-47.6,M,,0000*4A
$GNGSA,A,3,24,05,13,15,12,29,18,25,23,40,,,1.62,0.98,1.29*14
$GNGSA,A,3,75,71,72,76,65,,,,,,,,1.62,0.98,1.29*11
$GPGSV,5,1,17,05,33,032,37,10,11,213,,12,71,111,28,13,13,100,13*77
$GPGSV,5,2,17,15,42,128,27,18,30,300,29,20,01,033,,23,53,216,24*71
$GPGSV,5,3,17,24,29,171,14,25,67,337,26,28,07,285,,29,16,352,22*79
$GPGSV,5,4,17,36,52,277,31,40,86,351,29,41,58,082,,49,32,274,*75
$GPGSV,5,5,17,50,10,089,*4A
$GLGSV,3,1,09,65,31,174,14,71,11,056,07,72,40,101,11,75,32,166,20*6B
$GLGSV,3,2,09,76,71,268,30,77,30,319,,86,00,024,10,87,09,345,*60
$GLGSV,3,3,09,88,05,289,*5A
$GNGLL,0419.85965,S,05539.86740,E,070310.00,A,D*66
$GNGRS,070310.00,1,10.3,1.9,54.9,7.4,4.5,-2.4,4.0,2.4,5.3,141,,*60
$GNGRS,070310.00,1,1.4,64.8,-47.7,0.0,11.5,,,,,,,*68
$GNGST,070310.00,1645,,,,4.2,4.3,9.7*45
$GNZDA,070310.00,23,05,2025,00,00*7C
$GNGBS,070310.00,4.2,4.3,9.7,72,,47.6,91.9*54
$GNTXT,01,01,01,More than 100 frame errors, UART RX was disabled*70
b0LC%! 
GodC*n
,E!5wCQ`{4V_7:R 
YyA$G8H
(eK .LG8M?DVWYX!bCrvz$GNRMC,070311.00,A,0419.85968,S,05539.86740,E,0.050,,230525,,,D*75
$GNVTG,,T,,M,0.050,N,0.092,K,D*36
$GNGNS,070311.00,0419.85968,S,05539.86740,E,DA,14,0.87,24.2,-47.6,,0000*63
$GNGGA,070311.00,0419.85968,S,05539.86740,E,2,12,0.87,24.2,M,-47.6,M,,0000*49
$GNGSA,A,3,24,05,13,15,12,29,18,25,23,40,,,1.47,0.87,1.19*1E
$GNGSA,A,3,75,71,76,65,,,,,,,,,1.47,0.87,1.19*1E
$GPGSV,5,1,17,05,33,032,37,10,11,213,,12,71,111,27,13,13,100,17*7C
$GPGSV,5,2,17,15,42,128,26,18,30,300,29,20,01,033,,23,53,216,23*77
$GPGSV,5,3,17,24,29,171,15,25,67,337,26,28,07,285,,29,17,352,22*79
$GPGSV,5,4,17,36,52,277,30,40,86,351,30,41,58,082,,49,32,274,*7C
$GPGSV,5,5,17,50,10,089,*4A
$GLGSV,3,1,09,65,31,174,15,71,11,056,13,72,40,101,10,75,32,166,20*6E
$GLGSV,3,2,09,76,71,268,31,77,30,319,19,86,00,024,11,87,09,345,*68
$GLGSV,3,3,09,88,05,289,*5A
$GNGLL,0419.85968,S,05539.86740,E,070311.00,A,D*6A
$GNGRS,070311.00,1,11.9,1.5,21.1,8.8,6.9,-3.7,3.2,1.7,6.3,141,,*65
$GNGRS,070311.00,1,0.5,19.4,3.1,2.9,,,,,,,,*64
$GNGST,070311.00,3301008,,,,4.2,4.3,9.7*7B
$GNZDA,070311.00,23,05,2025,00,00*7D
$GNGBS,070311.00,4.2,4.3,9.7,,,,*54
$GNTXT,01,01,01,More than 100 frame errors, UART RX was disabled*70
b0LC%! l
God**
,!5QCQ`{4V_7:R 
Y
yAG
8}H(eK tL G.M?VWYX!bCrFL$GNRMC,070313.00,A,0419.85984,S,05539.86742,E,0.114,,230525,,,D*76
$GNVTG,,T,,M,0.114,N,0.211,K,D*3E
$GNGNS,070313.00,0419.85984,S,05539.86742,E,DA,13,1.01,24.1,-47.6,,0000*6A
$GNGGA,070313.00,0419.85984,S,05539.86742,E,2,12,1.01,24.1,M,-47.6,M,,0000*47
$GNGSA,A,3,24,05,15,12,29,18,25,23,40,,,,1.82,1.01,1.51*16
$GNGSA,A,3,75,71,76,65,,,,,,,,,1.82,1.01,1.51*14
$GPGSV,5,1,17,05,33,032,37,10,11,213,,12,71,111,27,13,13,100,06*7C
$GPGSV,5,2,17,15,42,128,28,18,30,300,28,20,01,033,,23,53,216,25*7E
$GPGSV,5,3,17,24,29,171,11,25,67,337,27,28,07,285,,29,17,352,18*75
$GPGSV,5,4,17,36,52,277,31,40,86,351,29,41,58,082,,49,32,274,*75
$GPGSV,5,5,17,50,10,089,*4A
$GLGSV,3,1,09,65,31,174,11,71,11,056,08,72,40,101,08,75,32,166,20*69
$GLGSV,3,2,09,76,71,268,32,77,30,319,16,86,00,024,09,87,09,345,*6D
$GLGSV,3,3,09,88,05,289,*5A
$GNGLL,0419.85984,S,05539.86742,E,070313.00,A,D*68
$GNGRS,070313.00,1,25.3,0.9,6.0,1.9,-2.2,-0.4,1.0,3.0,141,,,*57
$GNGRS,070313.00,1,1.2,-93.6,-2.1,-7.9,,,,,,,,*49
$GNGST,070313.00,50,,,,4.2,4.3,9.7*45
$GNZDA,070313.00,23,05,2025,00,00*7F
$GNGBS,070313.00,4.2,4.3,9.7,,,,*56
bCr.$GNRMC,070314.00,A,0419.85987,S,05539.86745,E,0.047,,230525,,,D*72
$GNVTG,,T,,M,0.047,N,0.087,K,D*34
$GNGNS,070314.00,0419.85987,S,05539.86745,E,DA,12,0.91,23.9,-47.6,,0000*6F
$GNGGA,070314.00,0419.85987,S,05539.86745,E,2,12,0.91,23.9,M,-47.6,M,,0000*43
$GNGSA,A,3,05,15,12,29,18,25,23,40,,,,,1.54,0.91,1.25*10
$GNGSA,A,3,75,71,76,65,,,,,,,,,1.54,0.91,1.25*14
$GPGSV,5,1,17,05,33,032,37,10,11,213,,12,71,111,27,13,13,100,07*7D
$GPGSV,5,2,17,15,42,128,28,18,30,300,28,20,01,033,,23,53,216,24*7F
$GPGSV,5,3,17,24,29,171,08,25,67,337,28,28,07,285,,29,17,352,20*79
$GPGSV,5,4,17,36,52,277,31,40,86,351,29,41,58,082,,49,32,274,*75
$GPGSV,5,5,17,50,10,089,*4A
$GLGSV,3,1,09,65,31,174,10,71,11,056,09,72,40,101,08,75,32,166,18*62
$GLGSV,3,2,09,76,71,268,31,77,30,319,15,86,00,024,07,87,09,345,*63
$GLGSV,3,3,09,88,05,289,*5A
$GNGLL,0419.85987,S,05539.86745,E,070314.00,A,D*6B
b0LC$! U
Godo
*e
,\!5CQ\`{4V_-7:R 
YyA0G8H(eSK LG3M?VWYX!bCrm$GNRMC,070315.00,A,0419.85989,S,05539.86747,E,0.055,,230525,,,D*7C
$GNVTG,,T,,M,0.055,N,0.102,K,D*3B
$GNGNS,070315.00,0419.85989,S,05539.86747,E,DA,12,0.91,23.7,-47.6,,0000*6C
$GNGGA,070315.00,0419.85989,S,05539.86747,E,2,12,0.91,23.7,M,-47.6,M,,0000*40
$GNGSA,A,3,05,15,12,29,18,25,23,40,,,,,1.54,0.91,1.25*10
$GNGSA,A,3,75,71,76,65,,,,,,,,,1.54,0.91,1.25*14
$GPGSV,5,1,17,05,33,032,36,10,11,213,,12,71,111,28,13,13,100,09*7D
$GPGSV,5,2,17,15,42,128,29,18,30,300,29,20,01,033,,23,53,216,25*7E
$GPGSV,5,3,17,24,29,171,08,25,67,337,28,28,07,285,,29,17,352,20*79
$GPGSV,5,4,17,36,52,277,30,40,86,351,29,41,58,082,,49,32,274,*74
$GPGSV,5,5,17,50,10,089,*4A
$GLGSV,3,1,09,65,31,174,13,71,11,056,07,72,40,101,08,75,32,166,17*60
$GLGSV,3,2,09,76,71,268,31,77,30,319,15,86,00,024,11,87,09,345,*64
$GLGSV,3,3,09,88,05,289,*5A
$GNGLL,0419.85989,S,05539.86747,E,070315.00,A,D*66
$GNGRS,070315.00,1,0.9,3.6,-3.1,-0.4,0.9,-4.2,-0.3,141,,,,*4C
$GNGRS,070315.00,1,2.6,19.2,-7.2,3.0,,,,,,,,*45
$GNGST,070315.00,3438371,,,,4.2,4.3,9.8*70
$GNZDA,070315.00,23,05,2025,00,00*79
$GNGBS,070315.00,4.2,4.3,9.8,,,,*5F
$GNTXT,01,01,01,More than 100 frame errors, UART RX was disabled*70

(eK LGUM?%VWYX!bpCrD$GNRMC,070316.00,A,0419.85993,S,05539.86754,E,0.021,,230525,,,D*75
$GNVTG,,T,,M,0.021,N,0.039,K,D*31
$GNGNS,070316.00,0419.85993,S,05539.86754,E,DA,13,1.01,23.5,-47.6,,0000*6D
$GNGGA,070316.00,0419.85993,S,05539.86754,E,2,12,1.01,23.5,M,-47.6,M,,0000*40
$GNGSA,A,3,05,15,12,29,18,25,23,40,,,,,1.69,1.01,1.36*14
$GNGSA,A,3,75,71,76,65,77,,,,,,,,1.69,1.01,1.36*10
$GPGSV,5,1,17,05,33,032,37,10,11,213,,12,71,111,27,13,13,100,*7A
$GPGSV,5,2,17,15,42,128,28,18,30,300,31,20,01,033,,23,53,216,24*77
$GPGSV,5,3,17,24,29,171,08,25,67,337,28,28,07,285,,29,17,352,19*73
$GPGSV,5,4,17,36,52,277,30,40,86,351,29,41,58,082,,49,32,274,*74
$GPGSV,5,5,17,50,10,089,*4A
$GLGSV,3,1,09,65,31,174,12,71,11,056,10,72,40,101,10,75,32,166,17*6E
