$GNTXT,01,01,01,More than 100 frame errors, UART RX was disabled*70
b0X ).&S)]I'!
rN
$$*4c'`5&<Z{$4(V^:R& 
Y!]Fk)G#HIGJ4`K)UV34mW#wkb rr$GNRMC,041042.00,A,0419.92367,S,05539.92577,E,0.024,,230525,,,A*74
$GNVTG,,T,,M,0.024,N,0.045,K,A*3A
$GNGNS,041042.00,0419.92367,S,05539.92577,E,AA,16,0.62,12.5,-47.6,,*6A
$GNGGA,041042.00,0419.92367,S,05539.92577,E,1,12,0.62,12.5,M,-47.6,M,,*44
$GNGSA,A,3,24,20,05,13,15,22,06,12,14,18,,,1.18,0.62,1.00*1F
$GNGSA,A,3,86,74,87,73,71,72,,,,,,,1.18,0.62,1.00*14
$GPGSV,5,1,17,05,46,159,41,06,09,028,13,11,41,020,,12,18,349,30*73
$GPGSV,5,2,17,13,27,173,39,14,10,114,33,15,27,210,36,18,09,220,36*72
$GPGSV,5,3,17,20,52,099,42,22,21,096,39,24,60,287,38,29,11,281,*7A
$GPGSV,5,4,17,36,52,277,36,40,86,350,40,41,58,082,,49,32,274,38*77
$GPGSV,5,5,17,50,10,089,*4A
$GLGSV,3,1,10,70,00,107,11,71,13,148,35,72,13,197,30,73,18,137,31*69
$GLGSV,3,2,10,74,52,096,31,75,41,012,,85,16,006,,86,51,308,31*67
$GLGSV,3,3,10,87,35,244,28,,,,29*5E
$GNGLL,0419.92367,S,05539.92577,E,041042.00,A,A*68
$GNGRS,041042.00,1,-1.7,-0.1,0.4,1.3,-0.8,0.5,11.1,0.7,0.8,2.5,,*4B
$GNGRS,041042.00,1,6.2,6.6,6.9,-4.4,-0.7,-7.5,,,,,,*70
$GNGST,041042.00,27,,,,1.3,1.0,2.3*4D
$GNZDA,041042.00,23,05,2025,00,00*7A
$GNGBS,041042.00,1.3,1.0,2.3,,,,*5E
$GNTXT,01,01,01,More than 100 frame errors, UART RX was disabled*70
b0X*.J)](}"
rK
#%
+4c(`+(<\{"4)V^:R& 
Y"]FkCG&HI$XJ#4`K)UV%34W##!bbrJ$GNRMC,041043.00,A,0419.92370,S,05539.92578,E,0.025,,230525,,,A*7D
$GNVTG,,T,,M,0.025,N,0.047,K,A*39
$GNGNS,041043.00,0419.92370,S,05539.92578,E,AA,16,0.62,12.4,-47.6,,*63
$GNGGA,041043.00,0419.92370,S,05539.92578,E,1,12,0.62,12.4,M,-47.6,M,,*4D
$GNGSA,A,3,24,20,05,13,15,22,06,12,14,18,,,1.18,0.62,1.00*1F
$GNGSA,A,3,86,74,87,73,71,72,,,,,,,1.18,0.62,1.00*14
$GPGSV,5,1,17,05,46,159,42,06,09,028,13,11,41,020,,12,18,349,29*78
$GPGSV,5,2,17,13,27,173,40,14,10,114,34,15,27,210,35,18,09,220,37*79
$GPGSV,5,3,17,20,52,099,43,22,21,096,40,24,60,287,40,29,11,281,*7A
$GPGSV,5,4,17,36,52,277,34,40,86,350,41,41,58,082,,49,32,274,38*74
$GPGSV,5,5,17,50,10,089,*4A
$GLGSV,3,1,10,70,00,107,07,71,13,148,38,72,13,197,30,73,18,137,36*64
$GLGSV,3,2,10,74,52,096,35,75,41,012,,85,16,006,,86,51,308,37*65
$GLGSV,3,3,10,87,35,244,35,,,,33*59
$GNGLL,0419.92370,S,05539.92578,E,041043.00,A,A*60
$GNGRS,041043.00,1,-1.6,-0.3,0.3,1.2,-0.4,0.4,11.0,-0.3,0.8,2.7,,*68
$GNGRS,041043.00,1,3.9,7.6,5.4,-6.8,-0.9,-4.8,,,,,,*7E
$GNGST,041043.00,72710,,,,1.3,1.0,2.3*7A
$GNZDA,041043.00,23,05,2025,00,00*7B
$GNGBS,041043.00,1.3,1.0,2.3,,,,*5F
$GNTXT,01,01,01,More than 100 frame errors, UART RX was disabled*70
b0X*.)](r!
rY
$$+4c'`(<r{#4)V^:R' 
Y$]Fk2G'HI#lJ!4`K)U=V$34QW #Cbr!Q$GNRMC,041044.00,A,0419.92375,S,05539.92580,E,0.053,,230525,,,A*79
$GNVTG,,T,,M,0.053,N,0.098,K,A*3A
$GNGNS,041044.00,0419.92375,S,05539.92580,E,AA,16,0.62,12.4,-47.6,,*66
$GNGGA,041044.00,0419.92375,S,05539.92580,E,1,12,0.62,12.4,M,-47.6,M,,*48
$GNGSA,A,3,24,20,05,13,15,22,06,12,14,18,,,1.18,0.62,1.00*1F
$GNGSA,A,3,86,74,87,73,71,72,,,,,,,1.18,0.62,1.00*14
$GPGSV,5,1,17,05,46,159,42,06,09,028,23,11,41,020,,12,18,349,29*7B
$GPGSV,5,2,17,13,27,173,40,14,10,114,33,15,27,210,36,18,09,220,36*7C
$GPGSV,5,3,17,20,52,099,43,22,21,096,39,24,60,287,40,29,11,281,*74
$GPGSV,5,4,17,36,52,277,35,40,86,350,41,41,58,082,,49,32,274,39*74
$GPGSV,5,5,17,50,10,089,*4A
$GLGSV,3,1,10,70,00,107,06,71,13,148,39,72,13,197,29,73,18,137,35*6F
$GLGSV,3,2,10,74,52,096,33,75,41,012,,85,16,006,22,86,51,308,36*62
$GLGSV,3,3,10,87,35,244,32,,,,30*5D
$GNGLL,0419.92375,S,05539.92580,E,041044.00,A,A*65
$GNGRS,041044.00,1,-1.4,-0.1,0.1,1.1,0.0,0.3,9.5,-2.9,0.9,2.6,,*74
$GNGRS,041044.00,1,0.8,11.8,7.2,-4.0,-1.1,-10.2,,,,,,*7A
$GNGST,041044.00,19,,,,1.3,1.0,2.2*47
$GNZDA,041044.00,23,05,2025,00,00*7C
$GNGBS,041044.00,1.3,1.0,2.2,,,,*59
$GNTXT,01,01,01,More than 100 frame errors, UART RX was disabled*70
b0X*.Z)](o"
rE
$#+4c'`(<i{#4)V^:R& 
Y#]+FkG'pHI$J"4`SK)UV%34&W"#!brm$GNRMC,041045.00,A,0419.92377,S,05539.92581,E,0.015,,230525,,,A*79
$GNVTG,,T,,M,0.015,N,0.027,K,A*3C
$GNGNS,041045.00,0419.92377,S,05539.92581,E,AA,16,0.62,12.3,-47.6,,*63
$GNGGA,041045.00,0419.92377,S,05539.92581,E,1,12,0.62,12.3,M,-47.6,M,,*4D
$GNGSA,A,3,24,20,05,13,15,22,06,12,14,18,,,1.18,0.62,1.00*1F
$GNGSA,A,3,86,74,87,73,71,72,,,,,,,1.18,0.62,1.00*14
$GPGSV,5,1,17,05,46,159,42,06,09,028,26,11,41,020,,12,18,349,29*7E
$GPGSV,5,2,17,13,27,173,40,14,10,114,34,15,27,210,36,18,09,220,35*78
$GPGSV,5,3,17,20,52,099,43,22,21,096,39,24,60,287,40,29,11,281,*74
$GPGSV,5,4,17,36,52,277,35,40,86,350,41,41,58,082,,49,32,274,38*75
$GPGSV,5,5,17,50,10,089,*4A
$GLGSV,3,1,10,70,00,107,13,71,13,148,39,72,13,197,30,73,18,137,36*60
$GLGSV,3,2,10,74,52,096,34,75,41,012,,85,16,006,24,86,51,308,37*62
$GLGSV,3,3,10,87,35,244,34,,,,33*58
$GNGLL,0419.92377,S,05539.92581,E,041045.00,A,A*67
$GNGRS,041045.00,1,-1.5,0.0,0.0,1.1,-0.2,0.3,6.0,-3.2,0.7,2.4,,*7A
$GNGRS,041045.00,1,2.9,11.1,7.3,-2.5,-1.4,-14.0,,,,,,*70
$GNGST,041045.00,16,,,,1.3,0.97,2.2*76
$GNZDA,041045.00,23,05,2025,00,00*7D
$GNGBS,041045.00,1.3,1.0,2.2,,,,*58
$GNTXT,01,01,01,More than 100 frame errors, UART RX was disabled*70
b0X*.)]G&n#
r'
$"*4c'`(<{$4)V^:R$ 
Y!]F
kSG&lH !I$FJ"4`K)UV$34W"##>AbrU"!$GNRMC,041046.00,A,0419.92377,S,05539.92582,E,0.026,,230525,,,A*79
$GNVTG,,T,,M,0.026,N,0.047,K,A*3A
$GNGNS,041046.00,0419.92377,S,05539.92582,E,AA,17,0.58,12.3,-47.6,,*6B
$GNGGA,041046.00,0419.92377,S,05539.92582,E,1,12,0.58,12.3,M,-47.6,M,,*44
$GNGSA,A,3,24,20,05,13,15,22,06,12,14,18,,,1.14,0.58,0.98*1A
$GNGSA,A,3,86,74,87,85,73,71,72,,,,,,1.14,0.58,0.98*1C
$GPGSV,5,1,17,05,46,159,42,06,09,028,27,11,41,020,,12,18,349,29*7F
$GPGSV,5,2,17,13,27,173,38,14,10,114,35,15,27,210,36,18,09,220,34*77
$GPGSV,5,3,17,20,52,099,42,22,21,096,39,24,60,287,40,29,11,281,*75
$GPGSV,5,4,17,36,52,277,36,40,86,350,41,41,58,082,,49,32,274,36*78
$GPGSV,5,5,17,50,10,089,*4A
$GLGSV,3,1,10,70,00,107,10,71,13,148,38,72,13,197,32,73,18,137,36*60
$GLGSV,3,2,10,74,52,096,34,75,41,012,21,85,16,006,24,86,51,308,36*60
$GLGSV,3,3,10,87,35,244,34,,,,35*5E
$GNGLL,0419.92377,S,05539.92582,E,041046.00,A,A*67
$GNGRS,041046.00,1,-1.1,0.2,-0.3,1.1,0.1,0.3,4.6,0.7,0.4,2.3,,*54
$GNGRS,041046.00,1,1.4,10.0,10.0,-13.5,-7.0,-1.5,-12.5,,,,,*7E
$GNGST,041046.00,19,,,,1.3,0.96,2.2*7B
$GNZDA,041046.00,23,05,2025,00,00*7E
$GNGBS,041046.00,1.3,1.0,2.2,,,,*5B
$GNTXT,01,01,01,More than 100 frame errors, UART RX was disabled*70
b0X*.<)]'`#
r
$#*4c/'`(<{$4)V^:R$ 
Y!]tF
kLG&rH!yI$xJ!4`K)UV$34qW"##Wbr=&$GNRMC,041047.00,A,0419.92377,S,05539.92584,E,0.015,,230525,,,A*7E
$GNVTG,,T,,M,0.015,N,0.027,K,A*3C
$GNGNS,041047.00,0419.92377,S,05539.92584,E,AA,17,0.58,12.3,-47.6,,*6C
$GNGGA,041047.00,0419.92377,S,05539.92584,E,1,12,0.58,12.3,M,-47.6,M,,*43
$GNGSA,A,3,24,20,05,13,15,22,06,12,14,18,,,1.14,0.58,0.98*1A
$GNGSA,A,3,86,74,87,85,73,71,72,,,,,,1.14,0.58,0.98*1C
$GPGSV,5,1,17,05,46,159,42,06,09,028,28,11,41,020,,12,18,349,29*70
$GPGSV,5,2,17,13,27,173,39,14,10,114,35,15,27,210,36,18,09,220,35*77
$GPGSV,5,3,17,20,52,099,42,22,21,096,39,24,60,287,40,29,11,281,*75
$GPGSV,5,4,17,36,52,277,36,40,86,350,41,41,58,082,,49,32,274,36*78
$GPGSV,5,5,17,50,10,089,*4A
$GLGSV,3,1,10,70,00,107,10,71,13,148,38,72,13,197,33,73,18,137,36*61
$GLGSV,3,2,10,74,52,096,33,75,41,012,22,85,16,006,24,86,51,308,36*64
$GLGSV,3,3,10,87,35,244,34,,,,35*5E
$GNGLL,0419.92377,S,05539.92584,E,041047.00,A,A*60
$GNGRS,041047.00,1,-1.3,0.5,-0.5,1.0,0.1,0.3,3.2,1.4,0.3,2.1,,*53
$GNGRS,041047.00,1,1.1,10.5,10.2,-7.6,-3.9,-1.4,-14.1,,,,,*45
$GNGST,041047.00,18,,,,1.2,0.95,2.2*79
$GNZDA,041047.00,23,05,2025,00,00*7F
$GNGBS,041047.00,1.2,0.9,2.2,,,,*53
$GNTXT,01,01,01,More than 100 frame errors, UART RX was disabled*70
b0X+.)]'e#
r
$"*4c$'`(<{$4)V^:R$ 
Y ]
F
kG&hH XI$J"4`K)UV#34|W"##(br%*$GNRMC,041048.00,A,0419.92378,S,05539.92586,E,0.013,,230525,,,A*7A
$GNVTG,,T,,M,0.013,N,0.024,K,A*39
$GNGNS,041048.00,0419.92378,S,05539.92586,E,AA,17,0.58,12.3,-47.6,,*6E
$GNGGA,041048.00,0419.92378,S,05539.92586,E,1,12,0.58,12.3,M,-47.6,M,,*41
$GNGSA,A,3,24,20,05,13,15,22,06,12,14,18,,,1.14,0.58,0.98*1A
$GNGSA,A,3,86,74,87,85,73,71,72,,,,,,1.14,0.58,0.98*1C
$GPGSV,5,1,17,05,46,159,43,06,09,028,28,11,41,020,,12,18,349,28*70
$GPGSV,5,2,17,13,27,173,39,14,10,114,35,15,27,210,36,18,09,220,34*76
$GPGSV,5,3,17,20,52,099,42,22,21,096,39,24,60,287,40,29,11,281,*75
$GPGSV,5,4,17,36,52,277,36,40,86,350,41,41,58,082,,49,32,274,36*78
$GPGSV,5,5,17,50,10,089,*4A
$GLGSV,3,1,10,70,00,107,10,71,13,148,38,72,13,197,32,73,18,137,36*60
$GLGSV,3,2,10,74,52,096,34,75,41,012,21,85,16,006,25,86,51,308,35*62
$GLGSV,3,3,10,87,35,244,34,,,,35*5E
$GNGLL,0419.92378,S,05539.92586,E,041048.00,A,A*62
$GNGRS,041048.00,1,-1.3,0.4,-0.8,1.0,-0.1,0.3,2.4,-0.5,0.1,2.3,,*57
$GNGRS,041048.00,1,1.2,12.6,9.7,-12.9,-0.9,-1.5,-14.5,,,,,*48
$GNGST,041048.00,18,,,,1.2,0.94,2.2*77
$GNZDA,041048.00,23,05,2025,00,00*70
$GNGBS,041048.00,1.2,0.9,2.2,,,,*5C
$GNTXT,01,01,01,More than 100 frame errors, UART RX was disabled*70
b0Xx*.)]&V#
r
$"*4c'`(<n{$4*V^:R$ 
Y ]Fk;G(bH!tI%J"4`K)UhV$34W$#I$bxr.YY$GNRMC,041049.00,A,0419.92378,S,05539.92587,E,0.012,,230525,,,A*7B
$GNVTG,,T,,M,0.012,N,0.023,K,A*3F
$GNGNS,041049.00,0419.92378,S,05539.92587,E,AA,18,0.57,12.3,-47.6,,*6E
$GNGGA,041049.00,0419.92378,S,05539.92587,E,1,12,0.57,12.3,M,-47.6,M,,*4E
$GNGSA,A,3,24,20,05,13,15,22,06,12,14,18,,,1.12,0.57,0.96*1D
$GNGSA,A,3,86,74,75,87,85,73,71,72,,,,,1.12,0.57,0.96*19
$GPGSV,5,1,17,05,46,159,42,06,09,028,28,11,41,020,,12,18,349,29*70
$GPGSV,5,2,17,13,27,173,38,14,10,114,35,15,27,210,36,18,09,220,34*77
$GPGSV,5,3,17,20,52,099,42,22,21,096,39,24,60,287,40,29,11,281,*75
$GPGSV,5,4,17,36,52,277,36,40,86,350,42,41,58,082,,49,32,274,36*7B
$GPGSV,5,5,17,50,10,089,*4A
$GLGSV,3,1,10,70,00,107,11,71,13,148,40,72,13,197,33,73,18,137,37*6E
$GLGSV,3,2,10,74,52,096,34,75,41,012,22,85,16,006,25,86,51,308,36*62
$GLGSV,3,3,10,87,35,244,36,,,,36*5F
$GNGLL,0419.92378,S,05539.92587,E,041049.00,A,A*62
$GNGRS,041049.00,1,-1.5,0.3,-0.6,0.9,-0.3,0.3,2.0,0.1,-0.5,2.5,,*51
$GNGRS,041049.00,1,1.4,14.6,-3.4,11.0,-1.5,-2.4,-1.6,-14.2,,,,*46
$GNGST,041049.00,20,,,,1.2,0.93,2.2*7A
$GNZDA,041049.00,23,05,2025,00,00*71
$GNGBS,041049.00,1.2,0.9,2.2,,,,*5D
$GNTXT,01,01,01,More than 100 frame errors, UART RX was disabled*70
b0X`+.)]'f#
r
#!*4c'`2(<h{$4)V^:R$ 
Y!]F
kG(FH"+I%HJ#4`XK)UV'34wW$#$db`r10$GNRMC,041050.00,A,0419.92377,S,05539.92589,E,0.015,,230525,,,A*75
$GNVTG,,T,,M,0.015,N,0.028,K,A*33
$GNGNS,041050.00,0419.92377,S,05539.92589,E,AA,18,0.57,12.3,-47.6,,*67
$GNGGA,041050.00,0419.92377,S,05539.92589,E,1,12,0.57,12.3,M,-47.6,M,,*47
$GNGSA,A,3,24,20,05,13,15,22,06,12,14,18,,,1.12,0.57,0.96*1D
$GNGSA,A,3,86,74,75,87,85,73,71,72,,,,,1.12,0.57,0.96*19
$GPGSV,5,1,17,05,46,159,43,06,09,028,28,11,41,020,,12,18,349,28*70
$GPGSV,5,2,17,13,27,173,39,14,10,114,35,15,27,210,35,18,09,220,33*72
$GPGSV,5,3,17,20,52,099,42,22,21,096,39,24,60,287,40,29,11,281,*75
$GPGSV,5,4,17,36,52,277,36,40,86,350,41,41,58,082,,49,32,274,36*78
$GPGSV,5,5,17,50,10,089,*4A
$GLGSV,3,1,10,70,00,107,10,71,13,148,40,72,13,197,34,73,18,137,37*68
$GLGSV,3,2,10,74,52,096,35,75,41,012,22,85,16,006,25,86,51,308,39*6C
$GLGSV,3,3,10,87,35,244,36,,,,36*5F
$GNGLL,0419.92377,S,05539.92589,E,041050.00,A,A*6B
$GNGRS,041050.00,1,-1.5,0.3,-0.8,1.0,-0.2,0.5,2.1,-0.5,-0.6,2.6,,*70
$GNGRS,041050.00,1,1.2,13.7,-8.7,9.9,-0.1,-1.8,-1.9,-14.9,,,,*78
$GNGST,041050.00,22,,,,1.2,0.92,2.2*71
$GNZDA,041050.00,23,05,2025,00,00*79
$GNGBS,041050.00,1.2,0.9,2.2,,,,*55
$GNTXT,01,01,01,More than 100 frame errors, UART RX was disabled*70
b0XH+.)]d'|#
r
$!*4c'`3(<{$4)V^:R% 
Y"]FkG'\H ~I%;J!4`K)UV%34hW##$%bHr5&$GNRMC,041051.00,A,0419.92377,S,05539.92589,E,0.018,,230525,,,A*79
$GNVTG,,T,,M,0.018,N,0.033,K,A*34
$GNGNS,041051.00,0419.92377,S,05539.92589,E,AA,18,0.57,12.2,-47.6,,*67
$GNGGA,041051.00,0419.92377,S,05539.92589,E,1,12,0.57,12.2,M,-47.6,M,,*47
$GNGSA,A,3,24,20,05,13,15,22,06,12,14,18,,,1.12,0.57,0.96*1D
$GNGSA,A,3,86,74,75,87,85,73,71,72,,,,,1.12,0.57,0.96*19
$GPGSV,5,1,17,05,46,159,43,06,09,028,28,11,41,020,,12,18,349,29*71
$GPGSV,5,2,17,13,27,173,39,14,10,114,35,15,27,210,36,18,09,220,33*71
$GPGSV,5,3,17,20,52,099,42,22,21,096,39,24,60,287,40,29,11,281,*75
$GPGSV,5,4,17,36,52,277,36,40,86,350,41,41,58,082,,49,32,274,37*79
$GPGSV,5,5,17,50,10,089,*4A
$GLGSV,3,1,10,70,00,107,09,71,13,148,39,72,13,197,32,73,18,137,37*68
$GLGSV,3,2,10,74,52,096,33,75,41,012,21,85,16,006,25,86,51,308,37*67
$GLGSV,3,3,10,87,35,244,35,,,,36*5C
$GNGLL,0419.92377,S,05539.92589,E,041051.00,A,A*6A
$GNGRS,041051.00,1,-1.2,0.3,-1.2,1.2,-0.1,0.5,-0.2,1.0,-0.9,2.6,,*76
$GNGRS,041051.00,1,1.0,12.1,-8.8,9.2,-5.2,-2.0,-1.6,-14.1,,,,*72
$GNGST,041051.00,22,,,,1.2,0.91,2.2*73
$GNZDA,041051.00,23,05,2025,00,00*78
$GNGBS,041051.00,1.2,0.9,2.2,,,,*54
$GNTXT,01,01,01,More than 100 frame errors, UART RX was disabled*70
b0X0*.y)]&#
r
#!*4c'`1(<{$4)V^:R% 
Y"]Fk9G&SH jI%OJ!4`K)U8V%34cW###G
b0r9$GNRMC,041052.00,A,0419.92378,S,05539.92590,E,0.019,,230525,,,A*7C
$GNVTG,,T,,M,0.019,N,0.036,K,A*30
$GNGNS,041052.00,0419.92378,S,05539.92590,E,AA,18,0.57,12.2,-47.6,,*63
$GNGGA,041052.00,0419.92378,S,05539.92590,E,1,12,0.57,12.2,M,-47.6,M,,*43
$GNGSA,A,3,24,20,05,13,15,22,06,12,14,18,,,1.12,0.57,0.96*1D
$GNGSA,A,3,86,74,75,87,85,73,71,72,,,,,1.12,0.57,0.96*19
$GPGSV,5,1,17,05,46,159,42,06,09,028,28,11,41,020,,12,18,349,29*70
$GPGSV,5,2,17,13,27,173,38,14,10,114,35,15,27,210,35,18,09,220,33*73
$GPGSV,5,3,17,20,52,099,42,22,21,096,39,24,60,287,40,29,11,281,*75
$GPGSV,5,4,17,36,52,277,36,40,86,350,41,41,58,082,,49,32,274,37*79
$GPGSV,5,5,17,50,10,089,*4A
$GLGSV,3,1,10,70,00,107,08,71,13,148,38,72,13,197,32,73,18,137,37*68
$GLGSV,3,2,10,74,52,096,33,75,41,012,21,85,16,006,24,86,51,308,37*66
$GLGSV,3,3,10,87,35,244,35,,,,35*5F
$GNGLL,0419.92378,S,05539.92590,E,041052.00,A,A*6E
$GNGRS,041052.00,1,-1.1,0.3,-1.3,1.3,0.0,0.5,-2.4,-0.7,-1.1,2.4,,*7E
$GNGRS,041052.00,1,1.0,12.1,-3.6,9.0,-7.1,-1.8,-1.7,-14.3,,,,*7F
$GNGST,041052.00,21,,,,1.2,0.91,2.2*73
$GNZDA,041052.00,23,05,2025,00,00*7B
$GNGBS,041052.00,1.2,0.9,2.2,,,,*57
$GNTXT,01,01,01,More than 100 frame errors, UART RX was disabled*70
b0X*.q)]^%#
r
" *4c$'`8(<{$4)V^:R% 
Y!]FkG&EH qI$ZJ!4`K)oUnV%34bW"#x$7br=$GNRMC,041053.00,A,0419.92377,S,05539.92591,E,0.018,,230525,,,A*72
$GNVTG,,T,,M,0.018,N,0.034,K,A*33
$GNGNS,041053.00,0419.92377,S,05539.92591,E,AA,18,0.57,12.2,-47.6,,*6C
$GNGGA,041053.00,0419.92377,S,05539.92591,E,1,12,0.57,12.2,M,-47.6,M,,*4C
$GNGSA,A,3,24,20,05,13,15,22,06,12,14,18,,,1.12,0.57,0.96*1D
$GNGSA,A,3,86,74,75,87,85,73,71,72,,,,,1.12,0.57,0.96*19
$GPGSV,5,1,17,05,46,159,42,06,09,028,28,11,41,020,,12,18,349,29*70
$GPGSV,5,2,17,13,27,173,37,14,10,114,35,15,27,210,34,18,09,220,32*7C
$GPGSV,5,3,17,20,52,099,42,22,21,096,39,24,60,287,40,29,11,281,*75
$GPGSV,5,4,17,36,52,277,36,40,86,350,41,41,58,082,,49,32,274,37*79
$GPGSV,5,5,17,50,10,089,*4A
$GLGSV,3,1,10,70,00,107,12,71,13,148,38,72,13,197,32,73,18,137,36*62
$GLGSV,3,2,10,74,52,096,33,75,41,012,21,85,16,006,24,86,51,308,37*66
$GLGSV,3,3,10,87,35,244,34,,,,36*5D
$GNGLL,0419.92377,S,05539.92591,E,041053.00,A,A*61
$GNGRS,041053.00,1,-1.0,0.4,-1.4,1.3,0.2,0.6,-2.3,0.9,-1.1,2.1,,*5E
$GNGRS,041053.00,1,1.0,12.1,-4.0,8.9,-6.6,-1.7,-1.9,-14.2,,,,*71
$GNGST,041053.00,21,,,,1.2,0.90,2.2*73
$GNZDA,041053.00,23,05,2025,00,00*7A
$GNGBS,041053.00,1.2,0.9,2.2,,,,*56
$GNTXT,01,01,01,More than 100 frame errors, UART RX was disabled*70
b0X*.x&)]$}#
rj
!*4c$'`P(<{$4)V^:R% 
Y!]F
k}G&CH vI%FJ!4`K){ULV$34IW"#L$vbrA^$GNRMC,041054.00,A,0419.92376,S,05539.92593,E,0.005,,230525,,,A*7A
$GNVTG,,T,,M,0.005,N,0.009,K,A*31
$GNGNS,041054.00,0419.92376,S,05539.92593,E,AA,18,0.57,12.3,-47.6,,*69
$GNGGA,041054.00,0419.92376,S,05539.92593,E,1,12,0.57,12.3,M,-47.6,M,,*49
$GNGSA,A,3,24,20,05,13,15,22,06,12,14,18,,,1.12,0.57,0.96*1D
$GNGSA,A,3,86,74,75,87,85,73,71,72,,,,,1.12,0.57,0.96*19
$GPGSV,5,1,17,05,46,159,42,06,09,028,29,11,41,020,,12,18,349,29*71
$GPGSV,5,2,17,13,27,173,36,14,10,114,35,15,27,210,33,18,09,220,31*79
$GPGSV,5,3,17,20,52,099,42,22,21,096,39,24,60,287,40,29,11,281,*75
$GPGSV,5,4,17,36,52,277,36,40,86,350,41,41,58,082,,49,32,274,37*79
$GPGSV,5,5,17,50,10,089,*4A
$GLGSV,3,1,10,70,00,107,10,71,13,148,38,72,13,197,32,73,18,137,37*61
$GLGSV,3,2,10,74,52,096,33,75,41,012,22,85,16,006,24,86,51,308,36*64
$GLGSV,3,3,10,87,35,244,34,,,,36*5D
$GNGLL,0419.92376,S,05539.92593,E,041054.00,A,A*65
$GNGRS,041054.00,1,-0.8,0.4,-1.4,1.2,-0.1,0.8,-2.2,-1.0,-1.5,2.0,,*50
$GNGRS,041054.00,1,0.7,12.0,-1.3,8.4,-6.9,-1.9,-1.9,-14.2,,,,*7B
$GNGST,041054.00,21,,,,1.2,0.90,2.2*74
$GNZDA,041054.00,23,05,2025,00,00*7D
$GNGBS,041054.00,1.2,0.9,2.2,,,,*51
$GNTXT,01,01,01,More than 100 frame errors, UART RX was disabled*70
b0X*.)]C%$
r`
!*4c!'`7(<{$4)V^:R$ 
Y!]FkWG&TH ^I$oJ!4`K)UyV%34`W"#-$abr}Eg$GNRMC,041055.00,A,0419.92376,S,05539.92594,E,0.021,,230525,,,A*7A
$GNVTG,,T,,M,0.021,N,0.038,K,A*35
$GNGNS,041055.00,0419.92376,S,05539.92594,E,AA,18,0.57,12.3,-47.6,,*6F
$GNGGA,041055.00,0419.92376,S,05539.92594,E,1,12,0.57,12.3,M,-47.6,M,,*4F
$GNGSA,A,3,24,20,05,13,15,22,06,12,14,18,,,1.12,0.57,0.96*1D
$GNGSA,A,3,86,74,75,87,85,73,71,72,,,,,1.12,0.57,0.96*19
$GPGSV,5,1,17,05,46,159,42,06,09,028,29,11,41,020,,12,18,349,29*71
$GPGSV,5,2,17,13,27,173,37,14,10,114,36,15,27,210,33,18,09,220,31*7B
$GPGSV,5,3,17,20,52,099,42,22,21,096,39,24,60,287,40,29,11,281,*75
$GPGSV,5,4,17,36,52,277,36,40,86,350,41,41,58,082,,49,32,274,36*78
$GPGSV,5,5,17,50,10,089,*4A
$GLGSV,3,1,10,70,00,107,09,71,13,148,38,72,13,197,32,73,18,137,36*68
$GLGSV,3,2,10,74,52,096,33,75,41,012,23,85,16,006,23,86,51,308,37*63
$GLGSV,3,3,10,87,35,244,34,,,,36*5D
$GNGLL,0419.92376,S,05539.92594,E,041055.00,A,A*63
$GNGRS,041055.00,1,-1.0,0.3,-1.3,1.5,0.0,0.6,-2.6,-1.9,-1.6,2.2,,*71
$GNGRS,041055.00,1,1.0,11.7,1.5,8.1,-9.0,-1.5,-1.7,-14.4,,,,*54
$GNGST,041055.00,21,,,,1.2,0.90,2.2*75
$GNZDA,041055.00,23,05,2025,00,00*7C
$GNGBS,041055.00,1.2,0.9,2.2,,,,*50
$GNTXT,01,01,01,More than 100 frame errors, UART RX was disabled*70
b0X*.)]%$
rN
!*4c'`%(<{$4)V^:R$ 
Y!]FkYG&VH!rI$tJ!4`K):UXV%34fW##$8LbreI?$GNRMC,041056.00,A,0419.92376,S,05539.92596,E,0.010,,230525,,,A*79
$GNVTG,,T,,M,0.010,N,0.019,K,A*34
$GNGNS,041056.00,0419.92376,S,05539.92596,E,AA,18,0.57,12.3,-47.6,,*6E
$GNGGA,041056.00,0419.92376,S,05539.92596,E,1,12,0.57,12.3,M,-47.6,M,,*4E
$GNGSA,A,3,24,20,05,13,15,22,06,12,14,18,,,1.12,0.57,0.96*1D
$GNGSA,A,3,86,74,75,87,85,73,71,72,,,,,1.12,0.57,0.96*19
$GPGSV,5,1,17,05,46,159,42,06,09,028,29,11,41,020,,12,18,349,28*70
$GPGSV,5,2,17,13,27,173,37,14,10,114,36,15,27,210,33,18,09,220,30*7A
$GPGSV,5,3,17,20,52,099,42,22,21,096,39,24,60,287,40,29,11,281,*75
$GPGSV,5,4,17,36,52,277,36,40,86,350,41,41,58,082,,49,32,274,36*78
$GPGSV,5,5,17,50,10,089,*4A
$GLGSV,3,1,10,70,00,107,07,71,13,148,38,72,13,197,33,73,18,137,36*67
$GLGSV,3,2,10,74,52,096,33,75,41,012,22,85,16,006,23,86,51,308,37*62
$GLGSV,3,3,10,87,35,244,35,,,,36*5C
$GNGLL,0419.92376,S,05539.92596,E,041056.00,A,A*62
$GNGRS,041056.00,1,-1.2,0.3,-1.0,1.5,0.1,0.4,-0.5,-3.1,-1.8,2.6,,*71
$GNGRS,041056.00,1,1.0,11.8,0.6,8.0,-6.8,-1.4,-1.7,-14.2,,,,*5B
$GNGST,041056.00,21,,,,1.2,0.90,2.2*76
$GNZDA,041056.00,23,05,2025,00,00*7F
$GNGBS,041056.00,1.2,0.9,2.2,,,,*53
$GNTXT,01,01,01,More than 100 frame errors, UART RX was disabled*70
b0X+.)]%#
rL
"*4c!'`(<{$4)V^:R$ 
Y!]FkG&mH!sI$J!4`K)U-V%34zW##$,MbrMM$GNRMC,041057.00,A,0419.92376,S,05539.92598,E,0.009,,230525,,,A*7E
$GNVTG,,T,,M,0.009,N,0.016,K,A*33
$GNGNS,041057.00,0419.92376,S,05539.92598,E,AA,18,0.57,12.3,-47.6,,*61
$GNGGA,041057.00,0419.92376,S,05539.92598,E,1,12,0.57,12.3,M,-47.6,M,,*41
$GNGSA,A,3,24,20,05,13,15,22,06,12,14,18,,,1.12,0.57,0.96*1D
$GNGSA,A,3,86,74,75,87,85,73,71,72,,,,,1.12,0.57,0.96*19
$GPGSV,5,1,17,05,46,159,43,06,09,028,29,11,41,020,,12,18,349,28*71
$GPGSV,5,2,17,13,27,173,37,14,10,114,35,15,27,210,34,18,09,220,30*7E
$GPGSV,5,3,17,20,52,099,42,22,21,096,39,24,60,287,40,29,11,281,*75
$GPGSV,5,4,17,36,52,277,36,40,86,350,41,41,58,082,,49,32,274,36*78
$GPGSV,5,5,17,50,10,089,*4A
$GLGSV,3,1,10,70,00,107,11,71,13,148,38,72,13,197,33,73,18,137,36*60
$GLGSV,3,2,10,74,52,096,33,75,41,012,22,85,16,006,22,86,51,308,37*63
$GLGSV,3,3,10,87,35,244,35,,,,36*5C
$GNGLL,0419.92376,S,05539.92598,E,041057.00,A,A*6D
$GNGRS,041057.00,1,-1.2,0.3,-0.9,1.4,-0.1,0.3,-3.0,-2.7,-1.8,7.5,,*54
$GNGRS,041057.00,1,1.2,12.0,-1.0,7.8,-7.2,-1.1,-1.5,-14.2,,,,*72
$GNGST,041057.00,22,,,,1.2,0.90,2.2*74
$GNZDA,041057.00,23,05,2025,00,00*7E
$GNGBS,041057.00,1.2,0.9,2.2,,,,*52
$GNTXT,01,01,01,More than 100 frame errors, UART RX was disabled*70
b0X+.X)]u%$
r:
"!t*4c+%`)(<{$4)V^:R& 
Y"]FkQG'gH I$J"4`K)IUYV%34W##!$br5Q$GNRMC,041058.00,A,0419.92376,S,05539.92598,E,0.016,,230525,,,A*7F
$GNVTG,,T,,M,0.016,N,0.030,K,A*39
$GNGNS,041058.00,0419.92376,S,05539.92598,E,AA,18,0.57,12.3,-47.6,,*6E
$GNGGA,041058.00,0419.92376,S,05539.92598,E,1,12,0.57,12.3,M,-47.6,M,,*4E
$GNGSA,A,3,24,20,05,13,15,22,06,12,14,18,,,1.12,0.57,0.96*1D
$GNGSA,A,3,86,74,75,87,85,73,71,72,,,,,1.12,0.57,0.96*19
$GPGSV,5,1,17,05,46,159,43,06,09,028,29,11,41,020,,12,18,349,29*70
$GPGSV,5,2,17,13,27,173,37,14,10,114,36,15,27,210,34,18,09,220,33*7E
$GPGSV,5,3,17,20,52,099,42,22,21,096,37,24,60,287,40,29,11,281,*7B
$GPGSV,5,4,17,36,52,277,36,40,86,350,41,41,58,082,,49,32,274,38*76
$GPGSV,5,5,17,50,10,089,*4A
$GLGSV,3,1,10,70,00,107,13,71,13,148,39,72,13,197,32,73,18,137,36*62
$GLGSV,3,2,10,74,52,096,34,75,41,012,22,85,16,006,22,86,51,308,37*64
$GLGSV,3,3,10,87,35,244,35,,,,33*59
$GNGLL,0419.92376,S,05539.92598,E,041058.00,A,A*62
$GNGRS,041058.00,1,-1.1,0.4,-1.2,1.6,-0.2,0.4,-1.7,-3.9,-2.0,8.8,,*50
$GNGRS,041058.00,1,1.3,12.0,-1.8,7.9,-6.8,-1.1,-1.5,-14.0,,,,*7C
$GNGST,041058.00,21,,,,1.2,0.90,2.2*78
$GNZDA,041058.00,23,05,2025,00,00*71
$GNGBS,041058.00,1.2,0.9,2.2,,,,*5D
$GNTXT,01,01,01,More than 100 frame errors, UART RX was disabled*70
b0X*.)]$$
r6
#%*4c5'`(<{"4)V^:R' 
Y"]FkEG'{H!I$J!4`K)UV%34W!#$9brUW$GNRMC,041059.00,A,0419.92376,S,05539.92600,E,0.035,,230525,,,A*7D
$GNVTG,,T,,M,0.035,N,0.064,K,A*39
$GNGNS,041059.00,0419.92376,S,05539.92600,E,AA,18,0.57,12.3,-47.6,,*6D
$GNGGA,041059.00,0419.92376,S,05539.92600,E,1,12,0.57,12.3,M,-47.6,M,,*4D
$GNGSA,A,3,24,20,05,13,15,22,06,12,14,18,,,1.12,0.57,0.96*1D
$GNGSA,A,3,86,74,75,87,85,73,71,72,,,,,1.12,0.57,0.96*19
$GPGSV,5,1,17,05,46,159,42,06,09,028,20,11,41,020,,12,18,349,29*78
$GPGSV,5,2,17,13,27,173,36,14,10,114,36,15,27,210,35,18,09,220,37*7A
$GPGSV,5,3,17,20,52,099,42,22,21,096,39,24,60,287,40,29,11,281,*75
$GPGSV,5,4,17,36,52,277,34,40,86,350,41,41,58,082,,49,32,274,39*75
$GPGSV,5,5,17,50,10,089,*4A
$GLGSV,3,1,10,70,00,107,09,71,13,148,39,72,13,197,33,73,18,137,36*68
$GLGSV,3,2,10,74,52,096,33,75,41,012,20,85,16,006,22,86,51,308,37*61
$GLGSV,3,3,10,87,35,244,33,,,,36*5A
$GNGLL,0419.92376,S,05539.92600,E,041059.00,A,A*61
$GNGRS,041059.00,1,-1.2,0.5,-1.3,1.7,-0.1,0.1,-2.5,-2.5,-2.0,2.6,,*5D
$GNGRS,041059.00,1,1.4,12.0,-3.0,7.8,-7.6,-1.0,-1.3,-13.8,,,,*76
$GNGST,041059.00,25,,,,1.2,0.89,2.2*75
$GNZDA,041059.00,23,05,2025,00,00*70
$GNGBS,041059.00,1.2,0.9,2.2,,,,*5C
$GNTXT,01,01,01,More than 100 frame errors, UART RX was disabled*70
b0Xp).)]$ 
rQ
" @)4c'`)<{%4*V^:R% 
Y ]mFkG$H!I$J!4`K)8UiV'34W"#$bprY$GNRMC,041100.00,A,0419.92375,S,05539.92601,E,0.028,,230525,,,A*7E
$GNVTG,,T,,M,0.028,N,0.051,K,A*33
$GNGNS,041100.00,0419.92375,S,05539.92601,E,AA,18,0.57,12.3,-47.6,,*62
$GNGGA,041100.00,0419.92375,S,05539.92601,E,1,12,0.57,12.3,M,-47.6,M,,*42
$GNGSA,A,3,24,20,05,13,15,22,06,12,14,18,,,1.12,0.57,0.96*1D
$GNGSA,A,3,86,74,75,87,85,73,71,72,,,,,1.12,0.57,0.96*19
$GPGSV,5,1,17,05,46,159,41,06,09,028,17,11,41,020,,12,18,349,29*7F
$GPGSV,5,2,17,13,27,173,36,14,10,114,32,15,27,210,34,18,09,220,32*7A
$GPGSV,5,3,17,20,52,099,41,22,21,096,39,24,60,287,41,29,11,281,*77
$GPGSV,5,4,17,36,52,277,37,40,86,350,42,41,58,082,,49,32,274,37*7B
$GPGSV,5,5,17,50,10,089,*4A
$GLGSV,3,1,10,70,00,107,08,71,13,148,36,72,13,197,33,73,18,137,36*66
$GLGSV,3,2,10,74,52,096,33,75,41,012,23,85,16,006,21,86,51,308,39*6F
$GLGSV,3,3,10,87,35,244,34,,,,36*5D
$GNGLL,0419.92375,S,05539.92601,E,041100.00,A,A*6E
$GNGRS,041100.00,1,-1.2,0.3,-1.1,1.8,0.0,0.1,-5.0,-0.1,-1.7,5.8,,*7E
$GNGRS,041100.00,1,1.4,12.2,-4.6,7.8,-9.2,-1.1,-1.1,-13.7,,,,*7E
$GNGST,041100.00,28,,,,1.2,0.89,2.2*75
$GNZDA,041100.00,23,05,2025,00,00*7D
$GNGBS,041100.00,1.2,0.9,2.2,,,,*51
$GNTXT,01,01,01,More than 100 frame errors, UART RX was disabled*70
b0XX*.)]%!
rD
")4c(`:)<{%4*V^:R% 
Y"],FkGG%H!I$J!4`K)U^V%34W"##IbXr\v$$GNRMC,041101.00,A,0419.92374,S,05539.92603,E,0.028,,230525,,,A*7C
$GNVTG,,T,,M,0.028,N,0.052,K,A*30
$GNGNS,041101.00,0419.92374,S,05539.92603,E,AA,18,0.57,12.3,-47.6,,*60
$GNGGA,041101.00,0419.92374,S,05539.92603,E,1,12,0.57,12.3,M,-47.6,M,,*40
$GNGSA,A,3,24,20,05,13,15,22,06,12,14,18,,,1.12,0.57,0.96*1D
$GNGSA,A,3,86,74,75,87,85,73,71,72,,,,,1.12,0.57,0.96*19
$GPGSV,5,1,17,05,46,159,42,06,09,028,18,11,41,020,,12,18,349,30*7B
$GPGSV,5,2,17,13,27,173,37,14,10,114,33,15,27,210,34,18,09,220,31*79
$GPGSV,5,3,17,20,52,099,41,22,21,096,40,24,60,287,41,29,11,281,*79
$GPGSV,5,4,17,36,52,277,37,40,86,350,42,41,58,082,,49,32,274,37*7B
$GPGSV,5,5,17,50,10,089,*4A
$GLGSV,3,1,10,70,00,107,09,71,13,148,37,72,13,197,33,73,18,137,36*66
$GLGSV,3,2,10,74,52,096,33,75,41,012,24,85,16,006,17,86,51,308,37*63
$GLGSV,3,3,10,87,35,244,34,,,,35*5E
$GNGLL,0419.92374,S,05539.92603,E,041101.00,A,A*6C
$GNGRS,041101.00,1,-1.0,0.1,-0.9,1.8,0.2,0.6,-8.0,-2.9,-1.9,1.9,,*7F
$GNGRS,041101.00,1,1.6,12.0,-6.2,7.8,-9.3,-1.1,-1.1,-13.7,,,,*78
$GNGST,041101.00,30,,,,1.2,0.89,2.2*7D
$GNZDA,041101.00,23,05,2025,00,00*7C
$GNGBS,041101.00,1.2,0.9,2.2,,,,*50
$GNTXT,01,01,01,More than 100 frame errors, UART RX was disabled*70
b0X@).)]$!
r(
#!*4c(`;(<{$4*V^:R% 
Y#]F
k2G%H"I&J"4`K)TUhV%34W!#$>Eb@r`N$GNRMC,041102.00,A,0419.92372,S,05539.92605,E,0.013,,230525,,,A*77
$GNVTG,,T,,M,0.013,N,0.024,K,A*39
$GNGNS,041102.00,0419.92372,S,05539.92605,E,AA,18,0.57,12.3,-47.6,,*63
$GNGGA,041102.00,0419.92372,S,05539.92605,E,1,12,0.57,12.3,M,-47.6,M,,*43
$GNGSA,A,3,24,20,05,13,15,22,06,12,14,18,,,1.12,0.57,0.96*1D
$GNGSA,A,3,86,74,75,87,85,73,71,72,,,,,1.12,0.57,0.96*19
$GPGSV,5,1,17,05,46,159,41,06,09,028,19,11,41,020,,12,18,349,30*79
$GPGSV,5,2,17,13,27,173,36,14,10,114,33,15,27,210,35,18,09,220,33*7B
$GPGSV,5,3,17,20,52,099,42,22,21,096,40,24,60,287,40,29,11,281,*7B
$GPGSV,5,4,17,36,52,277,36,40,86,350,42,41,58,082,,49,32,274,37*7A
$GPGSV,5,5,17,50,10,089,*4A
$GLGSV,3,1,10,70,00,107,10,71,13,148,37,72,13,197,34,73,18,137,38*67
$GLGSV,3,2,10,74,52,096,34,75,41,012,25,85,16,006,14,86,51,308,37*66
$GLGSV,3,3,10,87,35,244,33,,,,36*5A
$GNGLL,0419.92372,S,05539.92605,E,041102.00,A,A*6F
$GNGRS,041102.00,1,-1.0,0.3,-0.7,2.0,0.0,0.6,-8.7,-0.7,-2.2,3.9,,*78
$GNGRS,041102.00,1,1.7,11.7,-4.3,7.8,-9.2,-1.2,-1.1,-13.7,,,,*7F
$GNGST,041102.00,31,,,,1.2,0.89,2.2*7F
$GNZDA,041102.00,23,05,2025,00,00*7F
$GNGBS,041102.00,1.2,0.9,2.2,,,,*53
$GNTXT,01,01,01,More than 100 frame errors, UART RX was disabled*70
b0X().
)]$!
rA
#!)4c&(`+(<{#4*V^:R% 
Y#]~FkhMG&H!I&J"4`K)~UV%34W"##Qb(rd&$GNRMC,041103.00,A,0419.92371,S,05539.92607,E,0.007,,230525,,,A*72
$GNVTG,,T,,M,0.007,N,0.013,K,A*38
$GNGNS,041103.00,0419.92371,S,05539.92607,E,AA,18,0.57,12.3,-47.6,,*63
$GNGGA,041103.00,0419.92371,S,05539.92607,E,1,12,0.57,12.3,M,-47.6,M,,*43
$GNGSA,A,3,24,20,05,13,15,22,06,12,14,18,,,1.11,0.57,0.96*1E
$GNGSA,A,3,86,74,75,87,85,73,71,72,,,,,1.11,0.57,0.96*1A
$GPGSV,5,1,17,05,46,159,41,06,09,028,20,11,41,020,,12,18,349,30*73
$GPGSV,5,2,17,13,27,173,36,14,10,114,33,15,27,210,35,18,09,220,33*7B
$GPGSV,5,3,17,20,52,099,41,22,21,096,40,24,60,287,40,29,11,281,*78
$GPGSV,5,4,17,36,52,277,35,40,86,350,42,41,58,082,,49,32,274,37*79
$GPGSV,5,5,17,50,10,089,*4A
$GLGSV,3,1,10,70,00,107,09,71,13,148,38,72,13,197,33,73,18,137,38*67
$GLGSV,3,2,10,74,52,096,34,75,41,012,24,85,16,006,14,86,51,308,37*67
$GLGSV,3,3,10,87,35,244,34,,,,35*5E
$GNGLL,0419.92371,S,05539.92607,E,041103.00,A,A*6F
$GNGRS,041103.00,1,-1.1,0.4,-0.7,2.0,-0.1,0.4,-12.7,-0.5,-1.9,4.0,,*6E
$GNGRS,041103.00,1,1.7,11.8,-3.9,7.6,-7.9,-1.3,-1.3,-13.7,,,,*74
$GNGST,041103.00,28,,,,1.2,0.88,2.2*77
$GNZDA,041103.00,23,05,2025,00,00*7E
$GNGBS,041103.00,1.2,0.9,2.2,,,,*52
$GNTXT,01,01,01,More than 100 frame errors, UART RX was disabled*70
b0X,.)]'#
r
#"d+4c#*` )<{$4,V^:R' 
Y%]F
kNG$HI$uJ 4`}K)OUV"34W #Q!brh$GNRMC,041104.00,A,0419.92370,S,05539.92608,E,0.047,,230525,,,A*7F
$GNVTG,,T,,M,0.047,N,0.087,K,A*31
$GNGNS,041104.00,0419.92370,S,05539.92608,E,AA,18,0.57,12.2,-47.6,,*6B
$GNGGA,041104.00,0419.92370,S,05539.92608,E,1,12,0.57,12.2,M,-47.6,M,,*4B
$GNGSA,A,3,24,20,05,13,15,22,06,12,14,18,,,1.11,0.57,0.96*1E
$GNGSA,A,3,86,74,75,87,85,73,71,72,,,,,1.11,0.57,0.96*1A
$GPGSV,5,1,17,05,46,159,44,06,09,028,24,11,41,020,,12,18,349,30*72
$GPGSV,5,2,17,13,27,173,39,14,10,114,35,15,27,210,35,18,09,220,34*75
$GPGSV,5,3,17,20,52,099,43,22,21,096,42,24,60,287,41,29,11,281,*79
$GPGSV,5,4,17,36,52,277,36,40,86,350,44,41,58,082,,49,32,274,39*72
$GPGSV,5,5,17,50,10,089,*4A
$GLGSV,3,1,10,70,00,107,10,71,13,148,36,72,13,197,31,73,18,137,36*6D
$GLGSV,3,2,10,74,52,096,32,75,41,012,23,85,16,006,15,86,51,308,34*64
$GLGSV,3,3,10,87,35,244,32,,,,33*5E
$GNGLL,0419.92370,S,05539.92608,E,041104.00,A,A*66
$GNGRS,041104.00,1,-1.0,0.4,-0.8,1.8,-0.1,0.3,-15.4,-3.4,-5.2,3.6,,*63
$GNGRS,041104.00,1,1.6,11.5,-1.8,8.5,-6.0,-1.4,-1.2,-13.9,,,,*70
$GNGST,041104.00,33,,,,1.2,0.89,2.2*7B
$GNZDA,041104.00,23,05,2025,00,00*79
$GNGBS,041104.00,1.2,0.9,2.2,,,,*55
$GNTXT,01,01,01,More than 100 frame errors, UART RX was disabled*70
b0X,.)]'#
r
%#+4c+`)<{%4,V^:R' 
Y%]FkOG&HI%fJ!4`K)U
V$34W #!]brl$GNRMC,041105.00,A,0419.92369,S,05539.92608,E,0.136,,230525,,,A*71
$GNVTG,,T,,M,0.136,N,0.251,K,A*3F
$GNGNS,041105.00,0419.92369,S,05539.92608,E,AA,18,0.57,12.2,-47.6,,*62
$GNGGA,041105.00,0419.92369,S,05539.92608,E,1,12,0.57,12.2,M,-47.6,M,,*42
$GNGSA,A,3,24,20,05,13,15,22,06,12,14,18,,,1.11,0.57,0.96*1E
$GNGSA,A,3,86,74,75,87,85,73,71,72,,,,,1.11,0.57,0.96*1A
$GPGSV,5,1,17,05,46,159,44,06,09,028,23,11,41,020,,12,18,349,31*74
$GPGSV,5,2,17,13,27,173,39,14,10,114,35,15,27,210,37,18,09,220,35*76
$GPGSV,5,3,17,20,52,099,43,22,21,096,43,24,60,287,41,29,11,281,*78
$GPGSV,5,4,17,36,52,277,37,40,86,350,44,41,58,082,,49,32,274,39*73
$GPGSV,5,5,17,50,10,089,*4A
$GLGSV,3,1,10,70,00,107,11,71,13,148,38,72,13,197,30,73,18,137,37*62
$GLGSV,3,2,10,74,52,096,33,75,41,012,22,85,16,006,12,86,51,308,36*61
$GLGSV,3,3,10,87,35,244,32,,,,33*5E
$GNGLL,0419.92369,S,05539.92608,E,041105.00,A,A*6F
$GNGRS,041105.00,1,-1.3,0.2,-0.6,1.4,0.0,0.1,-13.3,-0.4,-3.3,3.9,,*41
$GNGRS,041105.00,1,1.5,11.6,-1.1,7.1,-5.0,-1.5,-1.2,-13.8,,,,*70
$GNGST,041105.00,35,,,,1.2,0.90,2.2*74
$GNZDA,041105.00,23,05,2025,00,00*78
$GNGBS,041105.00,1.2,0.9,2.2,,,,*54
$GNTXT,01,01,01,More than 100 frame errors, UART RX was disabled*70
b0X,.)]t(#
r/
&$,4c&+`)<{%4,V^:R' 
Y%]FkG&HI%eJ 4`K)RUV$34W #!brupA$GNRMC,041106.00,A,0419.92367,S,05539.92609,E,0.060,,230525,,,A*7F
$GNVTG,,T,,M,0.060,N,0.111,K,A*3A
$GNGNS,041106.00,0419.92367,S,05539.92609,E,AA,18,0.57,12.2,-47.6,,*6E
$GNGGA,041106.00,0419.92367,S,05539.92609,E,1,12,0.57,12.2,M,-47.6,M,,*4E
$GNGSA,A,3,24,20,05,13,15,22,06,12,14,18,,,1.11,0.57,0.96*1E
$GNGSA,A,3,86,74,75,87,85,73,71,72,,,,,1.11,0.57,0.96*1A
$GPGSV,5,1,17,05,46,159,44,06,09,028,24,11,41,020,,12,18,349,31*73
$GPGSV,5,2,17,13,27,173,40,14,10,114,35,15,27,210,38,18,09,220,36*74
$GPGSV,5,3,17,20,52,099,44,22,21,096,43,24,60,287,41,29,11,281,*7F
$GPGSV,5,4,17,36,52,277,37,40,86,350,44,41,58,082,,49,32,274,39*73
$GPGSV,5,5,17,50,10,089,*4A
$GLGSV,3,1,10,70,00,107,12,71,13,148,38,72,13,197,30,73,18,137,37*61
$GLGSV,3,2,10,74,52,096,32,75,41,012,20,85,16,006,11,86,51,308,36*61
$GLGSV,3,3,10,87,35,244,32,,,,33*5E
$GNGLL,0419.92367,S,05539.92609,E,041106.00,A,A*63
$GNGRS,041106.00,1,-1.2,0.4,-0.5,1.6,-0.1,0.3,-13.2,-1.4,0.5,3.9,,*42
$GNGRS,041106.00,1,1.5,11.5,0.8,7.3,-5.8,-1.6,-1.2,-11.2,,,,*54
$GNGST,041106.00,38,,,,1.2,0.91,2.2*7B
$GNZDA,041106.00,23,05,2025,00,00*7B
$GNGBS,041106.00,1.2,0.9,2.2,,,,*57
$GNTXT,01,01,01,More than 100 frame errors, UART RX was disabled*70
b0X,.) ]A)"
r
&$,4c+` *<{%4,V^:R( 
Y%]Fk@G&gHI%ZJ 4`iK)KU
V%34W #u!fbr]t$GNRMC,041107.00,A,0419.92367,S,05539.92610,E,0.043,,230525,,,A*77
$GNVTG,,T,,M,0.043,N,0.080,K,A*32
$GNGNS,041107.00,0419.92367,S,05539.92610,E,AA,18,0.57,12.2,-47.6,,*67
$GNGGA,041107.00,0419.92367,S,05539.92610,E,1,12,0.57,12.2,M,-47.6,M,,*47
$GNGSA,A,3,24,20,05,13,15,22,06,12,14,18,,,1.11,0.57,0.96*1E
$GNGSA,A,3,86,74,75,87,85,73,71,72,,,,,1.11,0.57,0.96*1A
$GPGSV,5,1,17,05,46,159,44,06,09,028,21,11,41,020,,12,18,349,32*75
$GPGSV,5,2,17,13,27,173,41,14,10,114,34,15,27,210,38,18,09,220,36*74
$GPGSV,5,3,17,20,52,099,44,22,21,096,43,24,60,287,42,29,11,281,*7C
$GPGSV,5,4,17,36,52,277,37,40,86,350,44,41,58,082,,49,32,274,40*7D
$GPGSV,5,5,17,50,10,089,*4A
$GLGSV,3,1,10,70,00,107,13,71,13,148,38,72,13,197,30,73,18,137,37*60
$GLGSV,3,2,10,74,52,096,32,75,41,012,22,85,16,006,10,86,51,308,37*63
$GLGSV,3,3,10,87,35,244,32,,,,33*5E
$GNGLL,0419.92367,S,05539.92610,E,041107.00,A,A*6A
$GNGRS,041107.00,1,-0.9,0.3,-0.3,1.8,-0.5,0.3,-12.6,0.7,1.9,4.0,,*6B
$GNGRS,041107.00,1,1.3,11.3,0.8,6.3,-5.9,-1.7,-1.5,-13.0,,,,*53
$GNGST,041107.00,68777,,,,1.2,0.91,2.2*48
$GNZDA,041107.00,23,05,2025,00,00*7A
$GNGBS,041107.00,1.2,0.9,2.2,,,,*56
$GNTXT,01,01,01,More than 100 frame errors, UART RX was disabled*70
b0X-.)!]*"
r
'$,4c*`+<{(4-V^:R' 
Y%]FkG&jHtI%ZJ 4`K)#UV'34sW!#U!#brExa$GNRMC,041108.00,A,0419.92370,S,05539.92611,E,0.023,,230525,,,A*79
$GNVTG,,T,,M,0.023,N,0.042,K,A*3A
$GNGNS,041108.00,0419.92370,S,05539.92611,E,AA,18,0.57,12.1,-47.6,,*6C
$GNGGA,041108.00,0419.92370,S,05539.92611,E,1,12,0.57,12.1,M,-47.6,M,,*4C
$GNGSA,A,3,24,20,05,13,15,22,06,12,14,18,,,1.11,0.57,0.96*1E
$GNGSA,A,3,86,74,75,87,85,73,71,72,,,,,1.11,0.57,0.96*1A
$GPGSV,5,1,17,05,46,159,45,06,09,028,22,11,41,020,,12,18,349,33*76
$GPGSV,5,2,17,13,27,173,42,14,10,114,34,15,27,210,39,18,09,220,36*76
$GPGSV,5,3,17,20,52,099,44,22,21,096,42,24,60,287,43,29,11,281,*7C
$GPGSV,5,4,17,36,52,277,40,40,86,350,45,41,58,082,,49,32,274,39*72
$GPGSV,5,5,17,50,10,089,*4A
$GLGSV,3,1,10,70,00,107,11,71,13,148,38,72,13,197,30,73,18,137,37*62
$GLGSV,3,2,10,74,52,096,32,75,41,012,24,85,16,006,12,86,51,308,39*69
$GLGSV,3,3,10,87,35,244,33,,,,33*5F
$GNGLL,0419.92370,S,05539.92611,E,041108.00,A,A*62
$GNGRS,041108.00,1,-1.0,0.0,-0.2,1.8,-0.8,0.3,-13.2,-3.3,0.1,4.3,,*46
$GNGRS,041108.00,1,1.2,12.0,0.4,6.0,-6.2,-1.7,-1.5,-11.6,,,,*5E
$GNGST,041108.00,68777,,,,1.2,0.91,2.2*47
$GNZDA,041108.00,23,05,2025,00,00*75
$GNGBS,041108.00,1.2,0.9,2.2,,,,*59
$GNTXT,01,01,01,More than 100 frame errors, UART RX was disabled*70
b0X-.2)!])#
r
't#,4c*`-+<{(4-V^:R' 
Y%]Fk9MG&VHPI%BJ!4`K)BUZV&34W"# xbr-|:$GNRMC,041109.00,A,0419.92372,S,05539.92612,E,0.070,,230525,,,A*7F
$GNVTG,,T,,M,0.070,N,0.129,K,A*30
$GNGNS,041109.00,0419.92372,S,05539.92612,E,AA,18,0.57,12.1,-47.6,,*6C
$GNGGA,041109.00,0419.92372,S,05539.92612,E,1,12,0.57,12.1,M,-47.6,M,,*4C
$GNGSA,A,3,24,20,05,13,15,22,06,12,14,18,,,1.11,0.57,0.96*1E
$GNGSA,A,3,86,74,75,87,85,73,71,72,,,,,1.11,0.57,0.96*1A
$GPGSV,5,1,17,05,46,159,45,06,09,028,22,11,41,020,,12,18,349,33*76
$GPGSV,5,2,17,13,27,173,41,14,10,114,35,15,27,210,39,18,09,220,35*77
$GPGSV,5,3,17,20,52,099,44,22,21,096,42,24,60,287,43,29,11,281,*7C
$GPGSV,5,4,17,36,52,277,40,40,86,350,45,41,58,082,,49,32,274,39*72
$GPGSV,5,5,17,50,10,089,*4A
$GLGSV,3,1,10,70,00,107,12,71,13,148,38,72,13,197,31,73,18,137,37*60
$GLGSV,3,2,10,74,52,096,33,75,41,012,25,85,16,006,11,86,51,308,38*6B
$GLGSV,3,3,10,87,35,244,34,,,,32*59
$GNGLL,0419.92372,S,05539.92612,E,041109.00,A,A*62
$GNGRS,041109.00,1,-0.8,0.2,-0.4,1.4,-1.4,0.4,-14.9,-7.5,7.1,5.0,,*47
$GNGRS,041109.00,1,1.5,9.5,0.7,6.4,-11.9,-1.9,-1.7,-14.6,,,,*54
$GNGST,041109.00,36,,,,1.2,0.91,2.2*7A
$GNZDA,041109.00,23,05,2025,00,00*74
$GNGBS,041109.00,1.2,0.9,2.2,,,,*58
$GNTXT,01,01,01,More than 100 frame errors, UART RX was disabled*70
b0X,.) ])d"
rx
'f#,4c*`&*<{'4,V^:R' 
Y%]F
kJG%UH|I%9J!4`K)UV&34W"# ebr$GNRMC,041110.00,A,0419.92372,S,05539.92614,E,0.034,,230525,,,A*71
$GNVTG,,T,,M,0.034,N,0.063,K,A*3F
$GNGNS,041110.00,0419.92372,S,05539.92614,E,AA,18,0.57,12.1,-47.6,,*62
$GNGGA,041110.00,0419.92372,S,05539.92614,E,1,12,0.57,12.1,M,-47.6,M,,*42
$GNGSA,A,3,24,20,05,13,15,22,06,12,14,18,,,1.11,0.57,0.96*1E
$GNGSA,A,3,86,74,75,87,85,73,71,72,,,,,1.11,0.57,0.96*1A
$GPGSV,5,1,17,05,46,159,44,06,09,028,22,11,41,020,,12,18,349,32*76
$GPGSV,5,2,17,13,27,173,41,14,10,114,34,15,27,210,39,18,09,220,35*76
$GPGSV,5,3,17,20,52,099,44,22,21,096,42,24,60,287,42,29,11,281,*7D
$GPGSV,5,4,17,36,52,277,39,40,86,350,44,41,58,082,,49,32,274,39*7D
$GPGSV,5,5,17,50,10,089,*4A
$GLGSV,3,1,10,70,00,107,10,71,13,148,37,72,13,197,31,73,18,137,37*6D
$GLGSV,3,2,10,74,52,096,33,75,41,012,25,85,16,006,13,86,51,308,38*69
$GLGSV,3,3,10,87,35,244,34,,,,32*59
$GNGLL,0419.92372,S,05539.92614,E,041110.00,A,A*6C
$GNGRS,041110.00,1,-0.8,0.1,-0.4,1.0,-1.5,0.4,-13.9,-3.1,1.2,4.0,,*4A
$GNGRS,041110.00,1,1.3,14.3,0.3,7.0,10.0,-2.0,-1.7,-11.6,,,,*4B
$GNGST,041110.00,49520,,,,1.2,0.91,2.2*4D
$GNZDA,041110.00,23,05,2025,00,00*7C
$GNGBS,041110.00,1.2,0.9,2.2,,,,*50
$GNTXT,01,01,01,More than 100 frame errors, UART RX was disabled*70
b0Xh,.@) ](V#
r
'o#H,4c*`8*<{'4,V^:R' 
Y%]F
k8G%:HdI%;J!4`K)UV&34W!#N \bhrT$GNRMC,041111.00,A,0419.92372,S,05539.92616,E,0.049,,230525,,,A*78
$GNVTG,,T,,M,0.049,N,0.091,K,A*38
$GNGNS,041111.00,0419.92372,S,05539.92616,E,AA,18,0.57,12.1,-47.6,,*61
$GNGGA,041111.00,0419.92372,S,05539.92616,E,1,12,0.57,12.1,M,-47.6,M,,*41
$GNGSA,A,3,24,20,05,13,15,22,06,12,14,18,,,1.11,0.57,0.96*1E
$GNGSA,A,3,86,74,75,87,85,73,71,72,,,,,1.11,0.57,0.96*1A
$GPGSV,5,1,17,05,46,159,44,06,09,028,22,11,41,020,,12,18,349,32*76
$GPGSV,5,2,17,13,27,173,40,14,10,114,35,15,27,210,39,18,09,220,35*76
$GPGSV,5,3,17,20,52,099,44,22,21,096,42,24,60,287,42,29,11,281,*7D
$GPGSV,5,4,17,36,52,277,39,40,86,350,44,41,58,082,,49,32,274,39*7D
$GPGSV,5,5,17,50,10,089,*4A
$GLGSV,3,1,10,70,00,107,10,71,13,147,37,72,13,197,31,73,18,137,37*62
$GLGSV,3,2,10,74,52,096,33,75,41,012,25,85,16,006,14,86,51,308,38*6E
$GLGSV,3,3,10,87,35,244,33,,,,32*5E
$GNGLL,0419.92372,S,05539.92616,E,041111.00,A,A*6F
$GNGRS,041111.00,1,-0.9,0.1,-0.3,0.9,-1.4,0.6,-14.7,1.7,-0.8,3.3,,*44
$GNGRS,041111.00,1,1.4,14.3,-1.1,3.3,9.8,-2.0,-2.0,-11.8,,,,*5E
$GNGST,041111.00,74279,,,,1.2,0.92,2.2*4A
$GNZDA,041111.00,23,05,2025,00,00*7D
$GNGBS,041111.00,1.2,0.9,2.2,,,,*51
$GNTXT,01,01,01,More than 100 frame errors, UART RX was disabled*70
b0XP,.j) ]&(o#
r
&j"!,4c*`**<{'4,V^:R& 
Y%]FkmMG%DHI%;J!4`K)KUV&34W!#L!bPr$GNRMC,041112.00,A,0419.92372,S,05539.92617,E,0.052,,230525,,,A*70
$GNVTG,,T,,M,0.052,N,0.097,K,A*34
$GNGNS,041112.00,0419.92372,S,05539.92617,E,AA,18,0.57,12.1,-47.6,,*63
$GNGGA,041112.00,0419.92372,S,05539.92617,E,1,12,0.57,12.1,M,-47.6,M,,*43
$GNGSA,A,3,24,20,05,13,15,22,06,12,14,18,,,1.11,0.57,0.96*1E
$GNGSA,A,3,86,74,75,87,85,73,71,72,,,,,1.11,0.57,0.96*1A
$GPGSV,5,1,17,05,46,159,44,06,09,028,22,11,41,020,,12,18,349,32*76
$GPGSV,5,2,17,13,27,173,40,14,10,114,35,15,27,210,38,18,09,220,34*76
$GPGSV,5,3,17,20,52,099,44,22,21,096,42,24,60,287,42,29,11,281,*7D
$GPGSV,5,4,17,36,52,277,39,40,86,350,44,41,58,082,,49,32,274,38*7C
$GPGSV,5,5,17,50,10,089,*4A
$GLGSV,3,1,10,70,00,107,14,71,13,147,37,72,13,196,31,73,18,137,37*67
$GLGSV,3,2,10,74,52,096,33,75,41,012,25,85,16,006,14,86,51,308,38*6E
$GLGSV,3,3,10,87,35,244,33,,,,33*5F
$GNGLL,0419.92372,S,05539.92617,E,041112.00,A,A*6D
$GNGRS,041112.00,1,-0.8,0.0,-0.4,1.1,-1.5,0.4,-14.3,-4.7,1.5,2.9,,*4C
$GNGRS,041112.00,1,1.9,15.5,-1.8,5.9,7.1,-2.0,-1.9,-10.5,,,,*53
$GNGST,041112.00,33,,,,1.2,0.92,2.2*76
$GNZDA,041112.00,23,05,2025,00,00*7E
$GNGBS,041112.00,1.2,0.9,2.2,,,,*52
$GNTXT,01,01,01,More than 100 frame errors, UART RX was disabled*70
b0X8,.) ]'N"
rd
%t!c,4c+`-*<{&4,V^:R& 
Y%]FkHG%ZH sI%=J!4`&K)UV%34W!##mb8r$$GNRMC,041113.00,A,0419.92371,S,05539.92619,E,0.039,,230525,,,A*71
$GNVTG,,T,,M,0.039,N,0.072,K,A*32
$GNGNS,041113.00,0419.92371,S,05539.92619,E,AA,18,0.57,12.1,-47.6,,*6F
$GNGGA,041113.00,0419.92371,S,05539.92619,E,1,12,0.57,12.1,M,-47.6,M,,*4F
$GNGSA,A,3,24,20,05,13,15,22,06,12,14,18,,,1.11,0.57,0.96*1E
$GNGSA,A,3,86,74,75,87,85,73,71,72,,,,,1.11,0.57,0.96*1A
$GPGSV,5,1,17,05,46,159,44,06,09,028,22,11,41,020,,12,18,349,32*76
$GPGSV,5,2,17,13,27,173,39,14,10,114,34,15,27,210,37,18,09,220,33*71
$GPGSV,5,3,17,20,52,099,44,22,21,096,43,24,60,287,42,29,11,281,*7C
$GPGSV,5,4,17,36,52,277,38,40,86,350,44,41,58,082,,49,32,274,38*7D
$GPGSV,5,5,17,50,10,089,*4A
$GLGSV,3,1,10,70,00,107,13,71,13,147,37,72,13,196,32,73,17,138,37*63
$GLGSV,3,2,10,74,52,096,33,75,41,012,25,85,16,006,13,86,51,308,37*66
$GLGSV,3,3,10,87,35,244,33,,,,35*59
$GNGLL,0419.92371,S,05539.92619,E,041113.00,A,A*61
$GNGRS,041113.00,1,-0.9,-0.3,-0.5,0.8,-1.4,0.4,-16.4,-1.1,1.0,3.6,,*67
$GNGRS,041113.00,1,1.9,13.2,-1.0,4.7,9.9,-2.0,-1.7,-9.1,,,,*60
$GNGST,041113.00,22009,,,,1.2,0.92,2.2*4E
$GNZDA,041113.00,23,05,2025,00,00*7F
$GNGBS,041113.00,1.2,0.9,2.2,,,,*53
$GNTXT,01,01,01,More than 100 frame errors, UART RX was disabled*70
b0X ,.)]x&<!
r
!!p-4c*`)<{&4+V^:R& 
Y&]kFk=G%ZH I$PJ"4a5K)FUV$34W"##$?b rq$GNRMC,041114.00,A,0419.92368,S,05539.92619,E,0.080,,230525,,,A*7C
$GNVTG,,T,,M,0.080,N,0.148,K,A*38
$GNGNS,041114.00,0419.92368,S,05539.92619,E,AA,18,0.57,12.0,-47.6,,*61
$GNGGA,041114.00,0419.92368,S,05539.92619,E,1,12,0.57,12.0,M,-47.6,M,,*41
$GNGSA,A,3,24,20,05,13,15,22,06,12,14,18,,,1.11,0.57,0.96*1E
$GNGSA,A,3,86,74,75,87,85,73,71,72,,,,,1.11,0.57,0.96*1A
$GPGSV,5,1,17,05,46,159,44,06,09,028,24,11,41,020,,12,18,349,31*73
$GPGSV,5,2,17,13,27,173,38,14,10,114,33,15,27,210,33,18,09,220,33*73
$GPGSV,5,3,17,20,52,099,45,22,21,096,42,24,60,287,41,29,11,281,*7F
$GPGSV,5,4,17,36,52,277,38,40,86,350,43,41,58,082,,49,32,274,38*7A
$GPGSV,5,5,17,50,10,089,*4A
$GLGSV,3,1,10,70,00,107,13,71,13,147,37,72,13,196,32,73,17,138,36*62
$GLGSV,3,2,10,74,52,097,34,75,41,012,23,85,16,006,15,86,51,308,36*61
$GLGSV,3,3,10,87,35,244,34,,,,35*5E
$GNGLL,0419.92368,S,05539.92619,E,041114.00,A,A*6E
$GNGRS,041114.00,1,-0.9,-0.6,-0.4,0.6,-1.0,0.3,-15.1,1.2,4.6,1.1,,*47
$GNGRS,041114.00,1,1.7,10.8,-1.9,7.8,9.7,-1.8,-1.7,-8.5,,,,*65
$GNGST,041114.00,33013,,,,1.2,0.93,2.3*42
$GNZDA,041114.00,23,05,2025,00,00*78
$GNGBS,041114.00,1.2,0.9,2.3,,,,*55
$GNTXT,01,01,01,More than 100 frame errors, UART RX was disabled*70
b0X,.)]>%:"
rb
 !,4c)`)<{&4+V^:R& 
Y%]HFkDG%LH I%PJ"4aK*:UV$34W"#E$brI$GNRMC,041115.00,A,0419.92367,S,05539.92620,E,0.011,,230525,,,A*70
$GNVTG,,T,,M,0.011,N,0.021,K,A*3E
$GNGNS,041115.00,0419.92367,S,05539.92620,E,AA,18,0.57,12.0,-47.6,,*65
$GNGGA,041115.00,0419.92367,S,05539.92620,E,1,12,0.57,12.0,M,-47.6,M,,*45
$GNGSA,A,3,24,20,05,13,15,22,06,12,14,18,,,1.11,0.57,0.96*1E
$GNGSA,A,3,86,74,75,87,85,73,71,72,,,,,1.11,0.57,0.96*1A
$GPGSV,5,1,17,05,46,159,44,06,09,028,28,11,41,020,,12,18,349,31*7F
$GPGSV,5,2,17,13,27,173,37,14,10,114,34,15,27,210,32,18,09,220,33*7A
$GPGSV,5,3,17,20,52,099,44,22,21,096,41,24,60,287,41,29,11,281,*7D
$GPGSV,5,4,17,36,52,277,38,40,86,350,43,41,58,082,,49,32,274,38*7A
$GPGSV,5,5,17,50,10,089,*4A
$GLGSV,3,1,10,70,00,107,12,71,13,147,37,72,13,196,32,73,17,138,37*62
$GLGSV,3,2,10,74,52,097,34,75,42,012,22,85,16,006,20,86,51,308,36*65
$GLGSV,3,3,10,87,35,244,34,,,,36*5D
$GNGLL,0419.92367,S,05539.92620,E,041115.00,A,A*6A
$GNGRS,041115.00,1,-1.0,-0.3,-0.2,0.6,-0.6,0.3,-8.9,-1.9,3.5,4.8,,*50
$GNGRS,041115.00,1,3.9,10.3,-2.0,3.2,11.5,-1.8,-1.8,-8.6,,,,*50
$GNGST,041115.00,31,,,,1.2,0.94,2.3*74
$GNZDA,041115.00,23,05,2025,00,00*79
$GNGBS,041115.00,1.2,0.9,2.3,,,,*54
$GNTXT,01,01,01,More than 100 frame errors, UART RX was disabled*70
b0X+.g) ];&F!
r
 @#-4c(`)<{%4+V^:R( 
Y%]0FkJG%[H QI%UJ"4aK*UV%34W"#$br M$GNRMC,041116.00,A,0419.92368,S,05539.92620,E,0.036,,230525,,,A*79
$GNVTG,,T,,M,0.036,N,0.068,K,A*36
$GNGNS,041116.00,0419.92368,S,05539.92620,E,AA,18,0.57,12.0,-47.6,,*69
$GNGGA,041116.00,0419.92368,S,05539.92620,E,1,12,0.57,12.0,M,-47.6,M,,*49
$GNGSA,A,3,24,20,05,13,15,22,06,12,14,18,,,1.11,0.57,0.96*1E
$GNGSA,A,3,86,74,75,87,85,73,71,72,,,,,1.11,0.57,0.96*1A
$GPGSV,5,1,17,05,46,159,43,06,09,028,30,11,41,020,,12,18,349,32*72
$GPGSV,5,2,17,13,27,173,38,14,10,114,33,15,27,210,32,18,09,220,35*74
$GPGSV,5,3,17,20,52,099,45,22,21,096,40,24,60,287,41,29,11,281,*7D
$GPGSV,5,4,17,36,52,277,37,40,86,350,43,41,58,082,,49,32,274,40*7A
$GPGSV,5,5,17,50,10,089,*4A
$GLGSV,3,1,10,70,00,107,12,71,13,147,37,72,13,196,32,73,17,138,37*62
$GLGSV,3,2,10,74,52,097,34,75,42,012,20,85,16,006,22,86,51,308,37*64
$GLGSV,3,3,10,87,35,244,34,,,,36*5D
$GNGLL,0419.92368,S,05539.92620,E,041116.00,A,A*66
$GNGRS,041116.00,1,-0.8,-0.2,-0.3,0.7,-1.9,0.3,-6.7,-4.5,-0.4,2.6,,*7B
$GNGRS,041116.00,1,3.9,11.6,-0.6,5.2,10.1,-1.7,-1.6,-9.4,,,,*52
$GNGST,041116.00,19258,,,,1.2,0.95,2.3*43
$GNZDA,041116.00,23,05,2025,00,00*7A
$GNGBS,041116.00,1.2,1.0,2.3,,,,*5F
$GNTXT,01,01,01,More than 100 frame errors, UART RX was disabled*70
b0X +.)]&e"
r
!S#-4c(`*<{%4+V^:R( 
Y%],Fk7G%kH I$hJ"4aK*JU8V%34W"#?$b rm$GNRMC,041117.00,A,0419.92368,S,05539.92621,E,0.018,,230525,,,A*75
$GNVTG,,T,,M,0.018,N,0.033,K,A*34
$GNGNS,041117.00,0419.92368,S,05539.92621,E,AA,18,0.57,12.0,-47.6,,*69
$GNGGA,041117.00,0419.92368,S,05539.92621,E,1,12,0.57,12.0,M,-47.6,M,,*49
$GNGSA,A,3,24,20,05,13,15,22,06,12,14,18,,,1.11,0.57,0.96*1E
$GNGSA,A,3,86,74,75,87,85,73,71,72,,,,,1.11,0.57,0.96*1A
$GPGSV,5,1,17,05,46,159,43,06,09,028,30,11,41,020,,12,18,349,31*71
$GPGSV,5,2,17,13,27,173,38,14,10,114,34,15,27,210,33,18,09,220,35*72
$GPGSV,5,3,17,20,52,099,45,22,21,096,40,24,60,287,42,29,11,281,*7E
$GPGSV,5,4,17,36,52,277,37,40,86,350,43,41,58,082,,49,32,274,40*7A
$GPGSV,5,5,17,50,10,089,*4A
$GLGSV,3,1,10,70,00,107,15,71,13,147,37,72,13,196,32,73,17,138,36*64
$GLGSV,3,2,10,74,52,097,34,75,42,012,18,85,16,006,19,86,51,308,37*67
$GLGSV,3,3,10,87,35,244,34,,,,36*5D
$GNGLL,0419.92368,S,05539.92621,E,041117.00,A,A*66
$GNGRS,041117.00,1,-1.0,-0.3,-0.2,1.0,-1.7,0.2,-5.1,-3.8,0.0,5.2,,*5F
$GNGRS,041117.00,1,2.2,14.7,0.7,3.2,10.8,-1.5,-1.5,-10.6,,,,*45
$GNGST,041117.00,33,,,,1.2,0.95,2.3*75
$GNZDA,041117.00,23,05,2025,00,00*7B
$GNGBS,041117.00,1.2,1.0,2.3,,,,*5E
$GNTXT,01,01,01,More than 100 frame errors, UART RX was disabled*70
b0X$+.S) ]x%X"
r
!$-4c(`*<{&4*V^:R( 
Y&]8F
kx0G%uHI%^J"4aK*U%V%34W!#,$b$rU$GNRMC,041118.00,A,0419.92369,S,05539.92622,E,0.043,,230525,,,A*76
$GNVTG,,T,,M,0.043,N,0.080,K,A*32
$GNGNS,041118.00,0419.92369,S,05539.92622,E,AA,18,0.57,11.9,-47.6,,*6E
$GNGGA,041118.00,0419.92369,S,05539.92622,E,1,12,0.57,11.9,M,-47.6,M,,*4E
$GNGSA,A,3,24,20,05,13,15,22,06,12,14,18,,,1.11,0.57,0.96*1E
$GNGSA,A,3,86,74,75,87,85,73,71,72,,,,,1.11,0.57,0.96*1A
$GPGSV,5,1,17,05,46,159,43,06,09,028,30,11,41,020,,12,18,349,32*72
$GPGSV,5,2,17,13,27,173,37,14,10,114,34,15,27,210,33,18,09,220,36*7E
$GPGSV,5,3,17,20,52,099,45,22,21,096,40,24,60,287,42,29,11,281,*7E
$GPGSV,5,4,17,36,52,277,38,40,86,350,42,41,58,082,,49,32,274,40*74
$GPGSV,5,5,17,50,10,089,*4A
$GLGSV,3,1,10,70,00,107,10,71,13,147,37,72,13,196,31,73,17,138,37*63
$GLGSV,3,2,10,74,52,097,34,75,42,012,19,85,16,006,20,86,51,308,37*6C
$GLGSV,3,3,10,87,35,244,33,,,,36*5A
$GNGLL,0419.92369,S,05539.92622,E,041118.00,A,A*6B
$GNGRS,041118.00,1,-1.1,-0.4,0.3,0.9,-1.0,0.2,-4.3,-1.4,-0.2,2.7,,*55
$GNGRS,041118.00,1,7.2,12.2,1.6,5.6,10.6,-1.6,-1.4,-11.0,,,,*45
$GNGST,041118.00,32,,,,1.2,0.96,2.3*78
$GNZDA,041118.00,23,05,2025,00,00*74
$GNGBS,041118.00,1.2,1.0,2.3,,,,*51
$GNTXT,01,01,01,More than 100 frame errors, UART RX was disabled*70
b0X(+..) ]&j"
r
!<#-4c(`*<m{&4*V^:R' 
Y&]3FkMG%tH I%ZJ"4aK*UV%34
W"#$b(r=$GNRMC,041119.00,A,0419.92370,S,05539.92622,E,0.007,,230525,,,A*7F
$GNVTG,,T,,M,0.007,N,0.014,K,A*3F
$GNGNS,041119.00,0419.92370,S,05539.92622,E,AA,18,0.57,11.9,-47.6,,*67
$GNGGA,041119.00,0419.92370,S,05539.92622,E,1,12,0.57,11.9,M,-47.6,M,,*47
$GNGSA,A,3,24,20,05,13,15,22,06,12,14,18,,,1.11,0.57,0.96*1E
$GNGSA,A,3,86,74,75,87,85,73,71,72,,,,,1.11,0.57,0.96*1A
$GPGSV,5,1,17,05,46,159,43,06,09,028,30,11,41,020,,12,18,349,32*72
$GPGSV,5,2,17,13,27,173,38,14,10,114,34,15,27,210,33,18,09,220,35*72
$GPGSV,5,3,17,20,52,099,45,22,21,096,40,24,60,287,42,29,11,281,*7E
$GPGSV,5,4,17,36,52,277,38,40,86,350,42,41,58,082,,49,32,274,39*7A
$GPGSV,5,5,17,50,10,089,*4A
$GLGSV,3,1,10,70,00,107,14,71,13,147,37,72,13,196,32,73,17,138,37*64
$GLGSV,3,2,10,74,52,097,34,75,42,012,20,85,16,006,22,86,51,308,37*64
$GLGSV,3,3,10,87,35,244,34,,,,36*5D
$GNGLL,0419.92370,S,05539.92622,E,041119.00,A,A*62
$GNGRS,041119.00,1,-1.5,-0.3,0.5,1.1,0.6,0.1,-2.9,1.7,0.0,2.4,,*7F
$GNGRS,041119.00,1,5.2,12.7,1.5,12.4,9.0,-1.7,-1.4,-10.5,,,,*4F
$GNGST,041119.00,31,,,,1.2,0.96,2.3*7A
$GNZDA,041119.00,23,05,2025,00,00*75
$GNGBS,041119.00,1.2,1.0,2.3,,,,*50
$GNTXT,01,01,01,More than 100 frame errors, UART RX was disabled*70
b0X,+.)) ]&!
r
 "-4c(`*<n{&4*V^:R' 
Y%]4FkGG%lH tI%^J"4aK*UTV%348W"#$b,r%$GNRMC,041120.00,A,0419.92372,S,05539.92623,E,0.032,,230525,,,A*70
$GNVTG,,T,,M,0.032,N,0.059,K,A*30
$GNGNS,041120.00,0419.92372,S,05539.92623,E,AA,18,0.57,11.9,-47.6,,*6E
$GNGGA,041120.00,0419.92372,S,05539.92623,E,1,12,0.57,11.9,M,-47.6,M,,*4E
$GNGSA,A,3,24,20,05,13,15,22,06,12,14,18,,,1.11,0.57,0.96*1E
$GNGSA,A,3,86,74,75,87,85,73,71,72,,,,,1.11,0.57,0.96*1A
$GPGSV,5,1,17,05,46,159,43,06,09,028,30,11,41,020,,12,18,349,32*72
$GPGSV,5,2,17,13,27,173,38,14,10,114,33,15,27,210,32,18,09,220,34*75
$GPGSV,5,3,17,20,52,099,45,22,21,096,40,24,60,287,42,29,11,281,*7E
$GPGSV,5,4,17,36,52,277,38,40,86,350,42,41,58,082,,49,32,274,39*7A
$GPGSV,5,5,17,50,10,089,*4A
$GLGSV,3,1,10,70,00,107,14,71,13,147,37,72,13,196,32,73,17,138,37*64
$GLGSV,3,2,10,74,52,097,34,75,42,012,20,85,16,006,22,86,51,308,37*64
$GLGSV,3,3,10,87,35,244,34,,,,36*5D
$GNGLL,0419.92372,S,05539.92623,E,041120.00,A,A*6B
$GNGRS,041120.00,1,-1.5,-0.6,0.4,1.3,2.1,-0.1,-3.4,1.3,2.1,5.2,,*51
$GNGRS,041120.00,1,3.1,12.2,1.5,4.3,8.5,-1.6,-1.5,-11.6,,,,*73
$GNGST,041120.00,31,,,,1.2,0.96,2.3*70
$GNZDA,041120.00,23,05,2025,00,00*7F
$GNGBS,041120.00,1.2,1.0,2.3,,,,*5A
$GNTXT,01,01,01,More than 100 frame errors, UART RX was disabled*70
b0Xx0+.4) ]&!
r8
 u"-4c(`*<{&4*V^:R' 
Y%]F
kG%KH I%nJ"4aK*U{V%342W"#$fbx0rXU$GNRMC,041121.00,A,0419.92375,S,05539.92623,E,0.026,,230525,,,A*73
$GNVTG,,T,,M,0.026,N,0.049,K,A*34
$GNGNS,041121.00,0419.92375,S,05539.92623,E,AA,18,0.57,11.9,-47.6,,*68
$GNGGA,041121.00,0419.92375,S,05539.92623,E,1,12,0.57,11.9,M,-47.6,M,,*48
$GNGSA,A,3,24,20,05,13,15,22,06,12,14,18,,,1.11,0.57,0.96*1E
$GNGSA,A,3,86,74,75,87,85,73,71,72,,,,,1.11,0.57,0.96*1A
$GPGSV,5,1,17,05,46,159,43,06,09,028,30,11,41,020,,12,18,349,32*72
$GPGSV,5,2,17,13,27,173,38,14,10,114,33,15,27,210,32,18,09,220,34*75
$GPGSV,5,3,17,20,52,099,45,22,21,096,40,24,60,287,42,29,11,281,*7E
$GPGSV,5,4,17,36,52,277,38,40,86,350,42,41,58,082,,49,32,274,39*7A
$GPGSV,5,5,17,50,10,089,*4A
$GLGSV,3,1,10,70,00,107,10,71,13,147,37,72,13,196,32,73,17,138,37*60
$GLGSV,3,2,10,74,52,097,34,75,42,012,21,85,16,006,21,86,51,308,37*66
$GLGSV,3,3,10,87,35,244,34,,,,36*5D
$GNGLL,0419.92375,S,05539.92623,E,041121.00,A,A*6D
$GNGRS,041121.00,1,-1.2,-0.4,0.5,1.3,3.7,0.0,-3.3,-4.9,0.6,4.7,,*5B
$GNGRS,041121.00,1,3.1,12.3,2.7,3.9,8.9,-1.5,-1.8,-8.1,,,,*42
$GNGST,041121.00,31,,,,1.2,0.97,2.3*70
$GNZDA,041121.00,23,05,2025,00,00*7E
$GNGBS,041121.00,1.2,1.0,2.3,,,,*5B
$GNTXT,01,01,01,More than 100 frame errors, UART RX was disabled*70
b0X`4+.5) ]'r"
r4
="#-4c(`*<{&4*V^:R' 
Y%]Fk>G%4H zI%J"4aK*UV%34]W"#$b`4r/$GNRMC,041122.00,A,0419.92377,S,05539.92624,E,0.005,,230525,,,A*74
$GNVTG,,T,,M,0.005,N,0.009,K,A*31
$GNGNS,041122.00,0419.92377,S,05539.92624,E,AA,18,0.57,11.9,-47.6,,*6E
$GNGGA,041122.00,0419.92377,S,05539.92624,E,1,12,0.57,11.9,M,-47.6,M,,*4E
$GNGSA,A,3,24,20,05,13,15,22,06,12,14,18,,,1.11,0.57,0.96*1E
$GNGSA,A,3,86,74,75,87,85,73,71,72,,,,,1.11,0.57,0.96*1A
$GPGSV,5,1,17,05,46,159,43,06,09,028,30,11,41,020,,12,18,349,32*72
$GPGSV,5,2,17,13,27,173,39,14,10,114,34,15,27,210,31,18,09,220,34*70
$GPGSV,5,3,17,20,52,099,45,22,21,096,40,24,60,287,42,29,11,281,*7E
$GPGSV,5,4,17,36,52,277,38,40,86,350,42,41,58,082,,49,32,274,39*7A
$GPGSV,5,5,17,50,10,089,*4A
$GLGSV,3,1,10,70,00,107,11,71,13,147,37,72,13,196,32,73,17,138,37*61
$GLGSV,3,2,10,74,52,097,34,75,42,012,21,85,16,006,22,86,51,308,37*65
$GLGSV,3,3,10,87,35,244,34,,,,36*5D
$GNGLL,0419.92377,S,05539.92624,E,041122.00,A,A*6B
$GNGRS,041122.00,1,-1.2,-0.3,0.5,1.1,3.2,-0.1,-2.7,-2.4,0.5,2.9,,*71
$GNGRS,041122.00,1,3.5,12.4,1.5,1.9,6.8,-1.2,-2.0,-9.0,,,,*42
$GNGST,041122.00,31,,,,1.2,0.97,2.3*73
$GNZDA,041122.00,23,05,2025,00,00*7D
$GNGBS,041122.00,1.2,1.0,2.3,,,,*58
$GNTXT,01,01,01,More than 100 frame errors, UART RX was disabled*70
b0XH8+.8) ]'o"
r
!-4c(`*<{&4*V^:R' 
Y%]FkG%CH!dI%J"4aK*U/V%34vW!#%bH8r"$GNRMC,041123.00,A,0419.92380,S,05539.92625,E,0.029,,230525,,,A*72
$GNVTG,,T,,M,0.029,N,0.054,K,A*37
$GNGNS,041123.00,0419.92380,S,05539.92625,E,AA,18,0.57,11.9,-47.6,,*66
$GNGGA,041123.00,0419.92380,S,05539.92625,E,1,12,0.57,11.9,M,-47.6,M,,*46
$GNGSA,A,3,24,20,05,13,15,22,06,12,14,18,,,1.11,0.57,0.96*1E
$GNGSA,A,3,86,74,75,87,85,73,71,72,,,,,1.11,0.57,0.96*1A
$GPGSV,5,1,17,05,46,159,43,06,09,028,30,11,41,020,,12,18,349,32*72
$GPGSV,5,2,17,13,27,173,39,14,10,114,34,15,27,210,30,18,09,220,33*76
$GPGSV,5,3,17,20,52,099,45,22,21,096,40,24,60,287,42,29,11,281,*7E
$GPGSV,5,4,17,36,52,277,38,40,86,350,42,41,58,082,,49,32,274,39*7A
$GPGSV,5,5,17,50,10,089,*4A
$GLGSV,3,1,10,70,00,107,12,71,13,147,37,72,13,196,33,73,17,138,37*63
$GLGSV,3,2,10,74,52,097,34,75,42,012,21,85,16,006,22,86,51,308,37*65
$GLGSV,3,3,10,87,35,244,33,,,,37*5B
$GNGLL,0419.92380,S,05539.92625,E,041123.00,A,A*63
$GNGRS,041123.00,1,-1.3,-0.3,0.6,1.1,4.0,-0.2,-2.4,-0.5,-3.5,4.6,,*53
$GNGRS,041123.00,1,3.7,12.8,1.7,6.5,5.6,-1.1,-1.9,-9.2,,,,*42
$GNGST,041123.00,31,,,,1.2,0.98,2.3*7D
$GNZDA,041123.00,23,05,2025,00,00*7C
$GNGBS,041123.00,1.2,1.0,2.3,,,,*59
$GNTXT,01,01,01,More than 100 frame errors, UART RX was disabled*70
b0X0<+.3) ]p'f#
r7
}!?,4c(`*<w{&4*V^:R' 
Y%]Fk4G%5H!I%{J"4aSK*UV%34eW!#%b0<r$GNRMC,041124.00,A,0419.92382,S,05539.92626,E,0.004,,230525,,,A*7B
$GNVTG,,T,,M,0.004,N,0.008,K,A*31
$GNGNS,041124.00,0419.92382,S,05539.92626,E,AA,18,0.57,11.9,-47.6,,*60
$GNGGA,041124.00,0419.92382,S,05539.92626,E,1,12,0.57,11.9,M,-47.6,M,,*40
$GNGSA,A,3,24,20,05,13,15,22,06,12,14,18,,,1.11,0.57,0.96*1E
$GNGSA,A,3,86,74,75,87,85,73,71,72,,,,,1.11,0.57,0.96*1A
$GPGSV,5,1,17,05,46,159,43,06,09,028,30,11,41,020,,12,18,349,32*72
$GPGSV,5,2,17,13,27,173,39,14,10,114,35,15,27,210,28,18,09,220,33*7E
$GPGSV,5,3,17,20,52,099,44,22,21,096,40,24,60,287,42,29,11,281,*7F
$GPGSV,5,4,17,36,52,277,38,40,86,350,42,41,58,082,,49,32,274,39*7A
$GPGSV,5,5,17,50,10,089,*4A
$GLGSV,3,1,10,70,00,107,13,71,13,147,37,72,13,196,33,73,17,138,37*62
$GLGSV,3,2,10,74,52,097,34,75,42,012,22,85,16,006,22,86,51,308,37*66
$GLGSV,3,3,10,87,35,244,33,,,,37*5B
$GNGLL,0419.92382,S,05539.92626,E,041124.00,A,A*65
$GNGRS,041124.00,1,-1.4,-0.4,0.5,1.0,3.8,0.0,-2.3,-1.4,-2.0,3.2,,*76
$GNGRS,041124.00,1,3.6,13.6,1.4,9.9,6.9,-1.3,-2.0,-10.9,,,,*7C
$GNGST,041124.00,26,,,,1.2,0.98,2.3*7C
$GNZDA,041124.00,23,05,2025,00,00*7B
$GNGBS,041124.00,1.2,1.0,2.3,,,,*5E
$GNTXT,01,01,01,More than 100 frame errors, UART RX was disabled*70
b0X@+.&)](m#
r
 N,4c(`
*<z{%4*V^:R& 
Y$]FkYG%1H!uI%rJ"4aK*UV%34iW!#|%rb@r$GNRMC,041125.00,A,0419.92383,S,05539.92626,E,0.028,,230525,,,A*75
$GNVTG,,T,,M,0.028,N,0.051,K,A*33
$GNGNS,041125.00,0419.92383,S,05539.92626,E,AA,18,0.57,11.9,-47.6,,*60
$GNGGA,041125.00,0419.92383,S,05539.92626,E,1,12,0.57,11.9,M,-47.6,M,,*40
$GNGSA,A,3,24,20,05,13,15,22,06,12,14,18,,,1.11,0.57,0.96*1E
$GNGSA,A,3,86,74,75,87,85,73,71,72,,,,,1.11,0.57,0.96*1A
$GPGSV,5,1,17,05,46,159,43,06,09,028,30,11,41,020,,12,18,349,31*71
$GPGSV,5,2,17,13,27,173,40,14,10,114,35,15,27,210,28,18,09,220,32*71
$GPGSV,5,3,17,20,52,099,44,22,21,096,40,24,60,287,42,29,11,281,*7F
$GPGSV,5,4,17,36,52,277,37,40,86,350,42,41,58,082,,49,32,274,38*74
$GPGSV,5,5,17,50,10,089,*4A
$GLGSV,3,1,10,70,00,107,15,71,13,147,37,72,13,196,33,73,17,138,37*64
$GLGSV,3,2,10,74,52,097,34,75,42,012,22,85,15,006,23,86,51,308,37*64
$GLGSV,3,3,10,87,35,244,33,,,,37*5B
$GNGLL,0419.92383,S,05539.92626,E,041125.00,A,A*65
$GNGRS,041125.00,1,-1.3,-0.5,0.4,1.1,7.7,0.1,-3.6,1.5,-0.6,5.9,,*5A
$GNGRS,041125.00,1,3.6,12.1,1.6,11.5,7.6,-1.4,-2.1,-11.6,,,,*4A
$GNGST,041125.00,26,,,,1.2,0.98,2.3*7D
$GNZDA,041125.00,23,05,2025,00,00*7A
$GNGBS,041125.00,1.2,1.0,2.3,,,,*5F
$GNTXT,01,01,01,More than 100 frame errors, UART RX was disabled*70
b0XD+.7)]m(t"
rO
 K,4c(`#*<x{%4+V^:R& 
Y$]F
kVG%DH!3I%hJ"4aK*UhV%25aW!#%(cbDrZ$GNRMC,041126.00,A,0419.92386,S,05539.92627,E,0.004,,230525,,,A*7C
$GNVTG,,T,,M,0.004,N,0.007,K,A*3E
$GNGNS,041126.00,0419.92386,S,05539.92627,E,AA,18,0.57,11.9,-47.6,,*67
$GNGGA,041126.00,0419.92386,S,05539.92627,E,1,12,0.57,11.9,M,-47.6,M,,*47
$GNGSA,A,3,24,20,05,13,15,22,06,12,14,18,,,1.11,0.57,0.96*1E
$GNGSA,A,3,86,74,75,87,85,73,71,72,,,,,1.11,0.57,0.96*1A
$GPGSV,5,1,17,05,46,159,43,06,09,028,31,11,41,020,,12,18,349,31*70
$GPGSV,5,2,17,13,27,173,40,14,10,114,34,15,27,210,29,18,09,220,32*71
$GPGSV,5,3,17,20,52,099,44,22,21,096,40,24,60,287,42,29,11,281,*7F
$GPGSV,5,4,17,36,52,277,37,40,86,350,43,41,58,082,,49,32,274,38*75
$GPGSV,5,5,17,50,10,089,*4A
$GLGSV,3,1,10,70,00,107,10,71,13,147,37,72,13,196,33,73,17,138,37*61
$GLGSV,3,2,10,74,52,097,34,75,42,012,23,85,15,006,22,86,50,309,37*64
$GLGSV,3,3,10,87,35,244,33,,,,37*5B
$GNGLL,0419.92386,S,05539.92627,E,041126.00,A,A*62
$GNGRS,041126.00,1,-1.4,-0.5,0.5,1.2,7.5,0.4,-5.4,3.6,-1.8,5.9,,*51
$GNGRS,041126.00,1,3.5,12.5,1.5,14.6,6.2,-1.5,-1.9,-9.7,,,,*7C
$GNGST,041126.00,26,,,,1.2,0.99,2.3*7F
$GNZDA,041126.00,23,05,2025,00,00*79
$GNGBS,041126.00,1.2,1.0,2.3,,,,*5C
$GNTXT,01,01,01,More than 100 frame errors, UART RX was disabled*70
b0XG+.)) ]~(#
r
} ,4c(`)<{&4*V^:R& 
Y$]F
kkG%?H ?I%KJ"4aK*~UV%25@W"#1%bGr}f$GNRMC,041127.00,A,0419.92386,S,05539.92626,E,0.010,,230525,,,A*79
$GNVTG,,T,,M,0.010,N,0.018,K,A*35
$GNGNS,041127.00,0419.92386,S,05539.92626,E,AA,18,0.57,11.9,-47.6,,*67
$GNGGA,041127.00,0419.92386,S,05539.92626,E,1,12,0.57,11.9,M,-47.6,M,,*47
$GNGSA,A,3,24,20,05,13,15,22,06,12,14,18,,,1.11,0.57,0.96*1E
$GNGSA,A,3,86,74,75,87,85,73,71,72,,,,,1.11,0.57,0.96*1A
$GPGSV,5,1,17,05,46,159,43,06,09,028,30,11,41,020,,12,18,349,32*72
$GPGSV,5,2,17,13,27,173,40,14,10,114,35,15,27,210,31,18,09,220,32*79
$GPGSV,5,3,17,20,52,099,44,22,21,096,40,24,60,287,41,29,11,281,*7C
$GPGSV,5,4,17,36,52,277,38,40,86,350,42,41,58,082,,49,32,274,38*7B
