$GNTXT,01,01,01,More than 100 frame errors, UART RX was disabled*70
b0X0&'^S

sF
:4`aD#=|{4&V^!:R 
Y^FiNGHIFJ4eK%,UV 18W#?9brhc$GNRMC,041526.00,A,0419.92060,S,05539.91598,E,0.088,,230525,,,D*76
$GNVTG,,T,,M,0.088,N,0.164,K,D*3B
$GNGNS,041526.00,0419.92060,S,05539.91598,E,DA,18,0.58,14.1,-47.6,,0000*6B
$GNGGA,041526.00,0419.92060,S,05539.91598,E,2,12,0.58,14.1,M,-47.6,M,,0000*4D
$GNGSA,A,3,24,20,05,13,15,22,06,12,14,18,,,1.12,0.58,0.96*12
$GNGSA,A,3,86,74,75,87,85,73,71,72,,,,,1.12,0.58,0.96*16
$GPGSV,5,1,17,05,48,157,29,06,07,028,38,11,39,019,,12,20,350,21*7C
$GPGSV,5,2,17,13,26,171,30,14,10,115,19,15,27,208,29,18,10,220,27*7E
$GPGSV,5,3,17,20,52,096,31,22,21,097,31,24,61,284,35,29,11,283,*75
$GPGSV,5,4,17,36,52,277,27,40,86,350,38,41,58,082,33,49,32,274,*73
$GPGSV,5,5,17,50,10,089,*4A
$GLGSV,3,1,10,70,00,105,09,71,13,146,19,72,14,195,16,73,16,139,21*62
$GLGSV,3,2,10,74,52,101,23,75,44,013,37,85,14,007,28,86,49,312,32*63
$GLGSV,3,3,10,87,35,247,25,,,,13*59
$GNGLL,0419.92060,S,05539.91598,E,041526.00,A,D*6C
$GNGRS,041526.00,1,-1.3,2.0,-3.5,-1.7,-7.8,0.7,0.2,4.9,-7.0,3.1,,*7B
$GNGRS,041526.00,1,4.7,12.1,0.2,9.5,-0.9,-1.9,-26.8,4.5,,,,*7A
$GNGST,041526.00,35,,,,1.1,1.4,2.5*49
$GNZDA,041526.00,23,05,2025,00,00*7D
$GNGBS,041526.00,1.1,1.4,2.5,,,,*59
$GNTXT,01,01,01,More than 100 frame errors, UART RX was disabled*70
b0Xh0Y*'^z"R

tw!!
!4`a%=a{4(V^$:R 
Y^hF
iGHIJ4eK(,U mV#18W#~
bhrk$GNRMC,041527.00,A,0419.92059,S,05539.91599,E,0.021,,230525,,,D*7F
$GNVTG,,T,,M,0.021,N,0.039,K,D*31
$GNGNS,041527.00,0419.92059,S,05539.91599,E,DA,18,0.58,14.1,-47.6,,0000*61
$GNGGA,041527.00,0419.92059,S,05539.91599,E,2,12,0.58,14.1,M,-47.6,M,,0000*47
$GNGSA,A,3,24,20,05,13,15,22,06,12,14,18,,,1.12,0.58,0.96*12
$GNGSA,A,3,86,74,75,87,85,73,71,72,,,,,1.12,0.58,0.96*16
$GPGSV,5,1,17,05,48,157,29,06,07,028,42,11,39,019,,12,20,350,26*76
$GPGSV,5,2,17,13,26,171,34,14,10,116,22,15,27,208,33,18,10,220,33*7F
$GPGSV,5,3,17,20,52,096,33,22,21,097,31,24,61,284,37,29,11,283,*75
$GPGSV,5,4,17,36,52,277,27,40,86,350,40,41,58,082,36,49,32,274,*79
$GPGSV,5,5,17,50,10,089,*4A
$GLGSV,3,1,10,70,00,105,10,71,13,146,18,72,14,195,15,73,16,139,25*6C
$GLGSV,3,2,10,74,52,101,22,75,44,013,40,85,14,007,32,86,49,312,35*6E
$GLGSV,3,3,10,87,35,247,28,,,,10*57
$GNGLL,0419.92059,S,05539.91599,E,041527.00,A,D*66
$GNGRS,041527.00,1,-1.6,1.6,-1.7,-1.7,-5.1,0.3,-0.1,3.8,-6.5,-0.4,,*72
$GNGRS,041527.00,1,2.2,11.6,0.3,8.9,-6.6,-5.8,-26.0,2.5,,,,*72
$GNGST,041527.00,33,,,,1.2,1.5,2.6*4F
$GNZDA,041527.00,23,05,2025,00,00*7C
$GNGBS,041527.00,1.2,1.5,2.6,,,,*59
$GNTXT,01,01,01,More than 100 frame errors, UART RX was disabled*70
b0LP&0''^mm

t#!
$4`0"a2'=q{"4)V^$:R 
Y^FiaGHMI 'J4eK*,U!V%18?W!#bPro0$GNRMC,041528.00,A,0419.92062,S,05539.91604,E,0.073,,230525,,,D*78
$GNVTG,,T,,M,0.073,N,0.135,K,D*3B
$GNGNS,041528.00,0419.92062,S,05539.91604,E,DA,18,0.58,14.1,-47.6,,0000*61
$GNGGA,041528.00,0419.92062,S,05539.91604,E,2,12,0.58,14.1,M,-47.6,M,,0000*47
$GNGSA,A,3,24,20,05,13,15,22,06,12,14,18,,,1.12,0.58,0.96*12
$GNGSA,A,3,86,74,75,87,85,73,71,72,,,,,1.12,0.58,0.96*16
$GPGSV,5,1,17,05,48,157,38,06,07,028,39,11,39,019,,12,20,350,27*7B
$GPGSV,5,2,17,13,26,171,25,14,10,116,29,15,27,208,35,18,10,220,33*72
$GPGSV,5,3,17,20,52,096,36,22,21,097,34,24,61,284,39,29,11,283,*7B
$GPGSV,5,4,17,36,52,277,34,40,86,350,41,41,58,082,36,49,32,274,*7A
$GPGSV,5,5,17,50,10,089,*4A
$GLGSV,3,1,09,70,00,105,11,71,13,146,28,72,14,195,20,73,16,139,32*66
$GLGSV,3,2,09,74,52,101,29,75,44,013,42,85,14,007,33,86,49,312,37*6C
$GLGSV,3,3,09,87,35,247,33*54
$GNGLL,0419.92062,S,05539.91604,E,041528.00,A,D*66
$GNGRS,041528.00,1,-1.4,0.5,1.7,-1.5,-5.0,0.5,-0.1,3.7,-8.7,-0.1,,*53
$GNGRS,041528.00,1,0.6,11.5,0.2,7.4,-3.8,-2.2,-25.3,0.8,,,,*72
$GNGST,041528.00,25,,,,1.1,1.4,2.5*46
$GNZDA,041528.00,23,05,2025,00,00*73
$GNGBS,041528.00,1.1,1.4,2.5,,,,*57
$GNTXT,01,01,01,More than 100 frame errors, UART RX was disabled*70
b0L8(0&'^ 

t@#?!
'4`J%a(={%4,V^%:R 
Y"^jFiJGHI"J4eK+,U"V#18W #nb8rsn$GNRMC,041529.00,A,0419.92060,S,05539.91610,E,0.039,,230525,,,D*70
$GNVTG,,T,,M,0.039,N,0.072,K,D*37
$GNGNS,041529.00,0419.92060,S,05539.91610,E,DA,18,0.57,14.2,-47.6,,0000*6B
$GNGGA,041529.00,0419.92060,S,05539.91610,E,2,12,0.57,14.2,M,-47.6,M,,0000*4D
$GNGSA,A,3,24,20,05,13,15,22,06,12,14,18,,,1.11,0.57,0.95*1D
$GNGSA,A,3,86,74,75,87,85,73,71,72,,,,,1.11,0.57,0.95*19
$GPGSV,5,1,17,05,48,157,40,06,07,028,38,11,39,019,,12,20,350,26*74
$GPGSV,5,2,17,13,26,171,32,14,10,116,20,15,27,208,35,18,10,220,33*7D
$GPGSV,5,3,17,20,52,096,39,22,21,097,37,24,61,284,40,29,11,283,*79
$GPGSV,5,4,17,36,52,277,37,40,86,350,44,41,58,082,37,49,32,274,*7D
$GPGSV,5,5,17,50,10,089,*4A
$GLGSV,3,1,09,70,00,105,09,71,13,146,29,72,14,195,22,73,16,139,34*6A
$GLGSV,3,2,09,74,52,101,31,75,44,013,43,85,14,007,34,86,49,312,35*61
$GLGSV,3,3,09,87,35,247,32*55
$GNGLL,0419.92060,S,05539.91610,E,041529.00,A,D*60
$GNGRS,041529.00,1,-1.0,0.7,0.0,-3.7,-7.0,-0.3,-0.5,5.0,-7.0,2.5,,*5D
$GNGRS,041529.00,1,6.5,15.5,0.0,8.8,-0.3,-2.3,-23.8,2.0,,,,*7D
$GNGST,041529.00,26,,,,1.1,1.4,2.5*44
$GNZDA,041529.00,23,05,2025,00,00*72
$GNGBS,041529.00,1.1,1.4,2.5,,,,*56
$GNTXT,01,01,01,More than 100 frame errors, UART RX was disabled*70
b0L (0&'^m!

t#"
&4`s&a(={%4+V^%:R 
Y!^KF
i"GH1I!J4eK*,U"V$18W#sb rwF$GNRMC,041530.00,A,0419.92054,S,05539.91609,E,0.034,,230525,,,D*7A
$GNVTG,,T,,M,0.034,N,0.064,K,D*3D
$GNGNS,041530.00,0419.92054,S,05539.91609,E,DA,18,0.57,14.1,-47.6,,0000*6F
$GNGGA,041530.00,0419.92054,S,05539.91609,E,2,12,0.57,14.1,M,-47.6,M,,0000*49
$GNGSA,A,3,24,20,05,13,15,22,06,12,14,18,,,1.11,0.57,0.95*1D
$GNGSA,A,3,86,74,75,87,85,73,71,72,,,,,1.11,0.57,0.95*19
$GPGSV,5,1,17,05,48,157,40,06,07,028,38,11,39,019,,12,20,350,26*74
$GPGSV,5,2,17,13,26,171,33,14,10,116,22,15,27,208,35,18,10,220,34*79
$GPGSV,5,3,17,20,52,096,38,22,21,097,38,24,61,284,40,29,11,283,*77
$GPGSV,5,4,17,36,52,277,37,40,86,350,43,41,58,082,37,49,32,274,*7A
$GPGSV,5,5,17,50,10,089,*4A
$GLGSV,3,1,09,70,00,105,10,71,13,146,28,72,14,195,23,73,16,139,33*65
$GLGSV,3,2,09,74,52,101,30,75,44,013,42,85,14,007,34,86,49,312,36*62
$GLGSV,3,3,09,87,35,247,31*56
$GNGLL,0419.92054,S,05539.91609,E,041530.00,A,D*67
$GNGRS,041530.00,1,-0.9,-1.4,-0.9,-0.8,-5.8,0.3,-0.4,3.6,-6.0,-0.6,,*51
$GNGRS,041530.00,1,4.0,9.2,0.2,8.0,-0.3,-3.4,-20.2,0.5,,,,*4A
$GNGST,041530.00,22,,,,1.1,1.3,2.4*4E
$GNZDA,041530.00,23,05,2025,00,00*7A
$GNGBS,041530.00,1.1,1.3,2.4,,,,*58
$GNTXT,01,01,01,More than 100 frame errors, UART RX was disabled*70
b0L(0Q%'^g!\

ti$"'4`E&a)={%4+V^&:R 
Y!^QF
ilGHI!J4eK*,U#V$189W#OObr{v$GNRMC,041531.00,A,0419.92054,S,05539.91615,E,0.023,,230525,,,D*70
$GNVTG,,T,,M,0.023,N,0.042,K,D*3F
$GNGNS,041531.00,0419.92054,S,05539.91615,E,DA,18,0.57,14.2,-47.6,,0000*60
$GNGGA,041531.00,0419.92054,S,05539.91615,E,2,12,0.57,14.2,M,-47.6,M,,0000*46
$GNGSA,A,3,24,20,05,13,15,22,06,12,14,18,,,1.11,0.57,0.95*1D
$GNGSA,A,3,86,74,75,87,85,73,71,72,,,,,1.11,0.57,0.95*19
$GPGSV,5,1,17,05,48,157,40,06,07,028,37,11,39,019,,12,20,350,26*7B
$GPGSV,5,2,17,13,26,171,33,14,10,116,25,15,27,208,36,18,11,221,34*7D
$GPGSV,5,3,17,20,52,096,39,22,21,097,38,24,61,284,41,29,11,283,*77
$GPGSV,5,4,17,36,52,277,37,40,86,350,43,41,58,082,38,49,32,274,*75
$GPGSV,5,5,17,50,10,089,*4A
$GLGSV,3,1,09,70,00,105,10,71,13,146,28,72,14,195,23,73,16,139,33*65
$GLGSV,3,2,09,74,52,101,30,75,44,013,42,85,14,007,35,86,49,312,36*63
$GLGSV,3,3,09,87,35,247,31*56
$GNGLL,0419.92054,S,05539.91615,E,041531.00,A,D*6B
$GNGRS,041531.00,1,-0.5,0.7,0.8,0.9,-4.8,-0.5,-0.1,3.6,-4.1,1.6,,*73
$GNGRS,041531.00,1,0.6,8.0,0.2,5.9,1.7,-2.9,-20.4,-0.6,,,,*42
$GNGST,041531.00,21,,,,1.1,1.3,2.4*4C
$GNZDA,041531.00,23,05,2025,00,00*7B
$GNGBS,041531.00,1.1,1.3,2.4,,,,*59
$GNTXT,01,01,01,More than 100 frame errors, UART RX was disabled*70
b0L'0,&'^!

t[$)"'4`]&a)={%4,V^&:R 
Y!^F
i`GH3I!J4eVK+,U#V$18W#;br$GNRMC,041532.00,A,0419.92058,S,05539.91625,E,0.028,,230525,,,D*77
$GNVTG,,T,,M,0.028,N,0.052,K,D*35
$GNGNS,041532.00,0419.92058,S,05539.91625,E,DA,18,0.57,14.5,-47.6,,0000*6B
$GNGGA,041532.00,0419.92058,S,05539.91625,E,2,12,0.57,14.5,M,-47.6,M,,0000*4D
$GNGSA,A,3,24,20,05,13,15,22,06,12,14,18,,,1.11,0.57,0.95*1D
$GNGSA,A,3,86,74,75,87,85,73,71,72,,,,,1.11,0.57,0.95*19
$GPGSV,5,1,17,05,48,157,39,06,07,028,38,11,39,019,,12,20,350,26*7A
$GPGSV,5,2,17,13,26,171,33,14,10,116,25,15,27,208,36,18,11,221,34*7D
$GPGSV,5,3,17,20,52,096,39,22,21,097,38,24,61,284,41,29,11,283,*77
$GPGSV,5,4,17,36,52,277,37,40,86,350,44,41,58,082,38,49,32,274,*72
$GPGSV,5,5,17,50,10,089,*4A
$GLGSV,3,1,09,70,00,105,10,71,13,146,29,72,14,195,24,73,16,139,33*63
$GLGSV,3,2,09,74,52,101,31,75,44,013,43,85,14,007,35,86,49,312,36*63
$GLGSV,3,3,09,87,35,247,31*56
$GNGLL,0419.92058,S,05539.91625,E,041532.00,A,D*67
$GNGRS,041532.00,1,-0.6,0.9,3.0,-0.9,-4.7,0.1,0.0,2.0,-4.2,1.3,,*50
$GNGRS,041532.00,1,0.0,6.0,0.2,2.9,-0.1,-5.0,-19.2,-2.1,,,,*63
$GNGST,041532.00,21,,,,1.0,1.2,2.3*48
$GNZDA,041532.00,23,05,2025,00,00*78
$GNGBS,041532.00,1.0,1.2,2.3,,,,*5D
$GNTXT,01,01,01,More than 100 frame errors, UART RX was disabled*70
b0L'0C&'^O!

td$[#2'4_&a)={%4+V^&:R 
Y!^)FiGH)I cJ4eZK),U#V#18W#gbrm7$GNRMC,041533.00,A,0419.92058,S,05539.91627,E,0.023,,230525,,,D*7F
$GNVTG,,T,,M,0.023,N,0.043,K,D*3E
$GNGNS,041533.00,0419.92058,S,05539.91627,E,DA,18,0.57,14.5,-47.6,,0000*68
$GNGGA,041533.00,0419.92058,S,05539.91627,E,2,12,0.57,14.5,M,-47.6,M,,0000*4E
$GNGSA,A,3,24,20,05,13,15,22,06,12,14,18,,,1.11,0.57,0.95*1D
$GNGSA,A,3,86,74,75,87,85,73,71,72,,,,,1.11,0.57,0.95*19
$GPGSV,5,1,17,05,48,157,39,06,07,028,38,11,39,019,,12,20,350,25*79
$GPGSV,5,2,17,13,26,171,33,14,10,116,25,15,27,208,36,18,11,221,35*7C
$GPGSV,5,3,17,20,52,095,39,22,21,097,38,24,61,284,41,29,11,283,*74
$GPGSV,5,4,17,36,52,277,37,40,86,350,43,41,58,082,38,49,32,274,*75
$GPGSV,5,5,17,50,10,089,*4A
$GLGSV,3,1,09,70,00,105,13,71,13,146,29,72,14,195,24,73,16,139,32*61
$GLGSV,3,2,09,74,52,101,31,75,44,013,41,85,14,007,35,86,49,312,35*62
$GLGSV,3,3,09,87,35,247,31*56
$GNGLL,0419.92058,S,05539.91627,E,041533.00,A,D*64
$GNGRS,041533.00,1,-0.7,-0.3,0.7,-1.1,-4.2,0.0,-0.2,3.4,-4.1,0.5,,*50
$GNGRS,041533.00,1,-0.8,3.5,0.1,11.3,-2.3,-6.7,-13.2,-2.2,,,,*71
$GNGST,041533.00,20,,,,1.0,1.2,2.3*48
$GNZDA,041533.00,23,05,2025,00,00*79
$GNGBS,041533.00,1.0,1.2,2.3,,,,*5C
$GNTXT,01,01,01,More than 100 frame errors, UART RX was disabled*70
b0L'0&'^]!

t$?#<'4_&b)={%4,V^&:R 
Y!^ F
idGHI!J4e2K+,U#V$18W#,QbrU$GNRMC,041534.00,A,0419.92058,S,05539.91628,E,0.008,,230525,,,D*7E
$GNVTG,,T,,M,0.008,N,0.014,K,D*35
$GNGNS,041534.00,0419.92058,S,05539.91628,E,DA,18,0.57,14.5,-47.6,,0000*60
$GNGGA,041534.00,0419.92058,S,05539.91628,E,2,12,0.57,14.5,M,-47.6,M,,0000*46
$GNGSA,A,3,24,20,05,13,15,22,06,12,14,18,,,1.11,0.57,0.95*1D
$GNGSA,A,3,86,74,75,87,85,73,71,72,,,,,1.11,0.57,0.95*19
$GPGSV,5,1,17,05,48,157,39,06,07,028,38,11,39,019,,12,20,350,26*7A
$GPGSV,5,2,17,13,26,171,33,14,10,116,25,15,27,208,36,18,11,221,35*7C
$GPGSV,5,3,17,20,52,095,39,22,21,098,38,24,61,284,41,29,11,283,*7B
$GPGSV,5,4,17,36,52,277,37,40,86,350,44,41,58,082,38,49,32,274,*72
$GPGSV,5,5,17,50,10,089,*4A
$GLGSV,3,1,09,70,00,105,10,71,13,146,29,72,14,195,23,73,16,139,33*64
$GLGSV,3,2,09,74,52,101,31,75,44,013,43,85,14,007,35,86,49,312,36*63
$GLGSV,3,3,09,87,35,247,31*56
$GNGLL,0419.92058,S,05539.91628,E,041534.00,A,D*6C
$GNGRS,041534.00,1,-0.5,-0.6,0.1,2.2,-4.5,-0.3,0.0,3.5,-3.4,0.6,,*7D
$GNGRS,041534.00,1,-0.6,8.2,0.1,8.1,-2.5,-0.9,-11.3,-3.3,,,,*43
$GNGST,041534.00,21,,,,1.0,1.2,2.3*4E
$GNZDA,041534.00,23,05,2025,00,00*7E
$GNGBS,041534.00,1.0,1.2,2.3,,,,*5B
$GNTXT,01,01,01,More than 100 frame errors, UART RX was disabled*70
b0L'0@&
'^!

t$@";(4_&b)={%4,V^&:R 
Y!^:FiOGH^I!.J4eKK+,U#V#18W#wbr=~$GNRMC,041535.00,A,0419.92057,S,05539.91628,E,0.014,,230525,,,D*7D
$GNVTG,,T,,M,0.014,N,0.025,K,D*3A
$GNGNS,041535.00,0419.92057,S,05539.91628,E,DA,18,0.57,14.6,-47.6,,0000*6D
$GNGGA,041535.00,0419.92057,S,05539.91628,E,2,12,0.57,14.6,M,-47.6,M,,0000*4B
$GNGSA,A,3,24,20,05,13,15,22,06,12,14,18,,,1.11,0.57,0.95*1D
$GNGSA,A,3,86,74,75,87,85,73,71,72,,,,,1.11,0.57,0.95*19
$GPGSV,5,1,17,05,48,157,39,06,07,028,38,11,39,019,,12,20,350,26*7A
$GPGSV,5,2,17,13,26,171,33,14,10,116,26,15,27,208,36,18,11,221,34*7E
$GPGSV,5,3,17,20,52,095,40,22,21,098,38,24,61,284,41,29,11,283,*75
$GPGSV,5,4,17,36,52,277,37,40,86,350,44,41,58,082,38,49,32,274,*72
$GPGSV,5,5,17,50,10,089,*4A
$GLGSV,3,1,09,70,00,105,09,71,13,146,29,72,14,195,23,73,16,139,33*6C
$GLGSV,3,2,09,74,52,101,31,75,44,013,43,85,14,007,35,86,49,312,35*60
$GLGSV,3,3,09,87,35,247,31*56
$GNGLL,0419.92057,S,05539.91628,E,041535.00,A,D*62
$GNGRS,041535.00,1,-0.3,-0.5,0.6,-0.7,-4.5,-0.2,0.1,4.0,-3.8,0.6,,*5A
$GNGRS,041535.00,1,-0.4,3.3,0.1,9.0,-2.4,-2.1,-10.8,-4.2,,,,*4D
$GNGST,041535.00,21,,,,1.0,1.1,2.2*4D
$GNZDA,041535.00,23,05,2025,00,00*7F
$GNGBS,041535.00,1.0,1.1,2.2,,,,*58
$GNTXT,01,01,01,More than 100 frame errors, UART RX was disabled*70
b0L(0a& '^k!

t%:#5'4_&b)={%4+V^&:R 
Y"^FiGHI J4e]K*,U"V#18W#*&br%Vo$GNRMC,041536.00,A,0419.92058,S,05539.91630,E,0.029,,230525,,,D*76
$GNVTG,,T,,M,0.029,N,0.053,K,D*35
$GNGNS,041536.00,0419.92058,S,05539.91630,E,DA,18,0.57,14.6,-47.6,,0000*68
$GNGGA,041536.00,0419.92058,S,05539.91630,E,2,12,0.57,14.6,M,-47.6,M,,0000*4E
$GNGSA,A,3,24,20,05,13,15,22,06,12,14,18,,,1.11,0.57,0.95*1D
$GNGSA,A,3,86,74,75,87,85,73,71,72,,,,,1.11,0.57,0.95*19
$GPGSV,5,1,17,05,48,157,40,06,07,028,38,11,39,019,,12,20,350,26*74
$GPGSV,5,2,17,13,26,171,33,14,10,116,25,15,27,208,37,18,11,221,35*7D
$GPGSV,5,3,17,20,52,095,39,22,21,098,38,24,61,282,41,29,11,283,*7D
$GPGSV,5,4,17,36,52,277,37,40,86,350,43,41,58,082,38,49,32,274,*75
$GPGSV,5,5,17,50,10,089,*4A
$GLGSV,3,1,09,70,00,105,09,71,13,146,30,72,14,195,24,73,16,139,32*62
$GLGSV,3,2,09,74,52,101,30,75,44,013,42,85,14,007,34,86,49,312,35*61
$GLGSV,3,3,09,87,35,247,31*56
$GNGLL,0419.92058,S,05539.91630,E,041536.00,A,D*67
$GNGRS,041536.00,1,-0.2,-0.7,1.0,-0.5,-4.5,-0.1,0.3,3.6,-5.4,0.5,,*56
$GNGRS,041536.00,1,-0.2,6.1,0.1,9.3,-2.4,-2.5,-7.6,-7.4,,,,*75
$GNGST,041536.00,20,,,,1.0,1.1,2.2*4F
$GNZDA,041536.00,23,05,2025,00,00*7C
$GNGBS,041536.00,1.0,1.1,2.2,,,,*5B
$GNTXT,01,01,01,More than 100 frame errors, UART RX was disabled*70
b0Lx(0C&#'^!

tI$[#4'4_&b)={%4,V^&:R 
Y#^F
ibGHI J4eK*,U"V#18W#a\bxr.$GNRMC,041537.00,A,0419.92059,S,05539.91633,E,0.010,,230525,,,D*7F
$GNVTG,,T,,M,0.010,N,0.018,K,D*30
$GNGNS,041537.00,0419.92059,S,05539.91633,E,DA,18,0.57,14.6,-47.6,,0000*6B
$GNGGA,041537.00,0419.92059,S,05539.91633,E,2,12,0.57,14.6,M,-47.6,M,,0000*4D
$GNGSA,A,3,24,20,05,13,15,22,06,12,14,18,,,1.11,0.57,0.95*1D
$GNGSA,A,3,86,74,75,87,85,73,71,72,,,,,1.11,0.57,0.95*19
$GPGSV,5,1,17,05,48,157,40,06,07,028,38,11,39,019,,12,20,350,26*74
$GPGSV,5,2,17,13,26,171,33,14,10,116,26,15,27,208,36,18,11,221,35*7F
$GPGSV,5,3,17,20,52,095,39,22,21,098,38,24,61,282,41,29,11,283,*7D
$GPGSV,5,4,17,36,52,277,37,40,86,350,44,41,58,082,38,49,32,274,*72
$GPGSV,5,5,17,50,10,089,*4A
$GLGSV,3,1,09,70,00,105,10,71,13,146,29,72,14,195,24,73,16,139,32*62
$GLGSV,3,2,09,74,52,101,30,75,44,013,42,85,14,007,34,86,49,312,35*61
$GLGSV,3,3,09,87,35,247,31*56
$GNGLL,0419.92059,S,05539.91633,E,041537.00,A,D*64
$GNGRS,041537.00,1,-0.8,-0.7,0.7,-0.6,-4.2,-0.4,0.3,1.3,-4.4,0.5,,*5C
$GNGRS,041537.00,1,0.1,9.7,0.0,9.0,-2.3,-0.2,-0.6,-6.0,,,,*51
$GNGST,041537.00,20,,,,0.98,1.1,2.2*7E
$GNZDA,041537.00,23,05,2025,00,00*7D
$GNGBS,041537.00,1.0,1.1,2.2,,,,*5A
$GNTXT,01,01,01,More than 100 frame errors, UART RX was disabled*70
b0L`(0,&"'^"

t$l"<'4_&b)={%4,V^&:R 
Y#^FiKGH+I~J4eK),U"V"18W#y7}b`r<$GNRMC,041538.00,A,0419.92060,S,05539.91634,E,0.004,,230525,,,D*78
$GNVTG,,T,,M,0.004,N,0.008,K,D*34
$GNGNS,041538.00,0419.92060,S,05539.91634,E,DA,18,0.57,14.6,-47.6,,0000*69
$GNGGA,041538.00,0419.92060,S,05539.91634,E,2,12,0.57,14.6,M,-47.6,M,,0000*4F
$GNGSA,A,3,24,20,05,13,15,22,06,12,14,18,,,1.11,0.57,0.95*1D
$GNGSA,A,3,86,74,75,87,85,73,71,72,,,,,1.11,0.57,0.95*19
$GPGSV,5,1,17,05,48,157,40,06,07,028,38,11,39,019,,12,20,350,25*77
$GPGSV,5,2,17,13,26,171,34,14,10,116,25,15,27,208,36,18,11,221,34*7A
$GPGSV,5,3,17,20,52,095,39,22,21,098,38,24,61,282,41,29,11,283,*7D
$GPGSV,5,4,17,36,52,277,37,40,86,350,44,41,58,082,38,49,32,274,*72
$GPGSV,5,5,17,50,10,089,*4A
$GLGSV,3,1,09,70,00,105,12,71,13,146,29,72,14,195,24,73,16,139,31*63
$GLGSV,3,2,09,74,52,101,30,75,44,013,41,85,14,007,34,86,49,312,34*63
$GLGSV,3,3,09,87,35,247,31*56
$GNGLL,0419.92060,S,05539.91634,E,041538.00,A,D*66
$GNGRS,041538.00,1,-0.6,-0.8,0.4,-0.8,-4.0,0.0,0.3,1.3,-3.0,0.6,,*74
$GNGRS,041538.00,1,0.1,9.9,0.1,8.9,-2.4,-1.3,-5.0,-7.3,,,,*5F
$GNGST,041538.00,21,,,,0.97,1.1,2.2*7F
$GNZDA,041538.00,23,05,2025,00,00*72
$GNGBS,041538.00,1.0,1.1,2.2,,,,*55
$GNTXT,01,01,01,More than 100 frame errors, UART RX was disabled*70
b0LH (0&'4'^!

t$|"/'4_&b)={%4+V^&:R 
Y#^F
i#GHI J4eCK),0U"V#18W#bH r$GNRMC,041539.00,A,0419.92060,S,05539.91635,E,0.033,,230525,,,D*7C
$GNVTG,,T,,M,0.033,N,0.061,K,D*3F
$GNGNS,041539.00,0419.92060,S,05539.91635,E,DA,18,0.57,14.6,-47.6,,0000*69
$GNGGA,041539.00,0419.92060,S,05539.91635,E,2,12,0.57,14.6,M,-47.6,M,,0000*4F
$GNGSA,A,3,24,20,05,13,15,22,06,12,14,18,,,1.11,0.57,0.95*1D
$GNGSA,A,3,86,74,75,87,85,73,71,72,,,,,1.11,0.57,0.95*19
$GPGSV,5,1,17,05,48,157,40,06,07,028,39,11,39,019,,12,20,350,26*75
$GPGSV,5,2,17,13,26,171,33,14,10,116,25,15,27,208,36,18,11,221,34*7D
$GPGSV,5,3,17,20,52,095,39,22,21,098,38,24,61,282,41,29,11,283,*7D
$GPGSV,5,4,17,36,52,277,37,40,86,350,43,41,58,082,38,49,32,274,*75
$GPGSV,5,5,17,50,10,089,*4A
$GLGSV,3,1,09,70,00,105,10,71,13,146,29,72,14,195,23,73,16,139,32*65
$GLGSV,3,2,09,74,52,101,30,75,44,013,41,85,14,007,34,86,49,312,35*62
$GLGSV,3,3,09,87,35,247,31*56
$GNGLL,0419.92060,S,05539.91635,E,041539.00,A,D*66
$GNGRS,041539.00,1,-0.5,-0.8,0.4,-0.6,-3.9,-0.4,0.5,2.0,-0.5,0.5,,*5C
$GNGRS,041539.00,1,-0.2,10.9,0.5,9.0,-2.4,-3.0,-3.5,-5.9,,,,*4E
$GNGST,041539.00,21,,,,0.96,1.1,2.1*7C
$GNZDA,041539.00,23,05,2025,00,00*73
$GNGBS,041539.00,1.0,1.1,2.1,,,,*57
$GNTXT,01,01,01,More than 100 frame errors, UART RX was disabled*70
b0L0$(0'&'^ 

t$#3'4_&b)={$4+V^&:R 
Y#^FivGHI J4e
K),*U#%V"18W#Nb0$r$GNRMC,041540.00,A,0419.92060,S,05539.91635,E,0.020,,230525,,,D*70
$GNVTG,,T,,M,0.020,N,0.037,K,D*3E
$GNGNS,041540.00,0419.92060,S,05539.91635,E,DA,18,0.57,14.6,-47.6,,0000*67
$GNGGA,041540.00,0419.92060,S,05539.91635,E,2,12,0.57,14.6,M,-47.6,M,,0000*41
$GNGSA,A,3,24,20,05,13,15,22,06,12,14,18,,,1.11,0.57,0.95*1D
$GNGSA,A,3,86,74,75,87,85,73,71,72,,,,,1.11,0.57,0.95*19
$GPGSV,5,1,17,05,48,157,40,06,07,028,39,11,39,019,,12,20,350,26*75
$GPGSV,5,2,17,13,26,171,32,14,10,116,26,15,27,208,36,18,11,221,35*7E
$GPGSV,5,3,17,20,52,095,39,22,21,098,38,24,61,282,41,29,11,283,*7D
$GPGSV,5,4,17,36,52,277,36,40,86,350,43,41,58,082,38,49,32,274,*74
$GPGSV,5,5,17,50,10,089,*4A
$GLGSV,3,1,09,70,00,105,08,71,13,146,29,72,14,195,22,73,16,139,32*6D
$GLGSV,3,2,09,74,52,101,30,75,44,013,41,85,14,007,35,86,49,312,34*62
$GLGSV,3,3,09,87,35,247,31*56
$GNGLL,0419.92060,S,05539.91635,E,041540.00,A,D*68
$GNGRS,041540.00,1,-0.4,-0.7,0.3,-0.2,-3.7,-0.7,0.4,2.7,-0.4,0.5,,*55
$GNGRS,041540.00,1,-0.3,7.8,0.4,8.5,-2.2,-3.5,-8.5,-8.8,,,,*77
$GNGST,041540.00,21,,,,0.95,1.0,2.1*70
$GNZDA,041540.00,23,05,2025,00,00*7D
$GNGBS,041540.00,1.0,1.0,2.1,,,,*58
$GNTXT,01,01,01,More than 100 frame errors, UART RX was disabled*70
b0L('09'*'^Z!

t%#.'4_&b)={$4+V^&:R 
Y"^FivGHI uJ4eK),/U#V"18W#~b(rt$GNRMC,041541.00,A,0419.92059,S,05539.91638,E,0.019,,230525,,,D*7C
$GNVTG,,T,,M,0.019,N,0.035,K,D*36
$GNGNS,041541.00,0419.92059,S,05539.91638,E,DA,18,0.57,14.7,-47.6,,0000*60
$GNGGA,041541.00,0419.92059,S,05539.91638,E,2,12,0.57,14.7,M,-47.6,M,,0000*46
$GNGSA,A,3,24,20,05,13,15,22,06,12,14,18,,,1.11,0.57,0.95*1D
$GNGSA,A,3,86,74,75,87,85,73,71,72,,,,,1.11,0.57,0.95*19
$GPGSV,5,1,17,05,48,157,39,06,07,028,39,11,39,019,,12,20,350,26*7B
$GPGSV,5,2,17,13,26,171,33,14,10,116,25,15,27,208,37,18,11,221,35*7D
$GPGSV,5,3,17,20,52,095,39,22,21,098,38,24,61,282,41,29,11,283,*7D
$GPGSV,5,4,17,36,52,277,36,40,86,350,43,41,58,082,38,49,32,274,*74
$GPGSV,5,5,17,50,10,089,*4A
$GLGSV,3,1,09,70,00,105,09,71,13,146,28,72,14,195,22,73,16,139,32*6D
$GLGSV,3,2,09,74,52,101,30,75,44,013,41,85,14,007,35,86,49,312,34*62
$GLGSV,3,3,09,87,35,247,31*56
$GNGLL,0419.92059,S,05539.91638,E,041541.00,A,D*6E
$GNGRS,041541.00,1,-0.5,-0.6,0.6,0.1,-3.8,-0.2,0.4,3.5,2.1,0.5,,*5C
$GNGRS,041541.00,1,-0.4,11.8,0.5,6.5,-2.3,-3.9,-6.1,-10.1,,,,*7E
$GNGST,041541.00,21,,,,0.95,1.0,2.1*71
$GNZDA,041541.00,23,05,2025,00,00*7C
$GNGBS,041541.00,0.9,1.0,2.1,,,,*51
$GNTXT,01,01,01,More than 100 frame errors, UART RX was disabled*70
b0L,'0:'0'^!

t^%"9'4_&b)={%4+V^&:R 
Y"^FiGfHLI _J4eK),RU#V"18W#!b,re$GNRMC,041542.00,A,0419.92058,S,05539.91641,E,0.014,,230525,,,D*7D
$GNVTG,,T,,M,0.014,N,0.025,K,D*3A
$GNGNS,041542.00,0419.92058,S,05539.91641,E,DA,18,0.57,14.7,-47.6,,0000*6C
$GNGGA,041542.00,0419.92058,S,05539.91641,E,2,12,0.57,14.7,M,-47.6,M,,0000*4A
$GNGSA,A,3,24,20,05,13,15,22,06,12,14,18,,,1.11,0.57,0.95*1D
$GNGSA,A,3,86,74,75,87,85,73,71,72,,,,,1.11,0.57,0.95*19
$GPGSV,5,1,17,05,48,157,39,06,07,028,39,11,39,019,,12,20,350,25*78
$GPGSV,5,2,17,13,26,171,33,14,10,116,25,15,27,208,37,18,11,221,34*7C
$GPGSV,5,3,17,20,52,095,39,22,21,098,38,24,61,282,41,29,11,283,*7D
$GPGSV,5,4,17,36,52,277,37,40,86,350,43,41,58,082,38,49,32,274,*75
$GPGSV,5,5,17,50,10,089,*4A
$GLGSV,3,1,09,70,00,105,09,71,13,146,28,72,14,195,22,73,16,139,32*6D
$GLGSV,3,2,09,74,52,101,30,75,44,013,41,85,14,007,35,86,49,312,34*62
$GLGSV,3,3,09,87,35,247,30*57
$GNGLL,0419.92058,S,05539.91641,E,041542.00,A,D*62
$GNGRS,041542.00,1,-0.5,-0.7,0.6,0.0,-3.8,-0.1,0.5,2.3,3.5,0.6,,*5C
$GNGRS,041542.00,1,-0.5,12.6,0.8,4.7,-2.3,-4.2,-9.2,-9.5,,,,*40
$GNGST,041542.00,22,,,,0.94,1.0,2.1*70
$GNZDA,041542.00,23,05,2025,00,00*7F
$GNGBS,041542.00,0.9,1.0,2.1,,,,*52
$GNTXT,01,01,01,More than 100 frame errors, UART RX was disabled*70
b0L/'0e'%'^ 

t0%"2'4_&b)={%4+V^&:R 
Y"^FidGH5IiJ4eK),ZU#V"18W#Xb/r}<5$GNRMC,041543.00,A,0419.92058,S,05539.91642,E,0.002,,230525,,,D*78
$GNVTG,,T,,M,0.002,N,0.004,K,D*3E
$GNGNS,041543.00,0419.92058,S,05539.91642,E,DA,18,0.57,14.8,-47.6,,0000*61
$GNGGA,041543.00,0419.92058,S,05539.91642,E,2,12,0.57,14.8,M,-47.6,M,,0000*47
$GNGSA,A,3,24,20,05,13,15,22,06,12,14,18,,,1.11,0.57,0.95*1D
$GNGSA,A,3,86,74,75,87,85,73,71,72,,,,,1.11,0.57,0.95*19
$GPGSV,5,1,17,05,48,157,39,06,07,028,39,11,39,019,,12,20,350,26*7B
$GPGSV,5,2,17,13,26,171,32,14,10,116,25,15,27,208,37,18,11,221,34*7D
$GPGSV,5,3,17,20,52,095,39,22,21,098,38,24,61,282,41,29,11,283,*7D
$GPGSV,5,4,17,36,52,277,37,40,86,350,43,41,58,082,38,49,32,274,*75
$GPGSV,5,5,17,50,10,089,*4A
$GLGSV,3,1,09,70,00,105,09,71,13,146,28,72,14,195,22,73,16,139,31*6E
$GLGSV,3,2,09,74,52,101,30,75,44,013,41,85,14,007,35,86,49,312,34*62
$GLGSV,3,3,09,87,35,247,31*56
$GNGLL,0419.92058,S,05539.91642,E,041543.00,A,D*60
$GNGRS,041543.00,1,-0.1,-0.9,1.0,0.3,-3.9,0.0,0.4,1.3,3.0,0.5,,*7A
$GNGRS,041543.00,1,-0.4,13.1,0.9,7.4,-2.4,-4.1,-5.4,-9.7,,,,*4B
$GNGST,041543.00,21,,,,0.94,1.0,2.1*72
$GNZDA,041543.00,23,05,2025,00,00*7E
$GNGBS,041543.00,0.9,1.0,2.1,,,,*53
$GNTXT,01,01,01,More than 100 frame errors, UART RX was disabled*70
b0L3*0s) '^"

t$'%8)4_(b+={'4-V^(:R 
Y%^FiGGYHIFJ4eK),VU"V!18W#b3re$GNRMC,041544.00,A,0419.92058,S,05539.91644,E,0.009,,230525,,,D*72
$GNVTG,,T,,M,0.009,N,0.017,K,D*37
$GNGNS,041544.00,0419.92058,S,05539.91644,E,DA,18,0.57,14.8,-47.6,,0000*60
$GNGGA,041544.00,0419.92058,S,05539.91644,E,2,12,0.57,14.8,M,-47.6,M,,0000*46
$GNGSA,A,3,24,20,05,13,15,22,06,12,14,18,,,1.11,0.57,0.95*1D
$GNGSA,A,3,86,74,75,87,85,73,71,72,,,,,1.11,0.57,0.95*19
$GPGSV,5,1,17,05,48,157,42,06,07,028,41,11,39,019,,12,20,350,29*77
$GPGSV,5,2,17,13,26,171,34,14,10,116,28,15,27,208,39,18,11,221,37*7B
$GPGSV,5,3,17,20,52,095,41,22,21,098,40,24,61,282,43,29,11,283,*7F
$GPGSV,5,4,17,36,52,277,39,40,86,350,45,41,58,082,40,49,32,274,*72
$GPGSV,5,5,17,50,10,089,*4A
$GLGSV,3,1,09,70,00,105,11,71,13,146,28,72,14,195,23,73,16,139,29*6F
$GLGSV,3,2,09,74,52,101,31,75,44,013,41,85,14,007,34,86,49,312,33*65
$GLGSV,3,3,09,87,35,247,28*5E
$GNGLL,0419.92058,S,05539.91644,E,041544.00,A,D*61
$GNGRS,041544.00,1,-0.1,-0.9,1.1,0.3,-3.7,0.0,0.3,1.5,5.5,0.6,,*73
$GNGRS,041544.00,1,-0.3,9.7,0.9,11.5,-0.1,-4.4,-6.8,-10.2,,,,*70
$GNGST,041544.00,26,,,,0.94,1.0,2.1*72
$GNZDA,041544.00,23,05,2025,00,00*79
$GNGBS,041544.00,0.9,1.0,2.1,,,,*54
$GNTXT,01,01,01,More than 100 frame errors, UART RX was disabled*70
b0L7*0J)'^(#9

t'%-*4_)b+={'4-V^(:R 
Y#^hFimGH$IJ4eK),@U$V"18W#s!b7rM)$GNRMC,041545.00,A,0419.92058,S,05539.91644,E,0.019,,230525,,,D*72
$GNVTG,,T,,M,0.019,N,0.035,K,D*36
$GNGNS,041545.00,0419.92058,S,05539.91644,E,DA,18,0.57,14.8,-47.6,,0000*61
$GNGGA,041545.00,0419.92058,S,05539.91644,E,2,12,0.57,14.8,M,-47.6,M,,0000*47
$GNGSA,A,3,24,20,05,13,15,22,06,12,14,18,,,1.11,0.57,0.95*1D
$GNGSA,A,3,86,74,75,87,85,73,71,72,,,,,1.11,0.57,0.95*19
$GPGSV,5,1,17,05,48,157,42,06,07,028,41,11,39,019,,12,20,350,28*76
$GPGSV,5,2,17,13,26,171,35,14,10,116,27,15,27,208,39,18,11,221,37*75
$GPGSV,5,3,17,20,52,095,42,22,21,098,41,24,61,282,43,29,11,283,*7D
$GPGSV,5,4,17,36,52,277,39,40,86,350,45,41,58,082,40,49,32,274,*72
$GPGSV,5,5,17,50,10,089,*4A
$GLGSV,3,1,09,70,00,105,14,71,13,146,28,72,14,195,21,73,16,139,30*60
$GLGSV,3,2,09,74,52,101,31,75,44,013,41,85,14,007,36,86,49,312,34*60
$GLGSV,3,3,09,87,35,247,30*57
$GNGLL,0419.92058,S,05539.91644,E,041545.00,A,D*60
$GNGRS,041545.00,1,-0.1,-1.1,0.7,0.6,-3.8,0.0,0.3,3.0,4.7,0.5,,*71
$GNGRS,041545.00,1,-0.4,5.4,0.6,13.0,-0.8,-5.0,-8.1,-9.9,,,,*49
$GNGST,041545.00,26,,,,0.94,1.0,2.1*73
$GNZDA,041545.00,23,05,2025,00,00*78
$GNGBS,041545.00,0.9,1.0,2.1,,,,*55
$GNTXT,01,01,01,More than 100 frame errors, UART RX was disabled*70
b0L;+0!*'^$l

t*)%*+4_)b,={)4/V^*:R 
Y"^FiGHI J4eK),BU#GV!18dW#b;r5$GNRMC,041546.00,A,0419.92056,S,05539.91644,E,0.040,,230525,,,D*73
$GNVTG,,T,,M,0.040,N,0.073,K,D*38
$GNGNS,041546.00,0419.92056,S,05539.91644,E,DA,18,0.57,14.9,-47.6,,0000*6D
$GNGGA,041546.00,0419.92056,S,05539.91644,E,2,12,0.57,14.9,M,-47.6,M,,0000*4B
$GNGSA,A,3,24,20,05,13,15,22,06,12,14,18,,,1.11,0.57,0.95*1D
$GNGSA,A,3,86,74,75,87,85,73,71,72,,,,,1.11,0.57,0.95*19
$GPGSV,5,1,17,05,48,157,43,06,07,028,42,11,39,019,,12,20,350,29*75
$GPGSV,5,2,17,13,26,171,36,14,10,116,24,15,27,208,41,18,11,221,37*7A
$GPGSV,5,3,17,20,52,095,43,22,21,098,41,24,61,282,44,29,11,283,*7B
$GPGSV,5,4,17,36,52,277,41,40,86,350,47,41,58,082,42,49,32,274,*7D
$GPGSV,5,5,17,50,10,089,*4A
$GLGSV,3,1,09,70,00,105,13,71,13,146,28,72,14,195,21,73,16,139,32*65
$GLGSV,3,2,09,74,52,101,31,75,44,013,41,85,14,007,35,86,49,312,33*64
$GLGSV,3,3,09,87,35,247,30*57
$GNGLL,0419.92056,S,05539.91644,E,041546.00,A,D*6D
$GNGRS,041546.00,1,-0.2,-1.0,0.3,1.1,-3.4,0.2,0.1,4.6,3.0,0.4,,*7E
$GNGRS,041546.00,1,-1.6,6.5,0.7,9.5,-1.8,-5.7,-10.3,-10.3,,,,*7B
$GNGST,041546.00,29,,,,0.94,1.0,2.1*7F
$GNZDA,041546.00,23,05,2025,00,00*7B
$GNGBS,041546.00,0.9,1.0,2.1,,,,*56
$GNTXT,01,01,01,More than 100 frame errors, UART RX was disabled*70
b0L?*0)+'^#

t(%2*4_)bA+={'4.V^):R 
Y#^FiGH5I!5J4e0K),$U#V!18LW#ob?r$GNRMC,041547.00,A,0419.92056,S,05539.91643,E,0.014,,230525,,,D*74
$GNVTG,,T,,M,0.014,N,0.026,K,D*39
$GNGNS,041547.00,0419.92056,S,05539.91643,E,DA,18,0.57,14.8,-47.6,,0000*6A
$GNGGA,041547.00,0419.92056,S,05539.91643,E,2,12,0.57,14.8,M,-47.6,M,,0000*4C
$GNGSA,A,3,24,20,05,13,15,22,06,12,14,18,,,1.11,0.57,0.95*1D
$GNGSA,A,3,86,74,75,87,85,73,71,72,,,,,1.11,0.57,0.95*19
$GPGSV,5,1,17,05,48,157,42,06,07,028,41,11,39,019,,12,20,350,29*77
$GPGSV,5,2,17,13,26,171,35,14,10,116,23,15,27,208,40,18,11,221,37*7F
$GPGSV,5,3,17,20,52,095,42,22,21,098,41,24,61,282,43,29,11,283,19*75
$GPGSV,5,4,17,36,52,277,39,40,86,350,46,41,58,082,41,49,32,274,*70
$GPGSV,5,5,17,50,10,089,*4A
$GLGSV,3,1,09,70,00,105,16,71,13,146,29,72,14,195,21,73,16,139,33*60
$GLGSV,3,2,09,74,52,101,31,75,44,013,41,85,14,007,35,86,49,312,33*64
$GLGSV,3,3,09,87,35,247,31*56
$GNGLL,0419.92056,S,05539.91643,E,041547.00,A,D*6B
$GNGRS,041547.00,1,-0.1,-1.0,0.3,2.2,-3.3,0.7,0.4,4.1,2.4,0.5,,*78
$GNGRS,041547.00,1,0.8,5.6,0.4,7.5,-3.2,-4.6,-8.6,-9.7,,,,*5D
$GNGST,041547.00,27,,,,0.94,1.0,2.1*70
$GNZDA,041547.00,23,05,2025,00,00*7A
$GNGBS,041547.00,0.9,1.0,2.1,,,,*57
$GNTXT,01,01,01,More than 100 frame errors, UART RX was disabled*70
b0LpC+0)*'^$

tZ(%-*4_(bR+={'4.V^):R 
Y#^FiGHTI!J4eK),8U#V!18W#wlbpCrxa$GNRMC,041548.00,A,0419.92056,S,05539.91645,E,0.022,,230525,,,D*78
$GNVTG,,T,,M,0.022,N,0.041,K,D*3D
$GNGNS,041548.00,0419.92056,S,05539.91645,E,DA,18,0.57,14.9,-47.6,,0000*62
$GNGGA,041548.00,0419.92056,S,05539.91645,E,2,12,0.57,14.9,M,-47.6,M,,0000*44
$GNGSA,A,3,24,20,05,13,15,22,06,12,14,18,,,1.11,0.57,0.95*1D
$GNGSA,A,3,86,74,75,87,85,73,71,72,,,,,1.11,0.57,0.95*19
$GPGSV,5,1,17,05,48,157,43,06,07,028,42,11,39,019,,12,20,350,29*75
$GPGSV,5,2,17,13,26,171,36,14,10,116,24,15,27,208,40,18,11,221,37*7B
$GPGSV,5,3,17,20,52,095,42,22,21,098,40,24,61,282,43,29,11,283,18*75
$GPGSV,5,4,17,36,52,277,39,40,86,350,46,41,58,082,41,49,32,274,*70
$GPGSV,5,5,17,50,10,089,*4A
$GLGSV,3,1,09,70,00,105,14,71,13,146,29,72,14,195,21,73,16,139,33*62
$GLGSV,3,2,09,74,52,101,31,75,44,013,41,85,14,007,35,86,49,312,33*64
$GLGSV,3,3,09,87,35,247,31*56
$GNGLL,0419.92056,S,05539.91645,E,041548.00,A,D*62
$GNGRS,041548.00,1,-0.2,-0.9,0.4,1.5,-3.4,0.8,0.0,2.6,0.9,0.4,,*7C
$GNGRS,041548.00,1,-5.1,7.2,0.6,3.8,-6.2,-2.8,-8.5,-9.4,,,,*73
$GNGST,041548.00,26,,,,0.93,0.99,2.1*48
$GNZDA,041548.00,23,05,2025,00,00*75
$GNGBS,041548.00,0.9,1.0,2.1,,,,*58
$GNTXT,01,01,01,More than 100 frame errors, UART RX was disabled*70
b0LXG+0*'^#

tX(%'*4_(bI+={'4.V^):R 
Y"^dFibGpHI!J4eK),(U#HV!18W#t5bXGrO$GNRMC,041549.00,A,0419.92056,S,05539.91645,E,0.006,,230525,,,D*7F
$GNVTG,,T,,M,0.006,N,0.011,K,D*3E
$GNGNS,041549.00,0419.92056,S,05539.91645,E,DA,18,0.57,14.9,-47.6,,0000*63
$GNGGA,041549.00,0419.92056,S,05539.91645,E,2,12,0.57,14.9,M,-47.6,M,,0000*45
$GNGSA,A,3,24,20,05,13,15,22,06,12,14,18,,,1.11,0.57,0.95*1D
$GNGSA,A,3,86,74,75,87,85,73,71,72,,,,,1.11,0.57,0.95*19
$GPGSV,5,1,17,05,48,157,43,06,07,028,42,11,39,019,,12,20,350,30*7D
$GPGSV,5,2,17,13,26,171,35,14,10,116,26,15,27,208,40,18,11,221,37*7A
$GPGSV,5,3,17,20,52,095,42,22,21,098,40,24,61,282,43,29,11,283,*7C
$GPGSV,5,4,17,36,52,277,39,40,86,350,46,41,58,082,41,49,32,274,*70
$GPGSV,5,5,17,50,10,089,*4A
$GLGSV,3,1,09,70,00,105,13,71,13,146,29,72,14,195,20,73,16,139,33*64
$GLGSV,3,2,09,74,52,101,31,75,44,013,41,85,14,007,35,86,49,312,33*64
$GLGSV,3,3,09,87,35,247,31*56
$GNGLL,0419.92056,S,05539.91645,E,041549.00,A,D*63
$GNGRS,041549.00,1,-0.2,-0.7,0.2,-0.4,-3.2,0.7,-0.1,2.4,-1.7,0.4,,*5D
$GNGRS,041549.00,1,-1.2,4.9,0.4,1.2,-4.4,-2.5,-9.1,-8.5,,,,*7B
$GNGST,041549.00,28,,,,0.93,0.98,2.1*46
$GNZDA,041549.00,23,05,2025,00,00*74
$GNGBS,041549.00,0.9,1.0,2.1,,,,*59
$GNTXT,01,01,01,More than 100 frame errors, UART RX was disabled*70
b0L@K*0*'^/$

t'%)4_'bK+={'4-V^(:R 
Y#^6F
i8GHI J4e5K),U$V!18W#*b@Kr'.$GNRMC,041550.00,A,0419.92055,S,05539.91646,E,0.019,,230525,,,D*79
$GNVTG,,T,,M,0.019,N,0.035,K,D*36
$GNGNS,041550.00,0419.92055,S,05539.91646,E,DA,18,0.57,14.9,-47.6,,0000*6B
$GNGGA,041550.00,0419.92055,S,05539.91646,E,2,12,0.57,14.9,M,-47.6,M,,0000*4D
$GNGSA,A,3,24,20,05,13,15,22,06,12,14,18,,,1.11,0.57,0.95*1D
$GNGSA,A,3,86,74,75,87,85,73,71,72,,,,,1.11,0.57,0.95*19
$GPGSV,5,1,17,05,48,157,42,06,07,028,42,11,39,019,,12,20,350,29*74
$GPGSV,5,2,17,13,26,171,36,14,10,116,27,15,27,208,39,18,11,221,37*76
$GPGSV,5,3,17,20,52,095,41,22,21,098,39,24,61,282,43,29,11,283,*71
$GPGSV,5,4,17,36,52,277,39,40,86,350,45,41,58,082,40,49,32,274,*72
$GPGSV,5,5,17,50,10,089,*4A
$GLGSV,3,1,09,70,00,105,10,71,13,146,29,72,14,195,21,73,16,139,32*67
$GLGSV,3,2,09,74,52,101,31,75,44,013,41,85,14,007,36,86,49,312,33*67
$GLGSV,3,3,09,87,35,247,31*56
$GNGLL,0419.92055,S,05539.91646,E,041550.00,A,D*6B
$GNGRS,041550.00,1,-0.5,-0.7,0.0,0.3,-3.3,0.8,0.0,0.5,-5.7,0.3,,*58
$GNGRS,041550.00,1,-0.6,5.7,0.2,1.9,-0.9,-4.9,-8.9,-8.9,,,,*72
$GNGST,041550.00,25,,,,0.93,0.99,2.1*42
$GNZDA,041550.00,23,05,2025,00,00*7C
$GNGBS,041550.00,0.9,1.0,2.1,,,,*51
$GNTXT,01,01,01,More than 100 frame errors, UART RX was disabled*70
b0L(O*0*'^$

t$'%)4_'bQ+={'4-V^(:R 
Y$^FiGHI J4eDK),"U$rV!18/W#)Cb(Or$GNRMC,041551.00,A,0419.92055,S,05539.91647,E,0.033,,230525,,,D*71
$GNVTG,,T,,M,0.033,N,0.061,K,D*3F
$GNGNS,041551.00,0419.92055,S,05539.91647,E,DA,18,0.57,14.9,-47.6,,0000*6B
$GNGGA,041551.00,0419.92055,S,05539.91647,E,2,12,0.57,14.9,M,-47.6,M,,0000*4D
$GNGSA,A,3,24,20,05,13,15,22,06,12,14,18,,,1.11,0.57,0.95*1D
$GNGSA,A,3,86,74,75,87,85,73,71,72,,,,,1.11,0.57,0.95*19
$GPGSV,5,1,17,05,48,157,42,06,07,028,42,11,39,019,,12,20,350,29*74
$GPGSV,5,2,17,13,26,171,36,14,10,116,28,15,27,208,39,18,11,221,37*79
$GPGSV,5,3,17,20,52,095,41,22,21,098,39,24,61,282,43,29,11,283,*71
$GPGSV,5,4,17,36,52,277,39,40,86,350,45,41,58,082,40,49,32,274,*72
$GPGSV,5,5,17,50,10,089,*4A
$GLGSV,3,1,09,70,00,105,11,71,13,146,29,72,14,195,21,73,16,139,32*66
$GLGSV,3,2,09,74,52,101,31,75,44,013,41,85,14,007,36,86,49,312,33*67
$GLGSV,3,3,09,87,35,247,31*56
$GNGLL,0419.92055,S,05539.91647,E,041551.00,A,D*6B
$GNGRS,041551.00,1,-0.4,-0.8,0.0,0.3,-3.2,0.8,0.3,2.3,-7.3,0.3,,*57
$GNGRS,041551.00,1,3.0,5.8,0.3,3.0,-1.4,-0.3,-11.1,-5.4,,,,*6C
$GNGST,041551.00,25,,,,0.93,1.0,2.1*72
$GNZDA,041551.00,23,05,2025,00,00*7D
$GNGBS,041551.00,0.9,1.0,2.1,,,,*50
$GNTXT,01,01,01,More than 100 frame errors, UART RX was disabled*70
b0LS)0*'^$

t>'%!)4_'bP+={'4-V^(:R 
Y$^FihGHIAJ4eHK),U$pV!18W#bSr$GNRMC,041552.00,A,0419.92055,S,05539.91648,E,0.009,,230525,,,D*74
$GNVTG,,T,,M,0.009,N,0.017,K,D*37
$GNGNS,041552.00,0419.92055,S,05539.91648,E,DA,18,0.57,14.9,-47.6,,0000*67
$GNGGA,041552.00,0419.92055,S,05539.91648,E,2,12,0.57,14.9,M,-47.6,M,,0000*41
$GNGSA,A,3,24,20,05,13,15,22,06,12,14,18,,,1.11,0.57,0.95*1D
$GNGSA,A,3,86,74,75,87,85,73,71,72,,,,,1.11,0.57,0.95*19
$GPGSV,5,1,17,05,48,157,41,06,07,028,42,11,39,019,,12,20,350,29*77
$GPGSV,5,2,17,13,26,171,36,14,10,116,27,15,27,208,39,18,11,221,37*76
$GPGSV,5,3,17,20,52,095,41,22,21,098,39,24,61,282,43,29,11,283,*71
$GPGSV,5,4,17,36,52,277,39,40,86,350,45,41,58,082,40,49,32,274,*72
$GPGSV,5,5,17,50,10,089,*4A
$GLGSV,3,1,09,70,00,105,11,71,13,146,29,72,14,195,22,73,16,139,31*66
$GLGSV,3,2,09,74,52,101,31,75,44,013,41,85,14,007,36,86,49,312,33*67
$GLGSV,3,3,09,87,35,247,31*56
$GNGLL,0419.92055,S,05539.91648,E,041552.00,A,D*67
$GNGRS,041552.00,1,-0.3,-0.7,0.1,0.2,-3.0,0.8,0.2,2.0,-7.1,0.3,,*5E
$GNGRS,041552.00,1,-0.5,5.8,0.3,4.8,-1.4,-1.9,-10.3,-3.8,,,,*49
$GNGST,041552.00,25,,,,0.94,1.0,2.1*76
$GNZDA,041552.00,23,05,2025,00,00*7E
$GNGBS,041552.00,0.9,1.0,2.1,,,,*53
$GNTXT,01,01,01,More than 100 frame errors, UART RX was disabled*70
b0LV)0*'^$

t'%C)4_'b]+={'4-V^(:R 
Y#^Fi_GHIJ4eK),$U#V!18W#'!bVrW$GNRMC,041553.00,A,0419.92054,S,05539.91649,E,0.024,,230525,,,D*7A
$GNVTG,,T,,M,0.024,N,0.045,K,D*3F
$GNGNS,041553.00,0419.92054,S,05539.91649,E,DA,18,0.57,14.9,-47.6,,0000*66
$GNGGA,041553.00,0419.92054,S,05539.91649,E,2,12,0.57,14.9,M,-47.6,M,,0000*40
$GNGSA,A,3,24,20,05,13,15,22,06,12,14,18,,,1.11,0.57,0.95*1D
$GNGSA,A,3,86,74,75,87,85,73,71,72,,,,,1.11,0.57,0.95*19
$GPGSV,5,1,17,05,48,157,41,06,07,028,42,11,39,019,,12,20,350,29*77
$GPGSV,5,2,17,13,26,171,36,14,10,116,26,15,27,208,39,18,11,221,37*77
$GPGSV,5,3,17,20,52,095,41,22,21,098,39,24,61,282,43,29,11,283,*71
$GPGSV,5,4,17,36,52,277,39,40,86,350,45,41,58,082,40,49,32,274,*72
$GPGSV,5,5,17,50,10,089,*4A
$GLGSV,3,1,09,70,00,105,11,71,13,146,29,72,14,195,23,73,16,139,31*67
$GLGSV,3,2,09,74,52,101,31,75,44,013,41,85,14,007,35,86,49,312,33*64
$GLGSV,3,3,09,87,35,247,31*56
$GNGLL,0419.92054,S,05539.91649,E,041553.00,A,D*66
$GNGRS,041553.00,1,-0.4,-0.6,-0.1,-0.3,-3.3,0.9,0.0,0.2,-7.7,0.7,,*5A
$GNGRS,041553.00,1,1.9,7.0,0.4,4.2,-3.6,-2.9,-11.1,-4.8,,,,*68
$GNGST,041553.00,25,,,,0.94,1.0,2.1*77
$GNZDA,041553.00,23,05,2025,00,00*7F
$GNGBS,041553.00,0.9,1.0,2.1,,,,*52
$GNTXT,01,01,01,More than 100 frame errors, UART RX was disabled*70
b0LZ*0*'^/$

t'%Y)4_'bl+={'4-V^(:R 
Y$^OFi@GHIJ4e,K),U#V!18IW#bZru$GNRMC,041554.00,A,0419.92052,S,05539.91649,E,0.010,,230525,,,D*7C
$GNVTG,,T,,M,0.010,N,0.019,K,D*31
$GNGNS,041554.00,0419.92052,S,05539.91649,E,DA,18,0.57,14.9,-47.6,,0000*67
$GNGGA,041554.00,0419.92052,S,05539.91649,E,2,12,0.57,14.9,M,-47.6,M,,0000*41
$GNGSA,A,3,24,20,05,13,15,22,06,12,14,18,,,1.11,0.57,0.95*1D
$GNGSA,A,3,86,74,75,87,85,73,71,72,,,,,1.11,0.57,0.95*19
$GPGSV,5,1,17,05,48,157,42,06,07,028,42,11,39,019,,12,20,350,29*74
$GPGSV,5,2,17,13,26,171,36,14,10,116,27,15,27,208,39,18,11,221,37*76
$GPGSV,5,3,17,20,52,095,41,22,21,098,39,24,61,282,43,29,11,283,*71
$GPGSV,5,4,17,36,52,277,39,40,86,350,45,41,58,082,40,49,32,274,*72
$GPGSV,5,5,17,50,10,089,*4A
$GLGSV,3,1,09,70,00,105,14,71,13,146,30,72,14,195,23,73,16,139,31*6A
$GLGSV,3,2,09,74,52,101,31,75,44,013,41,85,14,007,35,86,49,312,33*64
$GLGSV,3,3,09,87,35,247,31*56
$GNGLL,0419.92052,S,05539.91649,E,041554.00,A,D*67
$GNGRS,041554.00,1,-0.3,-0.7,-0.3,-0.4,-3.1,1.1,0.2,0.5,-8.4,0.9,,*52
$GNGRS,041554.00,1,0.7,8.1,0.3,5.0,-1.1,-2.7,-10.7,-2.5,,,,*6D
$GNGST,041554.00,24,,,,0.94,1.0,2.1*71
$GNZDA,041554.00,23,05,2025,00,00*78
$GNGBS,041554.00,0.9,1.0,2.1,,,,*55
$GNTXT,01,01,01,More than 100 frame errors, UART RX was disabled*70
b0L^*0*'^$

t&%L)4_'b+={'4-V^(:R 
Y$^!FilGH&IJ4eGK),U#?V!18W #b^r]^'$GNRMC,041555.00,A,0419.92051,S,05539.91648,E,0.035,,230525,,,D*78
$GNVTG,,T,,M,0.035,N,0.066,K,D*3E
$GNGNS,041555.00,0419.92051,S,05539.91648,E,DA,18,0.57,15.0,-47.6,,0000*6C
$GNGGA,041555.00,0419.92051,S,05539.91648,E,2,12,0.57,15.0,M,-47.6,M,,0000*4A
$GNGSA,A,3,24,20,05,13,15,22,06,12,14,18,,,1.11,0.57,0.95*1D
$GNGSA,A,3,86,74,75,87,85,73,71,72,,,,,1.11,0.57,0.95*19
$GPGSV,5,1,17,05,48,157,42,06,07,028,42,11,39,019,,12,20,350,30*7C
$GPGSV,5,2,17,13,26,171,36,14,10,116,25,15,27,208,38,18,11,221,37*75
$GPGSV,5,3,17,20,52,095,41,22,21,098,39,24,61,282,43,29,11,283,*71
$GPGSV,5,4,17,36,52,277,39,40,86,350,45,41,58,082,40,49,32,274,*72
$GPGSV,5,5,17,50,10,089,*4A
$GLGSV,3,1,09,70,00,105,15,71,13,146,29,72,14,195,23,73,16,139,31*63
$GLGSV,3,2,09,74,52,101,31,75,44,013,41,85,14,007,35,86,49,312,33*64
$GLGSV,3,3,09,87,35,247,32*55
$GNGLL,0419.92051,S,05539.91648,E,041555.00,A,D*64
$GNGRS,041555.00,1,0.3,-0.6,-0.2,-0.3,-3.1,1.9,0.1,-0.8,-10.9,0.8,,*67
$GNGRS,041555.00,1,0.2,8.4,0.2,4.2,-1.9,-2.9,-8.4,-2.2,,,,*55
$GNGST,041555.00,25,,,,0.94,1.0,2.1*71
$GNZDA,041555.00,23,05,2025,00,00*79
$GNGBS,041555.00,0.9,1.0,2.1,,,,*54
$GNTXT,01,01,01,More than 100 frame errors, UART RX was disabled*70
b0Lb)0*'^O$

t&$g(4_'b*={&4-V^':R 
Y#^Fi]G>HI!J4edK',U"wV 18W#3|bbrE6$GNRMC,041556.00,A,0419.92051,S,05539.91648,E,0.031,,230525,,,D*7F
$GNVTG,,T,,M,0.031,N,0.058,K,D*37
$GNGNS,041556.00,0419.92051,S,05539.91648,E,DA,18,0.57,15.0,-47.6,,0000*6F
$GNGGA,041556.00,0419.92051,S,05539.91648,E,2,12,0.57,15.0,M,-47.6,M,,0000*49
$GNGSA,A,3,24,20,05,13,15,22,06,12,14,18,,,1.11,0.57,0.95*1D
$GNGSA,A,3,86,74,75,87,85,73,71,72,,,,,1.11,0.57,0.95*19
$GPGSV,5,1,17,05,48,157,41,06,07,028,42,11,39,019,,12,20,350,29*77
$GPGSV,5,2,17,13,26,171,36,14,10,116,25,15,27,208,38,18,11,221,36*74
$GPGSV,5,3,17,20,52,095,40,22,21,098,39,24,61,282,42,29,11,283,*71
$GPGSV,5,4,17,36,52,277,38,40,86,350,45,41,58,082,39,49,32,274,*7D
$GPGSV,5,5,17,50,10,089,*4A
$GLGSV,3,1,09,70,00,105,13,71,13,146,28,72,14,195,22,73,16,139,31*65
$GLGSV,3,2,09,74,52,101,30,75,44,013,39,85,14,007,34,86,49,312,32*6A
$GLGSV,3,3,09,87,35,247,31*56
$GNGLL,0419.92051,S,05539.91648,E,041556.00,A,D*67
$GNGRS,041556.00,1,0.2,-0.6,-0.2,-0.6,-3.1,2.2,0.2,-1.8,-11.0,1.0,,*6B
$GNGRS,041556.00,1,2.5,8.7,0.2,5.6,-1.4,-2.2,-9.6,-1.3,,,,*52
$GNGST,041556.00,26,,,,0.95,1.0,2.1*70
$GNZDA,041556.00,23,05,2025,00,00*7A
$GNGBS,041556.00,1.0,1.0,2.1,,,,*5F
$GNTXT,01,01,01,More than 100 frame errors, UART RX was disabled*70
b0Lf)0*'^#

t%&$l(4_&b*={&4-V^':R 
Y"^`F
iGHIJ4eK',U"iV 18pW#E=bfr-$GNRMC,041557.00,A,0419.92050,S,05539.91649,E,0.004,,230525,,,D*78
$GNVTG,,T,,M,0.004,N,0.007,K,D*3B
$GNGNS,041557.00,0419.92050,S,05539.91649,E,DA,18,0.57,15.1,-47.6,,0000*6F
$GNGGA,041557.00,0419.92050,S,05539.91649,E,2,12,0.57,15.1,M,-47.6,M,,0000*49
$GNGSA,A,3,24,20,05,13,15,22,06,12,14,18,,,1.11,0.57,0.95*1D
$GNGSA,A,3,86,74,75,87,85,73,71,72,,,,,1.11,0.57,0.95*19
$GPGSV,5,1,17,05,48,157,41,06,07,028,42,11,39,019,,12,20,350,29*77
$GPGSV,5,2,17,13,26,171,35,14,10,116,26,15,27,208,38,18,11,221,36*74
$GPGSV,5,3,17,20,52,095,40,22,21,098,38,24,61,282,42,29,11,283,*70
$GPGSV,5,4,17,36,52,277,38,40,86,350,45,41,58,082,39,49,32,274,*7D
$GPGSV,5,5,17,50,10,089,*4A
$GLGSV,3,1,09,70,00,105,10,71,13,146,28,72,14,195,20,73,16,139,30*65
$GLGSV,3,2,09,74,52,101,30,75,44,013,39,85,14,007,34,86,49,312,32*6A
$GLGSV,3,3,09,87,35,247,30*57
$GNGLL,0419.92050,S,05539.91649,E,041557.00,A,D*66
$GNGRS,041557.00,1,0.2,-0.3,0.0,-0.9,-3.5,2.3,0.3,-1.2,-9.9,1.1,,*70
$GNGRS,041557.00,1,1.1,9.0,0.0,5.0,-1.5,-3.0,-10.2,-0.8,,,,*62
$GNGST,041557.00,27,,,,0.96,1.0,2.1*73
$GNZDA,041557.00,23,05,2025,00,00*7B
$GNGBS,041557.00,1.0,1.0,2.1,,,,*5E
$GNTXT,01,01,01,More than 100 frame errors, UART RX was disabled*70
b0Lj)0*'^$

t&$R(4_&b*={&4-V^':R 
Y!^F
ihGHxIJ4eK',U"mV18W#bjr_$GNRMC,041558.00,A,0419.92049,S,05539.91649,E,0.022,,230525,,,D*7B
$GNVTG,,T,,M,0.022,N,0.041,K,D*3D
$GNGNS,041558.00,0419.92049,S,05539.91649,E,DA,18,0.57,15.1,-47.6,,0000*68
$GNGGA,041558.00,0419.92049,S,05539.91649,E,2,12,0.57,15.1,M,-47.6,M,,0000*4E
$GNGSA,A,3,24,20,05,13,15,22,06,12,14,18,,,1.11,0.57,0.95*1D
$GNGSA,A,3,86,74,75,87,85,73,71,72,,,,,1.11,0.57,0.95*19
$GPGSV,5,1,17,05,48,157,41,06,07,028,42,11,39,019,,12,20,350,29*77
$GPGSV,5,2,17,13,26,171,36,14,10,116,25,15,27,208,38,18,11,221,36*74
$GPGSV,5,3,17,20,52,095,40,22,21,098,38,24,61,282,42,29,11,283,*70
$GPGSV,5,4,17,36,52,277,38,40,86,350,45,41,58,082,39,49,32,274,*7D
$GPGSV,5,5,17,50,10,089,*4A
$GLGSV,3,1,09,70,00,105,10,71,13,146,28,72,14,195,19,73,16,139,30*6F
$GLGSV,3,2,09,74,52,101,29,75,44,013,39,85,14,007,34,86,49,312,31*61
$GLGSV,3,3,09,87,35,247,30*57
$GNGLL,0419.92049,S,05539.91649,E,041558.00,A,D*61
$GNGRS,041558.00,1,0.0,-0.4,0.0,-1.2,-3.4,2.3,0.0,1.6,-11.2,0.8,,*61
$GNGRS,041558.00,1,1.9,9.0,-0.2,4.1,-1.5,-2.8,-10.7,-1.4,,,,*4B
$GNGST,041558.00,30,,,,0.97,1.1,2.1*7A
$GNZDA,041558.00,23,05,2025,00,00*74
$GNGBS,041558.00,1.0,1.1,2.1,,,,*50
$GNTXT,01,01,01,More than 100 frame errors, UART RX was disabled*70
b0Lhn*0*'^$

t&$S(4_&b)={&4-V^(:R 
Y ^F
iQGHI,J4e\K(,U"`V18W#:bhnr$GNRMC,041559.00,A,0419.92047,S,05539.91649,E,0.036,,230525,,,D*71
$GNVTG,,T,,M,0.036,N,0.066,K,D*3D
$GNGNS,041559.00,0419.92047,S,05539.91649,E,DA,18,0.57,15.1,-47.6,,0000*67
$GNGGA,041559.00,0419.92047,S,05539.91649,E,2,12,0.57,15.1,M,-47.6,M,,0000*41
$GNGSA,A,3,24,20,05,13,15,22,06,12,14,18,,,1.11,0.57,0.95*1D
$GNGSA,A,3,86,74,75,87,85,73,71,72,,,,,1.11,0.57,0.95*19
$GPGSV,5,1,17,05,48,157,42,06,07,028,42,11,39,019,,12,20,350,29*74
$GPGSV,5,2,17,13,26,171,36,14,10,116,24,15,27,208,38,18,11,221,36*75
$GPGSV,5,3,17,20,52,095,40,22,21,098,38,24,61,282,41,29,11,283,*73
$GPGSV,5,4,17,36,52,277,38,40,86,350,45,41,58,082,40,49,32,274,*73
$GPGSV,5,5,17,50,10,089,*4A
$GLGSV,3,1,09,70,00,105,10,71,13,146,28,72,14,195,19,73,16,139,30*6F
$GLGSV,3,2,09,74,52,101,29,75,44,013,40,85,14,007,34,86,49,312,31*6F
$GLGSV,3,3,09,87,35,247,30*57
$GNGLL,0419.92047,S,05539.91649,E,041559.00,A,D*6E
$GNGRS,041559.00,1,-0.2,-0.3,-0.8,-0.9,-3.4,2.1,0.1,1.5,-11.2,0.8,,*67
$GNGRS,041559.00,1,-1.0,8.6,-0.2,5.0,-1.6,-2.1,-11.2,-2.9,,,,*69
$GNGST,041559.00,30,,,,0.97,1.1,2.2*78
$GNZDA,041559.00,23,05,2025,00,00*75
$GNGBS,041559.00,1.0,1.1,2.2,,,,*52
$GNTXT,01,01,01,More than 100 frame errors, UART RX was disabled*70
b0LPr*0)'^$

t\&$Y(4_&b)={&4-V^':R 
Y"^FiMG@HIKJ4eK(,U"iV18W#DbPrr,$GNRMC,041600.00,A,0419.92045,S,05539.91649,E,0.004,,230525,,,D*7D
$GNVTG,,T,,M,0.004,N,0.007,K,D*3B
$GNGNS,041600.00,0419.92045,S,05539.91649,E,DA,18,0.57,15.1,-47.6,,0000*6A
$GNGGA,041600.00,0419.92045,S,05539.91649,E,2,12,0.57,15.1,M,-47.6,M,,0000*4C
$GNGSA,A,3,24,20,05,13,15,22,06,12,14,18,,,1.11,0.57,0.95*1D
$GNGSA,A,3,86,74,75,87,85,73,71,72,,,,,1.11,0.57,0.95*19
$GPGSV,5,1,17,05,48,157,42,06,07,028,41,11,39,019,,12,20,350,29*77
$GPGSV,5,2,17,13,26,171,36,14,10,116,24,15,27,208,38,18,11,221,36*75
$GPGSV,5,3,17,20,52,095,40,22,21,098,38,24,61,282,41,29,11,283,*73
$GPGSV,5,4,17,36,52,277,38,40,86,350,45,41,58,082,39,49,32,274,*7D
$GPGSV,5,5,17,50,10,089,*4A
$GLGSV,3,1,09,70,00,105,11,71,13,146,29,72,14,195,19,73,16,139,31*6E
$GLGSV,3,2,09,74,52,101,29,75,44,013,40,85,14,007,34,86,49,312,30*6E
$GLGSV,3,3,09,87,35,247,29*5F
$GNGLL,0419.92045,S,05539.91649,E,041600.00,A,D*63
$GNGRS,041600.00,1,-0.3,-0.2,-0.9,-0.8,-3.2,2.1,0.2,1.7,-11.9,0.9,,*65
$GNGRS,041600.00,1,4.5,9.6,0.0,5.8,-1.5,-4.4,-12.2,-3.7,,,,*61
$GNGST,041600.00,30,,,,0.97,1.1,2.2*77
$GNZDA,041600.00,23,05,2025,00,00*7A
$GNGBS,041600.00,1.0,1.1,2.2,,,,*5D
$GNTXT,01,01,01,More than 100 frame errors, UART RX was disabled*70
b0L8v(0)'^$

ti&$h(4_&b*={&4-V^':R 
Y"^bFixGzHI@J4e}K(,U"`V18:W#b8vrm$GNRMC,041601.00,A,0419.92044,S,05539.91650,E,0.022,,230525,,,D*71
$GNVTG,,T,,M,0.022,N,0.041,K,D*3D
$GNGNS,041601.00,0419.92044,S,05539.91650,E,DA,18,0.57,15.1,-47.6,,0000*62
$GNGGA,041601.00,0419.92044,S,05539.91650,E,2,12,0.57,15.1,M,-47.6,M,,0000*44
$GNGSA,A,3,24,20,05,13,15,22,06,12,14,18,,,1.11,0.57,0.95*1D
$GNGSA,A,3,86,74,75,87,85,73,71,72,,,,,1.11,0.57,0.95*19
$GPGSV,5,1,17,05,48,157,40,06,07,028,41,11,39,019,,12,20,350,29*75
$GPGSV,5,2,17,13,26,171,36,14,10,116,25,15,27,208,38,18,11,221,36*74
$GPGSV,5,3,17,20,52,095,40,22,21,098,38,24,61,282,42,29,11,283,*70
$GPGSV,5,4,17,36,52,277,38,40,86,350,45,41,58,082,39,49,32,274,*7D
$GPGSV,5,5,17,50,10,089,*4A
$GLGSV,3,1,09,70,00,105,12,71,13,146,28,72,14,195,19,73,16,139,30*6D
$GLGSV,3,2,09,74,52,101,30,75,44,013,40,85,14,007,34,86,49,312,30*66
$GLGSV,3,3,09,87,35,247,30*57
$GNGLL,0419.92044,S,05539.91650,E,041601.00,A,D*6B
$GNGRS,041601.00,1,-0.5,0.1,-0.8,-1.1,-3.1,2.0,0.2,5.2,-11.7,1.0,,*40
$GNGRS,041601.00,1,3.1,8.9,-0.1,5.2,-1.6,-4.5,-11.6,-3.1,,,,*48
$GNGST,041601.00,30,,,,0.98,1.1,2.2*79
$GNZDA,041601.00,23,05,2025,00,00*7B
$GNGBS,041601.00,1.0,1.1,2.2,,,,*5C
$GNTXT,01,01,01,More than 100 frame errors, UART RX was disabled*70
b0L z)0('^$u

t%#|'4_&b*={%4,V^':R 
Y#^FixG[H=IJ4e>K(,U"pV18W##b zrE$GNRMC,041602.00,A,0419.92044,S,05539.91650,E,0.020,,230525,,,D*70
$GNVTG,,T,,M,0.020,N,0.037,K,D*3E
$GNGNS,041602.00,0419.92044,S,05539.91650,E,DA,18,0.57,15.1,-47.6,,0000*61
$GNGGA,041602.00,0419.92044,S,05539.91650,E,2,12,0.57,15.1,M,-47.6,M,,0000*47
$GNGSA,A,3,24,20,05,13,15,22,06,12,14,18,,,1.11,0.57,0.95*1D
$GNGSA,A,3,86,74,75,87,85,73,71,72,,,,,1.11,0.57,0.95*19
$GPGSV,5,1,17,05,48,157,41,06,07,028,40,11,39,019,,12,20,350,29*75
$GPGSV,5,2,17,13,26,171,36,14,10,116,27,15,27,208,37,18,11,221,35*7A
$GPGSV,5,3,17,20,52,095,39,22,21,098,38,24,61,282,42,29,11,283,*7E
$GPGSV,5,4,17,36,52,277,37,40,86,350,44,41,58,082,39,49,32,274,*73
$GPGSV,5,5,17,50,10,089,*4A
$GLGSV,3,1,09,70,00,105,12,71,13,146,28,72,14,195,20,73,16,139,30*67
$GLGSV,3,2,09,74,52,101,30,75,44,013,40,85,14,007,34,86,49,312,31*67
$GLGSV,3,3,09,87,35,247,31*56
$GNGLL,0419.92044,S,05539.91650,E,041602.00,A,D*68
$GNGRS,041602.00,1,-0.4,0.3,-0.9,-1.4,-2.9,2.4,0.3,4.3,-13.3,1.2,,*4C
$GNGRS,041602.00,1,2.5,8.3,-0.2,5.5,-1.4,-3.6,-9.3,-4.5,,,,*79
$GNGST,041602.00,27,,,,0.98,1.1,2.2*7C
$GNZDA,041602.00,23,05,2025,00,00*78
$GNGBS,041602.00,1.0,1.1,2.2,,,,*5F
$GNTXT,01,01,01,More than 100 frame errors, UART RX was disabled*70
b0L~)0)'^$

tF%#v'4_$&b*={%4-V^':R 
Y#^F
i$GHIJ4eK),U"dV 18W#/fb~rd$GNRMC,041603.00,A,0419.92043,S,05539.91650,E,0.028,,230525,,,D*7E
$GNVTG,,T,,M,0.028,N,0.051,K,D*36
$GNGNS,041603.00,0419.92043,S,05539.91650,E,DA,18,0.57,15.1,-47.6,,0000*67
$GNGGA,041603.00,0419.92043,S,05539.91650,E,2,12,0.57,15.1,M,-47.6,M,,0000*41
$GNGSA,A,3,24,20,05,13,15,22,06,12,14,18,,,1.11,0.57,0.95*1D
$GNGSA,A,3,86,74,75,87,85,73,71,72,,,,,1.11,0.57,0.95*19
$GPGSV,5,1,17,05,48,157,41,06,07,028,41,11,39,019,,12,20,350,28*75
$GPGSV,5,2,17,13,26,171,36,14,10,116,29,15,27,208,37,18,11,221,35*74
$GPGSV,5,3,17,20,52,095,39,22,21,098,38,24,61,282,42,29,11,283,*7E
$GPGSV,5,4,17,36,52,277,37,40,86,350,45,41,58,082,39,49,32,274,*72
$GPGSV,5,5,17,50,10,089,*4A
$GLGSV,3,1,09,70,00,105,10,71,13,146,29,72,14,195,21,73,16,139,31*64
$GLGSV,3,2,09,74,52,101,30,75,44,013,41,85,14,007,34,86,49,312,32*65
$GLGSV,3,3,09,87,35,247,31*56
$GNGLL,0419.92043,S,05539.91650,E,041603.00,A,D*6E
$GNGRS,041603.00,1,-0.4,0.4,-1.1,-1.2,-2.5,2.4,0.2,4.0,-12.1,1.2,,*48
$GNGRS,041603.00,1,-0.3,7.7,0.0,5.6,-1.6,-2.7,-8.7,-5.5,,,,*70
$GNGST,041603.00,26,,,,0.99,1.1,2.2*7D
$GNZDA,041603.00,23,05,2025,00,00*79
$GNGBS,041603.00,1.0,1.1,2.2,,,,*5E
$GNTXT,01,01,01,More than 100 frame errors, UART RX was disabled*70
b0L)0)'^}$

t%#m(4_)&b*={&4,V^':R 
Y#^XFidGEHgIJ4eK),U":V!184W#zKbr$GNRMC,041604.00,A,0419.92042,S,05539.91651,E,0.007,,230525,,,D*74
$GNVTG,,T,,M,0.007,N,0.013,K,D*3D
$GNGNS,041604.00,0419.92042,S,05539.91651,E,DA,18,0.57,15.1,-47.6,,0000*60
$GNGGA,041604.00,0419.92042,S,05539.91651,E,2,12,0.57,15.1,M,-47.6,M,,0000*46
$GNGSA,A,3,24,20,05,13,15,22,06,12,14,18,,,1.11,0.57,0.95*1D
$GNGSA,A,3,86,74,75,87,85,73,71,72,,,,,1.11,0.57,0.95*19
$GPGSV,5,1,17,05,48,157,41,06,07,028,41,11,39,019,,12,20,350,29*74
$GPGSV,5,2,17,13,26,171,36,14,10,116,28,15,27,208,37,18,11,221,35*75
$GPGSV,5,3,17,20,52,095,40,22,21,098,38,24,61,282,42,29,11,283,*70
$GPGSV,5,4,17,36,52,277,38,40,86,350,44,41,58,082,39,49,32,274,*7C
$GPGSV,5,5,17,50,10,089,*4A
$GLGSV,3,1,09,70,00,105,13,71,13,146,30,72,14,195,22,73,16,139,31*6C
$GLGSV,3,2,09,74,52,101,31,75,44,013,41,85,14,007,34,86,49,312,33*65
$GLGSV,3,3,09,87,35,247,31*56
$GNGLL,0419.92042,S,05539.91651,E,041604.00,A,D*69
$GNGRS,041604.00,1,-0.2,0.4,-1.0,-1.1,-2.5,2.3,0.1,3.8,-11.0,1.1,,*41
$GNGRS,041604.00,1,0.5,7.1,-0.2,6.3,-2.0,-1.1,-9.5,-6.7,,,,*71
$GNGST,041604.00,25,,,,1.0,1.1,2.2*48
$GNZDA,041604.00,23,05,2025,00,00*7E
$GNGBS,041604.00,1.0,1.1,2.2,,,,*59
$GNTXT,01,01,01,More than 100 frame errors, UART RX was disabled*70
b0L)0)'^$

t%#o(4_O&b*={&4,V^':R 
Y$^;FiDGdHHIJ4eK),U"@V!18W#=^brm'$GNRMC,041605.00,A,0419.92041,S,05539.91652,E,0.015,,230525,,,D*76
$GNVTG,,T,,M,0.015,N,0.028,K,D*36
$GNGNS,041605.00,0419.92041,S,05539.91652,E,DA,18,0.57,15.1,-47.6,,0000*61
$GNGGA,041605.00,0419.92041,S,05539.91652,E,2,12,0.57,15.1,M,-47.6,M,,0000*47
$GNGSA,A,3,24,20,05,13,15,22,06,12,14,18,,,1.11,0.57,0.95*1D
$GNGSA,A,3,86,74,75,87,85,73,71,72,,,,,1.11,0.57,0.95*19
$GPGSV,5,1,17,05,48,157,41,06,07,028,41,11,39,019,,12,20,350,28*75
$GPGSV,5,2,17,13,26,171,36,14,10,116,28,15,27,208,37,18,11,221,35*75
$GPGSV,5,3,17,20,52,095,40,22,21,098,38,24,61,282,42,29,11,283,*70
$GPGSV,5,4,17,36,52,277,38,40,86,350,44,41,58,082,39,49,32,274,*7C
$GPGSV,5,5,17,50,10,089,*4A
$GLGSV,3,1,09,70,00,105,11,71,13,146,30,72,14,195,22,73,16,139,30*6F
$GLGSV,3,2,09,74,52,101,31,75,44,013,41,85,14,007,34,86,49,312,33*65
$GLGSV,3,3,09,87,35,247,31*56
$GNGLL,0419.92041,S,05539.91652,E,041605.00,A,D*68
$GNGRS,041605.00,1,-0.2,0.8,-1.1,-1.3,-2.7,2.1,0.0,2.5,-10.7,1.1,,*44
$GNGRS,041605.00,1,-3.0,6.5,-0.3,5.7,-1.9,-0.3,-9.2,-7.0,,,,*50
$GNGST,041605.00,25,,,,1.0,1.1,2.2*49
$GNZDA,041605.00,23,05,2025,00,00*7F
$GNGBS,041605.00,1.0,1.1,2.2,,,,*58
$GNTXT,01,01,01,More than 100 frame errors, UART RX was disabled*70
b0L)0('^$s

t%#`(4_,&b*={&4,V^':R 
Y$^GFidMGH@IJ4eK),U"8V!18#W#kbrU$GNRMC,041606.00,A,0419.92040,S,05539.91652,E,0.053,,230525,,,D*76
$GNVTG,,T,,M,0.053,N,0.098,K,D*3F
$GNGNS,041606.00,0419.92040,S,05539.91652,E,DA,18,0.57,15.1,-47.6,,0000*63
$GNGGA,041606.00,0419.92040,S,05539.91652,E,2,12,0.57,15.1,M,-47.6,M,,0000*45
$GNGSA,A,3,24,20,05,13,15,22,06,12,14,18,,,1.11,0.57,0.95*1D
$GNGSA,A,3,86,74,75,87,85,73,71,72,,,,,1.11,0.57,0.95*19
$GPGSV,5,1,17,05,48,157,41,06,07,028,40,11,39,019,,12,20,350,28*74
$GPGSV,5,2,17,13,26,171,36,14,10,116,27,15,27,208,37,18,11,221,35*7A
$GPGSV,5,3,17,20,52,095,40,22,21,098,38,24,61,282,42,29,11,283,*70
$GPGSV,5,4,17,36,52,277,38,40,86,350,44,41,58,082,39,49,32,274,*7C
$GPGSV,5,5,17,50,10,089,*4A
$GLGSV,3,1,09,70,00,105,11,71,13,146,30,72,14,195,22,73,16,139,30*6F
$GLGSV,3,2,09,74,52,101,31,75,44,013,41,85,14,007,34,86,49,312,33*65
$GLGSV,3,3,09,87,35,247,31*56
$GNGLL,0419.92040,S,05539.91652,E,041606.00,A,D*6A
$GNGRS,041606.00,1,0.1,0.4,-1.0,-1.4,-2.5,2.3,-0.1,2.3,-13.3,1.0,,*4F
$GNGRS,041606.00,1,-4.8,6.9,-0.3,5.4,-2.0,0.0,-8.3,-7.0,,,,*77
$GNGST,041606.00,25,,,,1.0,1.1,2.3*4B
$GNZDA,041606.00,23,05,2025,00,00*7C
$GNGBS,041606.00,1.0,1.1,2.3,,,,*5A
$GNTXT,01,01,01,More than 100 frame errors, UART RX was disabled*70
b0L)0('^$c

t&#x(4_&b*=/{&4,V^':R 
Y$^FirGoHI.J4eK),U#BV!18W#3br=}$GNRMC,041607.00,A,0419.92039,S,05539.91653,E,0.016,,230525,,,D*79
$GNVTG,,T,,M,0.016,N,0.029,K,D*34
$GNGNS,041607.00,0419.92039,S,05539.91653,E,DA,18,0.57,15.1,-47.6,,0000*6D
$GNGGA,041607.00,0419.92039,S,05539.91653,E,2,12,0.57,15.1,M,-47.6,M,,0000*4B
$GNGSA,A,3,24,20,05,13,15,22,06,12,14,18,,,1.11,0.57,0.95*1D
$GNGSA,A,3,86,74,75,87,85,73,71,72,,,,,1.11,0.57,0.95*19
$GPGSV,5,1,17,05,48,157,41,06,07,028,40,11,39,019,,12,20,350,29*75
$GPGSV,5,2,17,13,26,171,36,14,10,116,28,15,27,208,38,18,11,221,35*7A
$GPGSV,5,3,17,20,52,095,40,22,21,098,38,24,61,282,42,29,11,283,*70
$GPGSV,5,4,17,36,52,277,38,40,86,350,44,41,58,082,39,49,32,274,*7C
$GPGSV,5,5,17,50,10,089,*4A
$GLGSV,3,1,09,70,00,105,14,71,13,146,30,72,14,195,22,73,16,139,31*6B
$GLGSV,3,2,09,74,52,101,31,75,44,013,41,85,14,007,35,86,49,312,33*64
$GLGSV,3,3,09,87,35,247,31*56
$GNGLL,0419.92039,S,05539.91653,E,041607.00,A,D*64
$GNGRS,041607.00,1,0.5,0.0,-0.7,-1.6,-2.8,2.7,-0.1,2.4,-11.0,1.2,,*47
$GNGRS,041607.00,1,2.3,7.3,-0.3,7.2,-1.9,0.5,-6.6,-6.4,,,,*58
$GNGST,041607.00,25,,,,1.0,1.1,2.3*4A
$GNZDA,041607.00,23,05,2025,00,00*7D
$GNGBS,041607.00,1.0,1.1,2.3,,,,*5B
$GNTXT,01,01,01,More than 100 frame errors, UART RX was disabled*70
b0L)0('^u$f

tQ%#|(4_&b*)=L{&4,V^':R 
Y$^8FitGuHIJ4e:K*,U#>V 18W#Jbr%U_$GNRMC,041608.00,A,0419.92038,S,05539.91652,E,0.022,,230525,,,D*71
$GNVTG,,T,,M,0.022,N,0.041,K,D*3D
$GNGNS,041608.00,0419.92038,S,05539.91652,E,DA,18,0.57,15.2,-47.6,,0000*61
$GNGGA,041608.00,0419.92038,S,05539.91652,E,2,12,0.57,15.2,M,-47.6,M,,0000*47
$GNGSA,A,3,24,20,05,13,15,22,06,12,14,18,,,1.11,0.57,0.95*1D
$GNGSA,A,3,86,74,75,87,85,73,71,72,,,,,1.11,0.57,0.95*19
$GPGSV,5,1,17,05,48,157,41,06,07,028,40,11,39,019,,12,20,350,29*75
$GPGSV,5,2,17,13,26,171,36,14,10,116,27,15,27,208,37,18,11,221,35*7A
$GPGSV,5,3,17,20,52,095,40,22,21,098,38,24,61,282,41,29,11,283,*73
$GPGSV,5,4,17,36,52,277,38,40,86,350,44,41,58,082,39,49,32,274,*7C
$GPGSV,5,5,17,50,10,089,*4A
$GLGSV,3,1,09,70,00,105,12,71,13,146,29,72,14,195,22,73,16,139,31*65
$GLGSV,3,2,09,74,52,101,31,75,44,013,42,85,14,007,35,86,49,312,32*66
$GLGSV,3,3,09,87,35,247,31*56
$GNGLL,0419.92038,S,05539.91652,E,041608.00,A,D*6B
$GNGRS,041608.00,1,0.8,-0.2,-0.8,-1.5,-2.8,3.0,-0.3,3.7,-6.9,1.2,,*5F
$GNGRS,041608.00,1,-0.3,8.3,-0.2,6.6,-1.9,-0.7,-6.5,-7.7,,,,*5D
$GNGST,041608.00,25,,,,1.0,1.2,2.3*46
$GNZDA,041608.00,23,05,2025,00,00*72
$GNGBS,041608.00,1.0,1.2,2.3,,,,*57
$GNTXT,01,01,01,More than 100 frame errors, UART RX was disabled*70
b0Lx)0('^"$l

t%#d(4_&b"*=:{&4,V^':R 
Y$^FiBGHxIJ4eK),U#;V 18W#6bxr-$GNRMC,041609.00,A,0419.92037,S,05539.91651,E,0.030,,230525,,,D*7F
$GNVTG,,T,,M,0.030,N,0.056,K,D*38
$GNGNS,041609.00,0419.92037,S,05539.91651,E,DA,18,0.57,15.2,-47.6,,0000*6C
$GNGGA,041609.00,0419.92037,S,05539.91651,E,2,12,0.57,15.2,M,-47.6,M,,0000*4A
$GNGSA,A,3,24,20,05,13,15,22,06,12,14,18,,,1.11,0.57,0.95*1D
$GNGSA,A,3,86,74,75,87,85,73,71,72,,,,,1.11,0.57,0.95*19
$GPGSV,5,1,17,05,48,157,41,06,07,028,40,11,39,019,,12,20,350,29*75
$GPGSV,5,2,17,13,26,171,36,14,10,116,26,15,27,208,37,18,11,221,35*7B
$GPGSV,5,3,17,20,52,095,40,22,21,098,38,24,61,282,42,29,11,283,*70
$GPGSV,5,4,17,36,52,277,38,40,86,350,44,41,58,082,39,49,32,274,*7C
$GPGSV,5,5,17,50,10,089,*4A
$GLGSV,3,1,09,70,00,105,12,71,13,146,29,72,14,195,23,73,16,139,31*64
$GLGSV,3,2,09,74,52,101,31,75,44,013,41,85,14,007,35,86,49,312,32*65
$GLGSV,3,3,09,87,35,247,31*56
$GNGLL,0419.92037,S,05539.91651,E,041609.00,A,D*66
$GNGRS,041609.00,1,0.6,-0.2,-0.9,-1.5,-3.0,2.9,-0.4,2.9,-7.7,1.0,,*55
$GNGRS,041609.00,1,-0.4,7.7,-0.1,7.3,-2.0,-2.5,-5.8,-9.0,,,,*5A
$GNGST,041609.00,25,,,,1.0,1.2,2.3*47
$GNZDA,041609.00,23,05,2025,00,00*73
$GNGBS,041609.00,1.0,1.2,2.3,,,,*56
$GNTXT,01,01,01,More than 100 frame errors, UART RX was disabled*70
b0L`'0,'^&

t%&H)4_$b(=F{#4-V^':R 
Y$^FhdGHIJ4ejK(,U";V18W#b`r,$GNRMC,041610.00,A,0419.92036,S,05539.91650,E,0.020,,230525,,,D*76
$GNVTG,,T,,M,0.020,N,0.037,K,D*3E
$GNGNS,041610.00,0419.92036,S,05539.91650,E,DA,18,0.57,15.2,-47.6,,0000*64
$GNGGA,041610.00,0419.92036,S,05539.91650,E,2,12,0.57,15.2,M,-47.6,M,,0000*42
$GNGSA,A,3,24,20,05,13,15,22,06,12,14,18,,,1.11,0.57,0.95*1D
$GNGSA,A,3,86,74,75,87,85,73,71,72,,,,,1.11,0.57,0.95*19
$GPGSV,5,1,17,05,48,157,39,06,07,028,44,11,39,019,,12,20,350,29*7E
$GPGSV,5,2,17,13,26,171,38,14,10,116,25,15,27,208,37,18,11,221,38*7B
$GPGSV,5,3,17,20,52,095,41,22,21,098,36,24,61,282,40,29,11,283,*7D
$GPGSV,5,4,17,36,52,277,35,40,86,350,45,41,58,082,39,49,32,274,*70
$GPGSV,5,5,17,50,10,089,*4A
$GLGSV,3,1,09,70,00,104,11,71,13,146,28,72,14,195,20,73,16,139,30*65
$GLGSV,3,2,09,74,52,101,29,75,44,013,40,85,14,007,34,86,49,312,31*6F
$GLGSV,3,3,09,87,35,247,29*5F
$GNGLL,0419.92036,S,05539.91650,E,041610.00,A,D*6E
$GNGRS,041610.00,1,0.7,-0.5,-0.8,-0.9,-3.0,2.6,-0.3,1.6,-6.3,0.7,,*50
$GNGRS,041610.00,1,-0.3,8.7,-0.2,6.6,-2.0,-2.8,-7.9,-7.4,,,,*59
$GNGST,041610.00,30,,,,1.0,1.2,2.3*4B
$GNZDA,041610.00,23,05,2025,00,00*7B
$GNGBS,041610.00,1.0,1.2,2.3,,,,*5E
$GNTXT,01,01,01,More than 100 frame errors, UART RX was disabled*70
b0LH$0q+'^q&

t'#i)4_$b(=C{#4+V^':R 
Y$^F
hHGsH.IqJ4eVK),U"V18W#>vbHr$GNRMC,041611.00,A,0419.92035,S,05539.91650,E,0.021,,230525,,,D*75
$GNVTG,,T,,M,0.021,N,0.040,K,D*3F
$GNGNS,041611.00,0419.92035,S,05539.91650,E,DA,18,0.57,15.3,-47.6,,0000*67
$GNGGA,041611.00,0419.92035,S,05539.91650,E,2,12,0.57,15.3,M,-47.6,M,,0000*41
$GNGSA,A,3,24,20,05,13,15,22,06,12,14,18,,,1.11,0.57,0.95*1D
$GNGSA,A,3,86,74,75,87,85,73,71,72,,,,,1.11,0.57,0.95*19
$GPGSV,5,1,17,05,48,157,36,06,07,028,43,11,39,019,,12,20,350,28*77
$GPGSV,5,2,17,13,26,171,38,14,10,116,28,15,27,208,39,18,11,221,35*75
$GPGSV,5,3,17,20,52,095,41,22,21,098,36,24,61,282,40,29,11,283,*7D
$GPGSV,5,4,17,36,52,277,35,40,86,350,43,41,58,082,39,49,32,274,*76
$GPGSV,5,5,17,50,10,089,*4A
$GLGSV,3,1,09,70,00,104,10,71,13,145,27,72,14,195,15,73,16,139,30*6E
$GLGSV,3,2,09,74,52,101,28,75,44,013,41,85,14,007,34,86,49,312,30*6E
$GLGSV,3,3,09,87,35,247,27*51
$GNGLL,0419.92035,S,05539.91650,E,041611.00,A,D*6C
$GNGRS,041611.00,1,0.7,-0.6,-1.4,-0.5,-3.0,2.6,-0.3,3.7,-5.6,1.1,,*51
$GNGRS,041611.00,1,2.4,8.5,-0.1,5.7,-2.3,-4.0,-9.1,-4.7,,,,*78
$GNGST,041611.00,32,,,,1.0,1.2,2.3*48
