$GNTXT,01,01,01,More than 100 frame errors, UART RX was disabled*70
b0X!1%_$c
"u1@$3\7"d>#{4V^:R 
Y_F
fG"gHUI@J3iK.EUV/:W$bre$GNRMC,041957.00,A,0419.91838,S,05539.90585,E,0.028,,230525,,,D*7D
$GNVTG,,T,,M,0.028,N,0.052,K,D*35
$GNGNS,041957.00,0419.91838,S,05539.90585,E,DA,17,0.72,14.9,-47.6,,0000*65
$GNGGA,041957.00,0419.91838,S,05539.90585,E,2,12,0.72,14.9,M,-47.6,M,,0000*4C
$GNGSA,A,3,24,20,05,13,15,22,06,14,18,,,,1.27,0.72,1.04*15
$GNGSA,A,3,86,74,75,87,85,73,71,72,,,,,1.27,0.72,1.04*12
$GPGSV,5,1,17,05,49,154,33,06,05,028,11,11,37,019,,12,21,351,*71
$GPGSV,5,2,17,13,25,170,36,14,09,117,34,15,27,206,23,18,12,221,19*75
$GPGSV,5,3,17,20,51,092,29,22,21,100,34,24,62,279,18,29,11,285,*79
$GPGSV,5,4,17,36,52,277,,40,86,350,,41,58,082,,49,32,274,*7D
$GPGSV,5,5,17,50,10,089,*4A
$GLGSV,3,1,10,70,00,102,10,71,13,143,34,72,14,192,26,73,15,140,29*66
$GLGSV,3,2,10,74,51,105,22,75,46,014,27,85,12,008,12,86,47,314,19*60
$GLGSV,3,3,10,87,36,250,12,,,,26*5E
$GNGLL,0419.91838,S,05539.90585,E,041957.00,A,D*6D
$GNGRS,041957.00,1,-2.2,-2.0,-1.2,1.0,5.8,-1.1,2.7,0.5,-4.8,,,*5C
$GNGRS,041957.00,1,6.4,10.5,3.2,24.7,52.6,-4.5,-1.5,-17.1,,,,*76
$GNGST,041957.00,41,,,,3.8,4.0,5.4*4C
$GNZDA,041957.00,23,05,2025,00,00*77
$GNGBS,041957.00,3.8,4.0,5.4,,,,*5F
$GNTXT,01,01,01,More than 100 frame errors, UART RX was disabled*70
b0X$1|X%_(G
&u7c3\s#d>{4V^:R 
Y_FfG$jHIKJ3iK.%UQV/:W
$mbr=l$GNRMC,041958.00,A,0419.91830,S,05539.90573,E,0.179,,230525,,,D*76
$GNVTG,,T,,M,0.179,N,0.332,K,D*35
$GNGNS,041958.00,0419.91830,S,05539.90573,E,DA,17,0.61,14.7,-47.6,,0000*67
$GNGGA,041958.00,0419.91830,S,05539.90573,E,2,12,0.61,14.7,M,-47.6,M,,0000*4E
$GNGSA,A,3,24,20,05,13,15,22,06,14,18,,,,1.13,0.61,0.95*19
$GNGSA,A,3,86,74,75,87,85,73,71,72,,,,,1.13,0.61,0.95*1E
$GPGSV,5,1,17,05,49,154,36,06,05,028,13,11,37,019,,12,21,351,*76
$GPGSV,5,2,17,13,25,170,40,14,09,117,38,15,27,206,23,18,12,221,21*73
$GPGSV,5,3,17,20,51,092,29,22,21,100,35,24,62,279,15,29,11,285,*75
$GPGSV,5,4,17,36,52,277,,40,86,350,,41,58,082,,49,32,274,*7D
$GPGSV,5,5,17,50,10,089,*4A
$GLGSV,3,1,10,70,00,102,07,71,13,143,36,72,14,192,25,73,14,141,30*69
$GLGSV,3,2,10,74,51,105,22,75,46,014,25,85,12,008,11,86,47,314,18*60
$GLGSV,3,3,10,87,36,250,10,,,,25*5F
$GNGLL,0419.91830,S,05539.90573,E,041958.00,A,D*63
$GNGRS,041958.00,1,-0.7,-6.5,-1.3,0.7,6.1,-1.0,3.4,0.6,-3.5,,,*52
$GNGRS,041958.00,1,7.4,10.5,2.9,1.8,13.6,-6.9,-1.5,-17.9,,,,*49
$GNGST,041958.00,3965255,,,,3.8,4.0,5.4*7D
$GNZDA,041958.00,23,05,2025,00,00*78
$GNGBS,041958.00,3.8,4.0,5.4,,,,*50
$GNTXT,01,01,01,More than 100 frame errors, UART RX was disabled*70
b0X$1j7%_)c
'u&43\O%d>!{4V^:R 
Y_FfG'bHI"J3j+K.?UIV/:W
$br}$GNRMC,041959.00,A,0419.91830,S,05539.90571,E,0.217,,230525,,,D*7E
$GNVTG,,T,,M,0.217,N,0.402,K,D*3A
$GNGNS,041959.00,0419.91830,S,05539.90571,E,DA,16,0.66,14.7,-47.6,,0000*62
$GNGGA,041959.00,0419.91830,S,05539.90571,E,2,12,0.66,14.7,M,-47.6,M,,0000*4A
$GNGSA,A,3,24,20,05,13,15,22,06,14,18,,,,1.22,0.66,1.02*13
$GNGSA,A,3,86,74,75,87,73,71,72,,,,,,1.22,0.66,1.02*19
$GPGSV,5,1,17,05,49,154,36,06,05,028,12,11,37,019,,12,21,351,*77
$GPGSV,5,2,17,13,25,170,41,14,09,117,39,15,27,206,23,18,12,221,22*70
$GPGSV,5,3,17,20,51,092,29,22,21,100,37,24,62,279,16,29,11,285,*74
$GPGSV,5,4,17,36,52,277,,40,86,350,,41,58,082,,49,32,274,*7D
$GPGSV,5,5,17,50,10,089,*4A
$GLGSV,3,1,10,70,00,102,07,71,13,143,39,72,14,192,26,73,14,141,34*61
$GLGSV,3,2,10,74,51,106,22,75,46,014,27,85,12,008,07,86,47,314,19*67
$GLGSV,3,3,10,87,36,250,10,,,,26*5C
$GNGLL,0419.91830,S,05539.90571,E,041959.00,A,D*60
$GNGRS,041959.00,1,-2.2,-1.8,-1.5,1.0,5.1,-0.9,0.6,0.4,-2.0,,,*52
$GNGRS,041959.00,1,8.0,10.7,0.6,1.4,-2.8,-1.6,-16.2,,,,,*56
$GNGST,041959.00,2885147,,,,3.7,4.0,5.4*7D
$GNZDA,041959.00,23,05,2025,00,00*79
$GNGBS,041959.00,3.7,4.0,5.4,,,,*5E
$GNTXT,01,01,01,More than 100 frame errors, UART RX was disabled*70
b0X%1u[%_(w
&u53\"d>~{4V^:R 
Y_FfG'\HUI#AJ3jK/=UV/:YW$Dbre-$GNRMC,042000.00,A,0419.91831,S,05539.90569,E,0.112,,230525,,,D*76
$GNVTG,,T,,M,0.112,N,0.208,K,D*30
$GNGNS,042000.00,0419.91831,S,05539.90569,E,DA,17,0.66,14.6,-47.6,,0000*6C
$GNGGA,042000.00,0419.91831,S,05539.90569,E,2,12,0.66,14.6,M,-47.6,M,,0000*45
$GNGSA,A,3,24,20,05,13,15,22,06,14,18,,,,1.22,0.66,1.02*13
$GNGSA,A,3,86,74,75,87,85,73,71,72,,,,,1.22,0.66,1.02*14
$GPGSV,5,1,17,05,49,154,37,06,05,028,11,11,37,019,,12,21,351,*75
$GPGSV,5,2,17,13,25,170,40,14,09,117,38,15,27,206,24,18,12,221,21*74
$GPGSV,5,3,17,20,51,092,29,22,21,100,34,24,62,279,19,29,11,285,*78
$GPGSV,5,4,17,36,52,277,,40,86,350,,41,58,082,,49,32,274,*7D
$GPGSV,5,5,17,50,10,089,*4A
$GLGSV,3,1,10,70,00,102,11,71,13,143,39,72,14,192,26,73,14,141,35*67
$GLGSV,3,2,10,74,51,106,22,75,47,015,26,85,12,008,12,86,47,314,20*68
$GLGSV,3,3,10,87,36,250,12,,,,27*5F
$GNGLL,0419.91831,S,05539.90569,E,042000.00,A,D*6E
$GNGRS,042000.00,1,-1.3,-4.9,-1.4,1.2,4.0,-1.0,-1.7,0.5,-1.0,,,*76
$GNGRS,042000.00,1,6.0,9.9,0.6,-8.3,42.5,3.2,-1.6,-17.1,,,,*72
$GNGST,042000.00,48,,,,3.7,4.0,5.4*42
$GNZDA,042000.00,23,05,2025,00,00*7F
$GNGBS,042000.00,3.7,4.0,5.4,,,,*58
$GNTXT,01,01,01,More than 100 frame errors, UART RX was disabled*70
b0d&1f%_*X
'uWL3\W%d>{4V^:R 
Y_NFf~G'zH4I#J3jK/LTUEV/:W$brM$GNRMC,042001.00,A,0419.91826,S,05539.90560,E,0.066,,230525,,,D*7A
$GNVTG,,T,,M,0.066,N,0.121,K,D*3A
$GNGNS,042001.00,0419.91826,S,05539.90560,E,DA,17,0.61,14.4,-47.6,,0000*67
$GNGGA,042001.00,0419.91826,S,05539.90560,E,2,12,0.61,14.4,M,-47.6,M,,0000*4E
$GNGSA,A,3,24,20,05,13,15,22,06,14,18,,,,1.13,0.61,0.95*19
$GNGSA,A,3,86,74,75,87,85,73,71,72,,,,,1.13,0.61,0.95*1E
$GPGSV,5,1,17,05,49,154,38,06,05,028,13,11,37,019,,12,21,351,*78
$GPGSV,5,2,17,13,25,170,42,14,09,117,39,15,27,206,25,18,12,221,21*76
$GPGSV,5,3,17,20,51,092,28,22,21,100,37,24,62,279,21,29,11,285,*71
$GPGSV,5,4,17,36,52,277,,40,86,350,,41,58,082,,49,32,274,*7D
$GPGSV,5,5,17,50,10,089,*4A
$GLGSV,3,1,11,70,00,102,12,71,13,143,39,72,14,192,25,73,14,141,35*66
$GLGSV,3,2,11,74,51,106,23,75,47,015,26,76,00,340,,85,12,008,12*67
$GLGSV,3,3,11,86,47,314,21,87,36,250,15,,,,28*6E
$GNGLL,0419.91826,S,05539.90560,E,042001.00,A,D*60
$GNGRS,042001.00,1,-2.4,-9.4,-1.5,0.9,3.4,-0.8,-5.4,0.2,0.8,,,*56
$GNGRS,042001.00,1,4.1,9.3,2.6,2.2,13.5,1.3,-1.3,-17.4,,,,*59
$GNGST,042001.00,2805317,,,,3.7,3.9,5.3*7C
$GNZDA,042001.00,23,05,2025,00,00*7E
$GNGBS,042001.00,3.7,3.9,5.3,,,,*50
$GNTXT,01,01,01,More than 100 frame errors, UART RX was disabled*70
b0d#&1{N%_+;
)u#3\%d>{4V^:R 
Y_ZFfmG&dHI$J3jK/\LTUV/:W$^b#r5$GNRMC,042002.00,A,0419.91813,S,05539.90544,E,0.214,,230525,,,D*7E
$GNVTG,,T,,M,0.214,N,0.396,K,D*33
$GNGNS,042002.00,0419.91813,S,05539.90544,E,DA,17,0.61,14.0,-47.6,,0000*60
$GNGGA,042002.00,0419.91813,S,05539.90544,E,2,12,0.61,14.0,M,-47.6,M,,0000*49
$GNGSA,A,3,24,20,05,13,15,22,06,14,18,,,,1.13,0.61,0.95*19
$GNGSA,A,3,86,74,75,87,85,73,71,72,,,,,1.13,0.61,0.95*1E
$GPGSV,5,1,17,05,49,154,38,06,05,028,15,11,37,019,,12,21,351,*7E
$GPGSV,5,2,17,13,25,170,43,14,09,117,41,15,27,206,24,18,12,221,22*7A
$GPGSV,5,3,17,20,51,092,35,22,21,100,37,24,62,279,20,29,11,285,*7C
$GPGSV,5,4,17,36,52,277,,40,86,350,,41,58,082,,49,32,274,*7D
$GPGSV,5,5,17,50,10,089,*4A
$GLGSV,3,1,11,70,00,102,13,71,13,143,38,72,14,192,25,73,14,141,36*65
$GLGSV,3,2,11,74,51,106,26,75,47,015,24,76,00,340,,85,12,008,09*6A
$GLGSV,3,3,11,86,47,314,21,87,36,250,14,,,,28*6F
$GNGLL,0419.91813,S,05539.90544,E,042002.00,A,D*63
$GNGRS,042002.00,1,-3.6,-2.4,-1.3,0.6,2.0,-0.6,-4.3,0.2,-0.1,,,*7D
$GNGRS,042002.00,1,4.2,9.3,0.9,1.9,12.9,-5.8,-1.6,-16.4,,,,*77
$GNGST,042002.00,2807139,,,,3.7,3.9,5.2*72
$GNZDA,042002.00,23,05,2025,00,00*7D
$GNGBS,042002.00,3.7,3.9,5.2,,,,*52
$GNTXT,01,01,01,More than 100 frame errors, UART RX was disabled*70
b0d'&1~%_*V
'u(~#3\3$d>{4V^:R 
Y_FfG&mH{I$J3jK/>LTUV/:W$b'rte$GNRMC,042003.00,A,0419.91815,S,05539.90544,E,0.043,,230525,,,D*79
$GNVTG,,T,,M,0.043,N,0.079,K,D*31
$GNGNS,042003.00,0419.91815,S,05539.90544,E,DA,17,0.61,13.9,-47.6,,0000*69
$GNGGA,042003.00,0419.91815,S,05539.90544,E,2,12,0.61,13.9,M,-47.6,M,,0000*40
$GNGSA,A,3,24,20,05,13,15,22,06,14,18,,,,1.13,0.61,0.95*19
$GNGSA,A,3,86,74,75,87,85,73,71,72,,,,,1.13,0.61,0.95*1E
$GPGSV,5,1,17,05,49,154,38,06,05,028,16,11,37,019,,12,21,351,*7D
$GPGSV,5,2,17,13,25,170,42,14,09,117,39,15,27,206,26,18,12,221,24*70
$GPGSV,5,3,17,20,51,092,35,22,21,100,36,24,62,279,19,29,11,285,*77
$GPGSV,5,4,17,36,52,277,,40,86,350,,41,58,082,,49,32,274,*7D
$GPGSV,5,5,17,50,10,089,*4A
$GLGSV,3,1,11,70,00,102,13,71,13,143,38,72,14,192,24,73,14,141,36*64
$GLGSV,3,2,11,74,51,106,27,75,47,015,23,76,00,340,,85,12,008,11*65
$GLGSV,3,3,11,86,47,314,21,87,36,250,14,,,,27*60
$GNGLL,0419.91815,S,05539.90544,E,042003.00,A,D*64
$GNGRS,042003.00,1,-5.6,-2.0,-1.3,0.9,1.3,-0.3,-2.6,0.4,-3.5,,,*76
$GNGRS,042003.00,1,2.7,9.6,3.2,5.1,15.0,-3.5,-1.5,-16.7,,,,*71
$GNGST,042003.00,55,,,,3.7,3.9,5.1*46
$GNZDA,042003.00,23,05,2025,00,00*7C
$GNGBS,042003.00,3.7,3.9,5.1,,,,*50
$GNTXT,01,01,01,More than 100 frame errors, UART RX was disabled*70
b0dp+&1j%_*p
)uB#3\9#d>5{4V^:R 
Y_FfG'zHI$tJ3jBK/wLTUeV/:W$'bp+rL$GNRMC,042004.00,A,0419.91813,S,05539.90537,E,0.082,,230525,,,D*71
$GNVTG,,T,,M,0.082,N,0.151,K,D*37
$GNGNS,042004.00,0419.91813,S,05539.90537,E,DA,17,0.61,13.6,-47.6,,0000*63
$GNGGA,042004.00,0419.91813,S,05539.90537,E,2,12,0.61,13.6,M,-47.6,M,,0000*4A
$GNGSA,A,3,24,20,05,13,15,22,06,14,18,,,,1.13,0.61,0.95*19
$GNGSA,A,3,86,74,75,87,85,73,71,72,,,,,1.13,0.61,0.95*1E
$GPGSV,5,1,17,05,49,154,38,06,05,028,18,11,37,019,,12,21,351,*73
$GPGSV,5,2,17,13,25,170,42,14,09,117,41,15,27,206,26,18,12,221,25*7E
$GPGSV,5,3,17,20,51,092,35,22,21,100,35,24,62,279,17,29,11,285,*7A
$GPGSV,5,4,17,36,52,277,,40,86,350,,41,58,082,,49,32,274,*7D
$GPGSV,5,5,17,50,10,089,*4A
$GLGSV,3,1,11,70,00,102,08,71,13,143,39,72,14,192,24,73,14,141,36*6F
$GLGSV,3,2,11,74,51,106,26,75,47,015,24,76,00,340,,85,12,008,08*6B
$GLGSV,3,3,11,86,47,314,20,87,36,250,13,,,,25*64
$GNGLL,0419.91813,S,05539.90537,E,042004.00,A,D*61
$GNGRS,042004.00,1,-4.6,-4.5,-1.5,1.1,2.2,0.0,-0.8,0.2,-4.5,,,*5D
$GNGRS,042004.00,1,2.4,10.9,1.2,2.0,13.8,-1.4,-1.3,-16.2,,,,*48
$GNGST,042004.00,36197,,,,3.7,3.9,5.0*7A
$GNZDA,042004.00,23,05,2025,00,00*7B
$GNGBS,042004.00,3.7,3.9,5.0,,,,*56
$GNTXT,01,01,01,More than 100 frame errors, UART RX was disabled*70
b0dX/'1]%_*p
)uq$3\"d>R{4V^:R 
Y_1FfvG'HI%J3jmK/LTU
[V/:W$JbX/r#2$GNRMC,042005.00,A,0419.91814,S,05539.90531,E,0.022,,230525,,,D*7B
$GNVTG,,T,,M,0.022,N,0.040,K,D*3C
$GNGNS,042005.00,0419.91814,S,05539.90531,E,DA,17,0.61,13.3,-47.6,,0000*66
$GNGGA,042005.00,0419.91814,S,05539.90531,E,2,12,0.61,13.3,M,-47.6,M,,0000*4F
$GNGSA,A,3,24,20,05,13,15,22,06,14,18,,,,1.13,0.61,0.95*19
$GNGSA,A,3,86,74,75,87,85,73,71,72,,,,,1.13,0.61,0.95*1E
$GPGSV,5,1,17,05,49,154,39,06,05,028,19,11,37,019,,12,21,351,*73
$GPGSV,5,2,17,13,25,170,42,14,09,117,41,15,27,206,26,18,12,221,25*7E
$GPGSV,5,3,17,20,51,092,36,22,21,100,34,24,62,279,17,29,11,285,*78
$GPGSV,5,4,17,36,52,277,,40,86,350,,41,58,082,,49,32,274,*7D
$GPGSV,5,5,17,50,10,089,*4A
$GLGSV,3,1,11,70,00,102,09,71,13,143,39,72,14,192,23,73,14,141,37*68
$GLGSV,3,2,11,74,51,106,27,75,47,015,24,76,00,340,,85,12,008,10*63
$GLGSV,3,3,11,86,47,314,19,87,36,250,09,,,,25*65
$GNGLL,0419.91814,S,05539.90531,E,042005.00,A,D*61
$GNGRS,042005.00,1,-4.3,-3.2,-1.6,1.1,2.3,0.0,-4.8,0.2,-6.6,,,*5E
$GNGRS,042005.00,1,1.8,11.3,-0.4,1.8,13.7,-2.3,-1.1,-15.2,,,,*66
$GNGST,042005.00,54295,,,,3.7,3.8,4.8*76
$GNZDA,042005.00,23,05,2025,00,00*7A
$GNGBS,042005.00,3.7,3.8,4.8,,,,*5F
$GNTXT,01,01,01,More than 100 frame errors, UART RX was disabled*70
b0d@3'1J%_*
)u$3\f#d<>R{4V^:R 
Y_FfG'HrI%J3j,K/'LTUV/:W
$b@3r$GNRMC,042006.00,A,0419.91807,S,05539.90520,E,0.184,,230525,,,D*77
$GNVTG,,T,,M,0.184,N,0.341,K,D*33
$GNGNS,042006.00,0419.91807,S,05539.90520,E,DA,17,0.70,12.9,-47.6,,0000*6C
$GNGGA,042006.00,0419.91807,S,05539.90520,E,2,12,0.70,12.9,M,-47.6,M,,0000*45
$GNGSA,A,3,24,20,05,13,15,22,06,14,18,,,,1.23,0.70,1.02*15
$GNGSA,A,3,86,74,75,87,85,73,71,72,,,,,1.23,0.70,1.02*12
$GPGSV,5,1,17,05,49,154,39,06,05,028,19,11,37,019,,12,21,351,*73
$GPGSV,5,2,17,13,25,170,42,14,09,117,41,15,27,206,26,18,12,221,25*7E
$GPGSV,5,3,17,20,51,092,36,22,21,100,35,24,62,279,21,29,11,285,*7C
$GPGSV,5,4,17,36,52,277,,40,86,350,,41,58,082,,49,32,274,*7D
$GPGSV,5,5,17,50,10,089,*4A
$GLGSV,3,1,11,70,00,102,08,71,13,143,39,72,14,192,23,73,14,141,37*69
$GLGSV,3,2,11,74,51,106,27,75,47,015,25,76,00,340,,85,12,008,12*60
$GLGSV,3,3,11,86,47,314,18,87,36,250,10,,,,25*6C
$GNGLL,0419.91807,S,05539.90520,E,042006.00,A,D*60
$GNGRS,042006.00,1,-4.3,-1.5,-1.8,1.4,-0.1,0.6,-3.6,0.0,-7.5,,,*71
$GNGRS,042006.00,1,1.5,10.7,0.4,-20.6,-36.0,-2.3,-1.0,-16.8,,,,*75
$GNGST,042006.00,39,,,,3.6,3.8,4.7*4E
$GNZDA,042006.00,23,05,2025,00,00*79
$GNGBS,042006.00,3.6,3.8,4.7,,,,*52
$GNTXT,01,01,01,More than 100 frame errors, UART RX was disabled*70
b0d(7(1X%_*
(u?#3\g#dO>{4V^:R 
Y"_F
fG&H"I$J3jK/LTU`V/:W$'b(7r$GNRMC,042007.00,A,0419.91801,S,05539.90510,E,0.147,,230525,,,D*7C
$GNVTG,,T,,M,0.147,N,0.273,K,D*3C
$GNGNS,042007.00,0419.91801,S,05539.90510,E,DA,17,0.61,12.4,-47.6,,0000*65
$GNGGA,042007.00,0419.91801,S,05539.90510,E,2,12,0.61,12.4,M,-47.6,M,,0000*4C
$GNGSA,A,3,24,20,05,13,15,22,06,14,18,,,,1.13,0.61,0.95*19
$GNGSA,A,3,86,74,75,87,85,73,71,72,,,,,1.13,0.61,0.95*1E
$GPGSV,5,1,17,05,49,154,40,06,05,028,18,11,37,019,,12,21,351,*7C
$GPGSV,5,2,17,13,25,170,42,14,09,117,40,15,27,206,27,18,12,221,24*7F
$GPGSV,5,3,17,20,51,092,35,22,21,100,35,24,62,279,22,29,11,285,*7C
$GPGSV,5,4,17,36,52,277,,40,86,350,,41,58,082,,49,32,274,*7D
$GPGSV,5,5,17,50,10,089,*4A
$GLGSV,3,1,11,70,00,102,10,71,13,143,38,72,14,192,23,73,14,141,36*60
$GLGSV,3,2,11,74,51,106,27,75,47,015,24,76,00,340,,85,12,008,09*6B
$GLGSV,3,3,11,86,47,314,20,87,36,250,13,,,,25*64
$GNGLL,0419.91801,S,05539.90510,E,042007.00,A,D*64
$GNGRS,042007.00,1,-3.5,-4.1,-1.7,1.4,0.6,0.8,-2.7,-0.1,-7.4,,,*76
$GNGRS,042007.00,1,-0.7,10.0,2.7,2.3,13.8,-2.4,-1.0,-17.6,,,,*6E
$GNGST,042007.00,3965255,,,,3.6,3.7,4.6*70
$GNZDA,042007.00,23,05,2025,00,00*78
$GNGBS,042007.00,3.6,3.7,4.6,,,,*5D
$GNTXT,01,01,01,More than 100 frame errors, UART RX was disabled*70
b0d;'1W%_*
(uV`%3\#d]>^{4V^:R 
Y_FfpG%HI#J3jK/LTUfV/:tW$cb;rj$GNRMC,042008.00,A,0419.91805,S,05539.90504,E,0.076,,230525,,,D*71
$GNVTG,,T,,M,0.076,N,0.141,K,D*3D
$GNGNS,042008.00,0419.91805,S,05539.90504,E,DA,17,0.61,12.0,-47.6,,0000*6F
$GNGGA,042008.00,0419.91805,S,05539.90504,E,2,12,0.61,12.0,M,-47.6,M,,0000*46
$GNGSA,A,3,24,20,05,13,15,22,06,14,18,,,,1.13,0.61,0.95*19
$GNGSA,A,3,86,74,75,87,85,73,71,72,,,,,1.13,0.61,0.95*1E
$GPGSV,5,1,17,05,49,154,39,06,05,028,18,11,37,019,,12,21,351,*72
$GPGSV,5,2,17,13,25,170,42,14,09,117,40,15,27,206,26,18,12,221,25*7F
$GPGSV,5,3,17,20,51,092,37,22,21,100,35,24,62,279,23,29,11,285,*7F
$GPGSV,5,4,17,36,52,277,,40,86,350,,41,58,082,,49,32,274,*7D
$GPGSV,5,5,17,50,10,089,*4A
$GLGSV,3,1,11,70,00,102,08,71,13,143,37,72,14,192,21,73,14,141,35*67
$GLGSV,3,2,11,74,51,106,27,75,47,015,23,76,00,340,,85,12,008,09*6C
$GLGSV,3,3,11,86,47,314,20,87,36,250,09,,,,24*6E
$GNGLL,0419.91805,S,05539.90504,E,042008.00,A,D*6A
$GNGRS,042008.00,1,-4.2,-3.3,-1.7,1.7,0.9,0.9,-3.6,-0.1,-9.3,,,*78
$GNGRS,042008.00,1,1.2,9.9,2.1,2.4,13.8,-2.5,-1.2,-17.8,,,,*75
$GNGST,042008.00,3965255,,,,3.6,3.7,4.5*7C
$GNZDA,042008.00,23,05,2025,00,00*77
$GNGBS,042008.00,3.6,3.7,4.5,,,,*51
$GNTXT,01,01,01,More than 100 frame errors, UART RX was disabled*70
b0d>'1{%_*
(u"3\{#dd>{4V^:R 
Y _Ff=G%HI"J3jK/LTU^V/:&W$}b>r$GNRMC,042009.00,A,0419.91801,S,05539.90498,E,0.058,,230525,,,D*7C
$GNVTG,,T,,M,0.058,N,0.107,K,D*33
$GNGNS,042009.00,0419.91801,S,05539.90498,E,DA,17,0.66,11.7,-47.6,,0000*6D
$GNGGA,042009.00,0419.91801,S,05539.90498,E,2,12,0.66,11.7,M,-47.6,M,,0000*44
$GNGSA,A,3,24,20,05,13,15,22,06,14,18,,,,1.22,0.66,1.02*13
$GNGSA,A,3,86,74,75,87,85,73,71,72,,,,,1.22,0.66,1.02*14
$GPGSV,5,1,17,05,49,154,39,06,05,028,17,11,37,019,,12,21,351,*7D
$GPGSV,5,2,17,13,25,170,42,14,09,117,40,15,27,206,27,18,12,221,24*7F
$GPGSV,5,3,17,20,51,092,34,22,21,100,35,24,62,279,22,29,11,285,*7D
$GPGSV,5,4,17,36,52,277,,40,86,350,,41,58,082,,49,32,274,*7D
$GPGSV,5,5,17,50,10,089,*4A
$GLGSV,3,1,11,70,00,102,11,71,13,143,37,72,14,192,19,73,14,141,34*65
$GLGSV,3,2,11,74,51,106,26,75,47,015,22,76,00,340,,85,12,008,08*6D
$GLGSV,3,3,11,86,47,314,20,87,36,250,13,,,,23*62
$GNGLL,0419.91801,S,05539.90498,E,042009.00,A,D*6B
$GNGRS,042009.00,1,-5.9,-3.9,-1.3,1.8,-0.1,1.0,-1.0,0.2,-10.3,,,*4D
$GNGRS,042009.00,1,0.4,10.3,2.8,-0.5,-83.5,-2.7,-1.1,-18.2,,,,*4B
$GNGST,042009.00,48,,,,3.6,3.7,4.4*4B
$GNZDA,042009.00,23,05,2025,00,00*76
$GNGBS,042009.00,3.6,3.7,4.4,,,,*51
$GNTXT,01,01,01,More than 100 frame errors, UART RX was disabled*70
b0dB'1%_*
'u58"3\$dQ>{4V^:R 
Y_FfG%HI!J3j@K/LTU
V/:W$}bBruZ+$GNRMC,042010.00,A,0419.91805,S,05539.90498,E,0.016,,230525,,,D*7A
$GNVTG,,T,,M,0.016,N,0.029,K,D*34
$GNGNS,042010.00,0419.91805,S,05539.90498,E,DA,17,0.61,11.5,-47.6,,0000*64
$GNGGA,042010.00,0419.91805,S,05539.90498,E,2,12,0.61,11.5,M,-47.6,M,,0000*4D
$GNGSA,A,3,24,20,05,13,15,22,06,14,18,,,,1.13,0.61,0.95*19
$GNGSA,A,3,86,74,75,87,85,73,71,72,,,,,1.13,0.61,0.95*1E
$GPGSV,5,1,17,05,49,154,39,06,05,028,17,11,37,019,,12,21,351,*7D
$GPGSV,5,2,17,13,25,170,42,14,09,117,39,15,27,206,27,18,12,221,23*76
$GPGSV,5,3,17,20,51,092,34,22,21,100,36,24,62,279,22,29,11,285,*7E
$GPGSV,5,4,17,36,52,277,,40,86,350,,41,58,082,,49,32,274,*7D
$GPGSV,5,5,17,50,10,089,*4A
$GLGSV,3,1,11,70,00,102,07,71,13,143,37,72,14,192,19,73,14,141,33*65
$GLGSV,3,2,11,74,51,106,25,75,47,015,23,76,00,340,,85,12,008,10*66
$GLGSV,3,3,11,86,47,314,19,87,36,250,08,,,,22*63
$GNGLL,0419.91805,S,05539.90498,E,042010.00,A,D*67
$GNGRS,042010.00,1,-7.5,-3.6,-1.1,1.9,0.6,0.8,-2.5,0.5,-10.5,,,*63
$GNGRS,042010.00,1,2.8,10.9,0.1,2.2,14.1,-2.8,-0.9,-18.7,,,,*40
$GNGST,042010.00,2804001,,,,3.5,3.7,4.4*73
$GNZDA,042010.00,23,05,2025,00,00*7E
$GNGBS,042010.00,3.5,3.7,4.4,,,,*5A
$GNTXT,01,01,01,More than 100 frame errors, UART RX was disabled*70
b0dF'1%_+
'u1 3\%da>c{4V^:R 
Y!_WFfG$HI!J3j!K/4LTU
V/;]W
$bFr]2$GNRMC,042011.00,A,0419.91804,S,05539.90496,E,0.014,,230525,,,D*76
$GNVTG,,T,,M,0.014,N,0.026,K,D*39
$GNGNS,042011.00,0419.91804,S,05539.90496,E,DA,17,0.61,11.3,-47.6,,0000*6C
$GNGGA,042011.00,0419.91804,S,05539.90496,E,2,12,0.61,11.3,M,-47.6,M,,0000*45
$GNGSA,A,3,24,20,05,13,15,22,06,14,18,,,,1.13,0.61,0.95*19
$GNGSA,A,3,86,74,75,87,85,73,71,72,,,,,1.13,0.61,0.95*1E
$GPGSV,5,1,17,05,49,154,39,06,05,028,17,11,37,019,,12,21,351,*7D
$GPGSV,5,2,17,13,25,170,43,14,09,117,39,15,27,206,27,18,12,221,23*77
$GPGSV,5,3,17,20,51,092,32,22,21,100,37,24,62,279,21,29,11,285,*7A
$GPGSV,5,4,17,36,52,277,,40,86,350,,41,58,082,,49,32,274,*7D
$GPGSV,5,5,17,50,10,089,*4A
$GLGSV,3,1,11,70,00,102,08,71,13,143,36,72,14,192,20,73,14,141,33*61
$GLGSV,3,2,11,74,51,106,25,75,47,015,22,76,00,340,,85,12,008,10*67
$GLGSV,3,3,11,86,47,315,18,87,36,250,10,,,,25*6D
$GNGLL,0419.91804,S,05539.90496,E,042011.00,A,D*69
$GNGRS,042011.00,1,-9.3,-3.2,-1.2,1.5,-0.3,1.0,-3.5,0.5,-10.3,,,*47
$GNGRS,042011.00,1,3.5,10.6,0.5,1.9,14.1,-2.9,-1.0,-18.6,,,,*46
$GNGST,042011.00,2804179,,,,3.6,3.7,4.3*78
$GNZDA,042011.00,23,05,2025,00,00*7F
$GNGBS,042011.00,3.6,3.7,4.3,,,,*5F
$GNTXT,01,01,01,More than 100 frame errors, UART RX was disabled*70
b0dJ'1%_*
'u. 3\(dT>W{4V^:R 
Y"_FfEG%HGI +J3jK/LTU
6V/;W$:bJrE
$GNRMC,042012.00,A,0419.91803,S,05539.90498,E,0.048,,230525,,,D*75
$GNVTG,,T,,M,0.048,N,0.090,K,D*3D
$GNGNS,042012.00,0419.91803,S,05539.90498,E,DA,17,0.66,11.1,-47.6,,0000*63
$GNGGA,042012.00,0419.91803,S,05539.90498,E,2,12,0.66,11.1,M,-47.6,M,,0000*4A
$GNGSA,A,3,24,20,05,13,15,22,06,14,18,,,,1.22,0.66,1.02*13
$GNGSA,A,3,86,74,75,87,85,73,71,72,,,,,1.22,0.66,1.02*14
$GPGSV,5,1,17,05,49,154,39,06,05,028,17,11,37,019,,12,21,351,*7D
$GPGSV,5,2,17,13,25,170,42,14,09,117,39,15,27,206,28,18,12,221,24*7E
$GPGSV,5,3,17,20,51,092,32,22,21,100,40,24,62,279,21,29,11,285,*7A
$GPGSV,5,4,17,36,52,277,,40,86,350,,41,58,082,,49,32,274,*7D
$GPGSV,5,5,17,50,10,089,*4A
$GLGSV,3,1,11,70,00,102,11,71,13,143,37,72,14,192,20,73,14,141,32*69
$GLGSV,3,2,11,74,51,106,25,75,47,015,21,76,00,340,,85,12,008,10*64
$GLGSV,3,3,11,86,47,315,19,87,36,251,12,,,,26*6C
$GNGLL,0419.91803,S,05539.90498,E,042012.00,A,D*63
$GNGRS,042012.00,1,-9.4,-3.0,-1.1,1.6,-3.0,0.8,-0.8,0.5,-8.6,,,*7A
$GNGRS,042012.00,1,4.3,9.7,-0.6,-7.1,-133,-4.7,-0.9,-17.2,,,,*7D
$GNGST,042012.00,49,,,,3.5,3.6,4.3*45
$GNZDA,042012.00,23,05,2025,00,00*7C
$GNGBS,042012.00,3.5,3.6,4.3,,,,*5E
$GNTXT,01,01,01,More than 100 frame errors, UART RX was disabled*70
b0dN'1p%_*
%uV 3\(d[>{4V^:R 
Y!_F
fzG%HI!J3jK/<LTUZV/;[W$bNr-c$GNRMC,042013.00,A,0419.91794,S,05539.90490,E,0.202,,230525,,,D*71
$GNVTG,,T,,M,0.202,N,0.374,K,D*38
$GNGNS,042013.00,0419.91794,S,05539.90490,E,DA,17,0.61,10.9,-47.6,,0000*65
$GNGGA,042013.00,0419.91794,S,05539.90490,E,2,12,0.61,10.9,M,-47.6,M,,0000*4C
$GNGSA,A,3,24,20,05,13,15,22,06,14,18,,,,1.12,0.61,0.95*18
$GNGSA,A,3,86,74,75,87,85,73,71,72,,,,,1.12,0.61,0.95*1F
$GPGSV,5,1,17,05,49,154,39,06,05,028,18,11,37,019,,12,21,351,*72
$GPGSV,5,2,17,13,25,170,42,14,09,117,37,15,27,206,29,18,12,221,25*70
$GPGSV,5,3,17,20,51,092,32,22,21,100,40,24,62,279,21,29,11,285,*7A
$GPGSV,5,4,17,36,52,277,,40,86,350,,41,58,082,,49,32,274,*7D
$GPGSV,5,5,17,50,10,089,*4A
$GLGSV,3,1,11,70,00,102,10,71,13,143,37,72,14,192,21,73,14,141,33*68
$GLGSV,3,2,11,74,51,106,25,75,47,015,19,76,00,340,,85,12,008,07*69
$GLGSV,3,3,11,86,47,315,18,87,36,251,14,,,,27*6A
$GNGLL,0419.91794,S,05539.90490,E,042013.00,A,D*6B
$GNGRS,042013.00,1,-10.9,-3.1,-0.9,1.6,-1.7,0.9,1.1,0.3,-8.4,,,*63
$GNGRS,042013.00,1,3.5,9.7,0.6,2.1,13.7,-5.9,-0.8,-16.3,,,,*71
$GNGST,042013.00,84841,,,,3.5,3.6,4.2*79
$GNZDA,042013.00,23,05,2025,00,00*7D
$GNGBS,042013.00,3.5,3.6,4.2,,,,*5E
$GNTXT,01,01,01,More than 100 frame errors, UART RX was disabled*70
b0dR'1%_)
)u!3\'dS>{4V^:R 
Y"_bFf]G%HI!J3jK/LTUBV/;W$bRr$GNRMC,042014.00,A,0419.91789,S,05539.90488,E,0.176,,230525,,,A*76
$GNVTG,,T,,M,0.176,N,0.325,K,A*39
$GNGNS,042014.00,0419.91789,S,05539.90488,E,AA,15,0.82,10.8,-47.6,,*6C
$GNGGA,042014.00,0419.91789,S,05539.90488,E,1,12,0.82,10.8,M,-47.6,M,,*41
$GNGSA,A,3,24,20,05,13,15,22,14,18,,,,,1.54,0.82,1.30*1F
$GNGSA,A,3,86,74,75,87,73,71,72,,,,,,1.54,0.82,1.30*13
$GPGSV,5,1,17,05,49,154,39,06,05,028,18,11,37,019,,12,21,351,*72
$GPGSV,5,2,17,13,25,170,41,14,09,117,41,15,27,206,28,18,12,221,25*73
$GPGSV,5,3,17,20,51,092,33,22,21,100,39,24,62,279,22,29,11,285,*76
$GPGSV,5,4,17,36,52,277,,40,86,350,,41,58,082,,49,32,274,*7D
$GPGSV,5,5,17,50,10,089,*4A
$GLGSV,3,1,11,70,00,102,09,71,13,143,37,72,14,192,22,73,14,141,33*63
$GLGSV,3,2,11,74,51,106,25,75,47,015,18,76,00,340,,85,12,008,06*69
$GLGSV,3,3,11,86,47,315,18,87,36,251,08,,,,28*68
$GNGLL,0419.91789,S,05539.90488,E,042014.00,A,A*6C
$GNGRS,042014.00,1,-10.3,-2.9,-1.0,1.4,0.3,0.8,0.0,-8.0,,,,*6D
$GNGRS,042014.00,1,2.0,9.9,0.1,1.9,-5.8,-0.9,-16.1,,,,,*69
$GNGST,042014.00,131909,,,,3.5,3.6,4.2*4C
$GNZDA,042014.00,23,05,2025,00,00*7A
$GNGBS,042014.00,3.5,3.6,4.2,,,,*59
$GNTXT,01,01,01,More than 100 frame errors, UART RX was disabled*70
b0dhV'1%_+
)u'!3\'dP>{4V^:R 
Y!_!FfG&HI!J3jK/!LTU
V/;6W$#:bhVr$GNRMC,042015.00,A,0419.91791,S,05539.90489,E,0.055,,230525,,,A*7F
$GNVTG,,T,,M,0.055,N,0.102,K,A*3E
$GNGNS,042015.00,0419.91791,S,05539.90489,E,AA,16,0.65,10.7,-47.6,,*60
$GNGGA,042015.00,0419.91791,S,05539.90489,E,1,12,0.65,10.7,M,-47.6,M,,*4E
$GNGSA,A,3,24,20,05,13,15,22,14,18,,,,,1.23,0.65,1.05*10
$GNGSA,A,3,86,74,75,87,85,73,71,72,,,,,1.23,0.65,1.05*11
$GPGSV,5,1,17,05,49,154,39,06,05,028,17,11,37,019,,12,21,351,*7D
$GPGSV,5,2,17,13,25,170,43,14,09,117,41,15,27,206,27,18,12,221,24*7F
$GPGSV,5,3,17,20,51,092,33,22,21,100,39,24,62,279,21,29,11,285,*75
$GPGSV,5,4,17,36,52,277,,40,86,350,,41,58,082,,49,32,274,*7D
$GPGSV,5,5,17,50,10,089,*4A
$GLGSV,3,1,11,70,00,102,06,71,13,143,38,72,14,192,22,73,14,141,33*63
$GLGSV,3,2,11,74,51,106,26,75,47,015,16,76,00,340,,85,12,008,10*63
$GLGSV,3,3,11,86,47,315,18,87,36,251,16,,,,28*67
$GNGLL,0419.91791,S,05539.90489,E,042015.00,A,A*65
$GNGRS,042015.00,1,-10.6,-2.5,-0.8,1.5,-2.9,0.8,0.0,-7.3,,,,*44
$GNGRS,042015.00,1,0.5,9.4,-2.2,-2.2,4.6,-6.2,-0.9,-15.5,,,,*49
$GNGST,042015.00,56,,,,3.5,3.6,4.1*4E
$GNZDA,042015.00,23,05,2025,00,00*7B
$GNGBS,042015.00,3.5,3.6,4.1,,,,*5B
$GNTXT,01,01,01,More than 100 frame errors, UART RX was disabled*70
b0dPZ'1Z%_*
(u|!3\'dK>9{4V^:R 
Y!_,FfG&H;I"tJ3jK/LTUsV/;W
$abPZrg$GNRMC,042016.00,A,0419.91788,S,05539.90485,E,0.146,,230525,,,A*7B
$GNVTG,,T,,M,0.146,N,0.270,K,A*3B
$GNGNS,042016.00,0419.91788,S,05539.90485,E,AA,16,0.65,10.6,-47.6,,*66
$GNGGA,042016.00,0419.91788,S,05539.90485,E,1,12,0.65,10.6,M,-47.6,M,,*48
$GNGSA,A,3,24,20,05,13,15,22,14,18,,,,,1.23,0.65,1.05*10
$GNGSA,A,3,86,74,75,87,85,73,71,72,,,,,1.23,0.65,1.05*11
$GPGSV,5,1,17,05,49,154,39,06,05,028,17,11,37,019,,12,21,351,*7D
$GPGSV,5,2,17,13,25,170,42,14,09,117,40,15,27,206,26,18,12,221,24*7E
$GPGSV,5,3,17,20,51,092,33,22,21,100,39,24,62,279,19,29,11,285,*7E
$GPGSV,5,4,17,36,52,277,,40,86,350,,41,58,082,,49,32,274,*7D
$GPGSV,5,5,17,50,10,089,*4A
$GLGSV,3,1,11,70,00,102,11,71,13,143,38,72,14,192,24,73,14,141,34*64
$GLGSV,3,2,11,74,51,106,27,75,47,015,16,76,00,340,,85,12,008,07*64
$GLGSV,3,3,11,86,47,315,19,87,36,251,10,,,,29*61
$GNGLL,0419.91788,S,05539.90485,E,042016.00,A,A*62
$GNGRS,042016.00,1,-9.7,-2.4,-0.8,1.4,3.9,0.7,0.1,-6.4,,,,*5A
$GNGRS,042016.00,1,-0.3,9.1,-3.3,2.1,13.9,-4.0,-0.9,-14.8,,,,*7F
$GNGST,042016.00,96286,,,,3.5,3.6,4.1*7D
$GNZDA,042016.00,23,05,2025,00,00*78
$GNGBS,042016.00,3.5,3.6,4.1,,,,*58
$GNTXT,01,01,01,More than 100 frame errors, UART RX was disabled*70
b0d8^'1%_)u
)u!3\'dS>{4V^:R 
Y _9FfsG'HI"J3jK/LTUfV/;W$b8^r?$GNRMC,042017.00,A,0419.91783,S,05539.90482,E,0.134,,230525,,,A*73
$GNVTG,,T,,M,0.134,N,0.248,K,A*35
$GNGNS,042017.00,0419.91783,S,05539.90482,E,AA,16,0.65,10.4,-47.6,,*69
$GNGGA,042017.00,0419.91783,S,05539.90482,E,1,12,0.65,10.4,M,-47.6,M,,*47
$GNGSA,A,3,24,20,05,13,15,22,14,18,,,,,1.23,0.65,1.05*10
$GNGSA,A,3,86,74,75,87,85,73,71,72,,,,,1.23,0.65,1.05*11
$GPGSV,5,1,17,05,49,154,39,06,05,028,,11,37,019,,12,21,351,*7B
$GPGSV,5,2,17,13,25,170,41,14,09,117,41,15,27,206,26,18,12,221,23*7B
$GPGSV,5,3,17,20,51,092,33,22,21,100,39,24,62,279,17,29,11,285,*70
$GPGSV,5,4,17,36,52,277,,40,86,350,,41,58,082,,49,32,274,*7D
$GPGSV,5,5,17,50,10,089,*4A
$GLGSV,3,1,11,70,00,102,06,71,13,143,39,72,14,192,24,73,14,141,34*63
$GLGSV,3,2,11,74,51,106,27,75,47,015,17,76,00,340,,85,12,008,07*65
$GLGSV,3,3,11,86,47,315,20,87,36,251,14,,,,29*6F
$GNGLL,0419.91783,S,05539.90482,E,042017.00,A,A*6F
$GNGRS,042017.00,1,-6.2,-2.5,-0.9,1.2,-0.3,0.8,0.1,-5.0,,,,*7B
$GNGRS,042017.00,1,-1.0,9.4,-2.7,2.0,13.8,-3.7,-0.8,-13.4,,,,*76
$GNGST,042017.00,141798,,,,3.5,3.6,4.1*4D
$GNZDA,042017.00,23,05,2025,00,00*79
$GNGBS,042017.00,3.5,3.6,4.1,,,,*59
$GNTXT,01,01,01,More than 100 frame errors, UART RX was disabled*70
b0d b&1%_)
)u
!3\&di>{4V^:R 
Y_F
f[@G&HI$
J3jK/qLTU
eV/;W$=)b brR$GNRMC,042018.00,A,0419.91784,S,05539.90484,E,0.084,,230525,,,A*77
$GNVTG,,T,,M,0.084,N,0.155,K,A*30
$GNGNS,042018.00,0419.91784,S,05539.90484,E,AA,16,0.65,10.4,-47.6,,*67
$GNGGA,042018.00,0419.91784,S,05539.90484,E,1,12,0.65,10.4,M,-47.6,M,,*49
$GNGSA,A,3,24,20,05,13,15,22,14,18,,,,,1.23,0.65,1.05*10
$GNGSA,A,3,86,74,75,87,85,73,71,72,,,,,1.23,0.65,1.05*11
$GPGSV,5,1,17,05,49,154,38,06,05,028,,11,37,019,,12,21,351,*7A
$GPGSV,5,2,17,13,25,170,41,14,09,117,41,15,27,206,25,18,12,221,23*78
$GPGSV,5,3,17,20,51,092,33,22,21,100,38,24,62,279,20,29,11,285,*75
$GPGSV,5,4,17,36,52,277,,40,86,350,,41,58,082,,49,32,274,*7D
$GPGSV,5,5,17,50,10,089,*4A
$GLGSV,3,1,11,70,00,102,10,71,13,143,38,72,14,192,25,73,14,141,36*66
$GLGSV,3,2,11,74,51,106,26,75,47,015,21,76,00,340,,85,12,008,10*67
$GLGSV,3,3,11,86,47,315,20,87,36,251,14,,,,30*67
$GNGLL,0419.91784,S,05539.90484,E,042018.00,A,A*61
$GNGRS,042018.00,1,-2.9,-2.4,-1.0,1.3,1.9,1.1,0.1,-5.6,,,,*5B
$GNGRS,042018.00,1,-3.1,9.9,-1.4,-9.6,-16.9,-2.5,-0.8,-13.5,,,,*7C
$GNGST,042018.00,51,,,,3.5,3.6,4.1*44
$GNZDA,042018.00,23,05,2025,00,00*76
$GNGBS,042018.00,3.5,3.6,4.1,,,,*56
$GNTXT,01,01,01,More than 100 frame errors, UART RX was disabled*70
b0df&1%_){
'uT$3\(dP>{4V^:R 
Y$_CFfG'HI!J3j3K/LTUV/;`W$qbfr$GNRMC,042019.00,A,0419.91794,S,05539.90492,E,0.254,,230525,,,A*7F
$GNVTG,,T,,M,0.254,N,0.470,K,A*3D
$GNGNS,042019.00,0419.91794,S,05539.90492,E,AA,16,0.65,10.5,-47.6,,*61
$GNGGA,042019.00,0419.91794,S,05539.90492,E,1,12,0.65,10.5,M,-47.6,M,,*4F
$GNGSA,A,3,24,20,05,13,15,22,14,18,,,,,1.23,0.65,1.05*10
$GNGSA,A,3,86,74,75,87,85,73,71,72,,,,,1.23,0.65,1.05*11
$GPGSV,5,1,17,05,49,154,38,06,05,028,,11,37,019,,12,21,351,*7A
$GPGSV,5,2,17,13,25,170,41,14,09,117,39,15,27,206,26,18,12,221,22*75
$GPGSV,5,3,17,20,51,092,36,22,21,100,40,24,62,279,21,29,11,285,*7E
$GPGSV,5,4,17,36,52,277,,40,86,350,,41,58,082,,49,32,274,*7D
$GPGSV,5,5,17,50,10,089,*4A
$GLGSV,3,1,11,70,00,102,09,71,13,143,39,72,14,192,25,73,14,141,33*6A
$GLGSV,3,2,11,74,51,106,27,75,47,015,22,76,00,340,,85,12,008,09*6D
$GLGSV,3,3,11,86,47,315,19,87,36,251,14,,,,30*6D
$GNGLL,0419.91794,S,05539.90492,E,042019.00,A,A*66
$GNGRS,042019.00,1,-2.7,-2.3,-0.7,1.2,0.8,0.8,-0.2,-3.2,,,,*70
$GNGRS,042019.00,1,-4.2,10.7,-0.6,2.4,14.2,-2.3,-0.7,-13.8,,,,*48
$GNGST,042019.00,2887491,,,,3.5,3.6,4.1*78
$GNZDA,042019.00,23,05,2025,00,00*77
$GNGBS,042019.00,3.5,3.6,4.1,,,,*57
$GNTXT,01,01,01,More than 100 frame errors, UART RX was disabled*70
b0di'1%_)
&u$$3\B&d`>{4V^:R 
Y"_FfjG'HI!J3jVK/LTUnV/;(W$7bir$GNRMC,042020.00,A,0419.91791,S,05539.90486,E,0.067,,230525,,,A*77
$GNVTG,,T,,M,0.067,N,0.123,K,A*3C
$GNGNS,042020.00,0419.91791,S,05539.90486,E,AA,16,0.65,10.3,-47.6,,*6D
$GNGGA,042020.00,0419.91791,S,05539.90486,E,1,12,0.65,10.3,M,-47.6,M,,*43
$GNGSA,A,3,24,20,05,13,15,22,14,18,,,,,1.23,0.65,1.05*10
$GNGSA,A,3,86,74,75,87,85,73,71,72,,,,,1.23,0.65,1.05*11
$GPGSV,5,1,17,05,49,154,39,06,05,028,,11,37,019,,12,21,351,*7B
$GPGSV,5,2,17,13,25,170,41,14,09,117,38,15,27,206,26,18,12,221,22*74
$GPGSV,5,3,17,20,51,092,36,22,21,100,38,24,62,279,21,29,11,285,*71
$GPGSV,5,4,17,36,52,277,,40,86,350,,41,58,082,,49,32,274,*7D
$GPGSV,5,5,17,50,10,089,*4A
$GLGSV,3,1,11,70,00,102,11,71,13,143,39,72,14,192,23,73,14,141,33*65
$GLGSV,3,2,11,74,51,106,28,75,47,015,23,76,00,340,,85,12,008,09*63
$GLGSV,3,3,11,86,47,315,18,87,36,251,14,,,,29*64
$GNGLL,0419.91791,S,05539.90486,E,042020.00,A,A*6C
$GNGRS,042020.00,1,-3.5,-1.9,-0.7,1.5,0.4,1.0,-0.3,-3.3,,,,*72
$GNGRS,042020.00,1,-4.7,11.1,-0.4,2.2,13.9,-2.9,-0.9,-13.3,,,,*47
$GNGST,042020.00,2890419,,,,3.5,3.6,4.1*74
$GNZDA,042020.00,23,05,2025,00,00*7D
$GNGBS,042020.00,3.5,3.6,4.1,,,,*5D
$GNTXT,01,01,01,More than 100 frame errors, UART RX was disabled*70
b0dm(1%_)
'uf$3\S(dR>{4V^:R 
Y#_F
fG'H@I#J3jK/LTU
2V/;.W
$Ibmrm{$GNRMC,042021.00,A,0419.91788,S,05539.90480,E,0.132,,230525,,,A*79
$GNVTG,,T,,M,0.132,N,0.244,K,A*3F
$GNGNS,042021.00,0419.91788,S,05539.90480,E,AA,15,0.85,10.1,-47.6,,*6D
$GNGGA,042021.00,0419.91788,S,05539.90480,E,1,12,0.85,10.1,M,-47.6,M,,*40
$GNGSA,A,3,24,20,05,13,15,22,14,18,,,,,1.55,0.85,1.30*19
$GNGSA,A,3,86,74,75,85,73,71,72,,,,,,1.55,0.85,1.30*17
$GPGSV,5,1,17,05,49,154,40,06,05,028,,11,37,019,,12,21,351,*75
$GPGSV,5,2,17,13,25,170,41,14,09,117,39,15,27,206,27,18,12,221,21*77
$GPGSV,5,3,17,20,51,092,36,22,21,100,40,24,62,279,21,29,11,285,*7E
$GPGSV,5,4,17,36,52,277,,40,86,350,,41,58,082,,49,32,274,*7D
$GPGSV,5,5,17,50,10,089,*4A
$GLGSV,3,1,11,70,00,102,10,71,13,143,39,72,14,192,22,73,14,141,35*63
$GLGSV,3,2,11,74,51,106,28,75,47,015,24,76,00,340,,85,12,008,10*6C
$GLGSV,3,3,11,86,47,315,18,87,36,251,10,,,,29*60
$GNGLL,0419.91788,S,05539.90480,E,042021.00,A,A*63
$GNGRS,042021.00,1,-3.2,-1.7,-0.8,1.7,-0.3,0.8,-0.5,-4.1,,,,*57
$GNGRS,042021.00,1,-4.7,11.7,-0.4,129,-3.1,-1.0,-12.2,,,,,*40
$GNGST,042021.00,34,,,,3.5,3.6,4.0*4C
$GNZDA,042021.00,23,05,2025,00,00*7C
$GNGBS,042021.00,3.5,3.6,4.0,,,,*5D
$GNTXT,01,01,01,More than 100 frame errors, UART RX was disabled*70
b0dq(1%_)
(ul%3\e'dd>{4V^:R 
Y$_FfG&HI#J3j/K/tLTU\V/;W$*3bqrUv$GNRMC,042022.00,A,0419.91779,S,05539.90466,E,0.198,,230525,,,A*7C
$GNVTG,,T,,M,0.198,N,0.367,K,A*3F
$GNGNS,042022.00,0419.91779,S,05539.90466,E,AA,16,0.65,9.7,-47.6,,*5B
$GNGGA,042022.00,0419.91779,S,05539.90466,E,1,12,0.65,9.7,M,-47.6,M,,*75
$GNGSA,A,3,24,20,05,13,15,22,14,18,,,,,1.23,0.65,1.05*10
$GNGSA,A,3,86,74,75,87,85,73,71,72,,,,,1.23,0.65,1.05*11
$GPGSV,5,1,17,05,49,154,40,06,05,028,,11,37,019,,12,21,351,*75
$GPGSV,5,2,17,13,25,170,41,14,09,117,40,15,27,206,26,18,12,221,22*7B
$GPGSV,5,3,17,20,51,092,37,22,21,100,39,24,62,279,22,29,11,285,*72
$GPGSV,5,4,17,36,52,277,,40,86,350,,41,58,082,,49,32,274,*7D
$GPGSV,5,5,17,50,10,089,*4A
$GLGSV,3,1,11,70,00,102,08,71,13,143,38,72,14,192,21,73,14,141,35*68
$GLGSV,3,2,11,74,51,106,27,75,47,015,24,76,00,340,,85,12,008,09*6B
$GLGSV,3,3,11,86,47,315,17,87,36,251,15,,,,29*6A
$GNGLL,0419.91779,S,05539.90466,E,042022.00,A,A*66
$GNGRS,042022.00,1,-2.5,-1.5,-1.1,2.0,-1.5,1.0,-0.7,-3.1,,,,*57
$GNGRS,042022.00,1,-6.1,10.7,1.2,2.8,13.7,-3.1,-1.1,-12.7,,,,*6D
$GNGST,042022.00,2885147,,,,3.5,3.6,4.0*7D
$GNZDA,042022.00,23,05,2025,00,00*7F
$GNGBS,042022.00,3.5,3.6,4.0,,,,*5E
$GNTXT,01,01,01,More than 100 frame errors, UART RX was disabled*70
b0du(1%_)
(u$3\u'dL>c{4V^:R 
Y%_FfuG&HI#J3jK/LTUmV/;gW$bur=NK$GNRMC,042023.00,A,0419.91784,S,05539.90467,E,0.044,,230525,,,A*7E
$GNVTG,,T,,M,0.044,N,0.081,K,A*34
$GNGNS,042023.00,0419.91784,S,05539.90467,E,AA,16,0.65,9.6,-47.6,,*58
$GNGGA,042023.00,0419.91784,S,05539.90467,E,1,12,0.65,9.6,M,-47.6,M,,*76
$GNGSA,A,3,24,20,05,13,15,22,14,18,,,,,1.23,0.65,1.05*10
$GNGSA,A,3,86,74,75,87,85,73,71,72,,,,,1.23,0.65,1.05*11
$GPGSV,5,1,17,05,49,154,40,06,05,028,,11,37,019,,12,21,351,*75
$GPGSV,5,2,17,13,25,170,41,14,09,117,40,15,27,206,27,18,12,221,22*7A
$GPGSV,5,3,17,20,51,092,36,22,21,100,39,24,62,279,24,29,11,285,*75
$GPGSV,5,4,17,36,52,277,,40,86,350,,41,58,082,,49,32,274,*7D
$GPGSV,5,5,17,50,10,089,*4A
$GLGSV,3,1,11,70,00,102,09,71,13,143,38,72,14,192,23,73,14,141,35*6B
$GLGSV,3,2,11,74,51,106,27,75,47,015,24,76,00,340,,85,12,008,09*6B
$GLGSV,3,3,11,86,47,315,17,87,36,251,17,,,,30*60
$GNGLL,0419.91784,S,05539.90467,E,042023.00,A,A*64
$GNGRS,042023.00,1,-1.6,-1.4,-1.2,1.9,-0.4,0.8,-0.7,-4.8,,,,*59
$GNGRS,042023.00,1,-6.6,12.0,-1.0,2.4,13.9,-3.3,-1.2,-13.3,,,,*47
$GNGST,042023.00,2885147,,,,3.5,3.6,4.0*7C
$GNZDA,042023.00,23,05,2025,00,00*7E
$GNGBS,042023.00,3.5,3.6,4.0,,,,*5F
$GNTXT,01,01,01,More than 100 frame errors, UART RX was disabled*70
b0dy(1{x%_)
'uX$3\'dc>j{4V^:R 
Y%_Ff:G&HI#J3jK/LTUd7V/;eW$\vbyr%&$GNRMC,042024.00,A,0419.91779,S,05539.90459,E,0.151,,230525,,,A*73
$GNVTG,,T,,M,0.151,N,0.279,K,A*34
$GNGNS,042024.00,0419.91779,S,05539.90459,E,AA,16,0.82,9.4,-47.6,,*5B
$GNGGA,042024.00,0419.91779,S,05539.90459,E,1,12,0.82,9.4,M,-47.6,M,,*75
$GNGSA,A,3,24,20,05,13,15,22,14,18,,,,,1.54,0.82,1.30*1F
$GNGSA,A,3,86,74,75,87,85,73,71,72,,,,,1.54,0.82,1.30*1E
$GPGSV,5,1,17,05,49,154,40,06,05,028,18,11,37,019,,12,21,351,*7C
$GPGSV,5,2,17,13,25,170,41,14,09,117,39,15,27,206,27,18,12,221,22*74
$GPGSV,5,3,17,20,51,092,36,22,21,100,39,24,62,279,24,29,11,285,*75
$GPGSV,5,4,17,36,52,277,,40,86,350,,41,58,082,,49,32,274,*7D
$GPGSV,5,5,17,50,10,089,*4A
$GLGSV,3,1,11,70,00,102,09,71,13,143,38,72,14,192,23,73,14,141,35*6B
$GLGSV,3,2,11,74,51,106,27,75,47,015,23,76,00,340,,85,12,008,09*6C
$GLGSV,3,3,11,86,47,315,16,87,36,251,16,,,,30*60
$GNGLL,0419.91779,S,05539.90459,E,042024.00,A,A*6C
$GNGRS,042024.00,1,-1.5,-1.1,-1.3,1.9,-0.4,1.0,-0.6,-4.2,,,,*5B
$GNGRS,042024.00,1,-6.7,12.6,-1.2,0.9,142,-3.6,-1.3,-13.5,,,,*6A
$GNGST,042024.00,39,,,,3.5,3.6,3.9*4A
$GNZDA,042024.00,23,05,2025,00,00*79
$GNGBS,042024.00,3.5,3.6,3.9,,,,*56
$GNTXT,01,01,01,More than 100 frame errors, UART RX was disabled*70
b0dx}(1l%`)
'u/W$3\'d~>{4V^:R 
Y$_[FfG&tH6I#J3jK/LTU}V/;EW$PVbx}r$GNRMC,042025.00,A,0419.91774,S,05539.90451,E,0.145,,230525,,,A*72
$GNVTG,,T,,M,0.145,N,0.268,K,A*31
$GNGNS,042025.00,0419.91774,S,05539.90451,E,AA,16,0.65,9.1,-47.6,,*53
$GNGGA,042025.00,0419.91774,S,05539.90451,E,1,12,0.65,9.1,M,-47.6,M,,*7D
$GNGSA,A,3,24,20,05,13,15,22,14,18,,,,,1.23,0.65,1.04*11
$GNGSA,A,3,86,74,75,87,85,73,71,72,,,,,1.23,0.65,1.04*10
$GPGSV,5,1,17,05,49,154,40,06,05,028,17,11,37,019,22,12,21,352,*70
$GPGSV,5,2,17,13,25,170,41,14,09,117,39,15,27,206,27,18,12,221,22*74
$GPGSV,5,3,17,20,51,092,36,22,21,100,39,24,62,279,24,29,11,285,*75
$GPGSV,5,4,17,36,52,277,,40,86,350,,41,58,082,,49,32,274,*7D
$GPGSV,5,5,17,50,10,089,*4A
$GLGSV,3,1,11,70,00,102,12,71,13,143,38,72,14,192,22,73,14,141,35*60
$GLGSV,3,2,11,74,51,106,27,75,47,015,23,76,00,340,,85,12,008,11*65
$GLGSV,3,3,11,86,47,315,16,87,36,251,17,,,,30*61
$GNGLL,0419.91774,S,05539.90451,E,042025.00,A,A*68
$GNGRS,042025.00,1,-0.8,-0.8,-1.2,2.0,-2.1,1.3,-0.6,-4.3,,,,*50
$GNGRS,042025.00,1,-7.0,12.3,-2.7,0.8,14.1,-3.7,-1.4,-12.3,,,,*43
$GNGST,042025.00,2885147,,,,3.5,3.6,3.9*74
$GNZDA,042025.00,23,05,2025,00,00*78
$GNGBS,042025.00,3.5,3.6,3.9,,,,*57
$GNTXT,01,01,01,More than 100 frame errors, UART RX was disabled*70
b0d`(1;%`)
'u$3\'dg>{4V^:R 
Y$__FfrG'VH]I#J3jK/LTUV/;W$cb`r$GNRMC,042026.00,A,0419.91780,S,05539.90456,E,0.173,,230525,,,A*78
$GNVTG,,T,,M,0.173,N,0.320,K,A*39
$GNGNS,042026.00,0419.91780,S,05539.90456,E,AA,16,0.65,9.1,-47.6,,*5C
$GNGGA,042026.00,0419.91780,S,05539.90456,E,1,12,0.65,9.1,M,-47.6,M,,*72
$GNGSA,A,3,24,20,05,13,15,22,14,18,,,,,1.23,0.65,1.04*11
$GNGSA,A,3,86,74,75,87,85,73,71,72,,,,,1.23,0.65,1.04*10
$GPGSV,5,1,17,05,49,154,40,06,05,028,16,11,37,019,19,12,21,352,*79
$GPGSV,5,2,17,13,25,169,41,14,09,117,39,15,27,206,26,18,12,221,21*7E
$GPGSV,5,3,17,20,51,092,36,22,21,100,39,24,62,279,23,29,11,285,*72
$GPGSV,5,4,17,36,52,277,,40,86,350,,41,58,082,,49,32,274,*7D
$GPGSV,5,5,17,50,10,089,*4A
$GLGSV,3,1,11,70,00,102,11,71,13,143,39,72,14,192,21,73,14,141,35*61
$GLGSV,3,2,11,74,51,106,27,75,47,015,23,76,00,340,,85,12,008,09*6C
$GLGSV,3,3,11,86,47,315,16,87,36,251,18,,,,30*6E
$GNGLL,0419.91780,S,05539.90456,E,042026.00,A,A*67
$GNGRS,042026.00,1,-3.0,-0.5,-1.2,2.2,-0.2,1.0,-0.7,-5.5,,,,*53
$GNGRS,042026.00,1,-5.9,13.0,-3.3,1.0,14.4,-3.8,-1.7,-11.9,,,,*45
$GNGST,042026.00,2885147,,,,3.4,3.6,3.9*76
$GNZDA,042026.00,23,05,2025,00,00*7B
$GNGBS,042026.00,3.4,3.6,3.9,,,,*55
$GNTXT,01,01,01,More than 100 frame errors, UART RX was disabled*70
b0dH(1{%`)
'v6$3\'dB>o{4V^:R 
Y$_|FftG&`HI#tJ3j]K/LTU
V/;W$KWbHr$GNRMC,042027.00,A,0419.91776,S,05539.90448,E,0.058,,230525,,,A*77
$GNVTG,,T,,M,0.058,N,0.108,K,A*39
$GNGNS,042027.00,0419.91776,S,05539.90448,E,AA,16,0.82,8.9,-47.6,,*5B
$GNGGA,042027.00,0419.91776,S,05539.90448,E,1,12,0.82,8.9,M,-47.6,M,,*75
$GNGSA,A,3,24,20,05,13,15,22,14,18,,,,,1.54,0.82,1.30*1F
$GNGSA,A,3,86,74,75,87,85,73,71,72,,,,,1.54,0.82,1.30*1E
$GPGSV,5,1,17,05,49,154,40,06,05,028,,11,37,019,16,12,21,352,*71
$GPGSV,5,2,17,13,25,169,41,14,09,118,39,15,27,206,26,18,12,221,21*71
$GPGSV,5,3,17,20,51,092,36,22,21,100,39,24,62,279,23,29,11,285,*72
$GPGSV,5,4,17,36,52,277,,40,86,350,,41,58,082,,49,32,274,*7D
$GPGSV,5,5,17,50,10,089,*4A
$GLGSV,3,1,11,70,00,102,14,71,13,143,38,72,14,192,22,73,14,141,35*66
$GLGSV,3,2,11,74,51,106,27,75,47,015,23,76,00,340,,85,12,008,10*64
$GLGSV,3,3,11,86,47,315,16,87,36,251,17,,,,30*61
$GNGLL,0419.91776,S,05539.90448,E,042027.00,A,A*60
$GNGRS,042027.00,1,-4.0,-0.4,-1.3,2.1,1.8,0.7,-0.8,-7.1,,,,*7F
$GNGRS,042027.00,1,-6.3,13.7,-3.6,-1.8,-101,-4.0,-1.6,-10.6,,,,*68
$GNGST,042027.00,39,,,,3.4,3.6,3.8*49
$GNZDA,042027.00,23,05,2025,00,00*7A
$GNGBS,042027.00,3.4,3.6,3.8,,,,*55
$GNTXT,01,01,01,More than 100 frame errors, UART RX was disabled*70
b0d0)1x%`(
'v#3\'dD>{4V^:R 
Y%_\FfG'ZHI"[J3jK/LTUWV/;W$yb0rR$GNRMC,042028.00,A,0419.91764,S,05539.90431,E,0.154,,230525,,,A*78
$GNVTG,,T,,M,0.154,N,0.285,K,A*32
$GNGNS,042028.00,0419.91764,S,05539.90431,E,AA,16,0.65,8.6,-47.6,,*5F
$GNGGA,042028.00,0419.91764,S,05539.90431,E,1,12,0.65,8.6,M,-47.6,M,,*71
$GNGSA,A,3,24,20,05,13,15,22,14,18,,,,,1.23,0.65,1.04*11
$GNGSA,A,3,86,74,75,87,85,73,71,72,,,,,1.23,0.65,1.04*10
$GPGSV,5,1,17,05,49,154,41,06,05,028,18,11,37,019,14,12,21,352,*7B
$GPGSV,5,2,17,13,25,169,40,14,09,118,39,15,27,205,27,18,12,221,20*73
$GPGSV,5,3,17,20,51,092,35,22,21,100,39,24,62,279,25,29,11,285,*77
$GPGSV,5,4,17,36,52,277,,40,86,350,,41,58,082,,49,32,274,*7D
$GPGSV,5,5,17,50,10,089,*4A
$GLGSV,3,1,11,70,00,102,11,71,13,143,39,72,14,192,21,73,14,141,34*60
$GLGSV,3,2,11,74,51,106,27,75,47,015,23,76,00,340,,85,12,008,09*6C
$GLGSV,3,3,11,86,47,315,16,87,36,251,16,,,,30*60
$GNGLL,0419.91764,S,05539.90431,E,042028.00,A,A*62
$GNGRS,042028.00,1,-5.5,-0.3,-1.4,2.2,1.3,0.7,-1.0,-8.1,,,,*7A
$GNGRS,042028.00,1,-5.4,14.3,-3.4,-2.4,13.7,-4.2,-1.7,-10.6,,,,*68
$GNGST,042028.00,2885147,,,,3.4,3.6,3.8*79
$GNZDA,042028.00,23,05,2025,00,00*75
$GNGBS,042028.00,3.4,3.6,3.8,,,,*5A
$GNTXT,01,01,01,More than 100 frame errors, UART RX was disabled*70
b0d)1
%`)
'v]$3\'dT>V{4V^:R 
Y$_>F
fjG'HHI"cJ3j[K/DLTUV/;W$pbr^$GNRMC,042029.00,A,0419.91769,S,05539.90433,E,0.041,,230525,,,A*73
$GNVTG,,T,,M,0.041,N,0.077,K,A*38
$GNGNS,042029.00,0419.91769,S,05539.90433,E,AA,15,0.82,8.5,-47.6,,*58
$GNGGA,042029.00,0419.91769,S,05539.90433,E,1,12,0.82,8.5,M,-47.6,M,,*75
$GNGSA,A,3,24,20,05,13,15,22,14,18,,,,,1.54,0.82,1.30*1F
$GNGSA,A,3,86,74,75,87,73,71,72,,,,,,1.54,0.82,1.30*13
$GPGSV,5,1,17,05,49,154,41,06,05,028,17,11,37,019,10,12,21,352,*70
$GPGSV,5,2,17,13,25,169,41,14,09,118,39,15,27,205,28,18,12,221,20*7D
$GPGSV,5,3,17,20,51,092,36,22,21,100,39,24,62,279,25,29,11,285,*74
$GPGSV,5,4,17,36,52,277,,40,86,350,,41,58,082,,49,32,274,*7D
$GPGSV,5,5,17,50,10,089,*4A
$GLGSV,3,1,11,70,00,102,10,71,13,143,39,72,14,192,20,73,14,141,34*60
$GLGSV,3,2,11,74,51,106,26,75,47,015,23,76,00,340,,85,12,008,05*61
$GLGSV,3,3,11,86,47,315,17,87,36,251,15,,,,29*6A
$GNGLL,0419.91769,S,05539.90433,E,042029.00,A,A*6C
$GNGRS,042029.00,1,-6.8,-0.1,-1.3,2.3,-1.2,0.8,-1.0,-6.8,,,,*55
$GNGRS,042029.00,1,-7.8,13.7,-4.4,-2.3,-4.1,-1.8,-10.3,,,,,*76
$GNGST,042029.00,40,,,,3.4,3.6,3.8*49
$GNZDA,042029.00,23,05,2025,00,00*74
$GNGBS,042029.00,3.4,3.6,3.8,,,,*5B
$GNTXT,01,01,01,More than 100 frame errors, UART RX was disabled*70
b0d)1I%`(
(v$3\&dh>{4V^:R 
Y#_=FfG'CHI"xJ3jK/.LTUV/;SW$5br6"$GNRMC,042030.00,A,0419.91773,S,05539.90435,E,0.120,,230525,,,A*70
$GNVTG,,T,,M,0.120,N,0.222,K,A*3C
$GNGNS,042030.00,0419.91773,S,05539.90435,E,AA,16,0.82,8.5,-47.6,,*5E
$GNGGA,042030.00,0419.91773,S,05539.90435,E,1,12,0.82,8.5,M,-47.6,M,,*70
$GNGSA,A,3,24,20,05,13,15,22,14,18,,,,,1.54,0.82,1.30*1F
$GNGSA,A,3,86,74,75,87,85,73,71,72,,,,,1.54,0.82,1.30*1E
$GPGSV,5,1,17,05,49,154,41,06,05,028,17,11,37,019,12,12,21,352,*72
$GPGSV,5,2,17,13,25,169,40,14,09,118,40,15,27,205,28,18,12,221,20*72
$GPGSV,5,3,17,20,51,092,36,22,21,100,38,24,62,279,24,29,11,285,*74
$GPGSV,5,4,17,36,52,277,,40,86,350,,41,58,082,,49,32,274,*7D
$GPGSV,5,5,17,50,10,089,*4A
$GLGSV,3,1,11,70,00,102,09,71,13,143,39,72,14,192,17,73,14,141,34*6C
$GLGSV,3,2,11,74,51,106,27,75,47,015,21,76,00,340,,85,12,008,12*64
$GLGSV,3,3,11,86,47,315,16,87,36,251,15,,,,28*6A
$GNGLL,0419.91773,S,05539.90435,E,042030.00,A,A*69
$GNGRS,042030.00,1,-7.6,0.2,-1.2,2.5,-2.8,1.0,-1.2,-7.7,,,,*77
$GNGRS,042030.00,1,-6.8,12.7,-2.1,-4.6,-133,-3.9,-1.9,-10.5,,,,*6A
$GNGST,042030.00,43,,,,3.4,3.6,3.8*42
$GNZDA,042030.00,23,05,2025,00,00*7C
$GNGBS,042030.00,3.4,3.6,3.8,,,,*53
$GNTXT,01,01,01,More than 100 frame errors, UART RX was disabled*70
b0d)1%`(
(vz#3\)&d[>{4V^:R 
Y#_TFfG'7H_I"^J3jK/
LTUV/;W$7br}{$GNRMC,042031.00,A,0419.91777,S,05539.90436,E,0.048,,230525,,,A*79
$GNVTG,,T,,M,0.048,N,0.089,K,A*30
$GNGNS,042031.00,0419.91777,S,05539.90436,E,AA,16,0.65,8.5,-47.6,,*51
$GNGGA,042031.00,0419.91777,S,05539.90436,E,1,12,0.65,8.5,M,-47.6,M,,*7F
$GNGSA,A,3,24,20,05,13,15,22,14,18,,,,,1.23,0.65,1.04*11
$GNGSA,A,3,86,74,75,87,85,73,71,72,,,,,1.23,0.65,1.04*10
$GPGSV,5,1,17,05,49,154,41,06,05,028,18,11,37,019,12,12,21,352,*7D
$GPGSV,5,2,17,13,25,169,40,14,09,118,40,15,27,205,27,18,12,222,21*7F
$GPGSV,5,3,17,20,51,092,35,22,21,100,38,24,62,279,24,29,11,285,*77
$GPGSV,5,4,17,36,52,277,,40,86,350,,41,58,082,,49,32,274,*7D
$GPGSV,5,5,17,50,10,089,*4A
$GLGSV,3,1,11,70,00,102,08,71,13,143,39,72,14,192,15,73,14,141,34*6F
$GLGSV,3,2,11,74,51,106,27,75,47,015,21,76,00,340,,85,12,008,09*6E
$GLGSV,3,3,11,86,47,315,17,87,36,251,14,,,,28*6A
$GNGLL,0419.91777,S,05539.90436,E,042031.00,A,A*6F
$GNGRS,042031.00,1,-8.2,0.4,-1.0,2.7,-3.0,0.9,-1.3,-8.0,,,,*73
$GNGRS,042031.00,1,-7.4,12.5,-2.5,-6.4,14.2,-4.2,-2.0,-11.9,,,,*6E
$GNGST,042031.00,2909,,,,3.4,3.6,3.8*46
$GNZDA,042031.00,23,05,2025,00,00*7D
$GNGBS,042031.00,3.4,3.6,3.8,,,,*52
$GNTXT,01,01,01,More than 100 frame errors, UART RX was disabled*70
b0d)1%`(
'v'$3\)&dj>{4V^:R 
Y%_MF
fG'/HI!dJ3jK/'LTUV/;zW$obre$GNRMC,042032.00,A,0419.91781,S,05539.90436,E,0.080,,230525,,,A*77
$GNVTG,,T,,M,0.080,N,0.148,K,A*38
$GNGNS,042032.00,0419.91781,S,05539.90436,E,AA,16,0.65,8.5,-47.6,,*5B
$GNGGA,042032.00,0419.91781,S,05539.90436,E,1,12,0.65,8.5,M,-47.6,M,,*75
$GNGSA,A,3,24,20,05,13,15,22,14,18,,,,,1.23,0.65,1.04*11
$GNGSA,A,3,86,74,75,87,85,73,71,72,,,,,1.23,0.65,1.04*10
$GPGSV,5,1,17,05,49,154,41,06,05,028,16,11,37,019,22,12,21,352,*70
$GPGSV,5,2,17,13,25,169,40,14,09,118,39,15,27,205,26,18,12,222,20*71
$GPGSV,5,3,17,20,51,092,36,22,21,100,38,24,62,279,24,29,11,285,*74
$GPGSV,5,4,17,36,52,277,,40,86,350,,41,58,082,,49,32,274,*7D
$GPGSV,5,5,17,50,10,089,*4A
$GLGSV,3,1,11,70,00,102,10,71,13,143,39,72,14,192,14,73,14,141,33*60
$GLGSV,3,2,11,74,51,106,27,75,47,015,20,76,00,340,,85,12,008,11*66
$GLGSV,3,3,11,86,47,315,15,87,36,251,13,,,,29*6E
$GNGLL,0419.91781,S,05539.90436,E,042032.00,A,A*65
$GNGRS,042032.00,1,-8.8,0.4,-1.1,2.4,-4.7,1.1,-1.2,-7.5,,,,*7A
$GNGRS,042032.00,1,-9.0,12.6,-2.2,-6.1,14.1,-4.1,-2.1,-13.1,,,,*6D
$GNGST,042032.00,4363,,,,3.4,3.6,3.7*4A
$GNZDA,042032.00,23,05,2025,00,00*7E
$GNGBS,042032.00,3.4,3.6,3.7,,,,*5E
$GNTXT,01,01,01,More than 100 frame errors, UART RX was disabled*70
b0d)1%`)
(v$3['d^>{4V^:R 
Y$_?F
fG&(HBI!uJ3jK/`LTUV/;kW$0&brMK$GNRMC,042033.00,A,0419.91779,S,05539.90431,E,0.029,,230525,,,A*75
$GNVTG,,T,,M,0.029,N,0.053,K,A*30
$GNGNS,042033.00,0419.91779,S,05539.90431,E,AA,16,0.65,8.4,-47.6,,*5B
$GNGGA,042033.00,0419.91779,S,05539.90431,E,1,12,0.65,8.4,M,-47.6,M,,*75
$GNGSA,A,3,24,20,05,13,15,22,14,18,,,,,1.23,0.65,1.04*11
$GNGSA,A,3,86,74,75,87,85,73,71,72,,,,,1.23,0.65,1.04*10
$GPGSV,5,1,17,05,49,154,41,06,05,028,15,11,37,019,19,12,21,352,*7B
$GPGSV,5,2,17,13,25,169,41,14,09,118,40,15,27,205,27,18,12,222,19*75
$GPGSV,5,3,17,20,51,091,36,22,21,100,39,24,62,279,25,29,11,285,*77
$GPGSV,5,4,17,36,52,277,,40,86,350,,41,58,082,,49,32,274,*7D
$GPGSV,5,5,17,50,10,089,*4A
$GLGSV,3,1,11,70,00,102,10,71,13,143,38,72,14,192,15,73,14,141,33*60
$GLGSV,3,2,11,74,51,106,27,75,47,015,21,76,00,340,,85,12,008,09*6E
$GLGSV,3,3,11,86,47,315,15,87,36,251,16,,,,29*6B
$GNGLL,0419.91779,S,05539.90431,E,042033.00,A,A*64
$GNGRS,042033.00,1,-9.9,0.3,-0.9,2.5,-3.2,0.9,-1.1,-7.6,,,,*7F
$GNGRS,042033.00,1,-9.2,12.9,-1.6,-7.2,15.6,-3.9,-2.2,-12.1,,,,*6F
$GNGST,042033.00,53,,,,3.4,3.5,3.7*4C
$GNZDA,042033.00,23,05,2025,00,00*7F
$GNGBS,042033.00,3.4,3.5,3.7,,,,*5C
$GNTXT,01,01,01,More than 100 frame errors, UART RX was disabled*70
b0d)1X%`)
'v,#3[M'd[>{4V^:R 
Y$_2FfG&HHBI!J3jK/LTUV/;iW$br5$GNRMC,042034.00,A,0419.91778,S,05539.90428,E,0.041,,230525,,,A*75
$GNVTG,,T,,M,0.041,N,0.075,K,A*3A
$GNGNS,042034.00,0419.91778,S,05539.90428,E,AA,16,0.65,8.2,-47.6,,*53
$GNGGA,042034.00,0419.91778,S,05539.90428,E,1,12,0.65,8.2,M,-47.6,M,,*7D
$GNGSA,A,3,24,20,05,13,15,22,14,18,,,,,1.23,0.65,1.04*11
$GNGSA,A,3,86,74,75,87,85,73,71,72,,,,,1.23,0.65,1.04*10
$GPGSV,5,1,17,05,49,154,41,06,05,028,14,11,37,019,17,12,21,352,*74
$GPGSV,5,2,17,13,25,169,41,14,09,118,39,15,27,205,28,18,12,222,19*74
$GPGSV,5,3,17,20,51,091,35,22,21,100,39,24,62,279,25,29,11,285,*74
$GPGSV,5,4,17,36,52,277,,40,86,350,,41,58,082,,49,32,274,*7D
$GPGSV,5,5,17,50,10,089,*4A
$GLGSV,3,1,11,70,00,102,13,71,13,143,38,72,14,192,16,73,14,141,33*60
$GLGSV,3,2,11,74,51,106,27,75,47,015,22,76,00,340,,85,12,008,07*63
$GLGSV,3,3,11,86,47,315,14,87,36,251,16,,,,29*6A
$GNGLL,0419.91778,S,05539.90428,E,042034.00,A,A*6A
$GNGRS,042034.00,1,-10.6,0.8,-1.2,2.2,-2.1,0.9,-1.0,-7.9,,,,*45
$GNGRS,042034.00,1,-11.7,12.4,-0.5,-8.1,14.2,-3.7,-1.8,-12.1,,,,*55
$GNGST,042034.00,17451,,,,3.4,3.5,3.7*7B
$GNZDA,042034.00,23,05,2025,00,00*78
$GNGBS,042034.00,3.4,3.5,3.7,,,,*5B
$GNTXT,01,01,01,More than 100 frame errors, UART RX was disabled*70
b0d)1%`(
'vP#3[i&dy>){4V^:R 
Y$_&F
fdG'FHI!J3jK/LTUV/;W$0brm$GNRMC,042035.00,A,0419.91779,S,05539.90426,E,0.018,,230525,,,A*77
$GNVTG,,T,,M,0.018,N,0.034,K,A*33
$GNGNS,042035.00,0419.91779,S,05539.90426,E,AA,16,0.65,8.2,-47.6,,*5D
$GNGGA,042035.00,0419.91779,S,05539.90426,E,1,12,0.65,8.2,M,-47.6,M,,*73
$GNGSA,A,3,24,20,05,13,15,22,14,18,,,,,1.23,0.65,1.04*11
$GNGSA,A,3,86,74,75,87,85,73,71,72,,,,,1.23,0.65,1.04*10
$GPGSV,5,1,17,05,49,154,41,06,05,028,15,11,37,019,16,12,21,352,*74
$GPGSV,5,2,17,13,25,169,40,14,09,118,39,15,27,205,28,18,12,222,18*74
$GPGSV,5,3,17,20,51,091,35,22,21,100,38,24,62,279,25,29,11,285,*75
$GPGSV,5,4,17,36,52,277,,40,86,350,,41,58,082,,49,32,274,*7D
$GPGSV,5,5,17,50,10,089,*4A
$GLGSV,3,1,11,70,00,102,10,71,13,143,39,72,14,192,14,73,14,141,33*60
$GLGSV,3,2,11,74,51,106,27,75,47,015,21,76,00,340,,85,12,008,08*6F
$GLGSV,3,3,11,86,47,315,15,87,36,251,16,,,,29*6B
$GNGLL,0419.91779,S,05539.90426,E,042035.00,A,A*64
$GNGRS,042035.00,1,-9.8,1.1,-1.0,2.3,-0.8,1.2,-0.9,-6.9,,,,*71
$GNGRS,042035.00,1,-11.0,12.5,0.2,-7.2,14.1,-3.6,-1.9,-11.5,,,,*70
$GNGST,042035.00,26176,,,,3.4,3.5,3.7*78
$GNZDA,042035.00,23,05,2025,00,00*79
$GNGBS,042035.00,3.4,3.5,3.7,,,,*5A
$GNTXT,01,01,01,More than 100 frame errors, UART RX was disabled*70
b0dp)1%`(
'v%#3[m&d}>{4V^:R 
Y$_=FfqG':HI |J3jK/YLTU>V/;W$Pbpr#E$GNRMC,042036.00,A,0419.91780,S,05539.90424,E,0.041,,230525,,,A*7C
$GNVTG,,T,,M,0.041,N,0.075,K,A*3A
$GNGNS,042036.00,0419.91780,S,05539.90424,E,AA,16,0.82,8.1,-47.6,,*50
$GNGGA,042036.00,0419.91780,S,05539.90424,E,1,12,0.82,8.1,M,-47.6,M,,*7E
$GNGSA,A,3,24,20,05,13,15,22,14,18,,,,,1.54,0.82,1.30*1F
$GNGSA,A,3,86,74,75,87,85,73,71,72,,,,,1.54,0.82,1.30*1E
$GPGSV,5,1,17,05,49,154,41,06,05,028,15,11,37,019,14,12,21,352,*76
$GPGSV,5,2,17,13,25,169,40,14,09,118,39,15,27,205,29,18,12,222,19*74
$GPGSV,5,3,17,20,51,091,35,22,21,100,38,24,62,277,25,29,11,285,*7B
$GPGSV,5,4,17,36,52,277,,40,86,350,,41,58,082,,49,32,274,*7D
$GPGSV,5,5,17,50,10,089,*4A
$GLGSV,3,1,11,70,00,102,08,71,13,143,39,72,14,192,13,73,14,141,32*6F
$GLGSV,3,2,11,74,51,106,27,75,47,015,21,76,00,340,,85,12,008,08*6F
$GLGSV,3,3,11,86,47,315,15,87,36,251,16,,,,28*6A
$GNGLL,0419.91780,S,05539.90424,E,042036.00,A,A*63
$GNGRS,042036.00,1,-10.2,1.1,-0.8,2.3,-2.4,1.3,-1.0,-7.3,,,,*45
$GNGRS,042036.00,1,-10.8,12.9,0.9,-6.9,161,-3.9,-2.0,-11.5,,,,*5E
$GNGST,042036.00,45,,,,3.4,3.5,3.7*4E
$GNZDA,042036.00,23,05,2025,00,00*7A
$GNGBS,042036.00,3.4,3.5,3.7,,,,*59
$GNTXT,01,01,01,More than 100 frame errors, UART RX was disabled*70
b0pX)1%`(
'v|$3[i&d>H{4V^:R 
Y"_FFfG'$HI |J3jK/LTUV/;W$mbXr&$GNRMC,042037.00,A,0419.91776,S,05539.90418,E,0.026,,230525,,,A*7A
$GNVTG,,T,,M,0.026,N,0.048,K,A*35
$GNGNS,042037.00,0419.91776,S,05539.90418,E,AA,16,0.65,8.0,-47.6,,*5F
$GNGGA,042037.00,0419.91776,S,05539.90418,E,1,12,0.65,8.0,M,-47.6,M,,*71
$GNGSA,A,3,24,20,05,13,15,22,14,18,,,,,1.23,0.65,1.04*11
$GNGSA,A,3,86,74,75,87,85,73,71,72,,,,,1.23,0.65,1.04*10
$GPGSV,5,1,18,05,49,154,41,06,05,028,13,11,37,019,15,12,21,352,*7E
$GPGSV,5,2,18,13,25,169,40,14,09,118,39,15,27,205,28,18,12,222,17*74
$GPGSV,5,3,18,20,51,091,36,22,21,100,38,24,62,277,24,25,00,328,*7C
$GPGSV,5,4,18,29,11,285,,36,52,277,,40,86,350,,41,58,082,*7B
$GPGSV,5,5,18,49,32,274,,50,10,089,*78
$GLGSV,3,1,11,70,00,102,08,71,13,143,39,72,14,192,11,73,14,141,32*6D
$GLGSV,3,2,11,74,51,106,27,75,47,015,20,76,00,340,,85,12,008,09*6F
$GLGSV,3,3,11,86,47,315,15,87,36,251,16,,,,29*6B
$GNGLL,0419.91776,S,05539.90418,E,042037.00,A,A*64
$GNGRS,042037.00,1,-11.0,1.1,-0.9,2.2,-2.4,1.3,-1.1,-3.9,,,,*48
$GNGRS,042037.00,1,-10.2,13.1,-0.5,-8.3,14.1,-3.9,-2.2,-8.3,,,,*69
$GNGST,042037.00,2909,,,,3.4,3.5,3.7*4C
$GNZDA,042037.00,23,05,2025,00,00*7B
$GNGBS,042037.00,3.4,3.5,3.7,,,,*58
$GNTXT,01,01,01,More than 100 frame errors, UART RX was disabled*70
b0p@)1
%`(
'v#3[g'd>~H{4V^:R 
Y%_LFfG'HGI J3jK/LTU^V/;JW$=b@r*P$GNRMC,042038.00,A,0419.91770,S,05539.90410,E,0.031,,230525,,,A*7D
$GNVTG,,T,,M,0.031,N,0.058,K,A*32
$GNGNS,042038.00,0419.91770,S,05539.90410,E,AA,16,0.65,7.8,-47.6,,*59
$GNGGA,042038.00,0419.91770,S,05539.90410,E,1,12,0.65,7.8,M,-47.6,M,,*77
$GNGSA,A,3,24,20,05,13,15,22,14,18,,,,,1.23,0.65,1.04*11
$GNGSA,A,3,86,74,75,87,85,73,71,72,,,,,1.23,0.65,1.04*10
$GPGSV,5,1,18,05,49,154,41,06,05,028,10,11,37,019,15,12,21,352,*7D
$GPGSV,5,2,18,13,25,169,40,14,09,118,39,15,27,205,28,18,12,222,17*74
$GPGSV,5,3,18,20,51,091,35,22,21,100,39,24,62,277,23,25,00,328,*79
$GPGSV,5,4,18,29,11,285,,36,52,277,,40,86,350,,41,58,082,*7B
$GPGSV,5,5,18,49,32,274,,50,10,089,*78
$GLGSV,3,1,11,70,00,102,13,71,13,143,39,72,14,192,11,73,14,141,32*67
$GLGSV,3,2,11,74,51,106,27,75,47,015,21,76,00,340,,85,12,008,09*6E
$GLGSV,3,3,11,86,47,315,14,87,36,251,15,,,,29*69
$GNGLL,0419.91770,S,05539.90410,E,042038.00,A,A*65
$GNGRS,042038.00,1,-11.5,1.0,-1.0,2.2,-2.6,1.3,-0.8,-2.7,,,,*4E
$GNGRS,042038.00,1,-9.5,12.5,-0.3,-7.5,13.7,-3.7,-2.5,-9.5,,,,*5C
$GNGST,042038.00,4363,,,,3.4,3.5,3.7*43
$GNZDA,042038.00,23,05,2025,00,00*74
$GNGBS,042038.00,3.4,3.5,3.7,,,,*57
$GNTXT,01,01,01,More than 100 frame errors, UART RX was disabled*70
b0p()1
%`(
(v6#3[b&d{>H{4V^:R 
Y$_RFfHG'H
I wJ3jK/wLTU^2V/;W$hb(r.$GNRMC,042039.00,A,0419.91767,S,05539.90405,E,0.044,,230525,,,A*7C
$GNVTG,,T,,M,0.044,N,0.081,K,A*34
$GNGNS,042039.00,0419.91767,S,05539.90405,E,AA,16,0.82,7.7,-47.6,,*5C
$GNGGA,042039.00,0419.91767,S,05539.90405,E,1,12,0.82,7.7,M,-47.6,M,,*72
$GNGSA,A,3,24,20,05,13,15,22,14,18,,,,,1.54,0.82,1.30*1F
$GNGSA,A,3,86,74,75,87,85,73,71,72,,,,,1.54,0.82,1.30*1E
$GPGSV,5,1,18,05,49,154,41,06,05,028,10,11,37,019,13,12,21,352,*7B
$GPGSV,5,2,18,13,25,169,40,14,09,118,40,15,27,205,28,18,12,222,16*7B
$GPGSV,5,3,18,20,51,091,35,22,21,100,38,24,62,277,22,25,00,328,*79
$GPGSV,5,4,18,29,11,285,,36,52,277,,40,86,350,,41,58,082,*7B
$GPGSV,5,5,18,49,32,274,,50,10,089,*78
$GLGSV,3,1,11,70,00,102,16,71,13,143,39,72,14,192,12,73,14,141,32*61
$GLGSV,3,2,11,74,51,106,27,75,47,015,21,76,00,340,,85,12,008,09*6E
$GLGSV,3,3,11,86,47,315,14,87,36,251,13,,,,29*6F
$GNGLL,0419.91767,S,05539.90405,E,042039.00,A,A*66
$GNGRS,042039.00,1,-11.3,1.0,-1.0,1.9,-4.6,1.2,-1.0,-2.7,,,,*4F
$GNGRS,042039.00,1,-8.9,12.7,-1.4,-8.0,129,-3.9,-2.7,-10.1,,,,*4F
$GNGST,042039.00,49,,,,3.4,3.5,3.7*4D
$GNZDA,042039.00,23,05,2025,00,00*75
$GNGBS,042039.00,3.4,3.5,3.7,,,,*56
$GNTXT,01,01,01,More than 100 frame errors, UART RX was disabled*70
b0p(1%`(
(v#3[x&d>H{4V^:R 
Y$_>FfG'H@I!}J3jK/LTU~V/;0W$h*Lbr2 $GNRMC,042040.00,A,0419.91761,S,05539.90400,E,0.045,,230525,,,A*70
$GNVTG,,T,,M,0.045,N,0.083,K,A*37
$GNGNS,042040.00,0419.91761,S,05539.90400,E,AA,16,0.65,7.6,-47.6,,*59
$GNGGA,042040.00,0419.91761,S,05539.90400,E,1,12,0.65,7.6,M,-47.6,M,,*77
$GNGSA,A,3,24,20,05,13,15,22,14,18,,,,,1.23,0.65,1.04*11
$GNGSA,A,3,86,74,75,87,85,73,71,72,,,,,1.23,0.65,1.04*10
$GPGSV,5,1,18,05,49,154,40,06,05,028,11,11,37,019,12,12,21,352,*7A
$GPGSV,5,2,18,13,25,169,40,14,09,118,40,15,27,205,28,18,12,222,16*7B
$GPGSV,5,3,18,20,51,091,35,22,21,100,38,24,62,277,23,25,00,328,*78
$GPGSV,5,4,18,29,11,285,,36,52,277,,40,86,350,,41,58,082,*7B
$GPGSV,5,5,18,49,32,274,,50,10,089,*78
$GLGSV,3,1,11,70,00,102,14,71,13,143,39,72,14,192,13,73,14,141,33*63
$GLGSV,3,2,11,74,51,106,27,75,47,015,22,76,00,340,,85,12,008,09*6D
$GLGSV,3,3,11,86,47,315,14,87,36,251,11,,,,29*6D
$GNGLL,0419.91761,S,05539.90400,E,042040.00,A,A*6B
$GNGRS,042040.00,1,-10.2,1.2,-1.1,1.6,-3.3,1.7,-0.9,-2.7,,,,*42
$GNGRS,042040.00,1,-7.2,11.6,-2.3,-9.2,14.1,-3.9,-2.6,-9.6,,,,*5E
$GNGST,042040.00,2885147,,,,3.4,3.5,3.7*7B
$GNZDA,042040.00,23,05,2025,00,00*7B
$GNGBS,042040.00,3.4,3.5,3.7,,,,*58
$GNTXT,01,01,01,More than 100 frame errors, UART RX was disabled*70
b0p(1%`(
(v#3[&d>|H{4V^:R 
Y$_)F
fqG(HgI xJ3jK/LTU
nV/;W$"br6{y$GNRMC,042041.00,A,0419.91757,S,05539.90395,E,0.153,,230525,,,A*79
$GNVTG,,T,,M,0.153,N,0.284,K,A*34
$GNGNS,042041.00,0419.91757,S,05539.90395,E,AA,16,0.65,7.5,-47.6,,*55
$GNGGA,042041.00,0419.91757,S,05539.90395,E,1,12,0.65,7.5,M,-47.6,M,,*7B
$GNGSA,A,3,24,20,05,13,15,22,14,18,,,,,1.23,0.65,1.04*11
$GNGSA,A,3,86,74,75,87,85,73,71,72,,,,,1.23,0.65,1.04*10
$GPGSV,5,1,18,05,49,154,40,06,05,028,12,11,37,019,12,12,21,352,*79
$GPGSV,5,2,18,13,25,169,40,14,09,118,40,15,27,205,28,18,12,222,17*7A
$GPGSV,5,3,18,20,51,091,35,22,21,100,38,24,62,277,23,25,00,328,*78
$GPGSV,5,4,18,29,11,286,,36,52,277,,40,86,350,,41,58,082,*78
$GPGSV,5,5,18,49,32,274,,50,10,089,*78
$GLGSV,3,1,11,70,00,102,10,71,13,143,40,72,14,192,14,73,14,141,32*6F
$GLGSV,3,2,11,74,51,106,27,75,47,015,22,76,00,340,,85,12,008,10*65
$GLGSV,3,3,11,86,47,315,15,87,36,251,11,,,,29*6C
$GNGLL,0419.91757,S,05539.90395,E,042041.00,A,A*64
$GNGRS,042041.00,1,-9.0,1.3,-1.0,2.2,-3.4,1.9,-0.7,-5.3,,,,*7A
$GNGRS,042041.00,1,-4.9,12.0,-1.2,-7.3,13.9,-3.9,-2.8,-9.2,,,,*5A
$GNGST,042041.00,2885147,,,,3.4,3.5,3.7*7A
$GNZDA,042041.00,23,05,2025,00,00*7A
$GNGBS,042041.00,3.4,3.5,3.7,,,,*59
$GNTXT,01,01,01,More than 100 frame errors, UART RX was disabled*70
b0p(1m%`(
'vu)"3['d>H{4V^:R 
Y&_FfG(HI J3jK/LTU
V/;W
$2"bru:S$GNRMC,042042.00,A,0419.91747,S,05539.90383,E,0.303,,230525,,,A*7B
$GNVTG,,T,,M,0.303,N,0.561,K,A*3F
$GNGNS,042042.00,0419.91747,S,05539.90383,E,AA,16,0.82,7.3,-47.6,,*5F
$GNGGA,042042.00,0419.91747,S,05539.90383,E,1,12,0.82,7.3,M,-47.6,M,,*71
$GNGSA,A,3,24,20,05,13,15,22,14,18,,,,,1.54,0.82,1.30*1F
$GNGSA,A,3,86,74,75,87,85,73,71,72,,,,,1.54,0.82,1.30*1E
$GPGSV,5,1,18,05,49,154,40,06,05,028,13,11,37,019,14,12,21,352,*7E
$GPGSV,5,2,18,13,25,169,40,14,09,118,39,15,27,205,28,18,12,222,18*7B
$GPGSV,5,3,18,20,51,091,34,22,21,100,39,24,62,277,24,25,00,328,*7F
$GPGSV,5,4,18,29,11,286,,36,52,277,,40,86,350,,41,58,082,*78
$GPGSV,5,5,18,49,32,274,,50,10,089,*78
$GLGSV,3,1,11,70,00,102,12,71,13,143,40,72,14,192,14,73,14,141,32*6D
$GLGSV,3,2,11,74,51,106,27,75,47,015,22,76,00,340,,85,12,008,10*65
$GLGSV,3,3,11,86,47,315,14,87,36,251,10,,,,29*6C
$GNGLL,0419.91747,S,05539.90383,E,042042.00,A,A*61
$GNGRS,042042.00,1,-10.8,1.4,-0.8,2.3,-1.4,1.9,-0.9,-4.7,,,,*4F
$GNGRS,042042.00,1,-5.7,11.7,-1.0,-4.6,20.0,-3.8,-2.8,-7.6,,,,*54
$GNGST,042042.00,46,,,,3.4,3.5,3.7*4E
$GNZDA,042042.00,23,05,2025,00,00*79
$GNGBS,042042.00,3.4,3.5,3.7,,,,*5A
