$GNRMC,072012.00,A,0419.82081,S,05539.93261,E,0.022,,200525,,,D*7A
$GNVTG,,T,,M,0.022,N,0.040,K,D*3C
$GNGGA,072012.00,0419.82081,S,05539.93261,E,2,12,0.62,11.7,M,-47.6,M,,0000*48
$GNGSA,A,3,05,12,24,18,15,25,23,13,29,10,,,1.12,0.62,0.93*13
$GNGSA,A,3,80,73,69,84,68,70,74,,,,,,1.12,0.62,0.93*15
$GPGSV,4,1,16,05,31,031,43,10,13,214,29,12,70,116,37,13,13,098,38*7A
$GPGSV,4,2,16,15,42,125,39,18,30,302,35,20,00,033,21,23,55,217,30*7C
$GPGSV,4,3,16,24,28,169,38,25,69,335,37,28,07,284,,29,17,354,39*7F
$GPGSV,4,4,16,36,52,277,33,40,86,351,38,41,58,082,36,49,32,274,*72
$GLGSV,3,1,09,68,08,052,24,69,38,093,40,70,30,177,22,73,68,262,36*6F
$GLGSV,3,2,09,74,31,318,28,80,35,168,33,84,09,343,25,85,06,296,*6D
$GLGSV,3,3,09,,,,32*6D
$GNGLL,0419.82081,S,05539.93261,E,072012.00,A,D*63
$GNTXT,01,01,01,More than 100 frame errors, UART RX was disabled*70
$GNRMC,072013.00,A,0419.82081,S,05539.93261,E,0.022,,200525,,,D*7B
$GNVTG,,T,,M,0.022,N,0.041,K,D*3D
$GNGGA,072013.00,0419.82081,S,05539.93261,E,2,12,0.62,11.7,M,-47.6,M,,0000*49
$GNGSA,A,3,05,12,24,18,15,25,23,13,29,10,,,1.12,0.62,0.93*13
$GNGSA,A,3,80,73,69,84,68,70,74,,,,,,1.12,0.62,0.93*15
$GPGSV,4,1,16,05,31,031,36,10,13,214,28,12,70,116,33,13,13,098,32*77
$GPGSV,4,2,16,15,42,125,33,18,30,302,31,20,00,033,19,23,55,217,29*71
$GPGSV,4,3,16,24,28,169,34,25,69,335,34,28,07,284,,29,17,354,34*7D
$GPGSV,4,4,16,36,52,277,29,40,86,351,32,41,58,082,33,49,32,274,*76
$GLGSV,3,1,09,68,08,052,28,69,38,093,36,70,30,177,22,73,68,262,33*67
$GLGSV,3,2,09,74,31,318,27,80,35,168,32,84,09,343,24,85,06,296,*62
$GLGSV,3,3,09,,,,31*6E
$GNGLL,0419.82081,S,05539.93261,E,072013.00,A,D*62
$GNTXT,01,01,01,More than 100 frame errors, UART RX was disabled*70
$GNRMC,072014.00,A,0419.82082,S,05539.93262,E,0.033,,200525,,,D*7C
$GNVTG,,T,,M,0.033,N,0.062,K,D*3C
$GNGGA,072014.00,0419.82082,S,05539.93262,E,2,12,0.62,11.6,M,-47.6,M,,0000*4F
$GNGSA,A,3,05,12,24,18,15,25,23,13,29,10,,,1.12,0.62,0.93*13
$GNGSA,A,3,80,73,69,84,68,70,74,,,,,,1.12,0.62,0.93*15
$GPGSV,4,1,16,05,31,031,39,10,13,214,31,12,70,116,37,13,13,098,35*73
$GPGSV,4,2,16,15,42,125,34,18,30,302,33,20,00,033,16,23,55,217,33*70
$GPGSV,4,3,16,24,28,169,36,25,69,335,36,28,07,284,,29,17,354,39*70
$GPGSV,4,4,16,36,52,277,31,40,86,351,36,41,58,082,33,49,32,274,*7B
$GLGSV,3,1,09,68,08,052,35,69,38,093,41,70,30,177,22,73,68,262,34*6C
$GLGSV,3,2,09,74,31,318,27,80,35,168,32,84,09,343,23,85,06,296,*65
$GLGSV,3,3,09,,,,31*6E
$GNGLL,0419.82082,S,05539.93262,E,072014.00,A,D*65
$GNTXT,01,01,01,More than 100 frame errors, UART RX was disabled*70
$GNRMC,072015.00,A,0419.82082,S,05539.93262,E,0.016,,200525,,,D*7A
$GNVTG,,T,,M,0.016,N,0.029,K,D*34
$GNGGA,072015.00,0419.82082,S,05539.93262,E,2,12,0.62,11.5,M,-47.6,M,,0000*4D
$GNGSA,A,3,05,12,24,18,15,25,23,13,29,10,,,1.12,0.62,0.93*13
$GNGSA,A,3,80,73,69,84,68,70,74,,,,,,1.12,0.62,0.93*15
$GPGSV,4,1,16,05,31,031,40,10,13,214,32,12,70,116,37,13,13,098,34*7F
$GPGSV,4,2,16,15,42,125,38,18,30,302,34,20,00,033,,23,55,217,31*7E
$GPGSV,4,3,16,24,28,169,37,25,69,335,37,28,07,284,,29,17,354,39*70
$GPGSV,4,4,16,36,52,277,32,40,86,351,38,41,58,082,33,49,32,274,*76
$GLGSV,3,1,09,68,08,052,31,69,38,093,38,70,30,177,22,73,68,262,37*65
$GLGSV,3,2,09,74,31,318,28,80,35,168,35,84,09,343,24,85,06,296,*6A
$GLGSV,3,3,09,,,,32*6D
$GNGLL,0419.82082,S,05539.93262,E,072015.00,A,D*64
$GNTXT,01,01,01,More than 100 frame errors, UART RX was disabled*70
$GNRMC,072016.00,A,0419.82082,S,05539.93264,E,0.012,,200525,,,D*7B
$GNVTG,,T,,M,0.012,N,0.022,K,D*3B
$GNGGA,072016.00,0419.82082,S,05539.93264,E,2,12,0.62,11.5,M,-47.6,M,,0000*48
$GNGSA,A,3,05,12,24,18,15,25,23,13,29,10,,,1.12,0.62,0.93*13
$GNGSA,A,3,80,73,69,84,68,70,74,,,,,,1.12,0.62,0.93*15
$GPGSV,4,1,16,05,31,031,43,10,13,214,31,12,70,118,41,13,13,098,33*77
$GPGSV,4,2,16,15,42,125,36,18,30,302,35,20,00,033,,23,55,217,34*74
$GPGSV,4,3,16,24,28,169,37,25,69,335,40,28,07,284,,29,17,354,40*7E
$GPGSV,4,4,16,36,52,277,34,40,86,351,41,41,58,082,38,49,32,274,*75
$GLGSV,3,1,09,68,08,052,35,69,38,093,38,70,30,177,21,73,68,262,38*6D
$GLGSV,3,2,09,74,31,318,28,80,35,168,31,84,09,343,25,85,06,296,*6F
$GLGSV,3,3,09,,,,32*6D
$GNGLL,0419.82082,S,05539.93264,E,072016.00,A,D*61
$GNTXT,01,01,01,More than 100 frame errors, UART RX was disabled*70
$GNRMC,072017.00,A,0419.82083,S,05539.93262,E,0.040,,200525,,,D*7A
$GNVTG,,T,,M,0.040,N,0.074,K,D*3F
$GNGGA,072017.00,0419.82083,S,05539.93262,E,2,12,0.62,11.4,M,-47.6,M,,0000*4F
$GNGSA,A,3,05,12,24,18,15,25,23,13,29,10,,,1.12,0.62,0.93*13
$GNGSA,A,3,80,73,69,84,68,70,74,,,,,,1.12,0.62,0.93*15
$GPGSV,4,1,16,05,31,031,43,10,13,214,30,12,70,118,40,13,12,097,39*73
$GPGSV,4,2,16,15,42,125,36,18,30,302,34,20,00,033,,23,55,217,34*75
$GPGSV,4,3,16,24,28,169,39,25,69,335,40,28,07,284,,29,17,354,40*70
$GPGSV,4,4,16,36,52,277,35,40,86,351,39,41,58,082,39,49,32,274,*7A
$GLGSV,3,1,09,68,08,052,36,69,38,093,36,70,30,177,21,73,68,262,37*6F
$GLGSV,3,2,09,74,31,318,28,80,35,168,33,84,09,343,25,85,06,296,*6D
$GLGSV,3,3,09,,,,35*6A
$GNGLL,0419.82083,S,05539.93262,E,072017.00,A,D*67
$GNTXT,01,01,01,More than 100 frame errors, UART RX was disabled*70
$GNRMC,072018.00,A,0419.82083,S,05539.93262,E,0.016,,200525,,,D*76
$GNVTG,,T,,M,0.016,N,0.030,K,D*3C
$GNGGA,072018.00,0419.82083,S,05539.93262,E,2,12,0.62,11.4,M,-47.6,M,,0000*40
$GNGSA,A,3,05,12,24,18,15,25,23,13,29,10,,,1.12,0.62,0.93*13
$GNGSA,A,3,80,73,69,84,68,70,74,,,,,,1.12,0.62,0.93*15
$GPGSV,4,1,16,05,31,031,43,10,13,214,30,12,70,118,40,13,12,097,33*79
$GPGSV,4,2,16,15,42,125,38,18,30,302,33,20,00,033,20,23,55,217,33*79
$GPGSV,4,3,16,24,28,169,36,25,69,335,40,28,07,284,,29,17,354,40*7F
$GPGSV,4,4,16,36,52,277,32,40,86,351,40,41,58,082,39,49,32,274,*73
$GLGSV,3,1,09,68,08,052,37,69,38,093,35,70,30,177,19,73,68,262,37*66
$GLGSV,3,2,09,74,31,318,27,80,35,168,32,84,09,343,26,85,06,296,*60
$GLGSV,3,3,09,,,,33*6C
$GNGLL,0419.82083,S,05539.93262,E,072018.00,A,D*68
$GNTXT,01,01,01,More than 100 frame errors, UART RX was disabled*70
$GNRMC,072019.00,A,0419.82083,S,05539.93261,E,0.036,,200525,,,D*76
$GNVTG,,T,,M,0.036,N,0.067,K,D*3C
$GNGGA,072019.00,0419.82083,S,05539.93261,E,2,12,0.62,11.4,M,-47.6,M,,0000*42
$GNGSA,A,3,05,12,24,18,15,25,23,13,29,10,,,1.12,0.62,0.93*13
$GNGSA,A,3,80,73,69,84,68,70,74,,,,,,1.12,0.62,0.93*15
$GPGSV,4,1,16,05,31,031,42,10,13,214,31,12,70,118,40,13,12,097,36*7C
$GPGSV,4,2,16,15,42,125,37,18,30,302,33,20,00,033,20,23,55,217,32*77
$GPGSV,4,3,16,24,28,169,37,25,69,335,41,28,07,284,,29,17,354,41*7E
$GPGSV,4,4,16,36,52,277,31,40,86,351,40,41,58,082,39,49,32,274,*70
$GLGSV,3,1,09,68,08,052,37,69,38,093,35,70,30,177,18,73,68,262,36*66
$GLGSV,3,2,09,74,31,318,25,80,35,168,32,84,09,343,27,85,06,296,*63
$GLGSV,3,3,09,,,,33*6C
$GNGLL,0419.82083,S,05539.93261,E,072019.00,A,D*6A
$GNTXT,01,01,01,More than 100 frame errors, UART RX was disabled*70
$GNRMC,072020.00,A,0419.82083,S,05539.93260,E,0.010,,200525,,,D*79
$GNVTG,,T,,M,0.010,N,0.018,K,D*30
$GNGGA,072020.00,0419.82083,S,05539.93260,E,2,12,0.62,11.3,M,-47.6,M,,0000*4E
$GNGSA,A,3,05,12,24,18,15,25,23,13,29,10,,,1.12,0.62,0.93*13
$GNGSA,A,3,80,73,69,84,68,70,74,,,,,,1.12,0.62,0.93*15
$GPGSV,4,1,16,05,31,031,42,10,13,214,30,12,70,118,41,13,12,097,35*7F
$GPGSV,4,2,16,15,42,125,37,18,30,302,33,20,00,033,20,23,55,217,33*76
$GPGSV,4,3,16,24,28,169,37,25,69,335,41,28,07,284,,29,17,354,39*71
$GPGSV,4,4,16,36,52,277,31,40,86,351,40,41,58,082,38,49,32,274,*71
$GLGSV,3,1,09,68,08,052,37,69,38,093,36,70,30,177,18,73,68,262,36*65
$GLGSV,3,2,09,74,31,318,24,80,35,168,32,84,09,343,27,85,06,296,*62
$GLGSV,3,3,09,,,,33*6C
$GNGLL,0419.82083,S,05539.93260,E,072020.00,A,D*61
$GNTXT,01,01,01,More than 100 frame errors, UART RX was disabled*70
$GNRMC,072021.00,A,0419.82083,S,05539.93259,E,0.021,,200525,,,D*70
$GNVTG,,T,,M,0.021,N,0.039,K,D*31
$GNGGA,072021.00,0419.82083,S,05539.93259,E,2,12,0.62,11.3,M,-47.6,M,,0000*45
$GNGSA,A,3,05,12,24,18,15,25,23,13,29,10,,,1.12,0.62,0.93*13
$GNGSA,A,3,80,73,69,84,68,70,74,,,,,,1.12,0.62,0.93*15
$GPGSV,4,1,16,05,31,031,41,10,13,214,30,12,70,118,40,13,12,097,35*7D
$GPGSV,4,2,16,15,42,125,36,18,30,302,32,20,00,033,19,23,55,217,33*7C
$GPGSV,4,3,16,24,28,169,36,25,69,335,40,28,07,284,,29,17,354,38*70
$GPGSV,4,4,16,36,52,277,30,40,86,351,38,41,58,082,37,49,32,274,*70
$GLGSV,3,1,09,68,08,052,35,69,38,093,33,70,30,177,17,73,68,262,33*68
$GLGSV,3,2,09,74,31,318,22,80,35,168,31,84,09,343,26,85,06,296,*66
$GLGSV,3,3,09,,,,29*67
$GNGLL,0419.82083,S,05539.93259,E,072021.00,A,D*6A
$GNTXT,01,01,01,More than 100 frame errors, UART RX was disabled*70
$GNRMC,072022.00,A,0419.82083,S,05539.93255,E,0.030,,200525,,,D*7F
$GNVTG,,T,,M,0.030,N,0.055,K,D*3B
$GNGGA,072022.00,0419.82083,S,05539.93255,E,2,12,0.62,11.3,M,-47.6,M,,0000*4A
$GNGSA,A,3,05,12,24,18,15,25,23,13,29,10,,,1.12,0.62,0.93*13
$GNGSA,A,3,80,73,69,84,68,70,74,,,,,,1.12,0.62,0.93*15
$GPGSV,4,1,16,05,31,031,40,10,13,214,29,12,70,118,37,13,12,097,33*72
$GPGSV,4,2,16,15,42,125,36,18,30,303,32,20,00,033,16,23,55,217,34*75
$GPGSV,4,3,16,24,28,169,36,25,69,335,39,28,07,284,,29,17,354,39*7F
$GPGSV,4,4,16,36,52,277,30,40,86,351,37,41,58,082,38,49,32,274,*70
$GLGSV,3,1,09,68,08,052,33,69,38,093,33,70,30,177,18,73,68,262,34*66
$GLGSV,3,2,09,74,31,318,23,80,35,168,32,84,09,343,26,85,06,296,*64
$GLGSV,3,3,09,,,,33*6C
$GNGLL,0419.82083,S,05539.93255,E,072022.00,A,D*65
$GNTXT,01,01,01,More than 100 frame errors, UART RX was disabled*70
$GNRMC,072023.00,A,0419.82083,S,05539.93253,E,0.082,,200525,,,D*71
$GNVTG,,T,,M,0.082,N,0.152,K,D*34
$GNGGA,072023.00,0419.82083,S,05539.93253,E,2,12,0.62,11.2,M,-47.6,M,,0000*4C
$GNGSA,A,3,05,12,24,18,15,25,23,13,29,10,,,1.12,0.62,0.93*13
$GNGSA,A,3,80,73,69,84,68,70,74,,,,,,1.12,0.62,0.93*15
$GPGSV,4,1,16,05,31,031,40,10,13,214,27,12,70,118,37,13,12,097,30*7F
$GPGSV,4,2,16,15,42,125,33,18,30,303,30,20,00,033,13,23,55,217,29*7B
$GPGSV,4,3,16,24,28,169,35,25,69,335,37,28,07,284,,29,17,354,36*7D
$GPGSV,4,4,16,36,52,277,30,40,86,351,36,41,58,082,34,49,32,274,*7D
$GLGSV,3,1,09,68,08,052,28,69,38,093,33,70,30,177,18,73,68,262,33*6B
$GLGSV,3,2,09,74,31,318,21,80,35,168,30,84,09,343,25,85,06,296,*67
$GLGSV,3,3,09,,,,28*66
$GNGLL,0419.82083,S,05539.93253,E,072023.00,A,D*62
$GNTXT,01,01,01,More than 100 frame errors, UART RX was disabled*70
$GNRMC,072024.00,A,0419.82083,S,05539.93253,E,0.020,,200525,,,D*7E
$GNVTG,,T,,M,0.020,N,0.038,K,D*31
$GNGGA,072024.00,0419.82083,S,05539.93253,E,2,12,0.62,11.2,M,-47.6,M,,0000*4B
$GNGSA,A,3,05,12,24,18,15,25,23,13,29,10,,,1.12,0.62,0.93*13
$GNGSA,A,3,80,73,69,84,68,70,74,,,,,,1.12,0.62,0.93*15
$GPGSV,4,1,16,05,31,031,42,10,13,214,26,12,70,118,38,13,12,097,33*70
$GPGSV,4,2,16,15,42,125,34,18,30,303,31,20,-1,033,11,23,55,217,31*6A
$GPGSV,4,3,16,24,28,169,36,25,69,335,37,28,07,284,,29,17,354,39*71
$GPGSV,4,4,16,36,52,277,30,40,86,351,38,41,58,082,35,49,32,274,*72
$GLGSV,3,1,09,68,08,052,28,69,38,093,38,70,30,177,18,73,68,262,35*66
$GLGSV,3,2,09,74,31,318,21,80,35,168,34,84,09,343,24,85,06,296,*62
$GLGSV,3,3,09,,,,33*6C
$GNGLL,0419.82083,S,05539.93253,E,072024.00,A,D*65
$GNTXT,01,01,01,More than 100 frame errors, UART RX was disabled*70
$GNRMC,072025.00,A,0419.82082,S,05539.93254,E,0.056,,200525,,,D*78
$GNVTG,,T,,M,0.056,N,0.103,K,D*39
$GNGGA,072025.00,0419.82082,S,05539.93254,E,2,12,0.62,11.2,M,-47.6,M,,0000*4C
$GNGSA,A,3,05,12,24,18,15,25,23,13,29,10,,,1.12,0.62,0.93*13
$GNGSA,A,3,80,73,69,84,68,70,74,,,,,,1.12,0.62,0.93*15
$GPGSV,4,1,15,05,31,031,41,10,13,214,24,12,70,118,39,13,12,097,34*74
$GPGSV,4,2,15,15,42,125,35,18,30,303,32,23,55,217,32,24,28,169,34*73
$GPGSV,4,3,15,25,69,335,38,28,07,284,,29,17,354,39,36,52,277,30*79
$GPGSV,4,4,15,40,86,351,39,41,58,082,36,49,32,274,*40
$GLGSV,3,1,09,68,08,052,31,69,38,093,36,70,30,177,18,73,68,262,35*60
$GLGSV,3,2,09,74,31,318,23,80,35,168,30,84,09,343,23,85,06,296,*63
$GLGSV,3,3,09,,,,32*6D
$GNGLL,0419.82082,S,05539.93254,E,072025.00,A,D*62
$GNTXT,01,01,01,More than 100 frame errors, UART RX was disabled*70
$GNRMC,072026.00,A,0419.82082,S,05539.93254,E,0.016,,200525,,,D*7F
$GNVTG,,T,,M,0.016,N,0.030,K,D*3C
$GNGGA,072026.00,0419.82082,S,05539.93254,E,2,12,0.62,11.3,M,-47.6,M,,0000*4E
$GNGSA,A,3,05,12,24,18,15,25,23,13,29,10,,,1.12,0.62,0.93*13
$GNGSA,A,3,80,73,69,84,68,70,74,,,,,,1.12,0.62,0.93*15
$GPGSV,4,1,15,05,31,031,41,10,13,214,23,12,70,118,38,13,12,097,34*72
$GPGSV,4,2,15,15,42,125,35,18,30,303,30,23,55,218,32,24,28,169,31*7B
$GPGSV,4,3,15,25,69,335,39,28,07,284,,29,17,354,39,36,52,277,31*79
$GPGSV,4,4,15,40,86,351,39,41,58,082,35,49,32,274,*43
$GLGSV,3,1,09,68,08,052,34,69,38,093,35,70,30,177,17,73,68,262,31*6D
$GLGSV,3,2,09,74,31,318,25,80,35,168,28,84,09,343,22,85,06,296,*6D
$GLGSV,3,3,09,,,,27*69
$GNGLL,0419.82082,S,05539.93254,E,072026.00,A,D*61
$GNTXT,01,01,01,More than 100 frame errors, UART RX was disabled*70
$GNRMC,072027.00,A,0419.82082,S,05539.93253,E,0.013,,200525,,,D*7C
$GNVTG,,T,,M,0.013,N,0.023,K,D*3B
$GNGGA,072027.00,0419.82082,S,05539.93253,E,2,12,0.62,11.3,M,-47.6,M,,0000*48
$GNGSA,A,3,05,12,24,18,15,25,23,13,29,10,,,1.12,0.62,0.93*13
$GNGSA,A,3,80,73,69,84,68,70,74,,,,,,1.12,0.62,0.93*15
$GPGSV,4,1,15,05,31,031,42,10,13,214,26,12,70,118,37,13,12,097,36*79
$GPGSV,4,2,15,15,42,125,36,18,30,303,30,23,55,218,33,24,28,169,30*78
$GPGSV,4,3,15,25,69,335,39,28,07,284,,29,17,354,37,36,52,277,29*7E
$GPGSV,4,4,15,40,86,351,39,41,58,082,36,49,32,274,*40
$GLGSV,3,1,09,68,08,052,35,69,38,093,36,70,30,177,15,73,68,262,31*6D
$GLGSV,3,2,09,74,31,318,24,80,35,168,18,84,09,343,22,85,06,296,*6F
$GLGSV,3,3,09,,,,24*6A
$GNGLL,0419.82082,S,05539.93253,E,072027.00,A,D*67
$GNTXT,01,01,01,More than 100 frame errors, UART RX was disabled*70
$GNRMC,072028.00,A,0419.82081,S,05539.93251,E,0.007,,200525,,,D*77
$GNVTG,,T,,M,0.007,N,0.014,K,D*3A
$GNGGA,072028.00,0419.82081,S,05539.93251,E,2,12,0.62,11.3,M,-47.6,M,,0000*46
$GNGSA,A,3,05,12,24,18,15,25,23,13,29,10,,,1.12,0.62,0.93*13
$GNGSA,A,3,80,73,69,84,68,70,74,,,,,,1.12,0.62,0.93*15
$GPGSV,4,1,15,05,31,031,42,10,13,214,28,12,70,118,38,13,12,097,36*78
$GPGSV,4,2,15,15,42,125,36,18,30,303,30,23,55,218,33,24,28,169,30*78
$GPGSV,4,3,15,25,69,335,40,28,07,284,,29,17,354,39,36,52,277,29*7E
$GPGSV,4,4,15,40,86,351,40,41,58,082,36,49,32,274,*4E
$GLGSV,3,1,09,68,08,052,34,69,38,093,36,70,30,177,12,73,68,262,33*69
$GLGSV,3,2,09,74,31,318,25,80,35,168,19,84,09,343,23,85,06,296,*6E
$GLGSV,3,3,09,,,,24*6A
$GNGLL,0419.82081,S,05539.93251,E,072028.00,A,D*69
$GNTXT,01,01,01,More than 100 frame errors, UART RX was disabled*70
$GNRMC,072029.00,A,0419.82079,S,05539.93251,E,0.013,,200525,,,D*74
$GNVTG,,T,,M,0.013,N,0.024,K,D*3C
$GNGGA,072029.00,0419.82079,S,05539.93251,E,2,12,0.63,11.2,M,-47.6,M,,0000*40
$GNGSA,A,3,05,12,24,18,15,25,23,13,29,10,,,1.12,0.63,0.93*12
$GNGSA,A,3,80,73,69,84,68,70,74,,,,,,1.12,0.63,0.93*14
$GPGSV,4,1,15,05,31,031,42,10,13,214,28,12,70,118,40,13,12,097,37*76
$GPGSV,4,2,15,15,42,125,36,18,30,303,30,23,55,218,32,24,28,169,38*71
$GPGSV,4,3,15,25,69,335,40,28,07,284,,29,17,354,37,36,52,277,31*79
$GPGSV,4,4,15,40,86,351,40,41,58,082,37,49,32,274,*4F
$GLGSV,3,1,09,68,08,052,22,69,38,093,36,70,30,177,13,73,68,262,36*6A
$GLGSV,3,2,09,74,31,318,26,80,35,168,33,84,09,343,25,85,06,296,*63
$GLGSV,3,3,09,,,,34*6B
$GNGLL,0419.82079,S,05539.93251,E,072029.00,A,D*6F
$GNTXT,01,01,01,More than 100 frame errors, UART RX was disabled*70
$GNRMC,072030.00,A,0419.82079,S,05539.93251,E,0.029,,200525,,,D*75
$GNVTG,,T,,M,0.029,N,0.054,K,D*32
$GNGGA,072030.00,0419.82079,S,05539.93251,E,2,12,0.62,11.2,M,-47.6,M,,0000*49
$GNGSA,A,3,05,12,24,18,15,25,23,13,29,10,,,1.12,0.62,0.93*13
$GNGSA,A,3,80,73,69,84,68,70,74,,,,,,1.12,0.62,0.93*15
$GPGSV,4,1,15,05,31,031,41,10,13,214,29,12,70,118,40,13,12,097,36*75
$GPGSV,4,2,15,15,42,125,36,18,30,303,32,23,55,218,32,24,28,169,36*7D
$GPGSV,4,3,15,25,69,335,39,28,07,284,,29,17,354,37,36,52,277,32*74
$GPGSV,4,4,15,40,86,351,39,41,58,082,38,49,32,274,*4E
$GLGSV,3,1,09,68,08,052,34,69,38,093,34,70,30,177,16,73,68,262,34*68
$GLGSV,3,2,09,74,31,318,26,80,35,168,29,84,09,343,25,85,06,296,*68
$GLGSV,3,3,09,,,,31*6E
$GNGLL,0419.82079,S,05539.93251,E,072030.00,A,D*67
$GNTXT,01,01,01,More than 100 frame errors, UART RX was disabled*70
$GNRMC,072031.00,A,0419.82079,S,05539.93251,E,0.019,,200525,,,D*77
$GNVTG,,T,,M,0.019,N,0.035,K,D*36
$GNGGA,072031.00,0419.82079,S,05539.93251,E,2,12,0.62,11.2,M,-47.6,M,,0000*48
$GNGSA,A,3,05,12,24,18,15,25,23,13,29,10,,,1.12,0.62,0.93*13
$GNGSA,A,3,80,73,69,84,68,70,74,,,,,,1.12,0.62,0.93*15
$GPGSV,4,1,15,05,31,031,41,10,13,214,29,12,70,118,40,13,12,097,28*7A
$GPGSV,4,2,15,15,42,125,35,18,30,303,34,23,55,218,31,24,28,169,37*7A
$GPGSV,4,3,15,25,69,335,39,28,07,283,,29,17,354,37,36,52,277,33*72
$GPGSV,4,4,15,40,86,351,39,41,58,082,39,49,32,274,*4F
$GLGSV,3,1,09,68,08,052,35,69,38,093,33,70,30,177,18,73,68,262,34*60
$GLGSV,3,2,09,74,31,318,27,80,35,168,30,84,09,343,25,85,06,296,*61
$GLGSV,3,3,09,,,,31*6E
$GNGLL,0419.82079,S,05539.93251,E,072031.00,A,D*66
$GNTXT,01,01,01,More than 100 frame errors, UART RX was disabled*70
$GNRMC,072032.00,A,0419.82080,S,05539.93251,E,0.040,,200525,,,D*7E
$GNVTG,,T,,M,0.040,N,0.073,K,D*38
$GNGGA,072032.00,0419.82080,S,05539.93251,E,2,12,0.62,11.2,M,-47.6,M,,0000*4D
$GNGSA,A,3,05,12,24,18,15,25,23,13,29,10,,,1.12,0.62,0.93*13
$GNGSA,A,3,80,73,69,84,68,70,74,,,,,,1.12,0.62,0.93*15
$GPGSV,4,1,15,05,31,031,42,10,13,214,29,12,70,118,40,13,12,097,36*76
$GPGSV,4,2,15,15,42,125,37,18,30,303,32,23,55,218,31,24,28,169,37*7E
$GPGSV,4,3,15,25,69,335,38,28,07,283,,29,18,354,39,36,52,277,33*72
$GPGSV,4,4,15,40,86,351,38,41,58,082,39,49,32,274,*4E
$GLGSV,3,1,09,68,08,052,35,69,38,093,36,70,30,177,19,73,68,262,36*66
$GLGSV,3,2,09,74,31,318,26,80,35,168,33,84,09,343,25,85,06,296,*63
$GLGSV,3,3,09,,,,34*6B
$GNGLL,0419.82080,S,05539.93251,E,072032.00,A,D*63
$GNTXT,01,01,01,More than 100 frame errors, UART RX was disabled*70
$GNRMC,072033.00,A,0419.82084,S,05539.93247,E,0.036,,200525,,,D*7D
$GNVTG,,T,,M,0.036,N,0.066,K,D*3D
$GNGGA,072033.00,0419.82084,S,05539.93247,E,2,12,0.62,11.1,M,-47.6,M,,0000*4C
$GNGSA,A,3,05,12,24,18,15,25,23,13,29,10,,,1.12,0.62,0.93*13
$GNGSA,A,3,80,73,69,84,68,70,74,,,,,,1.12,0.62,0.93*15
$GPGSV,4,1,15,05,31,031,42,10,13,214,28,12,70,118,40,13,12,097,30*71
$GPGSV,4,2,15,15,42,125,38,18,30,303,31,23,55,218,32,24,28,169,38*7E
$GPGSV,4,3,15,25,69,335,38,28,07,283,,29,18,354,38,36,52,277,32*72
$GPGSV,4,4,15,40,86,351,37,41,58,082,39,49,32,274,*41
$GLGSV,3,1,09,68,08,052,36,69,38,093,33,70,30,177,20,73,68,262,34*68
$GLGSV,3,2,09,74,31,318,26,80,35,168,36,84,09,343,25,85,06,296,*66
$GLGSV,3,3,09,,,,33*6C
$GNGLL,0419.82084,S,05539.93247,E,072033.00,A,D*61
$GNTXT,01,01,01,More than 100 frame errors, UART RX was disabled*70
$GNRMC,072034.00,A,0419.82084,S,05539.93246,E,0.018,,200525,,,D*77
$GNVTG,,T,,M,0.018,N,0.034,K,D*36
$GNGGA,072034.00,0419.82084,S,05539.93246,E,2,12,0.62,11.1,M,-47.6,M,,0000*4A
$GNGSA,A,3,05,12,24,18,15,25,23,13,29,10,,,1.12,0.62,0.93*13
$GNGSA,A,3,80,73,69,84,68,70,74,,,,,,1.12,0.62,0.93*15
$GPGSV,4,1,15,05,31,031,42,10,13,214,28,12,70,118,41,13,12,097,34*74
$GPGSV,4,2,15,15,42,125,36,18,30,303,32,23,55,218,33,24,28,169,37*7D
$GPGSV,4,3,15,25,69,335,38,28,07,283,,29,18,354,38,36,52,277,32*72
$GPGSV,4,4,15,40,86,351,38,41,58,082,39,49,32,274,*4E
$GLGSV,3,1,09,68,08,052,33,69,38,093,36,70,30,177,19,73,68,262,34*62
$GLGSV,3,2,09,74,31,318,26,80,35,168,32,84,09,343,24,85,06,296,*63
$GLGSV,3,3,09,,,,31*6E
$GNGLL,0419.82084,S,05539.93246,E,072034.00,A,D*67
$GNTXT,01,01,01,More than 100 frame errors, UART RX was disabled*70
$GNRMC,072035.00,A,0419.82084,S,05539.93244,E,0.009,,200525,,,D*74
$GNVTG,,T,,M,0.009,N,0.017,K,D*37
$GNGGA,072035.00,0419.82084,S,05539.93244,E,2,12,0.62,11.0,M,-47.6,M,,0000*48
$GNGSA,A,3,05,12,24,18,15,25,23,13,29,10,,,1.12,0.62,0.93*13
$GNGSA,A,3,80,73,69,84,68,70,74,,,,,,1.12,0.62,0.93*15
$GPGSV,4,1,15,05,31,031,42,10,13,214,27,12,70,118,40,13,12,097,35*7B
$GPGSV,4,2,15,15,42,125,36,18,30,303,32,23,55,218,33,24,28,169,37*7D
$GPGSV,4,3,15,25,69,335,38,28,07,283,,29,18,354,38,36,52,277,32*72
$GPGSV,4,4,15,40,86,351,37,41,58,082,38,49,32,274,*40
$GLGSV,3,1,09,68,08,052,32,69,38,093,33,70,30,177,19,73,68,262,34*66
$GLGSV,3,2,09,74,31,318,25,80,35,168,31,84,09,343,24,85,06,296,*63
$GLGSV,3,3,09,,,,32*6D
$GNGLL,0419.82084,S,05539.93244,E,072035.00,A,D*64
$GNTXT,01,01,01,More than 100 frame errors, UART RX was disabled*70
$GNRMC,072036.00,A,0419.82084,S,05539.93245,E,0.023,,200525,,,D*7E
$GNVTG,,T,,M,0.023,N,0.042,K,D*3F
$GNGGA,072036.00,0419.82084,S,05539.93245,E,2,12,0.62,11.1,M,-47.6,M,,0000*4B
$GNGSA,A,3,05,12,24,18,15,25,23,13,29,10,,,1.12,0.62,0.93*13
$GNGSA,A,3,80,73,69,84,68,70,74,,,,,,1.12,0.62,0.93*15
$GPGSV,4,1,15,05,31,031,43,10,13,214,27,12,70,118,40,13,12,097,35*7A
$GPGSV,4,2,15,15,42,125,37,18,30,303,32,23,55,218,32,24,28,169,38*72
$GPGSV,4,3,15,25,69,335,38,28,07,283,,29,18,354,38,36,52,277,31*71
$GPGSV,4,4,15,40,86,351,39,41,58,082,39,49,32,274,*4F
$GLGSV,3,1,09,68,08,052,26,69,38,093,33,70,30,177,19,73,68,262,35*62
$GLGSV,3,2,09,74,31,318,25,80,35,168,32,84,09,343,23,85,06,296,*67
$GLGSV,3,3,09,,,,32*6D
$GNGLL,0419.82084,S,05539.93245,E,072036.00,A,D*66
$GNTXT,01,01,01,More than 100 frame errors, UART RX was disabled*70
$GNRMC,072037.00,A,0419.82083,S,05539.93244,E,0.034,,200525,,,D*7F
$GNVTG,,T,,M,0.034,N,0.062,K,D*3B
$GNGGA,072037.00,0419.82083,S,05539.93244,E,2,12,0.62,11.1,M,-47.6,M,,0000*4C
$GNGSA,A,3,05,12,24,18,15,25,23,13,29,10,,,1.12,0.62,0.93*13
$GNGSA,A,3,80,73,69,84,68,70,74,,,,,,1.12,0.62,0.93*15
$GPGSV,4,1,15,05,31,031,44,10,13,214,27,12,70,118,42,13,12,097,35*7F
$GPGSV,4,2,15,15,42,125,40,18,30,303,35,23,55,218,33,24,28,169,40*7B
$GPGSV,4,3,15,25,69,335,41,28,07,283,,29,18,354,42,36,52,277,34*77
$GPGSV,4,4,15,40,86,351,42,41,58,082,40,49,32,274,*4D
$GLGSV,3,1,09,68,08,052,33,69,38,093,36,70,30,177,20,73,68,262,35*69
$GLGSV,3,2,09,74,31,318,26,80,35,168,33,84,09,343,24,85,06,296,*62
$GLGSV,3,3,09,,,,34*6B
$GNGLL,0419.82083,S,05539.93244,E,072037.00,A,D*61
$GNTXT,01,01,01,More than 100 frame errors, UART RX was disabled*70
$GNRMC,072038.00,A,0419.82085,S,05539.93240,E,0.181,,200525,,,D*7D
$GNVTG,,T,,M,0.181,N,0.336,K,D*36
$GNGGA,072038.00,0419.82085,S,05539.93240,E,2,12,0.62,11.1,M,-47.6,M,,0000*41
$GNGSA,A,3,05,12,24,18,15,25,23,13,29,10,,,1.12,0.62,0.93*13
$GNGSA,A,3,80,73,69,84,68,70,74,,,,,,1.12,0.62,0.93*15
$GPGSV,4,1,15,05,31,031,39,10,13,214,22,12,70,118,34,13,12,097,32*76
$GPGSV,4,2,15,15,42,125,33,18,30,303,28,23,55,218,28,24,28,169,30*7E
$GPGSV,4,3,15,25,69,335,33,28,07,283,,29,18,354,35,36,52,277,29*7E
$GPGSV,4,4,15,40,86,351,34,41,58,082,33,49,32,274,*48
$GLGSV,3,1,09,68,08,052,26,69,38,093,31,70,30,177,18,73,68,262,26*63
$GLGSV,3,2,09,74,31,318,23,80,35,168,22,84,09,343,22,85,06,296,*61
$GLGSV,3,3,09,,,,27*69
$GNGLL,0419.82085,S,05539.93240,E,072038.00,A,D*6C
$GNTXT,01,01,01,More than 100 frame errors, UART RX was disabled*70
$GNRMC,072039.00,A,0419.82086,S,05539.93240,E,0.049,,200525,,,D*7A
$GNVTG,,T,,M,0.049,N,0.091,K,D*3D
$GNGGA,072039.00,0419.82086,S,05539.93240,E,2,12,0.62,11.1,M,-47.6,M,,0000*43
$GNGSA,A,3,05,12,24,18,15,25,23,13,29,10,,,1.12,0.62,0.93*13
$GNGSA,A,3,80,73,69,84,68,70,74,,,,,,1.12,0.62,0.93*15
$GPGSV,4,1,15,05,31,031,41,10,13,214,19,12,70,118,37,13,12,097,33*73
$GPGSV,4,2,15,15,42,125,36,18,30,303,30,23,55,218,28,24,28,169,34*76
$GPGSV,4,3,15,25,69,335,37,28,07,283,,29,18,354,38,36,52,277,29*77
$GPGSV,4,4,15,40,86,351,37,41,58,082,36,49,32,274,*4E
$GLGSV,3,1,09,68,08,052,35,69,38,093,35,70,30,177,16,73,68,262,33*6F
$GLGSV,3,2,09,74,31,318,23,80,35,168,25,84,09,343,22,85,06,296,*66
$GLGSV,3,3,09,,,,27*69
$GNGLL,0419.82086,S,05539.93240,E,072039.00,A,D*6E
$GNTXT,01,01,01,More than 100 frame errors, UART RX was disabled*70
$GNRMC,072040.00,A,0419.82085,S,05539.93242,E,0.080,,200525,,,D*70
$GNVTG,,T,,M,0.080,N,0.148,K,D*3D
$GNGGA,072040.00,0419.82085,S,05539.93242,E,2,12,0.62,11.1,M,-47.6,M,,0000*4C
$GNGSA,A,3,05,12,24,18,15,25,23,13,29,10,,,1.12,0.62,0.93*13
$GNGSA,A,3,80,73,69,84,68,70,74,,,,,,1.12,0.62,0.93*15
$GPGSV,4,1,15,05,31,031,37,10,13,214,12,12,70,118,34,13,12,097,27*7F
$GPGSV,4,2,15,15,42,125,33,18,30,303,31,23,55,218,29,24,28,169,30*77
$GPGSV,4,3,15,25,69,335,33,28,07,283,,29,18,354,35,36,52,277,29*7E
$GPGSV,4,4,15,40,86,351,30,41,58,082,33,49,32,274,*4C
$GLGSV,3,1,09,68,08,052,28,69,38,093,33,70,30,177,15,73,68,262,30*65
$GLGSV,3,2,09,74,31,318,21,80,35,168,26,84,09,343,21,85,06,296,*64
$GLGSV,3,3,09,,,,28*66
$GNGLL,0419.82085,S,05539.93242,E,072040.00,A,D*61
$GNTXT,01,01,01,More than 100 frame errors, UART RX was disabled*70
$GNRMC,072041.00,A,0419.82084,S,05539.93240,E,0.037,,200525,,,D*7E
$GNVTG,,T,,M,0.037,N,0.068,K,D*32
$GNGGA,072041.00,0419.82084,S,05539.93240,E,2,12,0.62,11.2,M,-47.6,M,,0000*4D
$GNGSA,A,3,05,12,24,18,15,25,23,13,29,10,,,1.12,0.62,0.93*13
$GNGSA,A,3,80,73,69,84,68,70,74,,,,,,1.12,0.62,0.93*15
$GPGSV,4,1,15,05,31,031,41,10,13,214,14,12,70,118,37,13,12,097,38*75
$GPGSV,4,2,15,15,42,125,35,18,30,303,34,23,55,218,29,24,28,169,34*70
$GPGSV,4,3,15,25,69,335,36,28,07,283,,29,18,354,36,36,52,277,30*70
$GPGSV,4,4,15,40,86,351,35,41,58,082,35,49,32,274,*4F
$GLGSV,3,1,09,68,08,052,25,69,38,093,30,70,30,177,10,73,68,262,29*66
$GLGSV,3,2,09,74,31,318,19,80,35,168,25,84,09,343,18,85,06,296,*66
$GLGSV,3,3,09,,,,26*68
$GNGLL,0419.82084,S,05539.93240,E,072041.00,A,D*63
$GNTXT,01,01,01,More than 100 frame errors, UART RX was disabled*70
$GNRMC,072042.00,A,0419.82084,S,05539.93238,E,0.044,,200525,,,D*76
$GNVTG,,T,,M,0.044,N,0.081,K,D*31
$GNGGA,072042.00,0419.82084,S,05539.93238,E,2,12,0.71,11.2,M,-47.6,M,,0000*43
$GNGSA,A,3,05,12,24,18,15,25,23,13,29,10,,,1.28,0.71,1.06*15
$GNGSA,A,3,80,73,69,84,68,70,74,,,,,,1.28,0.71,1.06*13
$GPGSV,4,1,15,05,31,031,40,10,13,214,16,12,70,118,35,13,12,097,33*7F
$GPGSV,4,2,15,15,42,125,35,18,30,303,32,23,55,218,31,24,28,169,32*79
$GPGSV,4,3,15,25,69,335,36,28,07,283,,29,18,354,34,36,52,277,30*72
$GPGSV,4,4,15,40,86,351,35,41,58,082,33,49,32,274,*49
$GLGSV,3,1,09,68,08,052,32,69,38,093,34,70,30,177,09,73,68,262,30*64
$GLGSV,3,2,09,74,31,318,21,80,35,168,26,84,09,343,18,85,06,296,*6E
$GLGSV,3,3,09,,,,28*66
$GNGLL,0419.82084,S,05539.93238,E,072042.00,A,D*6F
$GNTXT,01,01,01,More than 100 frame errors, UART RX was disabled*70
$GNRMC,072043.00,A,0419.82085,S,05539.93238,E,0.013,,200525,,,D*74
$GNVTG,,T,,M,0.013,N,0.024,K,D*3C
$GNGGA,072043.00,0419.82085,S,05539.93238,E,2,12,0.71,11.2,M,-47.6,M,,0000*43
$GNGSA,A,3,05,12,24,18,15,25,23,13,29,10,,,1.28,0.71,1.06*15
$GNGSA,A,3,80,73,69,84,68,70,74,,,,,,1.28,0.71,1.06*13
$GPGSV,4,1,15,05,31,031,45,10,13,214,17,12,70,118,42,13,12,097,37*7F
$GPGSV,4,2,15,15,42,125,40,18,30,303,36,23,55,218,35,24,28,169,38*71
$GPGSV,4,3,15,25,69,335,41,28,07,283,,29,18,354,41,36,52,277,34*74
$GPGSV,4,4,15,40,86,351,42,41,58,082,39,49,32,274,*43
$GLGSV,3,1,09,68,08,052,37,69,38,093,37,70,30,177,20,73,68,262,36*6F
$GLGSV,3,2,09,74,31,318,25,80,35,168,33,84,09,343,23,85,06,296,*66
$GLGSV,3,3,09,,,,34*6B
$GNGLL,0419.82085,S,05539.93238,E,072043.00,A,D*6F
$GNTXT,01,01,01,More than 100 frame errors, UART RX was disabled*70
$GNRMC,072044.00,A,0419.82084,S,05539.93238,E,0.021,,200525,,,D*73
$GNVTG,,T,,M,0.021,N,0.039,K,D*31
$GNGGA,072044.00,0419.82084,S,05539.93238,E,2,12,0.64,11.3,M,-47.6,M,,0000*40
$GNGSA,A,3,05,12,24,18,15,25,23,13,29,10,,,1.13,0.64,0.93*14
$GNGSA,A,3,80,73,69,84,68,70,74,,,,,,1.13,0.64,0.93*12
$GPGSV,4,1,15,05,31,031,43,10,13,214,24,12,70,118,40,13,12,097,39*75
$GPGSV,4,2,15,15,42,125,35,18,30,303,38,23,55,218,34,24,28,169,38*7C
$GPGSV,4,3,15,25,69,335,39,28,07,283,,29,18,354,40,36,52,277,33*7D
$GPGSV,4,4,15,40,86,351,39,41,58,082,35,49,32,274,*43
$GLGSV,3,1,09,68,08,052,34,69,38,093,37,70,30,177,17,73,68,262,35*6B
$GLGSV,3,2,09,74,31,318,26,80,35,168,32,84,09,343,23,85,06,296,*64
$GLGSV,3,3,09,,,,33*6C
$GNGLL,0419.82084,S,05539.93238,E,072044.00,A,D*69
$GNTXT,01,01,01,More than 100 frame errors, UART RX was disabled*70
$GNRMC,072045.00,A,0419.82086,S,05539.93239,E,0.016,,200525,,,D*75
$GNVTG,,T,,M,0.016,N,0.029,K,D*34
$GNGGA,072045.00,0419.82086,S,05539.93239,E,2,12,0.62,11.3,M,-47.6,M,,0000*44
$GNGSA,A,3,05,12,24,18,15,25,23,13,29,10,,,1.12,0.62,0.93*13
$GNGSA,A,3,80,73,69,84,68,70,74,,,,,,1.12,0.62,0.93*15
$GPGSV,4,1,15,05,31,031,45,10,13,214,26,12,70,118,41,13,12,097,40*7E
$GPGSV,4,2,15,15,42,125,33,18,30,303,38,23,55,218,35,24,28,169,37*74
$GPGSV,4,3,15,25,69,335,40,28,07,283,,29,18,354,41,36,52,277,34*75
$GPGSV,4,4,15,40,86,351,42,41,58,082,38,49,32,274,*42
$GLGSV,3,1,09,68,08,052,33,69,38,093,37,70,30,177,16,73,68,262,36*6E
$GLGSV,3,2,09,74,31,318,29,80,35,168,32,84,09,343,23,85,06,296,*6B
$GLGSV,3,3,09,,,,33*6C
$GNGLL,0419.82086,S,05539.93239,E,072045.00,A,D*6B
$GNTXT,01,01,01,More than 100 frame errors, UART RX was disabled*70
$GNRMC,072046.00,A,0419.82088,S,05539.93235,E,0.125,,200525,,,D*75
$GNVTG,,T,,M,0.125,N,0.231,K,D*3E
$GNGGA,072046.00,0419.82088,S,05539.93235,E,2,12,0.62,11.2,M,-47.6,M,,0000*44
$GNGSA,A,3,05,12,24,18,15,25,23,13,29,10,,,1.12,0.62,0.93*13
$GNGSA,A,3,80,73,69,84,68,70,74,,,,,,1.12,0.62,0.93*15
$GPGSV,4,1,15,05,31,031,42,10,13,214,23,12,70,118,39,13,12,097,35*71
$GPGSV,4,2,15,15,42,125,31,18,30,303,35,23,55,218,33,24,28,169,35*7F
$GPGSV,4,3,15,25,69,335,38,28,07,283,,29,18,354,39,36,52,277,34*75
$GPGSV,4,4,15,40,86,351,40,41,58,082,35,49,32,274,*4D
$GLGSV,3,1,09,68,08,052,34,69,38,093,34,70,30,177,10,73,68,262,33*69
$GLGSV,3,2,09,74,31,318,27,80,35,168,27,84,09,343,23,85,06,296,*61
$GLGSV,3,3,09,,,,30*6F
$GNGLL,0419.82088,S,05539.93235,E,072046.00,A,D*6A
$GNTXT,01,01,01,More than 100 frame errors, UART RX was disabled*70
$GNRMC,072047.00,A,0419.82090,S,05539.93234,E,0.043,,200525,,,D*7D
$GNVTG,,T,,M,0.043,N,0.080,K,D*37
$GNGGA,072047.00,0419.82090,S,05539.93234,E,2,12,0.62,11.1,M,-47.6,M,,0000*4E
$GNGSA,A,3,05,12,24,18,15,25,23,13,29,10,,,1.12,0.62,0.93*13
$GNGSA,A,3,80,73,69,84,68,70,74,,,,,,1.12,0.62,0.93*15
$GPGSV,4,1,15,05,31,031,43,10,13,214,30,12,70,118,40,13,12,097,34*7D
$GPGSV,4,2,15,15,42,125,35,18,30,303,37,23,55,218,34,24,28,169,37*7C
$GPGSV,4,3,15,25,69,335,40,28,07,283,,29,18,354,39,36,52,277,34*7A
$GPGSV,4,4,15,40,86,351,40,41,58,082,38,49,32,274,*40
$GLGSV,3,1,09,68,08,052,35,69,38,093,39,70,30,177,19,73,68,262,36*69
$GLGSV,3,2,09,74,31,318,28,80,35,168,34,84,09,343,23,85,06,296,*6C
$GLGSV,3,3,09,,,,35*6A
$GNGLL,0419.82090,S,05539.93234,E,072047.00,A,D*63
$GNTXT,01,01,01,More than 100 frame errors, UART RX was disabled*70
$GNRMC,072048.00,A,0419.82092,S,05539.93233,E,0.016,,200525,,,D*77
$GNVTG,,T,,M,0.016,N,0.029,K,D*34
$GNGGA,072048.00,0419.82092,S,05539.93233,E,2,12,0.62,11.1,M,-47.6,M,,0000*44
$GNGSA,A,3,05,12,24,18,15,25,23,13,29,10,,,1.12,0.62,0.93*13
$GNGSA,A,3,80,73,69,84,68,70,74,,,,,,1.12,0.62,0.93*15
$GPGSV,4,1,15,05,31,031,43,10,13,214,30,12,70,118,40,13,12,097,36*7F
$GPGSV,4,2,15,15,42,125,38,18,30,303,37,23,55,218,33,24,28,169,39*78
$GPGSV,4,3,15,25,69,335,40,28,07,283,,29,18,354,40,36,52,277,34*74
$GPGSV,4,4,15,40,86,351,40,41,58,082,36,49,32,274,*4E
$GLGSV,3,1,09,68,08,052,26,69,38,093,38,70,30,177,21,73,68,262,37*60
$GLGSV,3,2,09,74,31,318,29,80,35,168,35,84,09,343,24,85,06,296,*6B
$GLGSV,3,3,09,,,,35*6A
$GNGLL,0419.82092,S,05539.93233,E,072048.00,A,D*69
$GNTXT,01,01,01,More than 100 frame errors, UART RX was disabled*70
$GNRMC,072049.00,A,0419.82093,S,05539.93233,E,0.022,,200525,,,D*70
$GNVTG,,T,,M,0.022,N,0.040,K,D*3C
$GNGGA,072049.00,0419.82093,S,05539.93233,E,2,12,0.62,11.1,M,-47.6,M,,0000*44
$GNGSA,A,3,05,12,24,18,15,25,23,13,29,10,,,1.12,0.62,0.93*13
$GNGSA,A,3,80,73,69,84,68,70,74,,,,,,1.12,0.62,0.93*15
$GPGSV,4,1,15,05,31,031,42,10,13,214,29,12,70,118,39,13,12,097,33*7D
$GPGSV,4,2,15,15,42,125,35,18,30,303,34,23,55,218,33,24,28,169,37*78
$GPGSV,4,3,15,25,69,335,38,28,07,283,,29,18,354,38,36,52,277,32*72
$GPGSV,4,4,15,40,86,351,40,41,58,082,35,49,32,274,*4D
$GLGSV,3,1,09,68,08,052,27,69,38,093,36,70,30,177,21,73,68,262,36*6E
$GLGSV,3,2,09,74,31,318,27,80,35,168,35,84,09,343,23,85,06,296,*62
$GLGSV,3,3,09,,,,35*6A
$GNGLL,0419.82093,S,05539.93233,E,072049.00,A,D*69
$GNTXT,01,01,01,More than 100 frame errors, UART RX was disabled*70
$GNRMC,072050.00,A,0419.82094,S,05539.93232,E,0.073,,200525,,,D*7A
$GNVTG,,T,,M,0.073,N,0.136,K,D*38
$GNGGA,072050.00,0419.82094,S,05539.93232,E,2,12,0.62,11.1,M,-47.6,M,,0000*4A
$GNGSA,A,3,05,12,24,18,15,25,23,13,29,10,,,1.12,0.62,0.93*13
$GNGSA,A,3,80,73,69,84,68,70,74,,,,,,1.12,0.62,0.93*15
$GPGSV,4,1,15,05,31,031,40,10,13,214,29,12,70,118,39,13,12,097,34*78
$GPGSV,4,2,15,15,42,125,36,18,30,303,34,23,55,218,33,24,28,169,37*7B
$GPGSV,4,3,15,25,69,335,38,28,07,283,,29,18,354,38,36,52,277,32*72
$GPGSV,4,4,15,40,86,351,39,41,58,082,35,49,32,274,*43
$GLGSV,3,1,09,68,08,052,37,69,38,093,34,70,30,177,21,73,68,262,35*6E
$GLGSV,3,2,09,74,31,318,27,80,35,168,31,84,09,343,24,85,06,296,*61
$GLGSV,3,3,09,,,,34*6B
$GNGLL,0419.82094,S,05539.93232,E,072050.00,A,D*67
$GNTXT,01,01,01,More than 100 frame errors, UART RX was disabled*70
$GNRMC,072051.00,A,0419.82093,S,05539.93230,E,0.018,,200525,,,D*73
$GNVTG,,T,,M,0.018,N,0.034,K,D*36
$GNGGA,072051.00,0419.82093,S,05539.93230,E,2,12,0.62,11.1,M,-47.6,M,,0000*4E
$GNGSA,A,3,05,12,24,18,15,25,23,13,29,10,,,1.12,0.62,0.93*13
$GNGSA,A,3,80,73,69,84,68,70,74,,,,,,1.12,0.62,0.93*15
$GPGSV,4,1,15,05,31,031,42,10,13,214,22,12,70,118,39,13,12,097,36*73
$GPGSV,4,2,15,15,42,125,36,18,30,303,31,23,55,218,33,24,28,169,35*7C
$GPGSV,4,3,15,25,69,335,40,28,07,283,,29,18,354,39,36,52,277,32*7C
$GPGSV,4,4,15,40,86,351,41,41,58,082,37,49,32,274,*4E
$GLGSV,3,1,09,68,08,052,36,69,38,093,35,70,30,177,19,73,68,262,34*64
$GLGSV,3,2,09,74,31,318,26,80,35,168,28,84,09,343,24,85,06,296,*68
$GLGSV,3,3,09,,,,30*6F
$GNGLL,0419.82093,S,05539.93230,E,072051.00,A,D*63
$GNTXT,01,01,01,More than 100 frame errors, UART RX was disabled*70
$GNRMC,072052.00,A,0419.82093,S,05539.93230,E,0.071,,200525,,,D*7F
$GNVTG,,T,,M,0.071,N,0.131,K,D*3D
$GNGGA,072052.00,0419.82093,S,05539.93230,E,2,12,0.62,11.1,M,-47.6,M,,0000*4D
$GNGSA,A,3,05,12,24,18,15,25,23,13,29,10,,,1.12,0.62,0.93*13
$GNGSA,A,3,80,73,69,84,68,70,74,,,,,,1.12,0.62,0.93*15
$GPGSV,4,1,15,05,31,031,41,10,13,214,22,12,70,118,36,13,12,097,38*71
$GPGSV,4,2,15,15,42,125,33,18,30,303,30,23,55,218,28,24,28,169,31*76
$GPGSV,4,3,15,25,69,335,37,28,07,283,,29,18,354,36,36,52,277,30*71
$GPGSV,4,4,15,40,86,351,37,41,58,082,35,49,32,274,*4D
$GLGSV,3,1,09,68,08,052,31,69,38,093,36,70,30,177,17,73,68,262,33*69
$GLGSV,3,2,09,74,31,318,25,80,35,168,28,84,09,343,23,85,06,296,*6C
$GLGSV,3,3,09,,,,29*67
$GNGLL,0419.82093,S,05539.93230,E,072052.00,A,D*60
$GNTXT,01,01,01,More than 100 frame errors, UART RX was disabled*70
$GNRMC,072053.00,A,0419.82094,S,05539.93230,E,0.016,,200525,,,D*78
$GNVTG,,T,,M,0.016,N,0.029,K,D*34
$GNGGA,072053.00,0419.82094,S,05539.93230,E,2,12,0.62,11.1,M,-47.6,M,,0000*4B
$GNGSA,A,3,05,12,24,18,15,25,23,13,29,10,,,1.12,0.62,0.93*13
$GNGSA,A,3,80,73,69,84,68,70,74,,,,,,1.12,0.62,0.93*15
$GPGSV,4,1,15,05,31,031,38,10,13,214,26,12,70,118,36,13,12,097,31*72
$GPGSV,4,2,15,15,42,125,34,18,30,303,32,23,55,218,31,24,28,169,34*7E
$GPGSV,4,3,15,25,69,335,39,28,07,283,,29,18,354,34,36,52,277,31*7C
$GPGSV,4,4,15,40,86,351,38,41,58,082,36,49,32,274,*41
$GLGSV,3,1,09,68,08,052,29,69,38,093,38,70,30,177,17,73,68,262,36*6B
$GLGSV,3,2,09,74,31,318,26,80,35,168,32,84,09,343,23,85,06,296,*64
$GLGSV,3,3,09,,,,33*6C
$GNGLL,0419.82094,S,05539.93230,E,072053.00,A,D*66
$GNTXT,01,01,01,More than 100 frame errors, UART RX was disabled*70
$GNRMC,072054.00,A,0419.82096,S,05539.93228,E,0.054,,200525,,,D*72
$GNVTG,,T,,M,0.054,N,0.101,K,D*39
$GNGGA,072054.00,0419.82096,S,05539.93228,E,2,12,0.62,11.0,M,-47.6,M,,0000*46
$GNGSA,A,3,05,12,24,18,15,25,23,13,29,10,,,1.12,0.62,0.93*13
$GNGSA,A,3,80,73,69,84,68,70,74,,,,,,1.12,0.62,0.93*15
$GPGSV,4,1,15,05,31,031,43,10,13,214,32,12,70,118,42,13,12,097,33*7A
$GPGSV,4,2,15,15,42,125,36,18,30,303,31,23,55,218,34,24,28,169,38*76
$GPGSV,4,3,15,25,69,335,40,28,07,283,,29,18,354,38,36,52,277,30*7F
$GPGSV,4,4,15,40,86,351,41,41,58,082,40,49,32,274,*4E
$GLGSV,3,1,09,68,08,052,22,69,38,093,35,70,30,177,15,73,68,262,36*6F
$GLGSV,3,2,09,74,31,318,25,80,35,168,32,84,09,343,23,85,06,296,*67
$GLGSV,3,3,09,,,,33*6C
$GNGLL,0419.82096,S,05539.93228,E,072054.00,A,D*6A
$GNTXT,01,01,01,More than 100 frame errors, UART RX was disabled*70
$GNRMC,072055.00,A,0419.82096,S,05539.93227,E,0.003,,200525,,,D*7E
$GNVTG,,T,,M,0.003,N,0.005,K,D*3E
$GNGGA,072055.00,0419.82096,S,05539.93227,E,2,12,0.62,11.0,M,-47.6,M,,0000*48
$GNGSA,A,3,05,12,24,18,15,25,23,13,29,10,,,1.12,0.62,0.93*13
$GNGSA,A,3,80,73,69,84,68,70,74,,,,,,1.12,0.62,0.93*15
$GPGSV,4,1,15,05,31,031,43,10,13,214,33,12,70,118,40,13,12,097,38*72
$GPGSV,4,2,15,15,42,125,41,18,30,303,32,23,55,218,37,24,28,169,38*76
$GPGSV,4,3,15,25,69,335,40,28,07,283,,29,18,354,39,36,52,277,35*7B
$GPGSV,4,4,15,40,86,351,41,41,58,082,38,49,32,274,*41
$GLGSV,3,1,09,68,08,052,22,69,38,093,35,70,30,177,18,73,68,262,36*62
$GLGSV,3,2,09,74,31,318,25,80,35,168,35,84,09,343,25,85,06,296,*66
$GLGSV,3,3,09,,,,36*69
$GNGLL,0419.82096,S,05539.93227,E,072055.00,A,D*64
$GNTXT,01,01,01,More than 100 frame errors, UART RX was disabled*70
$GNRMC,072056.00,A,0419.82096,S,05539.93228,E,0.040,,200525,,,D*75
$GNVTG,,T,,M,0.040,N,0.075,K,D*3E
$GNGGA,072056.00,0419.82096,S,05539.93228,E,2,12,0.62,11.0,M,-47.6,M,,0000*44
$GNGSA,A,3,05,12,24,18,15,25,23,13,29,10,,,1.12,0.62,0.93*13
$GNGSA,A,3,80,73,69,84,68,70,74,,,,,,1.12,0.62,0.93*15
$GPGSV,4,1,15,05,31,031,43,10,13,214,33,12,70,118,40,13,12,097,39*73
$GPGSV,4,2,15,15,42,125,40,18,30,303,33,23,55,218,36,24,28,169,38*77
$GPGSV,4,3,15,25,69,335,40,28,07,283,,29,18,354,39,36,52,277,37*79
$GPGSV,4,4,15,40,86,351,42,41,58,082,38,49,32,274,*42
$GLGSV,3,1,09,68,08,052,31,69,38,093,35,70,30,177,20,73,68,262,37*6A
$GLGSV,3,2,09,74,31,318,27,80,35,168,34,84,09,343,24,85,06,296,*64
$GLGSV,3,3,09,,,,33*6C
$GNGLL,0419.82096,S,05539.93228,E,072056.00,A,D*68
$GNTXT,01,01,01,More than 100 frame errors, UART RX was disabled*70
$GNRMC,072057.00,A,0419.82096,S,05539.93230,E,0.017,,200525,,,D*7F
$GNVTG,,T,,M,0.017,N,0.032,K,D*3F
$GNGGA,072057.00,0419.82096,S,05539.93230,E,2,12,0.62,11.0,M,-47.6,M,,0000*4C
$GNGSA,A,3,05,12,24,18,15,25,23,13,29,10,,,1.12,0.62,0.93*13
$GNGSA,A,3,80,73,69,84,68,70,74,,,,,,1.12,0.62,0.93*15
$GPGSV,4,1,15,05,31,031,43,10,13,214,34,12,70,118,41,13,12,097,37*7B
$GPGSV,4,2,15,15,42,125,40,18,30,303,34,23,55,218,35,24,28,169,38*73
$GPGSV,4,3,15,25,69,335,40,28,07,283,,29,18,354,39,36,52,277,37*79
$GPGSV,4,4,15,40,86,351,42,41,58,082,39,49,32,274,*43
$GLGSV,3,1,09,68,08,052,32,69,38,093,36,70,30,177,21,73,68,262,38*64
$GLGSV,3,2,09,74,31,318,29,80,35,168,34,84,09,343,25,85,06,296,*6B
$GLGSV,3,3,09,,,,34*6B
$GNGLL,0419.82096,S,05539.93230,E,072057.00,A,D*60
$GNTXT,01,01,01,More than 100 frame errors, UART RX was disabled*70
$GNRMC,072058.00,A,0419.82095,S,05539.93231,E,0.031,,200525,,,D*76
$GNVTG,,T,,M,0.031,N,0.058,K,D*37
$GNGGA,072058.00,0419.82095,S,05539.93231,E,2,12,0.62,11.0,M,-47.6,M,,0000*41
$GNGSA,A,3,05,12,24,18,15,25,23,13,29,10,,,1.12,0.62,0.93*13
$GNGSA,A,3,80,73,69,84,68,70,74,,,,,,1.12,0.62,0.93*15
$GPGSV,4,1,15,05,31,031,43,10,13,214,34,12,70,118,40,13,12,097,34*79
$GPGSV,4,2,15,15,42,125,38,18,30,303,31,23,55,218,37,24,28,169,38*7B
$GPGSV,4,3,15,25,69,335,41,28,07,283,,29,18,354,39,36,52,277,35*7A
$GPGSV,4,4,15,40,86,351,43,41,58,082,39,49,32,274,*42
$GLGSV,3,1,09,68,08,052,27,69,38,093,37,70,30,177,20,73,68,262,38*60
$GLGSV,3,2,09,74,31,318,29,80,35,168,35,84,09,343,25,85,06,296,*6A
$GLGSV,3,3,09,,,,34*6B
$GNGLL,0419.82095,S,05539.93231,E,072058.00,A,D*6D
$GNTXT,01,01,01,More than 100 frame errors, UART RX was disabled*70
$GNRMC,072059.00,A,0419.82096,S,05539.93231,E,0.049,,200525,,,D*7B
$GNVTG,,T,,M,0.049,N,0.091,K,D*3D
$GNGGA,072059.00,0419.82096,S,05539.93231,E,2,12,0.62,11.0,M,-47.6,M,,0000*43
$GNGSA,A,3,05,12,24,18,15,25,23,13,29,10,,,1.12,0.62,0.93*13
$GNGSA,A,3,80,73,69,84,68,70,74,,,,,,1.12,0.62,0.93*15
$GPGSV,4,1,15,05,31,031,40,10,13,214,32,12,70,118,38,13,12,097,30*77
$GPGSV,4,2,15,15,42,125,35,18,30,303,31,23,55,218,31,24,28,169,36*7E
$GPGSV,4,3,15,25,69,335,38,28,07,283,,29,18,354,37,36,52,277,32*7D
$GPGSV,4,4,15,40,86,351,40,41,58,082,37,49,32,274,*4F
$GLGSV,3,1,09,68,07,051,32,69,38,093,34,70,30,177,21,73,68,262,33*61
$GLGSV,3,2,09,74,31,318,28,80,35,168,31,84,09,343,25,85,06,296,*6F
$GLGSV,3,3,09,,,,33*6C
$GNGLL,0419.82096,S,05539.93231,E,072059.00,A,D*6F
$GNTXT,01,01,01,More than 100 frame errors, UART RX was disabled*70
$GNRMC,072100.00,A,0419.82097,S,05539.93231,E,0.060,,200525,,,D*7C
$GNVTG,,T,,M,0.060,N,0.110,K,D*3E
$GNGGA,072100.00,0419.82097,S,05539.93231,E,2,12,0.62,10.9,M,-47.6,M,,0000*47
$GNGSA,A,3,05,12,24,18,15,25,23,13,29,10,,,1.12,0.62,0.93*13
$GNGSA,A,3,80,73,69,84,68,70,74,,,,,,1.12,0.62,0.93*15
$GPGSV,4,1,15,05,31,031,42,10,13,214,31,12,70,118,40,13,12,097,35*7C
$GPGSV,4,2,15,15,42,125,39,18,30,303,30,23,55,218,32,24,28,169,36*70
$GPGSV,4,3,15,25,69,335,40,28,07,283,,29,18,354,38,36,52,277,32*7D
$GPGSV,4,4,15,40,86,351,41,41,58,082,38,49,32,274,*41
$GLGSV,3,1,09,68,07,051,40,69,38,092,33,70,30,177,20,73,68,262,38*68
$GLGSV,3,2,09,74,31,318,26,80,35,168,33,84,09,343,26,85,06,296,*60
$GLGSV,3,3,09,,,,34*6B
$GNGLL,0419.82097,S,05539.93231,E,072100.00,A,D*63
$GNTXT,01,01,01,More than 100 frame errors, UART RX was disabled*70
$GNRMC,072101.00,A,0419.82097,S,05539.93231,E,0.017,,200525,,,D*7D
$GNVTG,,T,,M,0.017,N,0.031,K,D*3C
$GNGGA,072101.00,0419.82097,S,05539.93231,E,2,12,0.62,10.9,M,-47.6,M,,0000*46
$GNGSA,A,3,05,12,24,18,15,25,23,13,29,10,,,1.12,0.62,0.93*13
$GNGSA,A,3,80,73,69,84,68,70,74,,,,,,1.12,0.62,0.93*15
$GPGSV,4,1,15,05,31,031,43,10,13,214,31,12,70,118,40,13,12,097,35*7D
$GPGSV,4,2,15,15,42,125,39,18,30,303,30,23,55,218,34,24,28,169,36*76
$GPGSV,4,3,15,25,69,335,40,28,07,283,,29,18,354,39,36,52,277,32*7C
$GPGSV,4,4,15,40,86,351,42,41,58,082,38,49,32,274,*42
$GLGSV,3,1,09,68,07,051,35,69,38,092,32,70,31,176,21,73,68,262,35*67
$GLGSV,3,2,09,74,31,318,27,80,35,168,31,84,09,343,28,85,06,296,*6D
$GLGSV,3,3,09,,,,31*6E
$GNGLL,0419.82097,S,05539.93231,E,072101.00,A,D*62
$GNTXT,01,01,01,More than 100 frame errors, UART RX was disabled*70
$GNRMC,072102.00,A,0419.82098,S,05539.93231,E,0.072,,200525,,,D*72
$GNVTG,,T,,M,0.072,N,0.133,K,D*3C
$GNGGA,072102.00,0419.82098,S,05539.93231,E,2,12,0.62,10.8,M,-47.6,M,,0000*4B
$GNGSA,A,3,05,12,24,18,15,25,23,13,29,10,,,1.12,0.62,0.93*13
$GNGSA,A,3,80,73,69,84,68,70,74,,,,,,1.12,0.62,0.93*15
$GPGSV,4,1,15,05,31,031,45,10,13,214,33,12,70,118,43,13,12,097,38*77
$GPGSV,4,2,15,15,42,125,41,18,30,303,32,23,55,218,37,24,28,169,39*77
$GPGSV,4,3,15,25,69,335,43,28,07,283,,29,18,354,42,36,52,277,36*77
$GPGSV,4,4,15,40,86,351,43,41,58,082,41,49,32,274,*4D
$GLGSV,3,1,09,68,07,051,33,69,38,092,32,70,31,176,19,73,68,262,36*69
$GLGSV,3,2,09,74,31,318,25,80,35,168,30,84,09,343,26,85,06,296,*60
$GLGSV,3,3,09,,,,31*6E
$GNGLL,0419.82098,S,05539.93231,E,072102.00,A,D*6E
$GNTXT,01,01,01,More than 100 frame errors, UART RX was disabled*70
$GNRMC,072103.00,A,0419.82099,S,05539.93231,E,0.036,,200525,,,D*72
$GNVTG,,T,,M,0.036,N,0.067,K,D*3C
$GNGGA,072103.00,0419.82099,S,05539.93231,E,2,12,0.62,10.7,M,-47.6,M,,0000*44
$GNGSA,A,3,05,12,24,18,15,25,23,13,29,10,,,1.12,0.62,0.93*13
$GNGSA,A,3,80,73,69,84,68,70,74,,,,,,1.12,0.62,0.93*15
$GPGSV,4,1,15,05,31,031,45,10,13,214,33,12,70,118,42,13,12,097,35*7B
$GPGSV,4,2,15,15,42,125,41,18,30,303,32,23,55,218,36,24,28,169,38*77
$GPGSV,4,3,15,25,69,335,43,28,07,283,,29,18,354,41,36,52,277,35*77
$GPGSV,4,4,15,40,86,351,43,41,58,082,41,49,32,274,*4D
$GLGSV,3,1,09,68,07,051,31,69,38,092,32,70,31,176,20,73,68,262,36*61
$GLGSV,3,2,09,74,31,318,23,80,35,168,29,84,09,343,26,85,06,296,*6E
$GLGSV,3,3,09,,,,32*6D
$GNGLL,0419.82099,S,05539.93231,E,072103.00,A,D*6E
$GNTXT,01,01,01,More than 100 frame errors, UART RX was disabled*70
$GNRMC,072104.00,A,0419.82100,S,05539.93231,E,0.069,,200525,,,D*7E
$GNVTG,,T,,M,0.069,N,0.128,K,D*3C
$GNGGA,072104.00,0419.82100,S,05539.93231,E,2,12,0.62,10.6,M,-47.6,M,,0000*43
$GNGSA,A,3,05,12,24,18,15,25,23,13,29,10,,,1.12,0.62,0.93*13
$GNGSA,A,3,80,73,69,84,68,70,74,,,,,,1.12,0.62,0.93*15
$GPGSV,4,1,15,05,31,031,44,10,13,214,32,12,70,118,42,13,12,097,36*78
$GPGSV,4,2,15,15,42,125,41,18,30,303,31,23,55,218,36,24,28,169,38*74
$GPGSV,4,3,15,25,69,335,42,28,07,283,,29,18,354,41,36,52,277,34*77
$GPGSV,4,4,15,40,86,351,43,41,58,082,40,49,32,274,*4C
$GLGSV,3,1,09,68,07,051,33,69,38,092,33,70,31,176,17,73,68,260,36*64
$GLGSV,3,2,09,74,31,318,22,80,35,168,30,84,09,343,26,85,06,296,*67
$GLGSV,3,3,09,,,,33*6C
$GNGLL,0419.82100,S,05539.93231,E,072104.00,A,D*68
$GNTXT,01,01,01,More than 100 frame errors, UART RX was disabled*70
$GNRMC,072105.00,A,0419.82101,S,05539.93233,E,0.068,,200525,,,D*7D
$GNVTG,,T,,M,0.068,N,0.126,K,D*33
$GNGGA,072105.00,0419.82101,S,05539.93233,E,2,12,0.62,10.7,M,-47.6,M,,0000*40
$GNGSA,A,3,05,12,24,18,15,25,23,13,29,10,,,1.12,0.62,0.93*13
$GNGSA,A,3,80,73,69,84,68,70,74,,,,,,1.12,0.62,0.93*15
$GPGSV,4,1,15,05,31,031,44,10,13,214,32,12,70,118,40,13,12,097,32*7E
$GPGSV,4,2,15,15,42,125,41,18,30,303,31,23,55,218,36,24,28,169,38*74
$GPGSV,4,3,15,25,69,335,42,28,07,283,,29,18,354,40,36,52,277,34*76
$GPGSV,4,4,15,40,86,351,43,41,58,082,41,49,32,274,*4D
$GLGSV,3,1,09,68,07,051,35,69,38,092,32,70,31,176,17,73,68,260,36*63
$GLGSV,3,2,09,74,31,317,22,80,35,168,30,84,09,343,27,85,06,296,*69
$GLGSV,3,3,09,,,,32*6D
$GNGLL,0419.82101,S,05539.93233,E,072105.00,A,D*6A
$GNTXT,01,01,01,More than 100 frame errors, UART RX was disabled*70
$GNRMC,072106.00,A,0419.82101,S,05539.93232,E,0.018,,200525,,,D*78
$GNVTG,,T,,M,0.018,N,0.032,K,D*30
$GNGGA,072106.00,0419.82101,S,05539.93232,E,2,12,0.62,10.6,M,-47.6,M,,0000*43
$GNGSA,A,3,05,12,24,18,15,25,23,13,29,10,,,1.12,0.62,0.93*13
$GNGSA,A,3,80,73,69,84,68,70,74,,,,,,1.12,0.62,0.93*15
$GPGSV,4,1,15,05,31,031,44,10,13,214,31,12,70,118,42,13,12,097,36*7B
$GPGSV,4,2,15,15,42,125,39,18,30,303,32,23,55,218,36,24,28,169,38*78
$GPGSV,4,3,15,25,69,335,42,28,07,283,,29,18,354,41,36,52,277,34*77
$GPGSV,4,4,15,40,86,351,43,41,58,082,39,49,32,274,*42
$GLGSV,3,1,09,68,07,051,36,69,38,092,33,70,31,176,17,73,68,260,36*61
$GLGSV,3,2,09,74,31,317,23,80,35,168,30,84,09,343,27,85,06,296,*68
$GLGSV,3,3,09,,,,32*6D
$GNGLL,0419.82101,S,05539.93232,E,072106.00,A,D*68
$GNTXT,01,01,01,More than 100 frame errors, UART RX was disabled*70
$GNRMC,072107.00,A,0419.82101,S,05539.93230,E,0.012,,200525,,,D*71
$GNVTG,,T,,M,0.012,N,0.023,K,D*3A
$GNGGA,072107.00,0419.82101,S,05539.93230,E,2,12,0.62,10.6,M,-47.6,M,,0000*40
$GNGSA,A,3,05,12,24,18,15,25,23,13,29,10,,,1.12,0.62,0.93*13
$GNGSA,A,3,80,73,69,84,68,70,74,,,,,,1.12,0.62,0.93*15
$GPGSV,4,1,15,05,31,031,44,10,13,214,30,12,70,118,41,13,12,097,40*78
$GPGSV,4,2,15,15,42,125,41,18,30,303,31,23,55,218,35,24,28,169,37*78
$GPGSV,4,3,15,25,69,335,41,28,07,283,,29,18,354,40,36,52,277,34*75
$GPGSV,4,4,15,40,86,351,42,41,58,082,39,49,32,274,*43
$GLGSV,3,1,09,68,07,051,34,69,38,092,33,70,31,176,16,73,68,260,36*62
$GLGSV,3,2,09,74,31,317,22,80,35,168,30,84,09,343,26,85,06,296,*68
$GLGSV,3,3,09,,,,32*6D
$GNGLL,0419.82101,S,05539.93230,E,072107.00,A,D*6B
$GNTXT,01,01,01,More than 100 frame errors, UART RX was disabled*70
$GNRMC,072108.00,A,0419.82101,S,05539.93228,E,0.077,,200525,,,D*74
$GNVTG,,T,,M,0.077,N,0.142,K,D*3F
$GNGGA,072108.00,0419.82101,S,05539.93228,E,2,12,0.62,10.6,M,-47.6,M,,0000*46
$GNGSA,A,3,05,12,24,18,15,25,23,13,29,10,,,1.12,0.62,0.93*13
$GNGSA,A,3,80,73,69,84,68,70,74,,,,,,1.12,0.62,0.93*15
$GPGSV,4,1,15,05,31,031,42,10,13,214,30,12,70,118,41,13,12,097,37*7E
$GPGSV,4,2,15,15,42,125,39,18,30,303,31,23,55,218,34,24,28,169,37*76
$GPGSV,4,3,15,25,69,335,41,28,07,283,,29,18,354,40,36,52,277,33*72
$GPGSV,4,4,15,40,86,351,41,41,58,082,39,49,32,274,*40
$GLGSV,3,1,09,68,07,051,32,69,38,092,32,70,31,176,15,73,68,260,36*66
$GLGSV,3,2,09,74,31,317,22,80,35,168,30,84,09,343,26,85,06,296,*68
$GLGSV,3,3,09,,,,31*6E
$GNGLL,0419.82101,S,05539.93228,E,072108.00,A,D*6D
$GNTXT,01,01,01,More than 100 frame errors, UART RX was disabled*70
$GNRMC,072109.00,A,0419.82103,S,05539.93228,E,0.112,,200525,,,D*75
$GNVTG,,T,,M,0.112,N,0.208,K,D*30
$GNGGA,072109.00,0419.82103,S,05539.93228,E,2,12,0.64,10.5,M,-47.6,M,,0000*40
$GNGSA,A,3,05,12,24,18,15,25,23,13,29,10,,,1.13,0.64,0.94*13
$GNGSA,A,3,80,73,69,84,68,74,,,,,,,1.13,0.64,0.94*12
$GPGSV,4,1,15,05,31,031,41,10,13,214,27,12,70,118,38,13,12,097,34*76
$GPGSV,4,2,15,15,42,125,39,18,30,303,28,23,55,218,31,24,28,169,34*78
$GPGSV,4,3,15,25,69,335,38,28,07,283,,29,18,354,37,36,52,277,30*7F
$GPGSV,4,4,15,40,86,351,39,41,58,082,37,49,32,274,*41
$GLGSV,3,1,09,68,07,051,34,69,38,092,32,70,31,176,08,73,68,260,35*6F
$GLGSV,3,2,09,74,31,317,21,80,35,168,30,84,09,343,24,85,06,296,*69
$GLGSV,3,3,09,,,,32*6D
$GNGLL,0419.82103,S,05539.93228,E,072109.00,A,D*6E
$GNTXT,01,01,01,More than 100 frame errors, UART RX was disabled*70
$GNRMC,072110.00,A,0419.82105,S,05539.93229,E,0.114,,200525,,,D*7C
$GNVTG,,T,,M,0.114,N,0.211,K,D*3E
$GNGGA,072110.00,0419.82105,S,05539.93229,E,2,12,0.64,10.5,M,-47.6,M,,0000*4F
$GNGSA,A,3,05,12,24,18,15,25,23,13,29,10,,,1.13,0.64,0.94*13
$GNGSA,A,3,80,73,69,84,68,74,,,,,,,1.13,0.64,0.94*12
$GPGSV,4,1,15,05,31,031,42,10,13,214,28,12,70,118,40,13,12,097,34*75
$GPGSV,4,2,15,15,42,125,38,18,30,303,30,23,55,218,33,24,28,169,34*72
$GPGSV,4,3,15,25,69,335,40,28,07,283,,29,18,354,39,36,52,277,32*7C
$GPGSV,4,4,15,40,86,351,41,41,58,082,38,49,32,274,*41
$GLGSV,3,1,09,68,07,051,37,69,38,092,32,70,31,176,08,73,68,260,35*6C
$GLGSV,3,2,09,74,31,317,22,80,35,168,29,84,09,343,25,85,06,296,*63
$GLGSV,3,3,09,,,,32*6D
$GNGLL,0419.82105,S,05539.93229,E,072110.00,A,D*61
$GNTXT,01,01,01,More than 100 frame errors, UART RX was disabled*70
$GNRMC,072111.00,A,0419.82105,S,05539.93228,E,0.046,,200525,,,D*7A
$GNVTG,,T,,M,0.046,N,0.085,K,D*37
$GNGGA,072111.00,0419.82105,S,05539.93228,E,2,12,0.62,10.5,M,-47.6,M,,0000*49
$GNGSA,A,3,05,12,24,18,15,25,23,13,29,10,,,1.12,0.62,0.93*13
$GNGSA,A,3,80,73,69,84,68,70,74,,,,,,1.12,0.62,0.93*15
$GPGSV,4,1,15,05,31,031,42,10,13,214,29,12,70,118,40,13,12,097,37*77
$GPGSV,4,2,15,15,42,125,38,18,30,303,30,23,55,218,33,24,28,169,36*70
$GPGSV,4,3,15,25,69,335,40,28,07,283,,29,18,354,39,36,52,277,32*7C
$GPGSV,4,4,15,40,86,351,41,41,58,082,38,49,32,274,*41
$GLGSV,3,1,09,68,07,051,37,69,38,092,33,70,31,176,12,73,68,260,35*66
$GLGSV,3,2,09,74,31,317,23,80,34,168,29,84,09,343,25,85,06,296,*63
$GLGSV,3,3,09,,,,32*6D
$GNGLL,0419.82105,S,05539.93228,E,072111.00,A,D*61
$GNTXT,01,01,01,More than 100 frame errors, UART RX was disabled*70
$GNRMC,072112.00,A,0419.82104,S,05539.93226,E,0.001,,200525,,,D*75
$GNVTG,,T,,M,0.001,N,0.002,K,D*3B
$GNGGA,072112.00,0419.82104,S,05539.93226,E,2,12,0.62,10.5,M,-47.6,M,,0000*45
$GNGSA,A,3,05,12,24,18,15,25,23,13,29,10,,,1.12,0.62,0.93*13
$GNGSA,A,3,80,73,69,84,68,70,74,,,,,,1.12,0.62,0.93*15
$GPGSV,4,1,15,05,31,031,42,10,13,214,29,12,70,118,40,13,12,097,37*77
$GPGSV,4,2,15,15,42,125,35,18,29,303,30,23,55,218,34,24,28,169,36*72
$GPGSV,4,3,15,25,69,335,40,28,07,283,,29,18,354,39,36,52,277,32*7C
$GPGSV,4,4,15,40,86,351,41,41,58,082,38,49,32,274,*41
$GLGSV,3,1,09,68,07,051,35,69,38,092,32,70,31,176,11,73,68,260,35*66
$GLGSV,3,2,09,74,31,317,23,80,34,168,29,84,09,343,26,85,06,296,*60
$GLGSV,3,3,09,,,,32*6D
$GNGLL,0419.82104,S,05539.93226,E,072112.00,A,D*6D
$GNTXT,01,01,01,More than 100 frame errors, UART RX was disabled*70
$GNRMC,072113.00,A,0419.82104,S,05539.93226,E,0.025,,200525,,,D*72
$GNVTG,,T,,M,0.025,N,0.046,K,D*3D
$GNGGA,072113.00,0419.82104,S,05539.93226,E,2,12,0.62,10.5,M,-47.6,M,,0000*44
$GNGSA,A,3,05,12,24,18,15,25,23,13,29,10,,,1.12,0.62,0.93*13
$GNGSA,A,3,80,73,69,84,68,70,74,,,,,,1.12,0.62,0.93*15
$GPGSV,4,1,15,05,31,031,42,10,13,214,29,12,70,118,40,13,12,097,34*74
$GPGSV,4,2,15,15,42,125,39,18,29,303,31,23,55,218,34,24,28,169,36*7F
$GPGSV,4,3,15,25,69,335,40,28,07,283,,29,18,354,39,36,52,277,32*7C
$GPGSV,4,4,15,40,86,351,41,41,58,082,38,49,32,274,*41
$GLGSV,3,1,09,68,07,051,25,69,38,092,33,70,31,176,14,73,68,260,35*63
$GLGSV,3,2,09,74,31,317,22,80,34,168,29,84,09,343,26,85,06,296,*61
$GLGSV,3,3,09,,,,32*6D
$GNGLL,0419.82104,S,05539.93226,E,072113.00,A,D*6C
$GNTXT,01,01,01,More than 100 frame errors, UART RX was disabled*70
$GNRMC,072114.00,A,0419.82103,S,05539.93225,E,0.022,,200525,,,D*76
$GNVTG,,T,,M,0.022,N,0.041,K,D*3D
$GNGGA,072114.00,0419.82103,S,05539.93225,E,2,12,0.62,10.5,M,-47.6,M,,0000*47
$GNGSA,A,3,05,12,24,18,15,25,23,13,29,10,,,1.12,0.62,0.93*13
$GNGSA,A,3,80,73,69,84,68,70,74,,,,,,1.12,0.62,0.93*15
$GPGSV,4,1,15,05,31,031,42,10,13,214,29,12,70,118,40,13,12,097,35*75
$GPGSV,4,2,15,15,42,125,39,18,29,303,31,23,55,218,34,24,28,169,36*7F
$GPGSV,4,3,15,25,69,335,40,28,07,283,,29,18,354,39,36,52,277,32*7C
$GPGSV,4,4,15,40,86,351,41,41,58,082,38,49,32,274,*41
$GLGSV,3,1,09,68,07,051,37,69,38,092,30,70,31,176,11,73,68,260,35*66
$GLGSV,3,2,09,74,31,317,23,80,34,168,29,84,09,343,26,85,06,296,*60
$GLGSV,3,3,09,,,,32*6D
$GNGLL,0419.82103,S,05539.93225,E,072114.00,A,D*6F
$GNTXT,01,01,01,More than 100 frame errors, UART RX was disabled*70
$GNRMC,072115.00,A,0419.82101,S,05539.93226,E,0.025,,200525,,,D*71
$GNVTG,,T,,M,0.025,N,0.046,K,D*3D
$GNGGA,072115.00,0419.82101,S,05539.93226,E,2,12,0.62,10.4,M,-47.6,M,,0000*46
$GNGSA,A,3,05,12,24,18,15,25,23,13,29,10,,,1.12,0.62,0.93*13
$GNGSA,A,3,80,73,69,84,68,70,74,,,,,,1.12,0.62,0.93*15
$GPGSV,4,1,15,05,31,031,43,10,13,214,30,12,70,118,40,13,12,097,33*7A
$GPGSV,4,2,15,15,42,125,37,18,29,303,31,23,55,218,33,24,28,169,35*75
$GPGSV,4,3,15,25,69,335,40,28,07,283,,29,18,354,39,36,52,277,32*7C
$GPGSV,4,4,15,40,86,351,41,41,58,082,38,49,32,274,*41
$GLGSV,3,1,09,68,07,051,34,69,38,092,34,70,31,176,11,73,68,260,35*61
$GLGSV,3,2,09,74,31,317,23,80,34,168,29,84,09,343,26,85,06,296,*60
$GLGSV,3,3,09,,,,31*6E
$GNGLL,0419.82101,S,05539.93226,E,072115.00,A,D*6F
$GNTXT,01,01,01,More than 100 frame errors, UART RX was disabled*70
$GNRMC,072116.00,A,0419.82100,S,05539.93225,E,0.036,,200525,,,D*72
$GNVTG,,T,,M,0.036,N,0.067,K,D*3C
$GNGGA,072116.00,0419.82100,S,05539.93225,E,2,12,0.62,10.4,M,-47.6,M,,0000*47
$GNGSA,A,3,05,12,24,18,15,25,23,13,29,10,,,1.12,0.62,0.93*13
$GNGSA,A,3,80,73,69,84,68,70,74,,,,,,1.12,0.62,0.93*15
$GPGSV,4,1,15,05,31,031,43,10,13,214,29,12,70,118,41,13,12,097,34*74
$GPGSV,4,2,15,15,42,125,38,18,29,303,31,23,55,218,34,24,28,169,35*7D
$GPGSV,4,3,15,25,69,335,40,28,07,283,,29,18,354,39,36,52,277,31*7F
$GPGSV,4,4,15,40,86,351,41,41,58,082,38,49,32,274,*41
$GLGSV,3,1,09,68,07,051,32,69,38,092,30,70,31,176,15,73,68,260,35*67
$GLGSV,3,2,09,74,31,317,23,80,34,168,28,84,09,343,26,85,06,296,*61
$GLGSV,3,3,09,,,,31*6E
$GNGLL,0419.82100,S,05539.93225,E,072116.00,A,D*6E
$GNTXT,01,01,01,More than 100 frame errors, UART RX was disabled*70
$GNRMC,072117.00,A,0419.82099,S,05539.93224,E,0.042,,200525,,,D*70
$GNVTG,,T,,M,0.042,N,0.077,K,D*3E
$GNGGA,072117.00,0419.82099,S,05539.93224,E,2,12,0.62,10.4,M,-47.6,M,,0000*46
$GNGSA,A,3,05,12,24,18,15,25,23,13,29,10,,,1.12,0.62,0.93*13
$GNGSA,A,3,80,73,69,84,68,70,74,,,,,,1.12,0.62,0.93*15
$GPGSV,4,1,15,05,31,031,43,10,13,214,29,12,70,118,40,13,12,097,34*75
$GPGSV,4,2,15,15,42,125,39,18,29,303,31,23,55,218,33,24,28,169,36*78
$GPGSV,4,3,15,25,69,335,40,28,07,283,,29,18,354,39,36,52,277,32*7C
$GPGSV,4,4,15,40,86,351,41,41,58,082,38,49,32,274,*41
$GLGSV,3,1,09,68,07,051,27,69,38,092,30,70,31,176,17,73,68,260,35*61
$GLGSV,3,2,09,74,31,317,23,80,34,168,28,84,09,343,26,85,06,296,*61
$GLGSV,3,3,09,,,,31*6E
$GNGLL,0419.82099,S,05539.93224,E,072117.00,A,D*6F
$GNTXT,01,01,01,More than 100 frame errors, UART RX was disabled*70
$GNRMC,072118.00,A,0419.82099,S,05539.93224,E,0.039,,200525,,,D*73
$GNVTG,,T,,M,0.039,N,0.072,K,D*37
$GNGGA,072118.00,0419.82099,S,05539.93224,E,2,12,0.62,10.5,M,-47.6,M,,0000*48
$GNGSA,A,3,05,12,24,18,15,25,23,13,29,10,,,1.12,0.62,0.93*13
$GNGSA,A,3,80,73,69,84,68,70,74,,,,,,1.12,0.62,0.93*15
$GPGSV,4,1,15,05,31,031,42,10,13,214,29,12,70,118,40,13,12,097,37*77
$GPGSV,4,2,15,15,42,125,39,18,29,303,32,23,55,218,33,24,28,169,35*78
$GPGSV,4,3,15,25,69,335,40,28,07,283,,29,18,354,39,36,52,277,32*7C
$GPGSV,4,4,15,40,86,351,41,41,58,082,38,49,32,274,*41
$GLGSV,3,1,09,68,07,051,36,69,38,092,31,70,31,176,10,73,68,260,35*67
$GLGSV,3,2,09,74,31,317,23,80,34,168,28,84,09,343,26,85,06,296,*61
$GLGSV,3,3,09,,,,31*6E
$GNGLL,0419.82099,S,05539.93224,E,072118.00,A,D*60
$GNTXT,01,01,01,More than 100 frame errors, UART RX was disabled*70
$GNRMC,072119.00,A,0419.82099,S,05539.93225,E,0.021,,200525,,,D*7A
$GNVTG,,T,,M,0.021,N,0.039,K,D*31
$GNGGA,072119.00,0419.82099,S,05539.93225,E,2,12,0.62,10.6,M,-47.6,M,,0000*4B
$GNGSA,A,3,05,12,24,18,15,25,23,13,29,10,,,1.12,0.62,0.93*13
$GNGSA,A,3,80,73,69,84,68,70,74,,,,,,1.12,0.62,0.93*15
$GPGSV,4,1,15,05,31,031,42,10,13,214,30,12,70,118,40,13,12,097,35*7D
$GPGSV,4,2,15,15,42,125,39,18,29,303,31,23,55,218,33,24,28,169,36*78
$GPGSV,4,3,15,25,69,335,40,28,07,283,,29,18,354,39,36,52,277,32*7C
$GPGSV,4,4,15,40,86,351,41,41,58,082,38,49,32,274,*41
$GLGSV,3,1,09,68,07,051,37,69,38,092,31,70,31,176,15,73,68,260,35*63
$GLGSV,3,2,09,74,31,317,24,80,34,168,28,84,09,343,26,85,06,296,*66
$GLGSV,3,3,09,,,,32*6D
$GNGLL,0419.82099,S,05539.93225,E,072119.00,A,D*60
$GNTXT,01,01,01,More than 100 frame errors, UART RX was disabled*70
$GNRMC,072120.00,A,0419.82099,S,05539.93226,E,0.021,,200525,,,D*73
$GNVTG,,T,,M,0.021,N,0.040,K,D*3F
$GNGGA,072120.00,0419.82099,S,05539.93226,E,2,12,0.62,10.6,M,-47.6,M,,0000*42
$GNGSA,A,3,05,12,24,18,15,25,23,13,29,10,,,1.12,0.62,0.93*13
$GNGSA,A,3,80,73,69,84,68,70,74,,,,,,1.12,0.62,0.93*15
$GPGSV,4,1,15,05,31,031,42,10,13,214,30,12,70,118,40,13,12,097,37*7F
$GPGSV,4,2,15,15,42,125,38,18,29,303,31,23,55,218,33,24,28,169,36*79
$GPGSV,4,3,15,25,69,335,40,28,07,283,,29,18,354,39,36,52,277,32*7C
$GPGSV,4,4,15,40,86,351,41,41,58,082,38,49,32,274,*41
$GLGSV,3,1,09,68,07,051,35,69,38,092,32,70,31,176,08,73,68,260,35*6E
$GLGSV,3,2,09,74,31,317,23,80,34,168,29,84,09,343,26,85,06,296,*60
$GLGSV,3,3,09,,,,32*6D
$GNGLL,0419.82099,S,05539.93226,E,072120.00,A,D*69
$GNTXT,01,01,01,More than 100 frame errors, UART RX was disabled*70
$GNRMC,072121.00,A,0419.82099,S,05539.93226,E,0.019,,200525,,,D*79
$GNVTG,,T,,M,0.019,N,0.036,K,D*35
$GNGGA,072121.00,0419.82099,S,05539.93226,E,2,12,0.62,10.7,M,-47.6,M,,0000*42
$GNGSA,A,3,05,12,24,18,15,25,23,13,29,10,,,1.12,0.62,0.93*13
$GNGSA,A,3,80,73,69,84,68,70,74,,,,,,1.12,0.62,0.93*15
$GPGSV,4,1,15,05,31,031,43,10,13,214,29,12,70,118,40,13,12,097,38*79
$GPGSV,4,2,15,15,42,125,37,18,29,303,32,23,55,218,34,24,28,169,36*72
$GPGSV,4,3,15,25,69,335,40,28,07,283,,29,18,354,39,36,52,277,32*7C
$GPGSV,4,4,15,40,86,351,41,41,58,082,38,49,32,274,*41
$GLGSV,3,1,09,68,07,051,30,69,38,092,33,70,31,176,15,73,68,260,36*65
$GLGSV,3,2,09,74,31,317,24,80,34,168,30,84,09,343,26,85,06,296,*6F
$GLGSV,3,3,09,,,,33*6C
$GNGLL,0419.82099,S,05539.93226,E,072121.00,A,D*68
$GNTXT,01,01,01,More than 100 frame errors, UART RX was disabled*70
$GNRMC,072122.00,A,0419.82100,S,05539.93226,E,0.024,,200525,,,D*75
$GNVTG,,T,,M,0.024,N,0.045,K,D*3F
$GNGGA,072122.00,0419.82100,S,05539.93226,E,2,12,0.62,10.7,M,-47.6,M,,0000*40
$GNGSA,A,3,05,12,24,18,15,25,23,13,29,10,,,1.12,0.62,0.93*13
$GNGSA,A,3,80,73,69,84,68,70,74,,,,,,1.12,0.62,0.93*15
$GPGSV,4,1,15,05,31,031,43,10,13,214,29,12,70,118,40,13,12,097,32*73
$GPGSV,4,2,15,15,42,125,40,18,29,303,32,23,55,218,34,24,28,169,37*73
$GPGSV,4,3,15,25,69,335,40,28,07,283,,29,18,354,40,36,52,277,33*73
$GPGSV,4,4,15,40,86,351,41,41,58,082,38,49,32,274,*41
