$GNTXT,01,01,01,More than 100 frame errors, UART RX was disabled*70
$GNRMC,073034.00,A,0419.82282,S,05539.91208,E,0.080,,200525,,,D*7B
$GNVTG,,T,,M,0.080,N,0.147,K,D*32
$GNGGA,073034.00,0419.82282,S,05539.91208,E,2,12,0.65,11.4,M,-47.6,M,,0000*45
$GNGSA,A,3,05,12,18,15,25,23,13,29,10,,,,1.16,0.65,0.96*13
$GNGSA,A,3,80,73,69,84,68,70,74,,,,,,1.16,0.65,0.96*13
$GPGSV,4,1,15,05,27,030,40,10,17,215,10,12,67,129,33,13,12,093,37*78
$GPGSV,4,2,15,15,43,119,37,18,28,308,23,23,60,223,34,24,26,165,*7F
$GPGSV,4,3,15,25,74,328,34,28,08,279,,29,20,358,33,36,52,277,*79
$GPGSV,4,4,15,40,86,351,,41,58,082,35,49,32,274,*49
$GLGSV,3,1,10,68,05,047,33,69,38,086,25,70,35,173,12,71,01,203,*62
$GLGSV,3,2,10,73,66,246,31,74,35,313,07,80,30,168,22,84,08,347,21*63
$GLGSV,3,3,10,85,05,300,,,,,24*59
$GNGLL,0419.82282,S,05539.91208,E,073034.00,A,D*6A
$GNTXT,01,01,01,More than 100 frame errors, UART RX was disabled*70
$GNRMC,073035.00,A,0419.82281,S,05539.91210,E,0.007,,200525,,,D*7F
$GNVTG,,T,,M,0.007,N,0.013,K,D*3D
$GNGGA,073035.00,0419.82281,S,05539.91210,E,2,12,0.80,11.5,M,-47.6,M,,0000*44
$GNGSA,A,3,05,12,18,15,25,23,13,29,10,,,,1.37,0.80,1.11*15
$GNGSA,A,3,80,73,69,84,68,70,,,,,,,1.37,0.80,1.11*16
$GPGSV,4,1,15,05,27,030,41,10,17,215,09,12,67,129,34,13,12,093,38*79
$GPGSV,4,2,15,15,43,119,38,18,28,308,21,23,60,223,36,24,26,165,*70
$GPGSV,4,3,15,25,74,328,34,28,08,279,,29,20,358,33,36,52,277,*79
$GPGSV,4,4,15,40,86,351,,41,58,082,33,49,32,274,*4F
$GLGSV,3,1,10,68,05,047,33,69,38,086,24,70,35,173,08,71,01,203,*68
$GLGSV,3,2,10,73,66,246,31,74,35,313,06,80,30,168,23,84,08,347,19*68
$GLGSV,3,3,10,85,05,300,,,,,25*58
$GNGLL,0419.82281,S,05539.91210,E,073035.00,A,D*61
$GNTXT,01,01,01,More than 100 frame errors, UART RX was disabled*70
$GNRMC,073036.00,A,0419.82282,S,05539.91205,E,0.016,,200525,,,D*7B
$GNVTG,,T,,M,0.016,N,0.029,K,D*34
$GNGGA,073036.00,0419.82282,S,05539.91205,E,2,12,0.65,11.4,M,-47.6,M,,0000*4A
$GNGSA,A,3,05,12,18,15,25,23,13,29,10,,,,1.16,0.65,0.96*13
$GNGSA,A,3,80,73,69,84,68,70,74,,,,,,1.16,0.65,0.96*13
$GPGSV,4,1,15,05,27,030,42,10,17,215,11,12,67,129,33,13,12,093,38*74
$GPGSV,4,2,15,15,43,119,38,18,28,308,21,23,60,223,35,24,26,165,*73
$GPGSV,4,3,15,25,74,328,35,28,08,279,,29,20,358,34,36,52,277,*7F
$GPGSV,4,4,15,40,86,351,,41,58,082,32,49,32,274,*4E
$GLGSV,3,1,10,68,05,047,36,69,38,086,26,70,35,173,09,71,01,203,*6E
$GLGSV,3,2,10,73,66,246,32,74,35,313,11,80,30,168,24,84,08,347,19*6A
$GLGSV,3,3,10,85,05,300,,,,,26*5B
$GNGLL,0419.82282,S,05539.91205,E,073036.00,A,D*65
$GNTXT,01,01,01,More than 100 frame errors, UART RX was disabled*70
$GNRMC,073037.00,A,0419.82282,S,05539.91203,E,0.016,,200525,,,D*7C
$GNVTG,,T,,M,0.016,N,0.030,K,D*3C
$GNGGA,073037.00,0419.82282,S,05539.91203,E,2,12,0.65,11.4,M,-47.6,M,,0000*4D
$GNGSA,A,3,05,12,18,15,25,23,13,29,10,,,,1.16,0.65,0.96*13
$GNGSA,A,3,80,73,69,84,68,70,74,,,,,,1.16,0.65,0.96*13
$GPGSV,4,1,15,05,27,030,44,10,17,215,08,12,67,129,33,13,12,093,38*7A
$GPGSV,4,2,15,15,43,119,36,18,28,308,21,23,60,223,35,24,26,165,*7D
$GPGSV,4,3,15,25,74,328,35,28,08,279,,29,20,358,35,36,52,277,*7E
$GPGSV,4,4,15,40,86,351,,41,58,082,32,49,32,274,*4E
$GLGSV,3,1,10,68,05,047,37,69,38,086,31,70,35,173,12,71,01,203,*63
$GLGSV,3,2,10,73,66,246,33,74,35,313,12,80,30,168,23,84,08,347,19*6F
$GLGSV,3,3,10,85,05,300,,,,,25*58
$GNGLL,0419.82282,S,05539.91203,E,073037.00,A,D*62
$GNTXT,01,01,01,More than 100 frame errors, UART RX was disabled*70
$GNRMC,073038.00,A,0419.82282,S,05539.91204,E,0.071,,200525,,,D*75
$GNVTG,,T,,M,0.071,N,0.131,K,D*3D
$GNGGA,073038.00,0419.82282,S,05539.91204,E,2,12,0.80,11.5,M,-47.6,M,,0000*4F
$GNGSA,A,3,05,12,18,15,25,23,13,29,10,,,,1.37,0.80,1.11*15
$GNGSA,A,3,80,73,69,84,68,70,74,,,,,,1.37,0.80,1.11*15
$GPGSV,4,1,15,05,27,030,39,10,17,215,08,12,67,129,32,13,12,093,33*7A
$GPGSV,4,2,15,15,43,119,33,18,28,308,21,23,60,223,31,24,26,165,*7C
$GPGSV,4,3,15,25,74,328,30,28,08,279,,29,20,358,34,36,52,277,*7A
$GPGSV,4,4,15,40,86,351,,41,58,082,32,49,32,274,*4E
$GLGSV,3,1,10,68,05,047,36,69,38,086,31,70,35,173,11,71,01,203,*61
$GLGSV,3,2,10,73,66,246,32,74,35,313,09,80,30,168,22,84,08,347,19*65
$GLGSV,3,3,10,85,05,300,,,,,25*58
$GNGLL,0419.82282,S,05539.91204,E,073038.00,A,D*6A
$GNTXT,01,01,01,More than 100 frame errors, UART RX was disabled*70
$GNRMC,073039.00,A,0419.82280,S,05539.91205,E,0.043,,200525,,,D*76
$GNVTG,,T,,M,0.043,N,0.080,K,D*37
$GNGGA,073039.00,0419.82280,S,05539.91205,E,2,12,0.65,11.5,M,-47.6,M,,0000*46
$GNGSA,A,3,05,12,18,15,25,23,13,29,10,,,,1.16,0.65,0.96*13
$GNGSA,A,3,80,73,69,84,68,70,74,,,,,,1.16,0.65,0.96*13
$GPGSV,4,1,15,05,27,030,38,10,17,215,09,12,67,129,28,13,12,093,34*76
$GPGSV,4,2,15,15,43,119,33,18,28,308,19,23,60,223,32,24,26,165,*74
$GPGSV,4,3,15,25,74,328,27,28,08,279,,29,20,358,32,36,52,277,*7A
$GPGSV,4,4,15,40,86,351,,41,58,082,29,49,32,274,*44
$GLGSV,3,1,10,68,05,047,34,69,38,085,25,70,35,173,09,71,01,203,*6C
$GLGSV,3,2,10,73,66,246,33,74,35,313,12,80,30,168,21,84,08,347,20*67
$GLGSV,3,3,10,85,05,300,,,,,25*58
$GNGLL,0419.82280,S,05539.91205,E,073039.00,A,D*68
$GNTXT,01,01,01,More than 100 frame errors, UART RX was disabled*70
$GNRMC,073040.00,A,0419.82281,S,05539.91207,E,0.102,,200525,,,D*7F
$GNVTG,,T,,M,0.102,N,0.188,K,D*3A
$GNGGA,073040.00,0419.82281,S,05539.91207,E,2,12,0.65,11.6,M,-47.6,M,,0000*48
$GNGSA,A,3,05,12,18,15,25,23,13,29,10,,,,1.16,0.65,0.96*13
$GNGSA,A,3,80,73,69,84,68,70,74,,,,,,1.16,0.65,0.96*13
$GPGSV,4,1,15,05,27,030,33,10,17,215,08,12,67,129,28,13,12,093,29*70
$GPGSV,4,2,15,15,43,119,27,18,28,308,18,23,60,223,28,24,26,165,*7B
$GPGSV,4,3,15,25,74,328,27,28,08,279,,29,20,358,31,36,52,277,*79
$GPGSV,4,4,15,40,86,351,,41,58,082,28,49,32,274,*45
$GLGSV,3,1,10,68,05,047,33,69,38,085,27,70,35,173,11,71,01,203,*60
$GLGSV,3,2,10,73,66,246,28,74,35,313,10,80,30,168,21,84,08,347,18*64
$GLGSV,3,3,10,85,05,300,,,,,24*59
$GNGLL,0419.82281,S,05539.91207,E,073040.00,A,D*65
$GNTXT,01,01,01,More than 100 frame errors, UART RX was disabled*70
$GNRMC,073041.00,A,0419.82281,S,05539.91211,E,0.058,,200525,,,D*77
$GNVTG,,T,,M,0.058,N,0.107,K,D*33
$GNGGA,073041.00,0419.82281,S,05539.91211,E,2,12,0.80,11.7,M,-47.6,M,,0000*44
$GNGSA,A,3,05,12,18,15,25,23,13,29,10,,,,1.37,0.80,1.11*15
$GNGSA,A,3,80,73,69,84,68,70,,,,,,,1.37,0.80,1.11*16
$GPGSV,4,1,15,05,27,030,38,10,17,215,11,12,67,129,29,13,12,093,34*7E
$GPGSV,4,2,15,15,43,119,29,18,28,308,17,23,60,223,33,24,26,165,*70
$GPGSV,4,3,15,25,74,328,32,28,08,279,,29,20,358,31,36,52,277,*7D
$GPGSV,4,4,15,40,86,351,,41,58,082,32,49,32,274,*4E
$GLGSV,3,1,10,68,05,047,34,69,38,085,27,70,35,173,12,71,01,203,*64
$GLGSV,3,2,10,73,66,246,30,74,35,313,06,80,30,168,20,84,08,347,17*64
$GLGSV,3,3,10,85,05,300,,,,,22*5F
$GNGLL,0419.82281,S,05539.91211,E,073041.00,A,D*63
$GNTXT,01,01,01,More than 100 frame errors, UART RX was disabled*70
$GNRMC,073042.00,A,0419.82278,S,05539.91213,E,0.100,,200525,,,D*7C
$GNVTG,,T,,M,0.100,N,0.185,K,D*35
$GNGGA,073042.00,0419.82278,S,05539.91213,E,2,12,0.65,11.8,M,-47.6,M,,0000*47
$GNGSA,A,3,05,12,18,15,25,23,13,29,10,,,,1.16,0.65,0.96*13
$GNGSA,A,3,80,73,69,84,68,70,74,,,,,,1.16,0.65,0.96*13
$GPGSV,4,1,15,05,27,030,38,10,17,215,09,12,67,129,29,13,12,093,34*77
$GPGSV,4,2,15,15,43,119,33,18,28,308,14,23,60,223,31,24,26,165,*7A
$GPGSV,4,3,15,25,74,328,31,28,08,279,,29,20,358,31,36,52,277,*7E
$GPGSV,4,4,15,40,86,351,,41,58,082,32,49,32,274,*4E
$GLGSV,3,1,10,68,05,047,35,69,38,085,26,70,35,173,08,71,01,203,*6F
$GLGSV,3,2,10,73,66,246,31,74,35,313,08,80,30,168,19,84,08,347,18*6E
$GLGSV,3,3,10,85,05,300,,,,,22*5F
$GNGLL,0419.82278,S,05539.91213,E,073042.00,A,D*64
$GNTXT,01,01,01,More than 100 frame errors, UART RX was disabled*70
$GNRMC,073043.00,A,0419.82276,S,05539.91213,E,0.056,,200525,,,D*71
$GNVTG,,T,,M,0.056,N,0.103,K,D*39
$GNGGA,073043.00,0419.82276,S,05539.91213,E,2,12,0.65,11.8,M,-47.6,M,,0000*48
$GNGSA,A,3,05,12,18,15,25,23,13,29,10,,,,1.16,0.65,0.96*13
$GNGSA,A,3,80,73,69,84,68,70,74,,,,,,1.16,0.65,0.96*13
$GPGSV,4,1,15,05,27,030,38,10,17,215,09,12,67,129,29,13,12,093,33*70
$GPGSV,4,2,15,15,43,119,30,18,28,308,13,23,60,223,31,24,26,165,*7E
$GPGSV,4,3,15,25,74,328,30,28,08,279,,29,20,358,31,36,52,277,*7F
$GPGSV,4,4,15,40,86,351,,41,58,082,31,49,32,274,*4D
$GLGSV,3,1,10,68,05,047,35,69,38,085,27,70,35,173,17,71,01,203,*60
$GLGSV,3,2,10,73,66,246,31,74,35,313,07,80,30,168,19,84,08,347,18*61
$GLGSV,3,3,10,85,05,300,,,,,21*5C
$GNGLL,0419.82276,S,05539.91213,E,073043.00,A,D*6B
$GNTXT,01,01,01,More than 100 frame errors, UART RX was disabled*70
$GNRMC,073044.00,A,0419.82275,S,05539.91213,E,0.083,,200525,,,D*7D
$GNVTG,,T,,M,0.083,N,0.155,K,D*32
$GNGGA,073044.00,0419.82275,S,05539.91213,E,2,12,0.86,11.9,M,-47.6,M,,0000*40
$GNGSA,A,3,05,12,18,15,25,23,13,29,10,,,,1.43,0.86,1.14*15
$GNGSA,A,3,80,73,69,84,68,70,,,,,,,1.43,0.86,1.14*16
$GPGSV,4,1,15,05,27,030,43,10,17,215,08,12,67,129,30,13,12,093,37*71
$GPGSV,4,2,15,15,43,119,34,18,28,308,16,23,60,223,34,24,26,165,*7A
$GPGSV,4,3,15,25,74,328,35,28,08,279,,29,20,358,35,36,52,277,*7E
$GPGSV,4,4,15,40,86,351,,41,58,082,32,49,32,274,*4E
$GLGSV,3,1,10,68,05,047,37,69,38,085,29,70,35,173,09,71,01,203,*63
$GLGSV,3,2,10,73,66,246,31,74,35,313,06,80,30,168,20,84,08,347,17*65
$GLGSV,3,3,10,85,05,300,,,,,23*5E
$GNGLL,0419.82275,S,05539.91213,E,073044.00,A,D*6F
$GNTXT,01,01,01,More than 100 frame errors, UART RX was disabled*70
$GNRMC,073045.00,A,0419.82276,S,05539.91212,E,0.063,,200525,,,D*70
$GNVTG,,T,,M,0.063,N,0.116,K,D*3B
$GNGGA,073045.00,0419.82276,S,05539.91212,E,2,12,0.77,11.8,M,-47.6,M,,0000*4C
$GNGSA,A,3,05,12,18,15,25,23,13,29,,,,,1.35,0.77,1.10*1F
$GNGSA,A,3,80,73,69,84,68,70,74,,,,,,1.35,0.77,1.10*1E
$GPGSV,4,1,15,05,27,030,43,10,17,215,06,12,67,129,29,13,12,093,37*77
$GPGSV,4,2,15,15,43,119,34,18,28,308,19,23,60,223,34,24,26,165,*75
$GPGSV,4,3,15,25,74,328,35,28,08,279,,29,20,358,35,36,52,277,*7E
$GPGSV,4,4,15,40,86,351,,41,58,082,29,49,32,274,*44
$GLGSV,3,1,10,68,05,047,35,69,38,085,28,70,35,173,13,71,01,203,*6B
$GLGSV,3,2,10,73,66,246,31,74,35,313,10,80,30,168,19,84,08,347,18*67
$GLGSV,3,3,10,85,05,300,,,,,22*5F
$GNGLL,0419.82276,S,05539.91212,E,073045.00,A,D*6C
$GNTXT,01,01,01,More than 100 frame errors, UART RX was disabled*70
$GNRMC,073046.00,A,0419.82277,S,05539.91211,E,0.139,,200525,,,D*7F
$GNVTG,,T,,M,0.139,N,0.257,K,D*33
$GNGGA,073046.00,0419.82277,S,05539.91211,E,2,12,0.65,11.8,M,-47.6,M,,0000*4E
$GNGSA,A,3,05,12,18,15,25,23,13,29,10,,,,1.16,0.65,0.96*13
$GNGSA,A,3,80,73,69,84,68,70,74,,,,,,1.16,0.65,0.96*13
$GPGSV,4,1,15,05,27,030,43,10,17,215,09,12,67,129,29,13,12,093,37*78
$GPGSV,4,2,15,15,43,119,35,18,28,308,19,23,60,223,34,24,26,165,*74
$GPGSV,4,3,15,25,74,328,34,28,08,279,,29,20,358,35,36,52,277,*7F
$GPGSV,4,4,15,40,86,351,,41,58,082,30,49,32,274,*4C
$GLGSV,3,1,10,68,05,047,38,69,38,085,29,70,35,173,12,71,01,203,*66
$GLGSV,3,2,10,73,66,246,33,74,35,313,10,80,30,168,19,84,08,347,18*65
$GLGSV,3,3,10,85,05,300,,,,,23*5E
$GNGLL,0419.82277,S,05539.91211,E,073046.00,A,D*6D
$GNTXT,01,01,01,More than 100 frame errors, UART RX was disabled*70
$GNRMC,073047.00,A,0419.82278,S,05539.91212,E,0.047,,200525,,,D*7A
$GNVTG,,T,,M,0.047,N,0.087,K,D*34
$GNGGA,073047.00,0419.82278,S,05539.91212,E,2,12,0.67,11.8,M,-47.6,M,,0000*41
$GNGSA,A,3,05,12,18,15,25,23,13,29,10,,,,1.17,0.67,0.96*10
$GNGSA,A,3,80,73,69,84,68,70,74,,,,,,1.17,0.67,0.96*10
$GPGSV,4,1,15,05,27,030,43,10,17,215,09,12,67,129,31,13,12,093,39*7F
$GPGSV,4,2,15,15,43,119,38,18,28,308,19,23,60,223,33,24,26,165,*7E
$GPGSV,4,3,15,25,74,328,34,28,08,279,,29,20,358,35,36,52,277,*7F
$GPGSV,4,4,15,40,86,351,,41,58,082,32,49,32,274,*4E
$GLGSV,3,1,10,68,05,047,38,69,38,085,29,70,35,173,15,71,01,203,*61
$GLGSV,3,2,10,73,66,246,33,74,35,313,14,80,30,168,18,84,08,347,19*61
$GLGSV,3,3,10,85,05,300,,,,,25*58
$GNGLL,0419.82278,S,05539.91212,E,073047.00,A,D*60
$GNTXT,01,01,01,More than 100 frame errors, UART RX was disabled*70
$GNRMC,073048.00,A,0419.82279,S,05539.91210,E,0.053,,200525,,,A*76
$GNVTG,,T,,M,0.053,N,0.099,K,A*3B
$GNGGA,073048.00,0419.82279,S,05539.91210,E,1,12,0.67,11.8,M,-47.6,M,,*4E
$GNGSA,A,3,05,12,18,15,25,23,13,29,10,,,,1.19,0.67,0.99*11
$GNGSA,A,3,80,73,69,84,70,74,,,,,,,1.19,0.67,0.99*1F
$GPGSV,4,1,15,05,27,030,43,10,17,215,13,12,67,129,32,13,12,093,39*77
$GPGSV,4,2,15,15,43,119,37,18,28,308,19,23,60,223,30,24,26,165,*72
$GPGSV,4,3,15,25,74,328,35,28,08,279,,29,20,358,38,36,52,277,*73
$GPGSV,4,4,15,40,86,351,,41,58,082,30,49,32,274,*4C
$GLGSV,3,1,10,68,05,047,38,69,38,085,33,70,35,173,08,71,01,203,*66
$GLGSV,3,2,10,73,66,246,31,74,35,313,09,80,30,168,17,84,08,347,19*60
$GLGSV,3,3,10,85,05,300,,,,,25*58
$GNGLL,0419.82279,S,05539.91210,E,073048.00,A,A*69
$GNTXT,01,01,01,More than 100 frame errors, UART RX was disabled*70
$GNRMC,073049.00,A,0419.82278,S,05539.91211,E,0.015,,200525,,,A*75
$GNVTG,,T,,M,0.015,N,0.027,K,A*3C
$GNGGA,073049.00,0419.82278,S,05539.91211,E,1,12,0.80,11.8,M,-47.6,M,,*46
$GNGSA,A,3,05,12,18,15,25,23,13,29,,,,,1.38,0.80,1.12*18
$GNGSA,A,3,80,73,69,84,70,74,,,,,,,1.38,0.80,1.12*17
$GPGSV,4,1,15,05,27,030,41,10,17,215,05,12,67,129,33,13,12,093,37*7D
$GPGSV,4,2,15,15,43,119,34,18,28,308,19,23,60,223,31,24,26,165,*70
$GPGSV,4,3,15,25,74,328,31,28,08,279,,29,20,358,32,36,52,277,*7D
$GPGSV,4,4,15,40,86,351,,41,58,082,30,49,32,274,*4C
$GLGSV,3,1,10,68,05,047,38,69,38,085,27,70,35,173,13,71,01,203,*69
$GLGSV,3,2,10,73,66,246,33,74,35,313,13,80,30,168,17,84,08,347,20*63
$GLGSV,3,3,10,85,05,300,,,,,26*5B
$GNGLL,0419.82278,S,05539.91211,E,073049.00,A,A*68
$GNTXT,01,01,01,More than 100 frame errors, UART RX was disabled*70
$GNRMC,073050.00,A,0419.82276,S,05539.91215,E,0.042,,200525,,,A*75
$GNVTG,,T,,M,0.042,N,0.078,K,A*34
$GNGGA,073050.00,0419.82276,S,05539.91215,E,1,12,0.86,11.9,M,-47.6,M,,*43
$GNGSA,A,3,05,12,18,15,25,23,13,29,10,,,,1.43,0.86,1.15*14
$GNGSA,A,3,80,73,69,84,70,74,,,,,,,1.43,0.86,1.15*1A
$GPGSV,4,1,15,05,27,030,43,10,17,215,09,12,67,129,31,13,12,093,38*7E
$GPGSV,4,2,15,15,43,119,34,18,28,308,18,23,60,223,34,24,26,165,*74
$GPGSV,4,3,15,25,74,328,32,28,08,279,,29,20,358,33,36,52,277,*7F
$GPGSV,4,4,15,40,86,351,,41,58,082,34,49,32,274,*48
$GLGSV,3,1,10,68,05,047,38,69,38,085,32,70,35,173,13,71,01,203,*6D
$GLGSV,3,2,10,73,66,246,35,74,35,313,14,80,30,168,19,84,08,347,20*6C
$GLGSV,3,3,10,85,05,300,,,,,25*58
$GNGLL,0419.82276,S,05539.91215,E,073050.00,A,A*6A
$GNTXT,01,01,01,More than 100 frame errors, UART RX was disabled*70
$GNRMC,073051.00,A,0419.82276,S,05539.91214,E,0.023,,200525,,,A*72
$GNVTG,,T,,M,0.023,N,0.043,K,A*3B
$GNGGA,073051.00,0419.82276,S,05539.91214,E,1,12,0.67,11.9,M,-47.6,M,,*4C
$GNGSA,A,3,05,12,18,15,25,23,13,29,10,,,,1.19,0.67,0.99*11
$GNGSA,A,3,80,73,69,84,70,74,,,,,,,1.19,0.67,0.99*1F
$GPGSV,4,1,15,05,27,030,43,10,17,215,08,12,67,129,31,13,12,093,38*7F
$GPGSV,4,2,15,15,43,119,37,18,28,308,18,23,60,223,32,24,26,165,*71
$GPGSV,4,3,15,25,74,328,33,28,08,279,,29,20,358,35,36,52,277,*78
$GPGSV,4,4,15,40,86,351,,41,58,082,29,49,32,274,*44
$GLGSV,3,1,10,68,05,047,38,69,38,085,27,70,35,173,12,71,01,203,*68
$GLGSV,3,2,10,73,66,246,34,74,35,313,15,80,30,168,18,84,08,347,20*6D
$GLGSV,3,3,10,85,05,300,,,,,23*5E
$GNGLL,0419.82276,S,05539.91214,E,073051.00,A,A*6A
$GNTXT,01,01,01,More than 100 frame errors, UART RX was disabled*70
$GNRMC,073052.00,A,0419.82275,S,05539.91217,E,0.049,,200525,,,A*7D
$GNVTG,,T,,M,0.049,N,0.091,K,A*38
$GNGGA,073052.00,0419.82275,S,05539.91217,E,1,12,0.67,12.0,M,-47.6,M,,*45
$GNGSA,A,3,05,12,18,15,25,23,13,29,10,,,,1.19,0.67,0.99*11
$GNGSA,A,3,80,73,69,84,70,74,,,,,,,1.19,0.67,0.99*1F
$GPGSV,4,1,15,05,27,030,38,10,17,215,13,12,67,129,26,13,12,093,33*74
$GPGSV,4,2,15,15,43,119,32,18,28,308,17,23,60,223,28,24,26,165,*70
$GPGSV,4,3,15,25,74,328,30,28,08,279,,29,20,358,31,36,52,277,*7F
$GPGSV,4,4,15,40,86,351,,41,58,082,29,49,32,274,*44
$GLGSV,3,1,10,68,05,047,35,69,38,085,27,70,35,173,13,71,01,203,*64
$GLGSV,3,2,10,73,66,246,31,74,35,313,14,80,30,168,19,84,08,347,20*68
$GLGSV,3,3,10,85,05,300,,,,,22*5F
$GNGLL,0419.82275,S,05539.91217,E,073052.00,A,A*69
$GNTXT,01,01,01,More than 100 frame errors, UART RX was disabled*70
$GNRMC,073053.00,A,0419.82275,S,05539.91218,E,0.014,,200525,,,A*7B
$GNVTG,,T,,M,0.014,N,0.026,K,A*3C
$GNGGA,073053.00,0419.82275,S,05539.91218,E,1,12,0.88,12.0,M,-47.6,M,,*4A
$GNGSA,A,3,05,12,18,15,25,23,13,29,10,,,,1.45,0.88,1.15*1C
$GNGSA,A,3,80,73,69,84,70,74,,,,,,,1.45,0.88,1.15*12
$GPGSV,4,1,15,05,27,030,43,10,17,215,08,12,67,129,32,13,12,093,37*73
$GPGSV,4,2,15,15,43,119,38,18,28,308,17,23,60,223,33,24,26,165,*70
$GPGSV,4,3,15,25,74,328,34,28,08,279,,29,20,358,37,36,52,277,*7D
$GPGSV,4,4,15,40,86,351,,41,58,082,31,49,32,274,*4D
$GLGSV,3,1,10,68,05,047,38,69,38,085,27,70,35,173,08,71,01,203,*63
$GLGSV,3,2,10,73,66,246,31,74,35,313,10,80,30,168,17,84,08,347,19*68
$GLGSV,3,3,10,85,05,300,,,,,23*5E
$GNGLL,0419.82275,S,05539.91218,E,073053.00,A,A*67
$GNTXT,01,01,01,More than 100 frame errors, UART RX was disabled*70
$GNRMC,073054.00,A,0419.82275,S,05539.91219,E,0.043,,200525,,,A*7F
$GNVTG,,T,,M,0.043,N,0.079,K,A*34
$GNGGA,073054.00,0419.82275,S,05539.91219,E,1,12,0.67,12.0,M,-47.6,M,,*4D
$GNGSA,A,3,05,12,18,15,25,23,13,29,10,,,,1.19,0.67,0.99*11
$GNGSA,A,3,80,73,69,84,70,74,,,,,,,1.19,0.67,0.99*1F
$GPGSV,4,1,15,05,27,030,40,10,17,215,09,12,67,129,33,13,12,093,38*7F
$GPGSV,4,2,15,15,43,119,39,18,28,308,18,23,60,223,32,24,26,165,*7F
$GPGSV,4,3,15,25,74,328,34,28,08,279,,29,20,358,35,36,52,277,*7F
$GPGSV,4,4,15,40,86,351,,41,58,082,35,49,32,274,*49
$GLGSV,3,1,10,68,05,047,34,69,38,085,25,70,35,173,09,71,01,203,*6C
$GLGSV,3,2,10,73,66,246,32,74,35,313,11,80,30,168,17,84,08,347,20*60
$GLGSV,3,3,10,85,05,300,,,,,25*58
$GNGLL,0419.82275,S,05539.91219,E,073054.00,A,A*61
$GNTXT,01,01,01,More than 100 frame errors, UART RX was disabled*70
$GNRMC,073055.00,A,0419.82275,S,05539.91217,E,0.014,,200525,,,A*72
$GNVTG,,T,,M,0.014,N,0.026,K,A*3C
$GNGGA,073055.00,0419.82275,S,05539.91217,E,1,12,0.67,12.1,M,-47.6,M,,*43
$GNGSA,A,3,05,12,18,15,25,23,13,29,10,,,,1.19,0.67,0.99*11
$GNGSA,A,3,80,73,69,84,70,74,,,,,,,1.19,0.67,0.99*1F
$GPGSV,4,1,15,05,27,030,41,10,17,215,07,12,67,129,34,13,12,093,39*76
$GPGSV,4,2,15,15,43,119,40,18,28,308,19,23,60,223,36,24,26,165,*74
$GPGSV,4,3,15,25,74,328,36,28,08,279,,29,20,358,35,36,52,277,*7D
$GPGSV,4,4,15,40,86,351,,41,58,082,35,49,32,274,*49
$GLGSV,3,1,10,68,05,047,35,69,38,085,21,70,35,173,10,71,01,203,*61
$GLGSV,3,2,10,73,66,246,33,74,35,313,12,80,30,168,19,84,08,347,21*6D
$GLGSV,3,3,10,85,05,300,,,,,25*58
$GNGLL,0419.82275,S,05539.91217,E,073055.00,A,A*6E
$GNTXT,01,01,01,More than 100 frame errors, UART RX was disabled*70
$GNRMC,073056.00,A,0419.82274,S,05539.91218,E,0.022,,200525,,,A*7A
$GNVTG,,T,,M,0.022,N,0.042,K,A*3B
$GNGGA,073056.00,0419.82274,S,05539.91218,E,1,12,0.80,12.2,M,-47.6,M,,*44
$GNGSA,A,3,05,12,18,15,25,23,13,29,10,,,,1.38,0.80,1.12*19
$GNGSA,A,3,80,73,69,84,70,74,,,,,,,1.38,0.80,1.12*17
$GPGSV,4,1,15,05,27,030,42,10,17,215,10,12,67,129,35,13,12,093,40*7C
$GPGSV,4,2,15,15,43,119,41,18,28,308,20,23,60,223,36,24,26,165,*7F
$GPGSV,4,3,15,25,74,328,35,28,08,279,,29,20,358,36,36,52,277,*7D
$GPGSV,4,4,15,40,86,351,,41,58,082,36,49,32,274,*4A
$GLGSV,3,1,10,68,05,047,35,69,38,085,16,70,35,173,11,71,01,203,*64
$GLGSV,3,2,10,73,66,246,32,74,35,313,10,80,30,168,20,84,08,347,21*64
$GLGSV,3,3,10,85,05,300,,,,,24*59
$GNGLL,0419.82274,S,05539.91218,E,073056.00,A,A*63
$GNTXT,01,01,01,More than 100 frame errors, UART RX was disabled*70
$GNRMC,073057.00,A,0419.82274,S,05539.91218,E,0.010,,200525,,,A*7A
$GNVTG,,T,,M,0.010,N,0.019,K,A*34
$GNGGA,073057.00,0419.82274,S,05539.91218,E,1,12,0.67,12.1,M,-47.6,M,,*4F
$GNGSA,A,3,05,12,18,15,25,23,13,29,10,,,,1.19,0.67,0.99*11
$GNGSA,A,3,80,73,69,84,70,74,,,,,,,1.19,0.67,0.99*1F
$GPGSV,4,1,15,05,27,030,42,10,17,215,09,12,67,129,35,13,12,093,40*74
$GPGSV,4,2,15,15,43,119,41,18,28,308,21,23,60,223,36,24,26,165,*7E
$GPGSV,4,3,15,25,74,328,32,28,08,279,,29,20,358,35,36,52,277,*79
$GPGSV,4,4,15,40,86,351,,41,58,082,38,49,32,274,*44
$GLGSV,3,1,10,68,05,047,36,69,38,085,16,70,35,173,14,71,01,203,*62
$GLGSV,3,2,10,73,66,246,33,74,35,313,11,80,30,168,21,84,08,347,21*65
$GLGSV,3,3,10,85,05,300,,,,,24*59
$GNGLL,0419.82274,S,05539.91218,E,073057.00,A,A*62
$GNTXT,01,01,01,More than 100 frame errors, UART RX was disabled*70
$GNRMC,073058.00,A,0419.82274,S,05539.91217,E,0.014,,200525,,,A*7E
$GNVTG,,T,,M,0.014,N,0.026,K,A*3C
$GNGGA,073058.00,0419.82274,S,05539.91217,E,1,12,0.67,12.1,M,-47.6,M,,*4F
$GNGSA,A,3,05,12,18,15,25,23,13,29,10,,,,1.19,0.67,0.99*11
$GNGSA,A,3,80,73,69,84,70,74,,,,,,,1.19,0.67,0.99*1F
$GPGSV,4,1,15,05,27,030,42,10,17,215,11,12,67,129,35,13,12,093,39*73
$GPGSV,4,2,15,15,43,119,40,18,28,308,22,23,60,223,35,24,26,165,*7F
$GPGSV,4,3,15,25,74,328,36,28,08,279,,29,20,358,35,36,52,277,*7D
$GPGSV,4,4,15,40,86,351,,41,58,082,35,49,32,274,*49
$GLGSV,3,1,10,68,05,047,36,69,38,085,17,70,35,173,12,71,01,203,*65
$GLGSV,3,2,10,73,66,246,36,74,35,313,09,80,30,168,21,84,08,347,21*69
$GLGSV,3,3,10,85,05,300,,,,,24*59
$GNGLL,0419.82274,S,05539.91217,E,073058.00,A,A*62
$GNTXT,01,01,01,More than 100 frame errors, UART RX was disabled*70
$GNRMC,073059.00,A,0419.82273,S,05539.91219,E,0.022,,200525,,,A*73
$GNVTG,,T,,M,0.022,N,0.041,K,A*38
$GNGGA,073059.00,0419.82273,S,05539.91219,E,1,12,0.67,12.2,M,-47.6,M,,*44
$GNGSA,A,3,05,12,18,15,25,23,13,29,10,,,,1.19,0.67,0.99*11
$GNGSA,A,3,80,73,69,84,70,74,,,,,,,1.19,0.67,0.99*1F
$GPGSV,4,1,15,05,27,030,42,10,17,215,12,12,67,129,36,13,12,093,40*7D
$GPGSV,4,2,15,15,43,119,40,18,28,308,24,23,60,223,36,24,26,165,*7A
$GPGSV,4,3,15,25,74,328,35,28,08,279,,29,20,358,35,36,52,277,*7E
$GPGSV,4,4,15,40,86,351,,41,58,082,35,49,32,274,*49
$GLGSV,3,1,10,68,05,047,36,69,38,085,18,70,35,173,15,71,01,203,*6D
$GLGSV,3,2,10,73,66,246,33,74,35,313,10,80,30,168,20,84,08,347,21*65
$GLGSV,3,3,10,85,05,300,,,,,24*59
$GNGLL,0419.82273,S,05539.91219,E,073059.00,A,A*6A
$GNTXT,01,01,01,More than 100 frame errors, UART RX was disabled*70
$GNRMC,073100.00,A,0419.82272,S,05539.91221,E,0.029,,200525,,,A*7F
$GNVTG,,T,,M,0.029,N,0.055,K,A*36
$GNGGA,073100.00,0419.82272,S,05539.91221,E,1,12,0.67,12.2,M,-47.6,M,,*43
$GNGSA,A,3,05,12,18,15,25,23,13,29,10,,,,1.19,0.67,0.99*11
$GNGSA,A,3,80,73,69,84,70,74,,,,,,,1.19,0.67,0.99*1F
$GPGSV,4,1,15,05,27,030,42,10,17,215,09,12,67,129,35,13,12,093,40*74
$GPGSV,4,2,15,15,43,119,39,18,28,308,24,23,60,223,36,24,26,165,*74
$GPGSV,4,3,15,25,74,328,36,28,08,279,,29,20,358,36,36,52,277,*7E
$GPGSV,4,4,15,40,86,351,,41,58,082,35,49,32,274,*49
$GLGSV,3,1,10,68,05,047,35,69,38,085,16,70,35,173,12,71,01,203,*67
$GLGSV,3,2,10,73,66,246,33,74,35,313,10,80,30,168,21,84,08,347,21*64
$GLGSV,3,3,10,85,05,300,,,,,24*59
$GNGLL,0419.82272,S,05539.91221,E,073100.00,A,A*6D
$GNTXT,01,01,01,More than 100 frame errors, UART RX was disabled*70
$GNRMC,073101.00,A,0419.82271,S,05539.91224,E,0.063,,200525,,,A*76
$GNVTG,,T,,M,0.063,N,0.117,K,A*3F
$GNGGA,073101.00,0419.82271,S,05539.91224,E,1,12,0.67,12.3,M,-47.6,M,,*45
$GNGSA,A,3,05,12,18,15,25,23,13,29,10,,,,1.19,0.67,0.99*11
$GNGSA,A,3,80,73,69,84,70,74,,,,,,,1.19,0.67,0.99*1F
$GPGSV,4,1,15,05,27,030,42,10,17,215,07,12,67,129,35,13,12,093,39*74
$GPGSV,4,2,15,15,43,119,39,18,28,308,21,23,60,223,36,24,26,165,*71
$GPGSV,4,3,15,25,74,328,36,28,08,279,,29,20,358,36,36,52,277,*7E
$GPGSV,4,4,15,40,86,351,,41,58,082,35,49,32,274,*49
$GLGSV,3,1,10,68,05,047,36,69,38,085,16,70,35,173,15,71,01,203,*63
$GLGSV,3,2,10,73,66,246,33,74,35,313,10,80,30,168,21,84,08,347,21*64
$GLGSV,3,3,10,85,05,300,,,,,22*5F
$GNGLL,0419.82271,S,05539.91224,E,073101.00,A,A*6A
$GNTXT,01,01,01,More than 100 frame errors, UART RX was disabled*70
$GNRMC,073102.00,A,0419.82270,S,05539.91225,E,0.046,,200525,,,A*72
$GNVTG,,T,,M,0.046,N,0.084,K,A*33
$GNGGA,073102.00,0419.82270,S,05539.91225,E,1,12,0.80,12.3,M,-47.6,M,,*4F
$GNGSA,A,3,05,12,18,15,25,23,13,29,10,,,,1.38,0.80,1.12*19
$GNGSA,A,3,80,73,69,84,70,74,,,,,,,1.38,0.80,1.12*17
$GPGSV,4,1,15,05,27,030,42,10,17,215,11,12,67,129,35,13,12,093,40*7D
$GPGSV,4,2,15,15,43,119,39,18,28,308,22,23,60,223,35,24,26,165,*71
$GPGSV,4,3,15,25,74,328,36,28,08,279,,29,20,358,36,36,52,277,*7E
$GPGSV,4,4,15,40,86,351,,41,58,082,35,49,32,274,*49
$GLGSV,3,1,10,68,05,047,36,69,38,085,15,70,35,173,11,71,01,203,*64
$GLGSV,3,2,10,73,66,246,33,74,35,313,09,80,30,168,20,84,08,347,20*6C
$GLGSV,3,3,10,85,05,300,,,,,21*5C
$GNGLL,0419.82270,S,05539.91225,E,073102.00,A,A*69
$GNTXT,01,01,01,More than 100 frame errors, UART RX was disabled*70
$GNRMC,073103.00,A,0419.82268,S,05539.91228,E,0.086,,200525,,,A*7B
$GNVTG,,T,,M,0.086,N,0.160,K,A*34
$GNGGA,073103.00,0419.82268,S,05539.91228,E,1,12,0.67,12.4,M,-47.6,M,,*44
$GNGSA,A,3,05,12,18,15,25,23,13,29,10,,,,1.19,0.67,0.99*11
$GNGSA,A,3,80,73,69,84,70,74,,,,,,,1.19,0.67,0.99*1F
$GPGSV,4,1,15,05,27,030,40,10,17,215,10,12,67,129,34,13,12,093,38*70
$GPGSV,4,2,15,15,43,119,36,18,28,308,21,23,60,223,35,24,26,165,*7D
$GPGSV,4,3,15,25,74,328,33,28,08,279,,29,20,358,34,36,52,277,*79
$GPGSV,4,4,15,40,86,351,,41,58,082,35,49,32,274,*49
$GLGSV,3,1,10,68,05,047,32,69,38,085,18,70,35,173,11,71,01,203,*6D
$GLGSV,3,2,10,73,66,246,31,74,35,313,11,80,30,168,20,84,08,347,19*6D
$GLGSV,3,3,10,85,05,300,,,,,20*5D
$GNGLL,0419.82268,S,05539.91228,E,073103.00,A,A*6C
$GNTXT,01,01,01,More than 100 frame errors, UART RX was disabled*70
$GNRMC,073104.00,A,0419.82268,S,05539.91226,E,0.034,,200525,,,A*7B
$GNVTG,,T,,M,0.034,N,0.063,K,A*3F
$GNGGA,073104.00,0419.82268,S,05539.91226,E,1,12,0.67,12.4,M,-47.6,M,,*4D
$GNGSA,A,3,05,12,18,15,25,23,13,29,10,,,,1.19,0.67,0.99*11
$GNGSA,A,3,80,73,69,84,70,74,,,,,,,1.19,0.67,0.99*1F
$GPGSV,4,1,15,05,27,030,40,10,17,215,08,12,67,129,33,13,12,093,37*71
$GPGSV,4,2,15,15,43,119,36,18,28,308,20,23,60,223,34,24,26,165,*7D
$GPGSV,4,3,15,25,74,328,34,28,08,279,,29,20,358,33,36,52,277,*79
$GPGSV,4,4,15,40,86,351,,41,58,082,34,49,32,274,*48
$GLGSV,3,1,10,68,05,047,33,69,38,085,19,70,35,173,10,71,01,203,*6C
$GLGSV,3,2,10,73,66,245,30,74,35,313,08,80,30,168,18,84,08,347,18*6D
$GLGSV,3,3,10,85,05,300,,,,,20*5D
$GNGLL,0419.82268,S,05539.91226,E,073104.00,A,A*65
$GNTXT,01,01,01,More than 100 frame errors, UART RX was disabled*70
$GNRMC,073105.00,A,0419.82267,S,05539.91228,E,0.082,,200525,,,A*76
$GNVTG,,T,,M,0.082,N,0.151,K,A*32
$GNGGA,073105.00,0419.82267,S,05539.91228,E,1,12,0.83,12.5,M,-47.6,M,,*46
$GNGSA,A,3,05,12,18,15,25,23,13,29,10,,,,1.40,0.83,1.13*14
$GNGSA,A,3,80,73,69,84,70,,,,,,,,1.40,0.83,1.13*19
$GPGSV,4,1,15,05,27,030,40,10,17,215,11,12,67,129,33,13,12,093,38*76
$GPGSV,4,2,15,15,43,119,36,18,28,308,19,23,60,223,34,24,26,165,*77
$GPGSV,4,3,15,25,74,328,34,28,08,279,,29,20,358,33,36,52,277,*79
$GPGSV,4,4,15,40,86,351,,41,58,082,34,49,32,274,*48
$GLGSV,3,1,10,68,05,047,32,69,38,085,19,70,35,173,09,71,01,203,*65
$GLGSV,3,2,10,73,66,245,30,74,35,312,07,80,30,168,17,84,08,347,17*63
$GLGSV,3,3,10,85,05,300,,,,,18*56
$GNGLL,0419.82267,S,05539.91228,E,073105.00,A,A*65
$GNTXT,01,01,01,More than 100 frame errors, UART RX was disabled*70
$GNRMC,073106.00,A,0419.82267,S,05539.91228,E,0.082,,200525,,,A*75
$GNVTG,,T,,M,0.082,N,0.152,K,A*31
$GNGGA,073106.00,0419.82267,S,05539.91228,E,1,12,0.67,12.5,M,-47.6,M,,*4F
$GNGSA,A,3,05,12,18,15,25,23,13,29,10,,,,1.19,0.67,0.99*11
$GNGSA,A,3,80,73,69,84,70,74,,,,,,,1.19,0.67,0.99*1F
$GPGSV,4,1,15,05,27,030,41,10,17,215,08,12,67,129,33,13,12,093,38*7F
$GPGSV,4,2,15,15,43,119,37,18,28,308,20,23,60,223,34,24,26,165,*7C
$GPGSV,4,3,15,25,74,328,34,28,08,279,,29,20,358,33,36,52,277,*79
$GPGSV,4,4,15,40,86,351,,41,58,082,35,49,32,274,*49
$GLGSV,3,1,10,68,05,047,34,69,38,085,22,70,35,173,09,71,01,203,*6B
$GLGSV,3,2,10,73,66,245,30,74,35,312,08,80,30,168,20,84,08,347,17*68
$GLGSV,3,3,10,85,05,300,,,,,18*56
$GNGLL,0419.82267,S,05539.91228,E,073106.00,A,A*66
$GNTXT,01,01,01,More than 100 frame errors, UART RX was disabled*70
$GNRMC,073107.00,A,0419.82265,S,05539.91230,E,0.059,,200525,,,A*79
$GNVTG,,T,,M,0.059,N,0.109,K,A*39
$GNGGA,073107.00,0419.82265,S,05539.91230,E,1,12,0.67,12.6,M,-47.6,M,,*46
$GNGSA,A,3,05,12,18,15,25,23,13,29,10,,,,1.19,0.67,0.99*11
$GNGSA,A,3,80,73,69,84,70,74,,,,,,,1.19,0.67,0.99*1F
$GPGSV,4,1,15,05,27,030,40,10,17,215,10,12,67,129,33,13,12,093,38*77
$GPGSV,4,2,15,15,43,119,36,18,28,308,21,23,60,223,34,24,26,165,*7C
$GPGSV,4,3,15,25,74,328,33,28,08,279,,29,20,358,33,36,52,277,*7E
$GPGSV,4,4,15,40,86,351,,41,58,082,35,49,32,274,*49
$GLGSV,3,1,10,68,05,047,33,69,38,085,22,70,35,173,10,71,01,203,*64
$GLGSV,3,2,10,73,66,245,31,74,35,312,10,80,30,168,21,84,08,347,18*6E
$GLGSV,3,3,10,85,05,300,,,,,17*59
$GNGLL,0419.82265,S,05539.91230,E,073107.00,A,A*6C
$GNTXT,01,01,01,More than 100 frame errors, UART RX was disabled*70
$GNRMC,073108.00,A,0419.82264,S,05539.91229,E,0.043,,200525,,,A*74
$GNVTG,,T,,M,0.043,N,0.079,K,A*34
$GNGGA,073108.00,0419.82264,S,05539.91229,E,1,12,0.69,12.6,M,-47.6,M,,*4E
$GNGSA,A,3,05,12,18,15,25,23,13,29,10,,,,1.21,0.69,0.99*14
$GNGSA,A,3,80,73,69,84,70,74,,,,,,,1.21,0.69,0.99*1A
$GPGSV,4,1,15,05,27,030,39,10,17,215,07,12,67,129,35,13,12,093,38*79
$GPGSV,4,2,15,15,43,119,34,18,28,308,21,23,60,223,36,24,26,165,*7C
$GPGSV,4,3,15,25,74,328,37,28,08,279,,29,20,358,34,36,52,277,*7D
$GPGSV,4,4,15,40,86,351,,41,58,082,31,49,32,274,*4D
$GLGSV,3,1,10,68,05,047,33,69,38,085,23,70,35,173,09,71,01,203,*6D
$GLGSV,3,2,10,73,66,245,31,74,35,312,10,80,30,168,21,84,08,347,19*6F
$GLGSV,3,3,10,85,05,300,,,,,29*54
$GNGLL,0419.82264,S,05539.91229,E,073108.00,A,A*6A
$GNTXT,01,01,01,More than 100 frame errors, UART RX was disabled*70
$GNRMC,073109.00,A,0419.82263,S,05539.91228,E,0.043,,200525,,,A*73
$GNVTG,,T,,M,0.043,N,0.079,K,A*34
$GNGGA,073109.00,0419.82263,S,05539.91228,E,1,12,0.67,12.5,M,-47.6,M,,*44
$GNGSA,A,3,05,12,18,15,25,23,13,29,10,,,,1.19,0.67,0.99*11
$GNGSA,A,3,80,73,69,84,70,74,,,,,,,1.19,0.67,0.99*1F
$GPGSV,4,1,15,05,27,030,40,10,17,215,10,12,67,129,37,13,12,093,40*7C
$GPGSV,4,2,15,15,43,119,36,18,28,308,22,23,60,223,38,24,26,165,*73
$GPGSV,4,3,15,25,74,328,36,28,08,279,,29,20,358,37,36,52,277,*7F
$GPGSV,4,4,15,40,86,351,,41,58,082,33,49,32,274,*4F
$GLGSV,3,1,10,68,05,047,34,69,38,085,24,70,35,173,11,71,01,203,*64
$GLGSV,3,2,10,73,66,245,32,74,35,312,09,80,30,168,21,84,08,347,20*6E
$GLGSV,3,3,10,85,05,300,,,,,29*54
$GNGLL,0419.82263,S,05539.91228,E,073109.00,A,A*6D
$GNTXT,01,01,01,More than 100 frame errors, UART RX was disabled*70
$GNRMC,073110.00,A,0419.82262,S,05539.91226,E,0.013,,200525,,,A*71
$GNVTG,,T,,M,0.013,N,0.024,K,A*39
$GNGGA,073110.00,0419.82262,S,05539.91226,E,1,12,0.67,12.4,M,-47.6,M,,*42
$GNGSA,A,3,05,12,18,15,25,23,13,29,10,,,,1.19,0.67,0.99*11
$GNGSA,A,3,80,73,69,84,70,74,,,,,,,1.19,0.67,0.99*1F
$GPGSV,4,1,15,05,27,030,40,10,17,215,08,12,67,129,36,13,12,093,40*74
$GPGSV,4,2,15,15,43,119,36,18,28,308,22,23,60,223,38,24,26,165,*73
$GPGSV,4,3,15,25,74,328,37,28,08,279,,29,20,358,35,36,52,277,*7C
$GPGSV,4,4,15,40,86,351,,41,58,082,31,49,32,274,*4D
$GLGSV,3,1,10,68,05,047,35,69,38,085,23,70,35,173,11,71,01,203,*62
$GLGSV,3,2,10,73,66,245,33,74,35,312,12,80,30,168,22,84,08,347,19*6C
$GLGSV,3,3,10,85,05,300,,,,,28*55
$GNGLL,0419.82262,S,05539.91226,E,073110.00,A,A*6A
$GNTXT,01,01,01,More than 100 frame errors, UART RX was disabled*70
$GNRMC,073111.00,A,0419.82261,S,05539.91225,E,0.031,,200525,,,A*70
$GNVTG,,T,,M,0.031,N,0.057,K,A*3D
$GNGGA,073111.00,0419.82261,S,05539.91225,E,1,12,0.71,12.3,M,-47.6,M,,*43
$GNGSA,A,3,05,12,18,15,25,23,13,29,10,,,,1.22,0.71,0.99*1E
$GNGSA,A,3,80,73,69,84,70,74,,,,,,,1.22,0.71,0.99*10
$GPGSV,4,1,15,05,27,030,42,10,17,215,10,12,67,129,36,13,12,093,40*7F
$GPGSV,4,2,15,15,43,119,38,18,28,308,22,23,60,223,38,24,26,165,*7D
$GPGSV,4,3,15,25,74,328,36,28,08,279,,29,20,358,35,36,52,277,*7D
$GPGSV,4,4,15,40,86,351,,41,58,082,32,49,32,274,*4E
$GLGSV,3,1,10,68,05,047,34,69,38,085,20,70,35,173,14,71,01,203,*65
$GLGSV,3,2,10,73,66,245,32,74,35,312,12,80,29,168,21,84,08,347,19*66
$GLGSV,3,3,10,85,05,300,,,,,27*5A
$GNGLL,0419.82261,S,05539.91225,E,073111.00,A,A*6B
$GNTXT,01,01,01,More than 100 frame errors, UART RX was disabled*70
$GNRMC,073112.00,A,0419.82261,S,05539.91224,E,0.067,,200525,,,A*71
$GNVTG,,T,,M,0.067,N,0.123,K,A*3C
$GNGGA,073112.00,0419.82261,S,05539.91224,E,1,12,0.67,12.3,M,-47.6,M,,*46
$GNGSA,A,3,05,12,18,15,25,23,13,29,10,,,,1.19,0.67,0.99*11
$GNGSA,A,3,80,73,69,84,70,74,,,,,,,1.19,0.67,0.99*1F
$GPGSV,4,1,15,05,27,030,38,10,17,215,11,12,67,129,33,13,12,093,38*79
$GPGSV,4,2,15,15,43,119,37,18,28,308,21,23,60,223,35,24,26,165,*7C
$GPGSV,4,3,15,25,74,328,33,28,08,279,,29,20,358,32,36,52,277,*7F
$GPGSV,4,4,15,40,86,351,,41,58,082,32,49,32,274,*4E
$GLGSV,3,1,10,68,05,047,33,69,38,085,18,70,35,173,13,71,01,203,*6E
$GLGSV,3,2,10,73,66,245,32,74,35,312,10,80,29,168,21,84,08,347,19*64
$GLGSV,3,3,10,85,05,300,,,,,27*5A
$GNGLL,0419.82261,S,05539.91224,E,073112.00,A,A*69
$GNTXT,01,01,01,More than 100 frame errors, UART RX was disabled*70
$GNRMC,073113.00,A,0419.82260,S,05539.91225,E,0.049,,200525,,,A*7C
$GNVTG,,T,,M,0.049,N,0.090,K,A*39
$GNGGA,073113.00,0419.82260,S,05539.91225,E,1,12,0.67,12.3,M,-47.6,M,,*47
$GNGSA,A,3,05,12,18,15,25,23,13,29,10,,,,1.19,0.67,0.99*11
$GNGSA,A,3,80,73,69,84,70,74,,,,,,,1.19,0.67,0.99*1F
$GPGSV,4,1,15,05,27,030,43,10,17,215,11,12,67,129,33,13,12,093,39*74
$GPGSV,4,2,15,15,43,119,40,18,28,308,20,23,60,223,35,24,26,165,*7D
$GPGSV,4,3,15,25,74,328,36,28,08,279,,29,20,358,33,36,52,277,*7B
$GPGSV,4,4,15,40,86,351,,41,58,082,35,49,32,274,*49
$GLGSV,3,1,10,68,05,047,33,69,38,085,28,70,35,173,10,71,01,203,*6E
$GLGSV,3,2,10,73,66,245,31,74,35,312,15,80,29,168,20,84,08,347,19*63
$GLGSV,3,3,10,85,05,300,,,,,26*5B
$GNGLL,0419.82260,S,05539.91225,E,073113.00,A,A*68
$GNTXT,01,01,01,More than 100 frame errors, UART RX was disabled*70
$GNRMC,073114.00,A,0419.82259,S,05539.91226,E,0.036,,200525,,,A*7A
$GNVTG,,T,,M,0.036,N,0.066,K,A*38
$GNGGA,073114.00,0419.82259,S,05539.91226,E,1,12,0.80,12.3,M,-47.6,M,,*40
$GNGSA,A,3,05,12,18,15,25,23,13,29,10,,,,1.38,0.80,1.12*19
$GNGSA,A,3,80,73,69,84,70,74,,,,,,,1.38,0.80,1.12*17
$GPGSV,4,1,15,05,27,030,40,10,17,215,11,12,67,129,33,13,12,093,38*76
$GPGSV,4,2,15,15,43,119,36,18,28,308,20,23,60,223,35,24,26,165,*7C
$GPGSV,4,3,15,25,74,328,34,28,08,279,,29,20,358,34,36,52,277,*7E
$GPGSV,4,4,15,40,86,351,,41,58,082,32,49,32,274,*4E
$GLGSV,3,1,10,68,05,047,30,69,38,085,25,70,35,173,11,71,01,203,*61
$GLGSV,3,2,10,73,66,245,26,74,35,312,09,80,29,168,20,84,08,347,18*69
$GLGSV,3,3,10,85,05,300,,,,,24*59
$GNGLL,0419.82259,S,05539.91226,E,073114.00,A,A*66
$GNTXT,01,01,01,More than 100 frame errors, UART RX was disabled*70
$GNRMC,073115.00,A,0419.82259,S,05539.91228,E,0.045,,200525,,,A*71
$GNVTG,,T,,M,0.045,N,0.084,K,A*30
$GNGGA,073115.00,0419.82259,S,05539.91228,E,1,12,0.67,12.3,M,-47.6,M,,*46
$GNGSA,A,3,05,12,18,15,25,23,13,29,10,,,,1.19,0.67,0.99*11
$GNGSA,A,3,80,73,69,84,70,74,,,,,,,1.19,0.67,0.99*1F
$GPGSV,4,1,15,05,27,030,42,10,17,215,12,12,67,129,34,13,12,093,38*70
$GPGSV,4,2,15,15,43,119,39,18,28,308,20,23,60,223,38,24,26,165,*7E
$GPGSV,4,3,15,25,74,328,35,28,08,279,,29,20,358,34,36,52,277,*7F
$GPGSV,4,4,15,40,86,351,,41,58,082,32,49,32,274,*4E
$GLGSV,3,1,10,68,05,047,34,69,38,085,22,70,35,173,10,71,01,203,*63
$GLGSV,3,2,10,73,66,245,32,74,35,312,09,80,29,168,21,84,08,348,19*63
$GLGSV,3,3,10,85,05,300,,,,,25*58
$GNGLL,0419.82259,S,05539.91228,E,073115.00,A,A*69
$GNTXT,01,01,01,More than 100 frame errors, UART RX was disabled*70
$GNRMC,073116.00,A,0419.82259,S,05539.91230,E,0.076,,200525,,,A*7B
$GNVTG,,T,,M,0.076,N,0.141,K,A*38
$GNGGA,073116.00,0419.82259,S,05539.91230,E,1,12,0.67,12.4,M,-47.6,M,,*4B
$GNGSA,A,3,05,12,18,15,25,23,13,29,10,,,,1.19,0.67,0.99*11
$GNGSA,A,3,80,73,69,84,70,74,,,,,,,1.19,0.67,0.99*1F
$GPGSV,4,1,15,05,27,030,42,10,17,215,07,12,67,129,35,13,12,093,39*74
$GPGSV,4,2,15,15,43,119,39,18,28,308,20,23,60,223,38,24,26,165,*7E
$GPGSV,4,3,15,25,74,328,35,28,08,279,,29,20,358,35,36,52,277,*7E
$GPGSV,4,4,15,40,86,351,,41,58,082,33,49,32,274,*4F
$GLGSV,3,1,10,68,05,047,34,69,38,085,20,70,35,173,16,71,01,203,*67
$GLGSV,3,2,10,73,66,245,32,74,35,312,14,80,29,168,22,84,08,348,20*66
$GLGSV,3,3,10,85,05,301,,,,,26*5A
$GNGLL,0419.82259,S,05539.91230,E,073116.00,A,A*63
$GNTXT,01,01,01,More than 100 frame errors, UART RX was disabled*70
$GNRMC,073117.00,A,0419.82259,S,05539.91229,E,0.035,,200525,,,A*75
$GNVTG,,T,,M,0.035,N,0.065,K,A*38
$GNGGA,073117.00,0419.82259,S,05539.91229,E,1,12,0.88,12.3,M,-47.6,M,,*44
$GNGSA,A,3,05,12,18,15,25,23,13,29,10,,,,1.45,0.88,1.15*1C
$GNGSA,A,3,80,73,69,84,70,74,,,,,,,1.45,0.88,1.15*12
$GPGSV,4,1,15,05,27,030,42,10,17,215,10,12,67,129,34,13,12,093,40*7D
$GPGSV,4,2,15,15,43,119,40,18,28,308,20,23,60,223,37,24,26,165,*7F
$GPGSV,4,3,15,25,74,328,35,28,08,279,,29,20,358,36,36,52,277,*7D
$GPGSV,4,4,15,40,86,351,,41,58,082,34,49,32,274,*48
$GLGSV,3,1,10,68,05,047,35,69,38,085,22,70,35,173,09,71,01,203,*6A
$GLGSV,3,2,10,73,66,245,32,74,35,312,14,80,29,168,23,84,08,348,21*66
$GLGSV,3,3,10,85,05,301,,,,,27*5B
$GNGLL,0419.82259,S,05539.91229,E,073117.00,A,A*6A
$GNTXT,01,01,01,More than 100 frame errors, UART RX was disabled*70
$GNRMC,073118.00,A,0419.82260,S,05539.91229,E,0.013,,200525,,,A*74
$GNVTG,,T,,M,0.013,N,0.024,K,A*39
$GNGGA,073118.00,0419.82260,S,05539.91229,E,1,12,0.67,12.3,M,-47.6,M,,*40
$GNGSA,A,3,05,12,18,15,25,23,13,29,10,,,,1.19,0.67,0.99*11
$GNGSA,A,3,80,73,69,84,70,74,,,,,,,1.19,0.67,0.99*1F
$GPGSV,4,1,15,05,27,030,40,10,17,215,08,12,67,129,34,13,12,093,38*79
$GPGSV,4,2,15,15,43,119,37,18,28,308,19,23,60,223,35,24,26,165,*77
$GPGSV,4,3,15,25,74,328,34,28,08,279,,29,20,358,34,36,52,277,*7E
$GPGSV,4,4,15,40,86,351,,41,58,082,34,49,32,274,*48
$GLGSV,3,1,10,68,05,047,34,69,38,085,22,70,35,173,10,71,01,203,*63
$GLGSV,3,2,10,73,66,245,32,74,35,312,11,80,29,168,23,84,08,348,21*63
$GLGSV,3,3,10,85,05,301,,,,,26*5A
$GNGLL,0419.82260,S,05539.91229,E,073118.00,A,A*6F
$GNTXT,01,01,01,More than 100 frame errors, UART RX was disabled*70
$GNRMC,073119.00,A,0419.82260,S,05539.91227,E,0.032,,200525,,,A*78
$GNVTG,,T,,M,0.032,N,0.058,K,A*31
$GNGGA,073119.00,0419.82260,S,05539.91227,E,1,12,0.67,12.3,M,-47.6,M,,*4F
$GNGSA,A,3,05,12,18,15,25,23,13,29,10,,,,1.19,0.67,0.99*11
$GNGSA,A,3,80,73,69,84,70,74,,,,,,,1.19,0.67,0.99*1F
$GPGSV,4,1,15,05,27,030,42,10,17,215,09,12,67,129,35,13,12,093,40*74
$GPGSV,4,2,15,15,43,119,38,18,28,308,18,23,60,223,36,24,26,165,*7A
$GPGSV,4,3,15,25,74,328,36,28,08,279,,29,20,358,35,36,52,277,*7D
$GPGSV,4,4,15,40,86,351,,41,58,082,35,49,32,274,*49
$GLGSV,3,1,10,68,05,047,34,69,38,085,24,70,35,173,11,71,01,203,*64
$GLGSV,3,2,10,73,66,245,32,74,35,312,12,80,29,168,24,84,08,348,21*67
$GLGSV,3,3,10,85,05,301,,,,,26*5A
$GNGLL,0419.82260,S,05539.91227,E,073119.00,A,A*60
$GNTXT,01,01,01,More than 100 frame errors, UART RX was disabled*70
$GNRMC,073120.00,A,0419.82258,S,05539.91229,E,0.034,,200525,,,A*71
$GNVTG,,T,,M,0.034,N,0.063,K,A*3F
$GNGGA,073120.00,0419.82258,S,05539.91229,E,1,12,0.83,12.3,M,-47.6,M,,*4A
$GNGSA,A,3,05,12,18,15,25,23,13,29,10,,,,1.40,0.83,1.13*14
$GNGSA,A,3,80,73,69,84,70,,,,,,,,1.40,0.83,1.13*19
$GPGSV,4,1,15,05,27,030,42,10,17,215,09,12,67,129,32,13,12,093,38*7C
$GPGSV,4,2,15,15,43,119,33,18,28,308,16,23,60,223,36,24,26,165,*7F
$GPGSV,4,3,15,25,74,328,33,28,08,279,,29,20,358,35,36,52,277,*78
$GPGSV,4,4,15,40,86,351,,41,58,082,30,49,32,274,*4C
$GLGSV,3,1,10,68,05,047,37,69,38,085,31,70,35,173,13,71,01,203,*61
$GLGSV,3,2,10,73,66,245,33,74,35,312,07,80,29,168,21,84,08,348,21*67
$GLGSV,3,3,10,85,05,301,,,,,25*59
$GNGLL,0419.82258,S,05539.91229,E,073120.00,A,A*6F
$GNTXT,01,01,01,More than 100 frame errors, UART RX was disabled*70
$GNRMC,073121.00,A,0419.82257,S,05539.91232,E,0.020,,200525,,,A*70
$GNVTG,,T,,M,0.020,N,0.037,K,A*3B
$GNGGA,073121.00,0419.82257,S,05539.91232,E,1,12,0.67,12.3,M,-47.6,M,,*44
$GNGSA,A,3,05,12,18,15,25,23,13,29,10,,,,1.19,0.67,0.99*11
$GNGSA,A,3,80,73,69,84,70,74,,,,,,,1.19,0.67,0.99*1F
$GPGSV,4,1,15,05,27,030,41,10,17,215,08,12,67,129,31,13,12,093,38*7D
$GPGSV,4,2,15,15,43,119,32,18,28,308,17,23,60,223,36,24,26,165,*7F
$GPGSV,4,3,15,25,74,328,33,28,08,279,,29,20,358,31,36,52,277,*7C
$GPGSV,4,4,15,40,86,351,,41,58,082,31,49,32,274,*4D
$GLGSV,3,1,10,68,05,047,37,69,38,085,31,70,35,173,09,71,01,203,*6A
$GLGSV,3,2,10,73,66,245,34,74,35,312,09,80,29,168,18,84,08,348,20*65
$GLGSV,3,3,10,85,05,301,,,,,24*58
$GNGLL,0419.82257,S,05539.91232,E,073121.00,A,A*6B
$GNTXT,01,01,01,More than 100 frame errors, UART RX was disabled*70
$GNRMC,073122.00,A,0419.82256,S,05539.91230,E,0.062,,200525,,,A*76
$GNVTG,,T,,M,0.062,N,0.114,K,A*3D
$GNGGA,073122.00,0419.82256,S,05539.91230,E,1,12,0.67,12.3,M,-47.6,M,,*44
$GNGSA,A,3,05,12,18,15,25,23,13,29,10,,,,1.19,0.67,0.99*11
$GNGSA,A,3,80,73,69,84,70,74,,,,,,,1.19,0.67,0.99*1F
$GPGSV,4,1,15,05,27,030,42,10,17,215,08,12,67,129,31,13,12,093,39*7F
$GPGSV,4,2,15,15,43,119,34,18,28,308,18,23,60,223,35,24,26,165,*75
$GPGSV,4,3,15,25,74,328,33,28,08,279,,29,20,358,35,36,52,277,*78
$GPGSV,4,4,15,40,86,351,,41,58,082,30,49,32,274,*4C
$GLGSV,3,1,10,68,05,047,39,69,38,085,25,70,35,173,10,71,01,203,*69
$GLGSV,3,2,10,73,66,245,34,74,35,312,09,80,29,168,19,84,08,348,18*6F
$GLGSV,3,3,10,85,05,301,,,,,25*59
$GNGLL,0419.82256,S,05539.91230,E,073122.00,A,A*6B
$GNTXT,01,01,01,More than 100 frame errors, UART RX was disabled*70
$GNRMC,073123.00,A,0419.82255,S,05539.91230,E,0.048,,200525,,,A*7C
$GNVTG,,T,,M,0.048,N,0.090,K,A*38
$GNGGA,073123.00,0419.82255,S,05539.91230,E,1,12,0.88,12.2,M,-47.6,M,,*46
$GNGSA,A,3,05,12,18,15,25,23,13,29,10,,,,1.45,0.88,1.15*1C
$GNGSA,A,3,80,73,69,84,70,74,,,,,,,1.45,0.88,1.15*12
$GPGSV,4,1,15,05,27,030,43,10,17,215,10,12,67,129,30,13,12,093,39*76
$GPGSV,4,2,15,15,43,119,35,18,28,308,20,23,60,223,35,24,26,165,*7F
$GPGSV,4,3,15,25,74,328,34,28,08,279,,29,20,358,34,36,52,277,*7E
$GPGSV,4,4,15,40,86,351,,41,58,082,32,49,32,274,*4E
$GLGSV,3,1,10,68,05,047,38,69,38,085,25,70,35,173,13,71,01,203,*6B
$GLGSV,3,2,10,73,66,245,35,74,35,312,11,80,29,168,21,84,08,348,19*6D
$GLGSV,3,3,10,85,05,301,,,,,23*5F
$GNGLL,0419.82255,S,05539.91230,E,073123.00,A,A*69
$GNTXT,01,01,01,More than 100 frame errors, UART RX was disabled*70
$GNRMC,073124.00,A,0419.82254,S,05539.91235,E,0.098,,200525,,,A*72
$GNVTG,,T,,M,0.098,N,0.182,K,A*37
$GNGGA,073124.00,0419.82254,S,05539.91235,E,1,12,0.67,12.3,M,-47.6,M,,*45
$GNGSA,A,3,05,12,18,15,25,23,13,29,10,,,,1.19,0.67,0.99*11
$GNGSA,A,3,80,73,69,84,70,74,,,,,,,1.19,0.67,0.99*1F
$GPGSV,4,1,15,05,26,029,43,10,17,215,09,12,67,129,32,13,12,093,39*75
$GPGSV,4,2,15,15,43,119,35,18,28,308,19,23,60,223,36,24,26,165,*76
$GPGSV,4,3,15,25,74,328,34,28,08,279,,29,20,358,35,36,52,277,*7F
$GPGSV,4,4,15,40,86,351,,41,58,082,31,49,32,274,*4D
$GLGSV,3,1,10,68,05,047,38,69,38,085,31,70,35,173,12,71,01,203,*6F
$GLGSV,3,2,10,73,66,245,34,74,35,312,09,80,29,168,20,84,08,348,20*6E
$GLGSV,3,3,10,85,05,301,,,,,26*5A
$GNGLL,0419.82254,S,05539.91235,E,073124.00,A,A*6A
$GNTXT,01,01,01,More than 100 frame errors, UART RX was disabled*70
$GNRMC,073125.00,A,0419.82253,S,05539.91236,E,0.035,,200525,,,A*70
$GNVTG,,T,,M,0.035,N,0.066,K,A*3B
$GNGGA,073125.00,0419.82253,S,05539.91236,E,1,12,0.67,12.3,M,-47.6,M,,*40
$GNGSA,A,3,05,12,18,15,25,23,13,29,10,,,,1.19,0.67,0.99*11
$GNGSA,A,3,80,73,69,84,70,74,,,,,,,1.19,0.67,0.99*1F
$GPGSV,4,1,15,05,26,029,43,10,17,215,10,12,67,129,31,13,12,093,39*7E
$GPGSV,4,2,15,15,43,119,33,18,28,308,20,23,60,223,36,24,26,165,*7A
$GPGSV,4,3,15,25,74,328,34,28,08,279,,29,20,358,35,36,52,277,*7F
$GPGSV,4,4,15,40,86,351,,41,58,082,30,49,32,274,*4C
$GLGSV,3,1,10,68,05,047,36,69,38,085,30,70,35,173,13,71,01,203,*61
$GLGSV,3,2,10,73,66,245,34,74,35,312,10,80,29,168,18,84,08,348,20*6D
$GLGSV,3,3,10,85,05,301,,,,,26*5A
$GNGLL,0419.82253,S,05539.91236,E,073125.00,A,A*6F
$GNTXT,01,01,01,More than 100 frame errors, UART RX was disabled*70
$GNRMC,073126.00,A,0419.82252,S,05539.91235,E,0.047,,200525,,,A*74
$GNVTG,,T,,M,0.047,N,0.087,K,A*31
$GNGGA,073126.00,0419.82252,S,05539.91235,E,1,12,0.86,12.2,M,-47.6,M,,*4F
$GNGSA,A,3,05,12,18,15,25,23,13,29,10,,,,1.43,0.86,1.15*14
$GNGSA,A,3,80,73,69,84,70,74,,,,,,,1.43,0.86,1.15*1A
$GPGSV,4,1,15,05,26,029,42,10,17,215,08,12,67,129,31,13,12,093,39*76
$GPGSV,4,2,15,15,43,119,32,18,28,308,21,23,60,223,35,24,26,165,*79
$GPGSV,4,3,15,25,74,328,34,28,08,279,,29,20,358,35,36,52,277,*7F
$GPGSV,4,4,15,40,86,351,,41,58,082,31,49,32,274,*4D
$GLGSV,3,1,10,68,05,047,36,69,38,085,28,70,35,173,09,71,01,203,*63
$GLGSV,3,2,10,73,66,245,34,74,35,312,14,80,29,168,20,84,08,348,19*68
$GLGSV,3,3,10,85,05,301,,,,,26*5A
$GNGLL,0419.82252,S,05539.91235,E,073126.00,A,A*6E
$GNTXT,01,01,01,More than 100 frame errors, UART RX was disabled*70
$GNRMC,073127.00,A,0419.82251,S,05539.91236,E,0.033,,200525,,,A*76
$GNVTG,,T,,M,0.033,N,0.062,K,A*39
$GNGGA,073127.00,0419.82251,S,05539.91236,E,1,12,0.67,12.2,M,-47.6,M,,*41
$GNGSA,A,3,05,12,18,15,25,23,13,29,10,,,,1.19,0.67,0.99*11
$GNGSA,A,3,80,73,69,84,70,74,,,,,,,1.19,0.67,0.99*1F
$GPGSV,4,1,15,05,26,029,43,10,17,215,09,12,67,129,32,13,12,093,38*74
$GPGSV,4,2,15,15,43,119,33,18,28,308,21,23,60,223,35,24,26,165,*78
$GPGSV,4,3,15,25,74,328,33,28,08,279,,29,20,358,36,36,52,277,*7B
$GPGSV,4,4,15,40,86,351,,41,58,082,32,49,32,274,*4E
$GLGSV,3,1,10,68,05,047,36,69,38,085,28,70,35,173,13,71,01,203,*68
$GLGSV,3,2,10,73,66,245,34,74,35,312,13,80,29,168,21,84,08,348,18*6F
$GLGSV,3,3,10,85,05,301,,,,,26*5A
$GNGLL,0419.82251,S,05539.91236,E,073127.00,A,A*6F
$GNTXT,01,01,01,More than 100 frame errors, UART RX was disabled*70
$GNRMC,073128.00,A,0419.82250,S,05539.91236,E,0.093,,200525,,,A*72
$GNVTG,,T,,M,0.093,N,0.172,K,A*33
$GNGGA,073128.00,0419.82250,S,05539.91236,E,1,12,0.67,12.2,M,-47.6,M,,*4F
$GNGSA,A,3,05,12,18,15,25,23,13,29,10,,,,1.19,0.67,0.99*11
$GNGSA,A,3,80,73,69,84,70,74,,,,,,,1.19,0.67,0.99*1F
$GPGSV,4,1,15,05,26,029,40,10,17,215,08,12,67,129,30,13,12,093,37*7B
$GPGSV,4,2,15,15,43,119,32,18,28,308,20,23,60,223,34,24,26,165,*79
$GPGSV,4,3,15,25,74,328,32,28,08,279,,29,20,358,34,36,52,277,*78
$GPGSV,4,4,15,40,86,351,,41,58,082,30,49,32,274,*4C
$GLGSV,3,1,10,68,05,047,35,69,38,085,27,70,35,173,11,71,01,203,*66
$GLGSV,3,2,10,73,66,245,33,74,35,312,12,80,29,168,18,84,08,348,19*62
$GLGSV,3,3,10,85,05,301,,,,,25*59
$GNGLL,0419.82250,S,05539.91236,E,073128.00,A,A*61
$GNTXT,01,01,01,More than 100 frame errors, UART RX was disabled*70
$GNRMC,073129.00,A,0419.82250,S,05539.91234,E,0.098,,200525,,,A*7A
$GNVTG,,T,,M,0.098,N,0.181,K,A*34
$GNGGA,073129.00,0419.82250,S,05539.91234,E,1,12,0.80,12.1,M,-47.6,M,,*46
$GNGSA,A,3,05,12,18,15,25,23,13,29,,,,,1.38,0.80,1.12*18
$GNGSA,A,3,80,73,69,84,70,74,,,,,,,1.38,0.80,1.12*17
$GPGSV,4,1,15,05,26,029,42,10,18,215,07,12,67,129,30,13,12,093,39*77
$GPGSV,4,2,15,15,43,119,32,18,28,308,20,23,60,223,34,24,26,165,*79
$GPGSV,4,3,15,25,74,328,32,28,08,279,,29,20,358,35,36,52,277,*79
$GPGSV,4,4,15,40,86,351,,41,58,082,30,49,32,274,*4C
$GLGSV,3,1,10,68,05,047,35,69,38,085,28,70,35,173,14,71,01,203,*6C
$GLGSV,3,2,10,73,66,245,34,74,35,312,17,80,29,168,14,84,08,348,20*66
$GLGSV,3,3,10,85,05,301,,,,,27*5B
$GNGLL,0419.82250,S,05539.91234,E,073129.00,A,A*62
$GNTXT,01,01,01,More than 100 frame errors, UART RX was disabled*70
$GNRMC,073130.00,A,0419.82248,S,05539.91236,E,0.023,,200525,,,A*79
$GNVTG,,T,,M,0.023,N,0.043,K,A*3B
$GNGGA,073130.00,0419.82248,S,05539.91236,E,1,12,0.67,12.1,M,-47.6,M,,*4C
$GNGSA,A,3,05,12,18,15,25,23,13,29,10,,,,1.19,0.67,0.99*11
$GNGSA,A,3,80,73,69,84,70,74,,,,,,,1.19,0.67,0.99*1F
$GPGSV,4,1,15,05,26,029,42,10,18,215,10,12,67,129,31,13,12,093,39*70
$GPGSV,4,2,15,15,43,119,33,18,28,308,21,23,60,223,35,24,26,165,*78
$GPGSV,4,3,15,25,74,328,34,28,08,279,,29,20,358,35,36,52,277,*7F
$GPGSV,4,4,15,40,86,351,,41,58,082,33,49,32,274,*4F
$GLGSV,3,1,10,68,05,047,35,69,38,085,30,70,35,173,10,71,01,203,*61
$GLGSV,3,2,10,73,66,245,35,74,35,312,09,80,29,168,15,84,08,348,20*69
$GLGSV,3,3,10,85,05,301,,,,,27*5B
$GNGLL,0419.82248,S,05539.91236,E,073130.00,A,A*61
$GNTXT,01,01,01,More than 100 frame errors, UART RX was disabled*70
$GNRMC,073131.00,A,0419.82247,S,05539.91235,E,0.050,,200525,,,A*70
$GNVTG,,T,,M,0.050,N,0.093,K,A*32
$GNGGA,073131.00,0419.82247,S,05539.91235,E,1,12,0.67,12.0,M,-47.6,M,,*40
$GNGSA,A,3,05,12,18,15,25,23,13,29,10,,,,1.19,0.67,0.99*11
$GNGSA,A,3,80,73,69,84,70,74,,,,,,,1.19,0.67,0.99*1F
$GPGSV,4,1,15,05,26,029,42,10,18,215,12,12,66,130,31,13,12,093,38*7A
$GPGSV,4,2,15,15,43,119,33,18,28,308,21,23,60,223,36,24,26,165,*7B
$GPGSV,4,3,15,25,74,328,35,28,08,279,,29,20,358,35,36,52,277,*7E
$GPGSV,4,4,15,40,86,351,,41,58,082,31,49,32,274,*4D
$GLGSV,3,1,10,68,05,047,35,69,38,085,28,70,35,173,13,71,01,203,*6B
$GLGSV,3,2,10,73,66,245,35,74,35,312,08,80,29,168,18,84,08,348,20*65
$GLGSV,3,3,10,85,05,301,,,,,27*5B
$GNGLL,0419.82247,S,05539.91235,E,073131.00,A,A*6C
$GNTXT,01,01,01,More than 100 frame errors, UART RX was disabled*70
$GNRMC,073132.00,A,0419.82245,S,05539.91237,E,0.030,,200525,,,A*75
$GNVTG,,T,,M,0.030,N,0.055,K,A*3E
$GNGGA,073132.00,0419.82245,S,05539.91237,E,1,12,0.86,12.0,M,-47.6,M,,*4C
$GNGSA,A,3,05,12,18,15,25,23,13,29,10,,,,1.43,0.86,1.15*14
$GNGSA,A,3,80,73,69,84,70,74,,,,,,,1.43,0.86,1.15*1A
$GPGSV,4,1,15,05,26,029,42,10,18,215,10,12,66,130,32,13,12,092,40*75
$GPGSV,4,2,15,15,43,119,33,18,28,308,20,23,60,223,36,24,26,165,*7A
$GPGSV,4,3,15,25,74,328,35,28,08,279,,29,20,358,36,36,52,277,*7D
$GPGSV,4,4,15,40,86,351,,41,58,082,31,49,32,274,*4D
$GLGSV,3,1,10,68,05,047,35,69,38,085,28,70,35,173,09,71,01,203,*60
$GLGSV,3,2,10,73,66,245,35,74,35,312,13,80,29,168,17,84,08,348,20*60
$GLGSV,3,3,10,85,05,301,,,,,27*5B
$GNGLL,0419.82245,S,05539.91237,E,073132.00,A,A*6F
$GNTXT,01,01,01,More than 100 frame errors, UART RX was disabled*70
$GNRMC,073133.00,A,0419.82244,S,05539.91238,E,0.032,,200525,,,A*78
$GNVTG,,T,,M,0.032,N,0.060,K,A*3A
$GNGGA,073133.00,0419.82244,S,05539.91238,E,1,12,0.67,12.1,M,-47.6,M,,*4D
$GNGSA,A,3,05,12,18,15,25,23,13,29,10,,,,1.19,0.67,0.99*11
$GNGSA,A,3,80,73,69,84,70,74,,,,,,,1.19,0.67,0.99*1F
$GPGSV,4,1,15,05,26,029,43,10,18,215,09,12,66,130,32,13,12,092,40*7C
$GPGSV,4,2,15,15,43,119,33,18,28,308,20,23,60,223,36,24,26,165,*7A
$GPGSV,4,3,15,25,74,328,34,28,08,279,,29,20,358,36,36,52,277,*7C
$GPGSV,4,4,15,40,86,351,,41,58,082,31,49,32,274,*4D
$GLGSV,3,1,10,68,05,047,35,69,38,085,29,70,35,173,09,71,01,203,*61
$GLGSV,3,2,10,73,66,245,34,74,35,312,12,80,29,168,16,84,08,348,20*61
$GLGSV,3,3,10,85,05,301,,,,,25*59
$GNGLL,0419.82244,S,05539.91238,E,073133.00,A,A*60
$GNTXT,01,01,01,More than 100 frame errors, UART RX was disabled*70
$GNRMC,073134.00,A,0419.82243,S,05539.91239,E,0.061,,200525,,,A*7F
$GNVTG,,T,,M,0.061,N,0.112,K,A*38
$GNGGA,073134.00,0419.82243,S,05539.91239,E,1,12,0.67,12.0,M,-47.6,M,,*4D
$GNGSA,A,3,05,12,18,15,25,23,13,29,10,,,,1.19,0.67,0.99*11
$GNGSA,A,3,80,73,69,84,70,74,,,,,,,1.19,0.67,0.99*1F
$GPGSV,4,1,15,05,26,029,43,10,18,215,08,12,66,130,31,13,12,092,39*70
$GPGSV,4,2,15,15,43,118,33,18,28,308,20,23,60,223,36,24,26,165,*7B
$GPGSV,4,3,15,25,74,328,34,28,08,279,,29,20,358,36,36,52,277,*7C
$GPGSV,4,4,15,40,86,351,,41,58,082,31,49,32,274,*4D
$GLGSV,3,1,10,68,05,047,35,69,38,085,28,70,35,173,10,71,01,203,*68
$GLGSV,3,2,10,73,66,245,35,74,35,312,12,80,29,168,15,84,08,348,19*69
$GLGSV,3,3,10,85,05,301,,,,,26*5A
$GNGLL,0419.82243,S,05539.91239,E,073134.00,A,A*61
$GNTXT,01,01,01,More than 100 frame errors, UART RX was disabled*70
$GNRMC,073135.00,A,0419.82242,S,05539.91240,E,0.030,,200525,,,A*75
$GNVTG,,T,,M,0.030,N,0.056,K,A*3D
$GNGGA,073135.00,0419.82242,S,05539.91240,E,1,12,0.86,12.1,M,-47.6,M,,*4D
$GNGSA,A,3,05,12,18,15,25,23,13,29,10,,,,1.43,0.86,1.15*14
$GNGSA,A,3,80,73,69,84,70,74,,,,,,,1.43,0.86,1.15*1A
$GPGSV,4,1,15,05,26,029,43,10,18,215,10,12,66,130,30,13,12,092,39*78
$GPGSV,4,2,15,15,43,118,34,18,28,308,19,23,60,223,36,24,26,165,*76
$GPGSV,4,3,15,25,74,328,34,28,08,279,,29,20,358,36,36,52,277,*7C
$GPGSV,4,4,15,40,86,351,,41,58,082,31,49,32,274,*4D
$GLGSV,3,1,10,68,05,047,35,69,38,085,30,70,35,173,09,71,01,203,*69
$GLGSV,3,2,10,73,66,245,34,74,35,312,09,80,29,168,19,84,08,348,19*6E
$GLGSV,3,3,10,85,05,301,,,,,25*59
$GNGLL,0419.82242,S,05539.91240,E,073135.00,A,A*6F
$GNTXT,01,01,01,More than 100 frame errors, UART RX was disabled*70
$GNRMC,073136.00,A,0419.82241,S,05539.91243,E,0.036,,200525,,,A*70
$GNVTG,,T,,M,0.036,N,0.066,K,A*38
$GNGGA,073136.00,0419.82241,S,05539.91243,E,1,12,0.70,12.1,M,-47.6,M,,*47
$GNGSA,A,3,05,12,18,15,25,23,13,29,10,,,,1.22,0.70,1.00*1E
$GNGSA,A,3,80,73,69,84,70,74,,,,,,,1.22,0.70,1.00*10
$GPGSV,4,1,15,05,26,029,43,10,18,215,14,12,66,130,29,13,12,092,39*74
$GPGSV,4,2,15,15,43,118,34,18,28,308,20,23,60,223,34,24,26,165,*7E
$GPGSV,4,3,15,25,74,328,34,28,08,279,,29,20,358,36,36,52,277,*7C
$GPGSV,4,4,15,40,86,351,,41,58,082,34,49,32,274,*48
$GLGSV,3,1,10,68,05,047,35,69,38,085,30,70,35,173,08,71,01,203,*68
$GLGSV,3,2,10,73,66,245,34,74,35,312,09,80,29,168,19,84,08,348,20*64
$GLGSV,3,3,10,85,05,301,,,,,23*5F
$GNGLL,0419.82241,S,05539.91243,E,073136.00,A,A*6C
$GNTXT,01,01,01,More than 100 frame errors, UART RX was disabled*70
$GNRMC,073137.00,A,0419.82240,S,05539.91245,E,0.072,,200525,,,A*76
$GNVTG,,T,,M,0.072,N,0.133,K,A*39
$GNGGA,073137.00,0419.82240,S,05539.91245,E,1,12,0.70,12.2,M,-47.6,M,,*42
$GNGSA,A,3,05,12,18,15,25,23,13,29,10,,,,1.22,0.70,1.00*1E
$GNGSA,A,3,80,73,69,84,70,74,,,,,,,1.22,0.70,1.00*10
$GPGSV,4,1,15,05,26,029,41,10,18,215,09,12,66,130,29,13,12,092,38*7B
$GPGSV,4,2,15,15,43,118,33,18,28,308,20,23,60,223,34,24,26,165,*79
$GPGSV,4,3,15,25,74,328,34,28,08,279,,29,20,358,36,36,52,277,*7C
$GPGSV,4,4,15,40,86,351,,41,58,082,32,49,32,274,*4E
$GLGSV,3,1,10,68,05,047,35,69,38,085,30,70,35,173,09,71,01,203,*69
$GLGSV,3,2,10,73,66,245,33,74,35,312,10,80,29,168,19,84,08,348,21*6A
$GLGSV,3,3,10,85,05,301,,,,,24*58
$GNGLL,0419.82240,S,05539.91245,E,073137.00,A,A*6A
$GNTXT,01,01,01,More than 100 frame errors, UART RX was disabled*70
$GNRMC,073138.00,A,0419.82238,S,05539.91248,E,0.025,,200525,,,A*79
$GNVTG,,T,,M,0.025,N,0.046,K,A*38
$GNGGA,073138.00,0419.82238,S,05539.91248,E,1,12,0.69,12.2,M,-47.6,M,,*47
$GNGSA,A,3,05,12,18,15,25,23,13,29,10,,,,1.21,0.69,0.99*14
$GNGSA,A,3,80,73,69,84,70,74,,,,,,,1.21,0.69,0.99*1A
$GPGSV,4,1,15,05,26,029,42,10,18,215,09,12,66,130,29,13,12,092,39*79
$GPGSV,4,2,15,15,43,118,33,18,28,308,19,23,60,223,33,24,26,165,*74
$GPGSV,4,3,15,25,74,328,34,28,08,279,,29,20,358,35,36,52,277,*7F
$GPGSV,4,4,15,40,86,351,,41,58,082,32,49,32,274,*4E
$GLGSV,3,1,10,68,05,047,36,69,38,085,32,70,35,173,09,71,01,203,*68
$GLGSV,3,2,10,73,66,245,34,74,35,312,13,80,29,168,18,84,08,348,20*6E
$GLGSV,3,3,10,85,05,301,,,,,24*58
$GNGLL,0419.82238,S,05539.91248,E,073138.00,A,A*67
$GNTXT,01,01,01,More than 100 frame errors, UART RX was disabled*70
$GNRMC,073139.00,A,0419.82238,S,05539.91247,E,0.055,,200525,,,A*70
$GNVTG,,T,,M,0.055,N,0.101,K,A*3D
$GNGGA,073139.00,0419.82238,S,05539.91247,E,1,12,0.67,12.2,M,-47.6,M,,*47
$GNGSA,A,3,05,12,18,15,25,23,13,29,10,,,,1.19,0.67,0.99*11
$GNGSA,A,3,80,73,69,84,70,74,,,,,,,1.19,0.67,0.99*1F
$GPGSV,4,1,15,05,26,029,41,10,18,215,09,12,66,130,29,13,12,092,37*74
$GPGSV,4,2,15,15,43,118,33,18,28,308,18,23,60,223,34,24,26,165,*72
$GPGSV,4,3,15,25,74,328,33,28,08,279,,29,20,358,35,36,52,277,*78
$GPGSV,4,4,15,40,86,351,,41,58,082,35,49,32,274,*49
$GLGSV,3,1,10,68,05,047,36,69,38,085,31,70,35,173,11,71,01,203,*62
$GLGSV,3,2,10,73,66,245,34,74,35,312,11,80,29,168,19,84,08,348,20*6D
$GLGSV,3,3,10,85,05,301,,,,,25*59
$GNGLL,0419.82238,S,05539.91247,E,073139.00,A,A*69
$GNTXT,01,01,01,More than 100 frame errors, UART RX was disabled*70
$GNRMC,073140.00,A,0419.82237,S,05539.91248,E,0.018,,200525,,,A*77
$GNVTG,,T,,M,0.018,N,0.034,K,A*33
$GNGGA,073140.00,0419.82237,S,05539.91248,E,1,12,0.67,12.2,M,-47.6,M,,*49
$GNGSA,A,3,05,12,18,15,25,23,13,29,10,,,,1.19,0.67,0.99*11
$GNGSA,A,3,80,73,69,84,70,74,,,,,,,1.19,0.67,0.99*1F
$GPGSV,4,1,15,05,26,029,43,10,18,215,10,12,66,130,29,13,12,092,39*70
$GPGSV,4,2,15,15,43,118,33,18,28,308,19,23,60,223,34,24,26,165,*73
$GPGSV,4,3,15,25,74,328,34,28,08,279,,29,20,358,36,36,52,277,*7C
$GPGSV,4,4,15,40,86,351,,41,58,082,33,49,32,274,*4F
$GLGSV,3,1,10,68,05,047,36,69,38,085,32,70,35,173,11,71,01,203,*61
$GLGSV,3,2,10,73,66,245,34,74,35,312,14,80,29,168,19,84,08,348,20*68
$GLGSV,3,3,10,85,05,301,,,,,24*58
$GNGLL,0419.82237,S,05539.91248,E,073140.00,A,A*67
$GNTXT,01,01,01,More than 100 frame errors, UART RX was disabled*70
$GNRMC,073141.00,A,0419.82236,S,05539.91251,E,0.043,,200525,,,A*71
$GNVTG,,T,,M,0.043,N,0.079,K,A*34
$GNGGA,073141.00,0419.82236,S,05539.91251,E,1,12,0.80,12.2,M,-47.6,M,,*48
$GNGSA,A,3,05,12,18,15,25,23,13,29,10,,,,1.38,0.80,1.12*19
$GNGSA,A,3,80,73,69,84,70,74,,,,,,,1.38,0.80,1.12*17
$GPGSV,4,1,15,05,26,029,42,10,18,215,09,12,66,130,31,13,12,092,39*70
$GPGSV,4,2,15,15,43,118,33,18,28,308,20,23,60,224,34,24,26,165,*7E
$GPGSV,4,3,15,25,74,328,34,28,08,279,,29,20,358,36,36,52,277,*7C
$GPGSV,4,4,15,40,86,351,,41,58,082,32,49,32,274,*4E
$GLGSV,3,1,10,68,05,047,36,69,38,085,31,70,35,173,10,71,01,203,*63
$GLGSV,3,2,10,73,66,245,34,74,35,312,12,80,29,168,18,84,08,348,20*6F
$GLGSV,3,3,10,85,05,301,,,,,23*5F
$GNGLL,0419.82236,S,05539.91251,E,073141.00,A,A*6F
$GNTXT,01,01,01,More than 100 frame errors, UART RX was disabled*70
$GNRMC,073142.00,A,0419.82235,S,05539.91251,E,0.006,,200525,,,A*70
$GNVTG,,T,,M,0.006,N,0.010,K,A*3A
$GNGGA,073142.00,0419.82235,S,05539.91251,E,1,12,0.67,12.2,M,-47.6,M,,*41
$GNGSA,A,3,05,12,18,15,25,23,13,29,10,,,,1.19,0.67,0.99*11
$GNGSA,A,3,80,73,69,84,70,74,,,,,,,1.19,0.67,0.99*1F
$GPGSV,4,1,15,05,26,029,42,10,18,215,08,12,66,130,30,13,12,092,38*71
$GPGSV,4,2,15,15,43,118,33,18,28,308,20,23,60,224,34,24,26,164,*7F
$GPGSV,4,3,15,25,74,328,34,28,08,279,,29,20,358,36,36,52,277,*7C
$GPGSV,4,4,15,40,86,351,,41,58,082,33,49,32,274,*4F
$GLGSV,3,1,10,68,05,047,35,69,38,085,30,70,35,173,09,71,01,203,*69
$GLGSV,3,2,10,73,66,245,34,74,35,312,15,80,29,168,16,84,08,348,19*6C
$GLGSV,3,3,10,85,05,301,,,,,22*5E
$GNGLL,0419.82235,S,05539.91251,E,073142.00,A,A*6F
$GNTXT,01,01,01,More than 100 frame errors, UART RX was disabled*70
$GNRMC,073143.00,A,0419.82235,S,05539.91252,E,0.021,,200525,,,A*77
$GNVTG,,T,,M,0.021,N,0.040,K,A*3A
$GNGGA,073143.00,0419.82235,S,05539.91252,E,1,12,0.80,12.2,M,-47.6,M,,*4A
$GNGSA,A,3,05,12,18,15,25,23,13,29,,,,,1.38,0.80,1.12*18
$GNGSA,A,3,80,73,69,84,70,74,,,,,,,1.38,0.80,1.12*17
$GPGSV,4,1,15,05,26,029,42,10,18,215,06,12,66,130,30,13,12,092,38*7F
$GPGSV,4,2,15,15,43,118,34,18,28,308,20,23,60,224,35,24,26,164,*79
$GPGSV,4,3,15,25,75,327,34,28,08,279,,29,20,358,36,36,52,277,*72
$GPGSV,4,4,15,40,86,351,,41,58,082,32,49,32,274,*4E
$GLGSV,3,1,10,68,05,047,35,69,38,085,30,70,35,173,09,71,01,203,*69
$GLGSV,3,2,10,73,66,245,34,74,35,312,12,80,29,168,18,84,08,348,18*64
$GLGSV,3,3,10,85,05,301,,,,,23*5F
$GNGLL,0419.82235,S,05539.91252,E,073143.00,A,A*6D
$GNTXT,01,01,01,More than 100 frame errors, UART RX was disabled*70
$GNRMC,073144.00,A,0419.82236,S,05539.91251,E,0.031,,200525,,,A*71
$GNVTG,,T,,M,0.031,N,0.057,K,A*3D
$GNGGA,073144.00,0419.82236,S,05539.91251,E,1,12,0.83,12.1,M,-47.6,M,,*4D
$GNGSA,A,3,05,12,18,15,25,23,13,29,10,,,,1.40,0.83,1.13*14
$GNGSA,A,3,80,73,69,84,70,74,,,,,,,1.40,0.83,1.13*1A
$GPGSV,4,1,15,05,26,029,31,10,18,215,12,12,66,130,24,13,12,092,30*73
$GPGSV,4,2,15,15,43,118,24,18,28,308,19,23,60,224,27,24,26,164,*71
$GPGSV,4,3,15,25,75,327,25,28,08,279,,29,20,358,29,36,52,277,*7C
$GPGSV,4,4,15,40,86,351,,41,58,082,30,49,32,274,*4C
$GLGSV,3,1,10,68,05,047,31,69,38,085,26,70,35,173,11,71,01,203,*63
$GLGSV,3,2,10,73,66,245,29,74,35,312,08,80,29,168,20,84,08,348,19*69
$GLGSV,3,3,10,85,05,301,,,,,23*5F
$GNGLL,0419.82236,S,05539.91251,E,073144.00,A,A*6A
$GNTXT,01,01,01,More than 100 frame errors, UART RX was disabled*70
