$GNTXT,01,01,01,More than 100 frame errors, UART RX was disabled*70
$GNRMC,072511.00,A,0419.82245,S,05539.92443,E,0.051,,200525,,,D*75
$GNVTG,,T,,M,0.051,N,0.095,K,D*30
$GNGGA,072511.00,0419.82245,S,05539.92443,E,2,12,0.67,10.3,M,-47.6,M,,0000*43
$GNGSA,A,3,05,12,24,18,15,25,23,13,29,10,,,1.24,0.67,1.05*1D
$GNGSA,A,3,80,73,69,68,70,74,,,,,,,1.24,0.67,1.05*17
$GPGSV,4,1,15,05,29,030,29,10,15,214,25,12,69,123,35,13,12,095,34*7B
$GPGSV,4,2,15,15,43,123,37,18,29,304,32,23,57,220,26,24,27,167,29*77
$GPGSV,4,3,15,25,71,333,31,28,08,281,,29,18,355,32,36,52,277,32*72
$GPGSV,4,4,15,40,86,351,35,41,58,082,28,49,32,274,*43
$GLGSV,3,1,09,68,06,050,12,69,38,090,35,70,32,175,20,73,67,254,31*68
$GLGSV,3,2,09,74,33,315,21,80,32,168,26,84,09,345,07,85,05,298,*63
$GLGSV,3,3,09,,,,29*67
$GNGLL,0419.82245,S,05539.92443,E,072511.00,A,D*68
$GNTXT,01,01,01,More than 100 frame errors, UART RX was disabled*70
$GNRMC,072512.00,A,0419.82246,S,05539.92443,E,0.012,,200525,,,D*72
$GNVTG,,T,,M,0.012,N,0.022,K,D*3B
$GNGGA,072512.00,0419.82246,S,05539.92443,E,2,12,0.67,10.3,M,-47.6,M,,0000*43
$GNGSA,A,3,05,12,24,18,15,25,23,13,29,10,,,1.24,0.67,1.05*1D
$GNGSA,A,3,80,73,69,84,68,70,74,,,,,,1.24,0.67,1.05*1B
$GPGSV,4,1,15,05,29,030,28,10,15,214,24,12,69,123,38,13,12,095,35*77
$GPGSV,4,2,15,15,43,123,39,18,29,304,34,23,57,220,25,24,27,167,24*71
$GPGSV,4,3,15,25,71,333,35,28,08,281,,29,18,355,28,36,52,277,33*7C
$GPGSV,4,4,15,40,86,351,38,41,58,082,30,49,32,274,*47
$GLGSV,3,1,09,68,06,050,09,69,38,090,42,70,32,175,18,73,67,254,36*6E
$GLGSV,3,2,09,74,33,315,22,80,32,168,33,84,09,345,09,85,05,298,*6A
$GLGSV,3,3,09,,,,35*6A
$GNGLL,0419.82246,S,05539.92443,E,072512.00,A,D*68
$GNTXT,01,01,01,More than 100 frame errors, UART RX was disabled*70
$GNRMC,072513.00,A,0419.82247,S,05539.92445,E,0.030,,200525,,,D*74
$GNVTG,,T,,M,0.030,N,0.056,K,D*38
$GNGGA,072513.00,0419.82247,S,05539.92445,E,2,12,0.62,10.2,M,-47.6,M,,0000*41
$GNGSA,A,3,05,12,24,18,15,25,23,13,29,10,,,1.13,0.62,0.94*15
$GNGSA,A,3,80,73,69,84,68,70,74,,,,,,1.13,0.62,0.94*13
$GPGSV,4,1,15,05,29,030,33,10,15,214,25,12,69,123,41,13,12,095,37*70
$GPGSV,4,2,15,15,43,123,42,18,29,304,38,23,57,220,28,24,27,167,27*7F
$GPGSV,4,3,15,25,71,333,36,28,08,281,,29,18,355,33,36,52,277,34*72
$GPGSV,4,4,15,40,86,351,42,41,58,082,36,49,32,274,*4C
$GLGSV,3,1,09,68,06,050,16,69,38,090,44,70,32,175,19,73,67,254,38*69
$GLGSV,3,2,09,74,33,315,22,80,32,168,33,84,09,345,10,85,05,298,*62
$GLGSV,3,3,09,,,,35*6A
$GNGLL,0419.82247,S,05539.92445,E,072513.00,A,D*6E
$GNTXT,01,01,01,More than 100 frame errors, UART RX was disabled*70
$GNRMC,072514.00,A,0419.82248,S,05539.92449,E,0.021,,200525,,,D*70
$GNVTG,,T,,M,0.021,N,0.038,K,D*30
$GNGGA,072514.00,0419.82248,S,05539.92449,E,2,12,0.67,10.2,M,-47.6,M,,0000*40
$GNGSA,A,3,05,12,24,18,15,25,23,13,29,10,,,1.24,0.67,1.05*1D
$GNGSA,A,3,80,73,69,84,68,70,74,,,,,,1.24,0.67,1.05*1B
$GPGSV,4,1,15,05,29,030,33,10,15,214,26,12,69,123,41,13,12,095,38*7C
$GPGSV,4,2,15,15,43,123,42,18,29,304,38,23,57,220,29,24,27,167,28*71
$GPGSV,4,3,15,25,71,333,37,28,08,281,,29,18,355,33,36,52,277,34*73
$GPGSV,4,4,15,40,86,351,41,41,58,082,36,49,32,274,*4F
$GLGSV,3,1,09,68,06,050,16,69,38,090,44,70,32,175,22,73,67,254,39*60
$GLGSV,3,2,09,74,33,315,23,80,32,168,35,84,09,345,12,85,05,298,*67
$GLGSV,3,3,09,,,,36*69
$GNGLL,0419.82248,S,05539.92449,E,072514.00,A,D*6A
$GNTXT,01,01,01,More than 100 frame errors, UART RX was disabled*70
$GNRMC,072515.00,A,0419.82250,S,05539.92452,E,0.009,,200525,,,D*78
$GNVTG,,T,,M,0.009,N,0.017,K,D*37
$GNGGA,072515.00,0419.82250,S,05539.92452,E,2,12,0.67,10.1,M,-47.6,M,,0000*41
$GNGSA,A,3,05,12,24,18,15,25,23,13,29,10,,,1.24,0.67,1.05*1D
$GNGSA,A,3,80,73,69,84,68,70,74,,,,,,1.24,0.67,1.05*1B
$GPGSV,4,1,15,05,29,030,33,10,15,214,27,12,69,123,41,13,12,095,38*7D
$GPGSV,4,2,15,15,43,123,42,18,29,304,38,23,57,220,30,24,27,167,29*78
$GPGSV,4,3,15,25,71,333,37,28,08,281,,29,18,355,33,36,52,277,35*72
$GPGSV,4,4,15,40,86,351,41,41,58,082,36,49,32,274,*4F
$GLGSV,3,1,09,68,06,050,16,69,38,090,43,70,32,175,22,73,67,254,38*66
$GLGSV,3,2,09,74,33,315,23,80,32,168,33,84,09,345,13,85,05,298,*60
$GLGSV,3,3,09,,,,36*69
$GNGLL,0419.82250,S,05539.92452,E,072515.00,A,D*68
$GNTXT,01,01,01,More than 100 frame errors, UART RX was disabled*70
$GNRMC,072516.00,A,0419.82252,S,05539.92453,E,0.028,,200525,,,D*7B
$GNVTG,,T,,M,0.028,N,0.052,K,D*35
$GNGGA,072516.00,0419.82252,S,05539.92453,E,2,12,0.65,10.2,M,-47.6,M,,0000*40
$GNGSA,A,3,05,12,24,18,15,25,23,13,29,10,,,1.16,0.65,0.97*14
$GNGSA,A,3,80,73,69,84,68,70,74,,,,,,1.16,0.65,0.97*12
$GPGSV,4,1,15,05,29,030,33,10,15,214,27,12,69,124,41,13,12,095,40*75
$GPGSV,4,2,15,15,43,123,41,18,29,304,38,23,57,220,31,24,27,167,29*7A
$GPGSV,4,3,15,25,71,333,37,28,08,281,,29,18,355,33,36,52,277,35*72
$GPGSV,4,4,15,40,86,351,40,41,58,082,35,49,32,274,*4D
$GLGSV,3,1,09,68,06,050,13,69,38,090,42,70,32,175,22,73,67,254,37*6D
$GLGSV,3,2,09,74,33,315,24,80,32,168,32,84,09,345,12,85,05,298,*67
$GLGSV,3,3,09,,,,35*6A
$GNGLL,0419.82252,S,05539.92453,E,072516.00,A,D*68
$GNTXT,01,01,01,More than 100 frame errors, UART RX was disabled*70
$GNRMC,072517.00,A,0419.82252,S,05539.92453,E,0.037,,200525,,,D*74
$GNVTG,,T,,M,0.037,N,0.069,K,D*33
$GNGGA,072517.00,0419.82252,S,05539.92453,E,2,12,0.67,10.2,M,-47.6,M,,0000*43
$GNGSA,A,3,05,12,24,18,15,25,23,13,29,10,,,1.24,0.67,1.05*1D
$GNGSA,A,3,80,73,69,84,68,70,74,,,,,,1.24,0.67,1.05*1B
$GPGSV,4,1,15,05,29,030,32,10,15,214,27,12,69,124,40,13,12,095,40*75
$GPGSV,4,2,15,15,43,123,41,18,29,304,38,23,57,220,31,24,27,167,29*7A
$GPGSV,4,3,15,25,71,333,36,28,08,281,,29,18,355,34,36,52,277,36*77
$GPGSV,4,4,15,40,86,351,40,41,58,082,31,49,32,274,*49
$GLGSV,3,1,09,68,06,050,20,69,38,090,43,70,32,175,23,73,67,254,37*6D
$GLGSV,3,2,09,74,33,315,22,80,32,168,32,84,09,345,12,85,05,298,*61
$GLGSV,3,3,09,,,,34*6B
$GNGLL,0419.82252,S,05539.92453,E,072517.00,A,D*69
$GNTXT,01,01,01,More than 100 frame errors, UART RX was disabled*70
$GNRMC,072518.00,A,0419.82254,S,05539.92453,E,0.043,,200525,,,D*7E
$GNVTG,,T,,M,0.043,N,0.079,K,D*31
$GNGGA,072518.00,0419.82254,S,05539.92453,E,2,12,0.67,10.2,M,-47.6,M,,0000*4A
$GNGSA,A,3,05,12,24,18,15,25,23,13,29,10,,,1.24,0.67,1.05*1D
$GNGSA,A,3,80,73,69,84,68,70,74,,,,,,1.24,0.67,1.05*1B
$GPGSV,4,1,15,05,29,030,32,10,15,214,26,12,69,124,40,13,12,095,37*74
$GPGSV,4,2,15,15,43,123,42,18,29,304,36,23,57,220,30,24,27,167,29*76
$GPGSV,4,3,15,25,71,333,36,28,08,281,,29,18,355,33,36,52,277,36*70
$GPGSV,4,4,15,40,86,351,42,41,58,082,35,49,32,274,*4F
$GLGSV,3,1,09,68,06,050,17,69,38,090,43,70,32,175,23,73,67,254,37*69
$GLGSV,3,2,09,74,33,315,22,80,32,168,32,84,09,345,11,85,05,298,*62
$GLGSV,3,3,09,,,,35*6A
$GNGLL,0419.82254,S,05539.92453,E,072518.00,A,D*60
$GNTXT,01,01,01,More than 100 frame errors, UART RX was disabled*70
$GNRMC,072519.00,A,0419.82255,S,05539.92454,E,0.038,,200525,,,D*75
$GNVTG,,T,,M,0.038,N,0.070,K,D*34
$GNGGA,072519.00,0419.82255,S,05539.92454,E,2,12,0.67,10.2,M,-47.6,M,,0000*4D
$GNGSA,A,3,05,12,24,18,15,25,23,13,29,10,,,1.24,0.67,1.05*1D
$GNGSA,A,3,80,73,69,84,68,70,74,,,,,,1.24,0.67,1.05*1B
$GPGSV,4,1,15,05,29,030,32,10,15,214,27,12,69,124,41,13,12,095,38*7B
$GPGSV,4,2,15,15,43,122,42,18,29,304,38,23,57,220,29,24,27,167,30*79
$GPGSV,4,3,15,25,71,333,36,28,08,281,,29,18,355,33,36,52,277,34*72
$GPGSV,4,4,15,40,86,351,41,41,58,082,34,49,32,274,*4D
$GLGSV,3,1,09,68,06,050,16,69,38,090,43,70,32,175,23,73,67,254,37*68
$GLGSV,3,2,09,74,33,315,22,80,32,168,32,84,09,345,10,85,05,298,*63
$GLGSV,3,3,09,,,,35*6A
$GNGLL,0419.82255,S,05539.92454,E,072519.00,A,D*67
$GNTXT,01,01,01,More than 100 frame errors, UART RX was disabled*70
$GNRMC,072520.00,A,0419.82256,S,05539.92456,E,0.042,,200525,,,D*73
$GNVTG,,T,,M,0.042,N,0.077,K,D*3E
$GNGGA,072520.00,0419.82256,S,05539.92456,E,2,12,0.67,10.3,M,-47.6,M,,0000*47
$GNGSA,A,3,05,12,24,18,15,25,23,13,29,10,,,1.24,0.67,1.05*1D
$GNGSA,A,3,80,73,69,84,68,70,74,,,,,,1.24,0.67,1.05*1B
$GPGSV,4,1,15,05,29,030,29,10,15,214,26,12,69,124,40,13,12,095,38*71
$GPGSV,4,2,15,15,43,122,41,18,29,304,37,23,57,220,29,24,27,167,25*71
$GPGSV,4,3,15,25,71,333,35,28,08,281,,29,18,355,33,36,52,277,32*77
$GPGSV,4,4,15,40,86,351,39,41,58,082,30,49,32,274,*46
$GLGSV,3,1,09,68,06,050,14,69,38,090,43,70,32,175,22,73,67,254,36*6A
$GLGSV,3,2,09,74,33,315,22,80,32,168,31,84,09,345,08,85,05,298,*69
$GLGSV,3,3,09,,,,35*6A
$GNGLL,0419.82256,S,05539.92456,E,072520.00,A,D*6C
$GNTXT,01,01,01,More than 100 frame errors, UART RX was disabled*70
$GNRMC,072521.00,A,0419.82259,S,05539.92455,E,0.014,,200525,,,D*7D
$GNVTG,,T,,M,0.014,N,0.027,K,D*38
$GNGGA,072521.00,0419.82259,S,05539.92455,E,2,12,0.67,10.3,M,-47.6,M,,0000*4A
$GNGSA,A,3,05,12,24,18,15,25,23,13,29,10,,,1.24,0.67,1.05*1D
$GNGSA,A,3,80,73,69,84,68,70,74,,,,,,1.24,0.67,1.05*1B
$GPGSV,4,1,15,05,29,030,30,10,15,214,26,12,69,124,40,13,12,095,37*76
$GPGSV,4,2,15,15,43,122,41,18,29,304,38,23,57,220,30,24,27,167,28*7B
$GPGSV,4,3,15,25,71,333,36,28,08,281,,29,18,355,33,36,52,277,33*75
$GPGSV,4,4,15,40,86,351,39,41,58,082,31,49,32,274,*47
$GLGSV,3,1,09,68,06,050,12,69,38,090,43,70,32,175,22,73,67,254,34*6E
$GLGSV,3,2,09,74,33,315,22,80,32,168,32,84,09,345,12,85,05,298,*61
$GLGSV,3,3,09,,,,34*6B
$GNGLL,0419.82259,S,05539.92455,E,072521.00,A,D*61
$GNTXT,01,01,01,More than 100 frame errors, UART RX was disabled*70
$GNRMC,072522.00,A,0419.82261,S,05539.92454,E,0.002,,200525,,,D*73
$GNVTG,,T,,M,0.002,N,0.005,K,D*3F
$GNGGA,072522.00,0419.82261,S,05539.92454,E,2,12,0.67,10.3,M,-47.6,M,,0000*43
$GNGSA,A,3,05,12,24,18,15,25,23,13,29,10,,,1.24,0.67,1.05*1D
$GNGSA,A,3,80,73,69,84,68,70,74,,,,,,1.24,0.67,1.05*1B
$GPGSV,4,1,15,05,29,030,29,10,15,214,26,12,69,124,36,13,12,095,35*7D
$GPGSV,4,2,15,15,43,122,38,18,29,305,33,23,57,220,23,24,27,167,28*7D
$GPGSV,4,3,15,25,71,333,33,28,08,281,,29,18,355,29,36,52,277,30*78
$GPGSV,4,4,15,40,86,351,36,41,58,082,30,49,32,274,*49
$GLGSV,3,1,09,68,06,050,10,69,38,090,44,70,32,175,22,73,67,254,34*6B
$GLGSV,3,2,09,74,33,315,19,80,32,168,31,84,09,345,09,85,05,298,*60
$GLGSV,3,3,09,,,,31*6E
$GNGLL,0419.82261,S,05539.92454,E,072522.00,A,D*68
$GNTXT,01,01,01,More than 100 frame errors, UART RX was disabled*70
$GNRMC,072523.00,A,0419.82261,S,05539.92454,E,0.024,,200525,,,D*76
$GNVTG,,T,,M,0.024,N,0.044,K,D*3E
$GNGGA,072523.00,0419.82261,S,05539.92454,E,2,12,0.67,10.3,M,-47.6,M,,0000*42
$GNGSA,A,3,05,12,24,18,15,25,23,13,29,10,,,1.24,0.67,1.05*1D
$GNGSA,A,3,80,73,69,84,68,70,74,,,,,,1.24,0.67,1.05*1B
$GPGSV,4,1,15,05,29,030,29,10,15,214,26,12,69,124,38,13,12,095,35*73
$GPGSV,4,2,15,15,43,122,38,18,29,305,36,23,57,220,25,24,27,167,28*7E
$GPGSV,4,3,15,25,71,333,33,28,08,281,,29,18,355,29,36,52,277,31*79
$GPGSV,4,4,15,40,86,351,39,41,58,082,29,49,32,274,*4E
$GLGSV,3,1,09,68,06,050,15,69,38,090,44,70,32,175,23,73,67,254,35*6E
$GLGSV,3,2,09,74,33,315,19,80,32,168,32,84,09,345,10,85,05,298,*6B
$GLGSV,3,3,09,,,,32*6D
$GNGLL,0419.82261,S,05539.92454,E,072523.00,A,D*69
$GNTXT,01,01,01,More than 100 frame errors, UART RX was disabled*70
$GNRMC,072524.00,A,0419.82263,S,05539.92453,E,0.067,,200525,,,D*73
$GNVTG,,T,,M,0.067,N,0.124,K,D*3E
$GNGGA,072524.00,0419.82263,S,05539.92453,E,2,12,0.67,10.3,M,-47.6,M,,0000*40
$GNGSA,A,3,05,12,24,18,15,25,23,13,29,10,,,1.24,0.67,1.05*1D
$GNGSA,A,3,80,73,69,84,68,70,74,,,,,,1.24,0.67,1.05*1B
$GPGSV,4,1,15,05,29,030,29,10,15,214,26,12,69,124,38,13,12,095,35*73
$GPGSV,4,2,15,15,43,122,39,18,29,305,35,23,57,220,28,24,27,167,29*70
$GPGSV,4,3,15,25,71,333,33,28,08,281,,29,18,355,30,36,52,277,31*71
$GPGSV,4,4,15,40,86,351,37,41,58,082,29,49,32,274,*40
$GLGSV,3,1,09,68,06,050,15,69,38,090,43,70,32,175,22,73,67,254,35*68
$GLGSV,3,2,09,74,33,315,19,80,32,168,32,84,09,345,09,85,05,298,*63
$GLGSV,3,3,09,,,,32*6D
$GNGLL,0419.82263,S,05539.92453,E,072524.00,A,D*6B
$GNTXT,01,01,01,More than 100 frame errors, UART RX was disabled*70
$GNRMC,072525.00,A,0419.82263,S,05539.92454,E,0.015,,200525,,,D*70
$GNVTG,,T,,M,0.015,N,0.028,K,D*36
$GNGGA,072525.00,0419.82263,S,05539.92454,E,2,12,0.62,10.4,M,-47.6,M,,0000*44
$GNGSA,A,3,05,12,24,18,15,25,23,13,29,10,,,1.13,0.62,0.94*15
$GNGSA,A,3,80,73,69,84,68,70,74,,,,,,1.13,0.62,0.94*13
$GPGSV,4,1,15,05,29,030,28,10,15,214,25,12,69,124,40,13,12,095,38*73
$GPGSV,4,2,15,15,43,122,41,18,29,305,36,23,57,220,31,24,27,167,29*74
$GPGSV,4,3,15,25,71,333,34,28,08,281,,29,18,355,31,36,52,277,32*74
$GPGSV,4,4,15,40,86,351,39,41,58,082,28,49,32,274,*4F
$GLGSV,3,1,09,68,06,050,17,69,38,090,44,70,32,175,23,73,67,254,38*61
$GLGSV,3,2,09,74,33,315,20,80,32,168,32,84,09,345,12,85,05,298,*63
$GLGSV,3,3,09,,,,35*6A
$GNGLL,0419.82263,S,05539.92454,E,072525.00,A,D*6D
$GNTXT,01,01,01,More than 100 frame errors, UART RX was disabled*70
$GNRMC,072526.00,A,0419.82263,S,05539.92454,E,0.072,,200525,,,D*72
$GNVTG,,T,,M,0.072,N,0.133,K,D*3C
$GNGGA,072526.00,0419.82263,S,05539.92454,E,2,12,0.67,10.4,M,-47.6,M,,0000*42
$GNGSA,A,3,05,12,24,18,15,25,23,13,29,10,,,1.24,0.67,1.05*1D
$GNGSA,A,3,80,73,69,84,68,70,74,,,,,,1.24,0.67,1.05*1B
$GPGSV,4,1,15,05,29,030,27,10,15,214,23,12,69,124,34,13,12,095,31*70
$GPGSV,4,2,15,15,43,122,34,18,29,305,31,23,57,220,29,24,27,167,26*77
$GPGSV,4,3,15,25,71,333,29,28,08,281,,29,18,355,29,36,52,277,29*7B
$GPGSV,4,4,15,40,86,351,33,41,58,082,27,49,32,274,*4A
$GLGSV,3,1,09,68,06,050,14,69,38,090,38,70,32,175,21,73,67,254,33*60
$GLGSV,3,2,09,74,33,315,19,80,32,168,30,84,09,345,09,85,05,298,*61
$GLGSV,3,3,09,,,,31*6E
$GNGLL,0419.82263,S,05539.92454,E,072526.00,A,D*6E
$GNTXT,01,01,01,More than 100 frame errors, UART RX was disabled*70
$GNRMC,072527.00,A,0419.82264,S,05539.92456,E,0.026,,200525,,,D*77
$GNVTG,,T,,M,0.026,N,0.049,K,D*31
$GNGGA,072527.00,0419.82264,S,05539.92456,E,2,12,0.67,10.5,M,-47.6,M,,0000*47
$GNGSA,A,3,05,12,24,18,15,25,23,13,29,10,,,1.24,0.67,1.05*1D
$GNGSA,A,3,80,73,69,84,68,70,74,,,,,,1.24,0.67,1.05*1B
$GPGSV,4,1,15,05,29,030,32,10,15,214,26,12,69,124,40,13,12,095,39*7A
$GPGSV,4,2,15,15,43,122,42,18,29,305,38,23,57,220,30,24,27,167,31*71
$GPGSV,4,3,15,25,71,333,34,28,08,281,,29,18,355,33,36,52,277,34*70
$GPGSV,4,4,15,40,86,351,40,41,58,082,30,49,32,274,*48
$GLGSV,3,1,09,68,06,050,12,69,38,090,43,70,32,175,21,73,67,254,37*6E
$GLGSV,3,2,09,74,33,315,19,80,32,168,33,84,09,345,11,85,05,298,*6B
$GLGSV,3,3,09,,,,36*69
$GNGLL,0419.82264,S,05539.92456,E,072527.00,A,D*6A
$GNTXT,01,01,01,More than 100 frame errors, UART RX was disabled*70
$GNRMC,072528.00,A,0419.82264,S,05539.92458,E,0.028,,200525,,,D*78
$GNVTG,,T,,M,0.028,N,0.051,K,D*36
$GNGGA,072528.00,0419.82264,S,05539.92458,E,2,12,0.65,10.7,M,-47.6,M,,0000*46
$GNGSA,A,3,05,12,24,18,15,25,23,13,29,10,,,1.16,0.65,0.97*14
$GNGSA,A,3,80,73,69,84,68,70,74,,,,,,1.16,0.65,0.97*12
$GPGSV,4,1,15,05,29,030,29,10,15,214,26,12,69,124,40,13,12,095,37*7E
$GPGSV,4,2,15,15,43,122,41,18,29,305,37,23,57,220,30,24,27,167,30*7C
$GPGSV,4,3,15,25,72,332,39,28,08,281,,29,18,355,31,36,52,277,35*7C
$GPGSV,4,4,15,40,86,351,40,41,58,082,32,49,32,274,*4A
$GLGSV,3,1,09,68,06,050,14,69,38,090,41,70,32,175,22,73,67,254,36*68
$GLGSV,3,2,09,74,33,315,20,80,32,168,32,84,09,345,15,85,05,298,*64
$GLGSV,3,3,09,,,,35*6A
$GNGLL,0419.82264,S,05539.92458,E,072528.00,A,D*6B
$GNTXT,01,01,01,More than 100 frame errors, UART RX was disabled*70
$GNRMC,072529.00,A,0419.82264,S,05539.92459,E,0.033,,200525,,,D*72
$GNVTG,,T,,M,0.033,N,0.061,K,D*3F
$GNGGA,072529.00,0419.82264,S,05539.92459,E,2,12,0.67,10.8,M,-47.6,M,,0000*4B
$GNGSA,A,3,05,12,24,18,15,25,23,13,29,10,,,1.24,0.67,1.05*1D
$GNGSA,A,3,80,73,69,84,68,70,74,,,,,,1.24,0.67,1.05*1B
$GPGSV,4,1,15,05,29,030,31,10,15,214,25,12,69,124,40,13,12,095,38*7B
$GPGSV,4,2,15,15,43,122,41,18,29,305,38,23,57,220,32,24,27,167,29*79
$GPGSV,4,3,15,25,72,332,38,28,08,281,,29,18,355,32,36,52,277,35*7E
$GPGSV,4,4,15,40,86,351,43,41,58,082,33,49,32,274,*48
$GLGSV,3,1,09,68,06,050,20,69,38,090,43,70,32,175,22,73,67,254,34*6F
$GLGSV,3,2,09,74,33,315,20,80,32,168,31,84,09,345,10,85,05,298,*62
$GLGSV,3,3,09,,,,34*6B
$GNGLL,0419.82264,S,05539.92459,E,072529.00,A,D*6B
$GNTXT,01,01,01,More than 100 frame errors, UART RX was disabled*70
$GNRMC,072530.00,A,0419.82263,S,05539.92460,E,0.019,,200525,,,D*7F
$GNVTG,,T,,M,0.019,N,0.035,K,D*36
$GNGGA,072530.00,0419.82263,S,05539.92460,E,2,12,0.67,10.9,M,-47.6,M,,0000*4F
$GNGSA,A,3,05,12,24,18,15,25,23,13,29,10,,,1.24,0.67,1.05*1D
$GNGSA,A,3,80,73,69,84,68,70,74,,,,,,1.24,0.67,1.05*1B
$GPGSV,4,1,15,05,29,030,31,10,15,214,26,12,69,124,41,13,12,095,38*79
$GPGSV,4,2,15,15,43,122,43,18,29,305,39,23,57,220,34,24,27,167,30*74
$GPGSV,4,3,15,25,72,332,40,28,08,281,,29,18,355,33,36,52,277,36*73
$GPGSV,4,4,15,40,86,351,44,41,58,082,34,49,32,274,*48
$GLGSV,3,1,09,68,06,050,18,69,38,090,43,70,32,175,23,73,67,254,34*65
$GLGSV,3,2,09,74,33,315,21,80,32,168,32,84,09,345,15,85,05,298,*65
$GLGSV,3,3,09,,,,34*6B
$GNGLL,0419.82263,S,05539.92460,E,072530.00,A,D*6E
$GNTXT,01,01,01,More than 100 frame errors, UART RX was disabled*70
$GNRMC,072531.00,A,0419.82260,S,05539.92461,E,0.035,,200525,,,D*72
$GNVTG,,T,,M,0.035,N,0.066,K,D*3E
$GNGGA,072531.00,0419.82260,S,05539.92461,E,2,12,0.65,11.1,M,-47.6,M,,0000*47
$GNGSA,A,3,05,12,24,18,15,25,23,13,29,10,,,1.16,0.65,0.97*14
$GNGSA,A,3,80,73,69,84,68,70,74,,,,,,1.16,0.65,0.97*12
$GPGSV,4,1,15,05,29,030,27,10,15,214,27,12,69,124,41,13,12,095,40*70
$GPGSV,4,2,15,15,43,122,41,18,29,305,39,23,57,220,34,24,27,167,31*77
$GPGSV,4,3,15,25,72,332,39,28,08,281,,29,18,355,33,36,52,277,36*7D
$GPGSV,4,4,15,40,86,351,43,41,58,082,34,49,32,274,*4F
$GLGSV,3,1,09,68,06,050,20,69,38,090,42,70,32,175,23,73,67,254,34*6F
$GLGSV,3,2,09,74,33,315,22,80,32,168,32,84,09,345,12,85,05,298,*61
$GLGSV,3,3,09,,,,33*6C
$GNGLL,0419.82260,S,05539.92461,E,072531.00,A,D*6D
$GNTXT,01,01,01,More than 100 frame errors, UART RX was disabled*70
$GNRMC,072532.00,A,0419.82259,S,05539.92462,E,0.026,,200525,,,D*7A
$GNVTG,,T,,M,0.026,N,0.049,K,D*31
$GNGGA,072532.00,0419.82259,S,05539.92462,E,2,12,0.67,11.3,M,-47.6,M,,0000*4D
$GNGSA,A,3,05,12,24,18,15,25,23,13,29,10,,,1.24,0.67,1.05*1D
$GNGSA,A,3,80,73,69,84,68,70,74,,,,,,1.24,0.67,1.05*1B
$GPGSV,4,1,15,05,29,030,29,10,15,214,27,12,69,124,41,13,12,095,40*7E
$GPGSV,4,2,15,15,43,122,41,18,29,305,39,23,57,220,33,24,27,167,32*73
$GPGSV,4,3,15,25,72,332,38,28,08,281,,29,19,356,32,36,52,277,35*7C
$GPGSV,4,4,15,40,86,351,42,41,58,082,31,49,32,274,*4B
$GLGSV,3,1,09,68,06,050,20,69,38,090,42,70,32,175,23,73,67,254,34*6F
$GLGSV,3,2,09,74,33,315,22,80,32,168,32,84,09,345,12,85,05,298,*61
$GLGSV,3,3,09,,,,34*6B
$GNGLL,0419.82259,S,05539.92462,E,072532.00,A,D*67
$GNTXT,01,01,01,More than 100 frame errors, UART RX was disabled*70
$GNRMC,072533.00,A,0419.82258,S,05539.92460,E,0.034,,200525,,,D*7B
$GNVTG,,T,,M,0.034,N,0.063,K,D*3A
$GNGGA,072533.00,0419.82258,S,05539.92460,E,2,12,0.67,11.5,M,-47.6,M,,0000*49
$GNGSA,A,3,05,12,24,18,15,25,23,13,29,10,,,1.24,0.67,1.05*1D
$GNGSA,A,3,80,73,69,84,68,70,74,,,,,,1.24,0.67,1.05*1B
$GPGSV,4,1,15,05,29,030,29,10,15,214,27,12,69,124,41,13,12,095,40*7E
$GPGSV,4,2,15,15,43,122,41,18,29,305,38,23,57,220,32,24,27,167,31*70
$GPGSV,4,3,15,25,72,332,39,28,08,281,,29,19,356,31,36,52,277,35*7E
$GPGSV,4,4,15,40,86,351,42,41,58,082,30,49,32,274,*4A
$GLGSV,3,1,09,68,06,050,20,69,38,090,42,70,32,175,22,73,67,254,34*6E
$GLGSV,3,2,09,74,33,315,22,80,32,168,31,84,09,345,13,85,05,298,*63
$GLGSV,3,3,09,,,,35*6A
$GNGLL,0419.82258,S,05539.92460,E,072533.00,A,D*65
$GNTXT,01,01,01,More than 100 frame errors, UART RX was disabled*70
$GNRMC,072534.00,A,0419.82254,S,05539.92461,E,0.020,,200525,,,D*74
$GNVTG,,T,,M,0.020,N,0.037,K,D*3E
$GNGGA,072534.00,0419.82254,S,05539.92461,E,2,12,0.67,11.7,M,-47.6,M,,0000*41
$GNGSA,A,3,05,12,24,18,15,25,23,13,29,10,,,1.24,0.67,1.05*1D
$GNGSA,A,3,80,73,69,84,68,70,74,,,,,,1.24,0.67,1.05*1B
$GPGSV,4,1,15,05,29,030,24,10,15,214,27,12,69,124,40,13,12,095,39*7C
$GPGSV,4,2,15,15,43,122,40,18,29,305,38,23,57,220,32,24,27,167,31*71
$GPGSV,4,3,15,25,72,332,39,28,08,281,,29,19,356,31,36,52,277,35*7E
$GPGSV,4,4,15,40,86,351,42,41,58,082,31,49,32,274,*4B
$GLGSV,3,1,09,68,06,050,21,69,38,090,42,70,32,175,22,73,67,254,35*6E
$GLGSV,3,2,09,74,33,315,23,80,32,168,31,84,09,345,10,85,05,298,*61
$GLGSV,3,3,09,,,,34*6B
$GNGLL,0419.82254,S,05539.92461,E,072534.00,A,D*6F
$GNTXT,01,01,01,More than 100 frame errors, UART RX was disabled*70
$GNRMC,072535.00,A,0419.82253,S,05539.92461,E,0.022,,200525,,,D*70
$GNVTG,,T,,M,0.022,N,0.042,K,D*3E
$GNGGA,072535.00,0419.82253,S,05539.92461,E,2,12,0.67,11.8,M,-47.6,M,,0000*48
$GNGSA,A,3,05,12,24,18,15,25,23,13,29,10,,,1.24,0.67,1.05*1D
$GNGSA,A,3,80,73,69,84,68,70,74,,,,,,1.24,0.67,1.05*1B
$GPGSV,4,1,15,05,29,030,26,10,15,214,27,12,69,124,41,13,12,095,40*71
$GPGSV,4,2,15,15,43,122,40,18,29,305,38,23,57,220,33,24,27,167,31*70
$GPGSV,4,3,15,25,72,332,39,28,08,281,,29,19,356,30,36,52,277,35*7F
$GPGSV,4,4,15,40,86,351,43,41,58,082,31,49,32,274,*4A
$GLGSV,3,1,09,68,06,050,22,69,38,090,42,70,32,175,22,73,67,254,35*6D
$GLGSV,3,2,09,74,33,315,23,80,32,168,31,84,09,345,15,85,05,298,*64
$GLGSV,3,3,09,,,,34*6B
$GNGLL,0419.82253,S,05539.92461,E,072535.00,A,D*69
$GNTXT,01,01,01,More than 100 frame errors, UART RX was disabled*70
$GNRMC,072536.00,A,0419.82250,S,05539.92462,E,0.039,,200525,,,D*79
$GNVTG,,T,,M,0.039,N,0.072,K,D*37
$GNGGA,072536.00,0419.82250,S,05539.92462,E,2,12,0.67,12.0,M,-47.6,M,,0000*40
$GNGSA,A,3,05,12,24,18,15,25,23,13,29,10,,,1.24,0.67,1.05*1D
$GNGSA,A,3,80,73,69,84,68,70,74,,,,,,1.24,0.67,1.05*1B
$GPGSV,4,1,15,05,29,030,27,10,15,214,26,12,69,124,41,13,12,095,40*71
$GPGSV,4,2,15,15,43,122,41,18,29,305,38,23,57,220,33,24,27,167,32*72
$GPGSV,4,3,15,25,72,332,40,28,08,281,,29,19,356,30,36,52,277,35*71
$GPGSV,4,4,15,40,86,351,43,41,58,082,32,49,32,274,*49
$GLGSV,3,1,09,68,06,050,21,69,38,090,41,70,32,175,22,73,67,254,35*6D
$GLGSV,3,2,09,74,33,315,23,80,32,168,31,84,09,345,10,85,05,298,*61
$GLGSV,3,3,09,,,,34*6B
$GNGLL,0419.82250,S,05539.92462,E,072536.00,A,D*6A
$GNTXT,01,01,01,More than 100 frame errors, UART RX was disabled*70
$GNRMC,072537.00,A,0419.82248,S,05539.92463,E,0.018,,200525,,,D*73
$GNVTG,,T,,M,0.018,N,0.034,K,D*36
$GNGGA,072537.00,0419.82248,S,05539.92463,E,2,12,0.65,12.1,M,-47.6,M,,0000*4A
$GNGSA,A,3,05,12,24,18,15,25,23,13,29,10,,,1.16,0.65,0.97*14
$GNGSA,A,3,80,73,69,84,68,70,74,,,,,,1.16,0.65,0.97*12
$GPGSV,4,1,15,05,29,030,28,10,15,214,27,12,69,124,41,13,12,095,40*7F
$GPGSV,4,2,15,15,43,122,41,18,29,305,38,23,57,220,33,24,27,167,32*72
$GPGSV,4,3,15,25,72,332,40,28,08,281,,29,19,356,30,36,52,277,35*71
$GPGSV,4,4,15,40,86,351,43,41,58,082,32,49,32,274,*49
$GLGSV,3,1,09,68,06,050,21,69,38,090,41,70,32,175,21,73,67,254,35*6E
$GLGSV,3,2,09,74,33,315,22,80,32,168,31,84,09,345,12,85,05,298,*62
$GLGSV,3,3,09,,,,34*6B
$GNGLL,0419.82248,S,05539.92463,E,072537.00,A,D*63
$GNTXT,01,01,01,More than 100 frame errors, UART RX was disabled*70
$GNRMC,072538.00,A,0419.82246,S,05539.92464,E,0.030,,200525,,,D*7F
$GNVTG,,T,,M,0.030,N,0.055,K,D*3B
$GNGGA,072538.00,0419.82246,S,05539.92464,E,2,12,0.65,12.2,M,-47.6,M,,0000*4F
$GNGSA,A,3,05,12,24,18,15,25,23,13,29,10,,,1.19,0.65,1.00*14
$GNGSA,A,3,80,73,69,84,68,70,74,,,,,,1.19,0.65,1.00*12
$GPGSV,4,1,15,05,29,030,28,10,15,214,27,12,69,124,41,13,12,095,40*7F
$GPGSV,4,2,15,15,43,122,41,18,29,305,38,23,57,220,34,24,27,167,32*75
$GPGSV,4,3,15,25,72,332,40,28,08,281,,29,19,356,29,36,52,277,34*78
$GPGSV,4,4,15,40,86,351,43,41,58,082,32,49,32,274,*49
$GLGSV,3,1,09,68,06,050,19,69,38,090,41,70,32,175,21,73,67,254,35*65
$GLGSV,3,2,09,74,33,315,21,80,32,168,31,84,09,345,11,85,05,298,*62
$GLGSV,3,3,09,,,,34*6B
$GNGLL,0419.82246,S,05539.92464,E,072538.00,A,D*65
$GNTXT,01,01,01,More than 100 frame errors, UART RX was disabled*70
$GNRMC,072539.00,A,0419.82245,S,05539.92464,E,0.024,,200525,,,D*78
$GNVTG,,T,,M,0.024,N,0.045,K,D*3F
$GNGGA,072539.00,0419.82245,S,05539.92464,E,2,12,0.65,12.2,M,-47.6,M,,0000*4D
$GNGSA,A,3,05,12,24,18,15,25,23,13,29,10,,,1.19,0.65,1.00*14
$GNGSA,A,3,80,73,69,84,68,70,74,,,,,,1.19,0.65,1.00*12
$GPGSV,4,1,15,05,29,030,28,10,15,214,27,12,69,124,41,13,12,095,40*7F
$GPGSV,4,2,15,15,43,122,41,18,29,305,38,23,57,220,33,24,27,167,32*72
$GPGSV,4,3,15,25,72,332,40,28,08,281,,29,19,356,29,36,52,277,35*79
$GPGSV,4,4,15,40,86,351,43,41,58,082,32,49,32,274,*49
$GLGSV,3,1,09,68,06,050,21,69,38,090,41,70,32,175,21,73,67,254,35*6E
$GLGSV,3,2,09,74,33,315,22,80,32,168,31,84,09,345,12,85,05,298,*62
$GLGSV,3,3,09,,,,34*6B
$GNGLL,0419.82245,S,05539.92464,E,072539.00,A,D*67
$GNTXT,01,01,01,More than 100 frame errors, UART RX was disabled*70
$GNRMC,072540.00,A,0419.82244,S,05539.92463,E,0.018,,200525,,,D*7F
$GNVTG,,T,,M,0.018,N,0.033,K,D*31
$GNGGA,072540.00,0419.82244,S,05539.92463,E,2,12,0.65,12.3,M,-47.6,M,,0000*44
$GNGSA,A,3,05,12,24,18,15,25,23,13,29,10,,,1.19,0.65,1.00*14
$GNGSA,A,3,80,73,69,84,68,70,74,,,,,,1.19,0.65,1.00*12
$GPGSV,4,1,15,05,29,030,29,10,15,214,27,12,69,124,41,13,12,095,40*7E
$GPGSV,4,2,15,15,43,122,41,18,29,305,37,23,57,220,33,24,27,167,32*7D
$GPGSV,4,3,15,25,72,332,40,28,08,281,,29,19,356,29,36,52,277,35*79
$GPGSV,4,4,15,40,86,351,44,41,58,082,33,49,32,274,*4F
$GLGSV,3,1,09,68,06,050,25,69,38,090,41,70,32,175,22,73,67,254,36*6A
$GLGSV,3,2,09,74,33,315,22,80,32,168,31,84,09,345,11,85,05,298,*61
$GLGSV,3,3,09,,,,34*6B
$GNGLL,0419.82244,S,05539.92463,E,072540.00,A,D*6F
$GNTXT,01,01,01,More than 100 frame errors, UART RX was disabled*70
$GNRMC,072541.00,A,0419.82242,S,05539.92464,E,0.013,,200525,,,D*74
$GNVTG,,T,,M,0.013,N,0.025,K,D*3D
$GNGGA,072541.00,0419.82242,S,05539.92464,E,2,12,0.65,12.3,M,-47.6,M,,0000*44
$GNGSA,A,3,05,12,24,18,15,25,23,13,29,10,,,1.19,0.65,1.00*14
$GNGSA,A,3,80,73,69,84,68,70,74,,,,,,1.19,0.65,1.00*12
$GPGSV,4,1,15,05,29,030,29,10,15,214,28,12,69,124,41,13,12,095,40*71
$GPGSV,4,2,15,15,43,122,41,18,29,305,37,23,57,220,33,24,27,167,32*7D
$GPGSV,4,3,15,25,72,332,40,28,08,281,,29,19,356,29,36,52,277,35*79
$GPGSV,4,4,15,40,86,351,44,41,58,082,33,49,32,274,*4F
$GLGSV,3,1,09,68,06,050,27,69,38,090,41,70,32,175,22,73,67,254,36*68
$GLGSV,3,2,09,74,33,315,22,80,32,168,31,84,09,345,12,85,05,298,*62
$GLGSV,3,3,09,,,,34*6B
$GNGLL,0419.82242,S,05539.92464,E,072541.00,A,D*6F
$GNTXT,01,01,01,More than 100 frame errors, UART RX was disabled*70
$GNRMC,072542.00,A,0419.82241,S,05539.92465,E,0.009,,200525,,,D*7E
$GNVTG,,T,,M,0.009,N,0.017,K,D*37
$GNGGA,072542.00,0419.82241,S,05539.92465,E,2,12,0.65,12.4,M,-47.6,M,,0000*42
$GNGSA,A,3,05,12,24,18,15,25,23,13,29,10,,,1.19,0.65,1.00*14
$GNGSA,A,3,80,73,69,84,68,70,74,,,,,,1.19,0.65,1.00*12
$GPGSV,4,1,15,05,29,030,29,10,15,214,30,12,69,124,41,13,12,095,40*78
$GPGSV,4,2,15,15,43,122,41,18,29,305,37,23,57,220,33,24,27,167,33*7C
$GPGSV,4,3,15,25,72,332,40,28,08,281,,29,19,356,29,36,52,277,35*79
$GPGSV,4,4,15,40,86,351,44,41,58,082,33,49,32,274,*4F
$GLGSV,3,1,09,68,06,050,27,69,38,090,42,70,32,175,21,73,67,254,35*6B
$GLGSV,3,2,09,74,33,315,22,80,32,168,32,84,09,345,12,85,05,298,*61
$GLGSV,3,3,09,,,,34*6B
$GNGLL,0419.82241,S,05539.92465,E,072542.00,A,D*6E
$GNTXT,01,01,01,More than 100 frame errors, UART RX was disabled*70
$GNRMC,072543.00,A,0419.82241,S,05539.92465,E,0.028,,200525,,,D*7C
$GNVTG,,T,,M,0.028,N,0.053,K,D*34
$GNGGA,072543.00,0419.82241,S,05539.92465,E,2,12,0.65,12.4,M,-47.6,M,,0000*43
$GNGSA,A,3,05,12,24,18,15,25,23,13,29,10,,,1.19,0.65,1.00*14
$GNGSA,A,3,80,73,69,84,68,70,74,,,,,,1.19,0.65,1.00*12
$GPGSV,4,1,15,05,29,030,31,10,15,214,28,12,69,124,40,13,12,095,38*76
$GPGSV,4,2,15,15,43,122,40,18,29,305,37,23,57,220,33,24,27,167,32*7C
$GPGSV,4,3,15,25,72,332,39,28,08,281,,29,19,356,28,36,52,277,34*77
$GPGSV,4,4,15,40,86,351,42,41,58,082,31,49,32,274,*4B
$GLGSV,3,1,09,68,06,050,27,69,38,090,41,70,32,175,23,73,67,254,34*6B
$GLGSV,3,2,09,74,33,315,23,80,32,168,30,84,09,345,14,85,05,298,*64
$GLGSV,3,3,09,,,,33*6C
$GNGLL,0419.82241,S,05539.92465,E,072543.00,A,D*6F
$GNTXT,01,01,01,More than 100 frame errors, UART RX was disabled*70
$GNRMC,072544.00,A,0419.82240,S,05539.92464,E,0.106,,200525,,,D*76
$GNVTG,,T,,M,0.106,N,0.197,K,D*30
$GNGGA,072544.00,0419.82240,S,05539.92464,E,2,12,0.65,12.4,M,-47.6,M,,0000*44
$GNGSA,A,3,05,12,24,18,15,25,23,13,29,10,,,1.19,0.65,1.00*14
$GNGSA,A,3,80,73,69,84,68,70,74,,,,,,1.19,0.65,1.00*12
$GPGSV,4,1,15,05,29,030,30,10,15,214,28,12,69,124,43,13,12,095,42*79
$GPGSV,4,2,15,15,43,122,43,18,29,305,40,23,57,220,34,24,27,167,33*79
$GPGSV,4,3,15,25,72,332,42,28,08,281,,29,19,356,30,36,52,277,36*70
$GPGSV,4,4,15,40,86,351,45,41,58,082,36,49,32,274,*4B
$GLGSV,3,1,09,68,06,050,23,69,38,090,42,70,32,175,23,73,67,254,34*6C
$GLGSV,3,2,09,74,33,315,22,80,32,168,29,84,09,345,11,85,05,298,*68
$GLGSV,3,3,09,,,,35*6A
$GNGLL,0419.82240,S,05539.92464,E,072544.00,A,D*68
$GNTXT,01,01,01,More than 100 frame errors, UART RX was disabled*70
$GNRMC,072545.00,A,0419.82240,S,05539.92462,E,0.050,,200525,,,D*73
$GNVTG,,T,,M,0.050,N,0.093,K,D*37
$GNGGA,072545.00,0419.82240,S,05539.92462,E,2,12,0.65,12.5,M,-47.6,M,,0000*42
$GNGSA,A,3,05,12,24,18,15,25,23,13,29,10,,,1.19,0.65,1.00*14
$GNGSA,A,3,80,73,69,84,68,70,74,,,,,,1.19,0.65,1.00*12
$GPGSV,4,1,15,05,29,030,31,10,15,214,28,12,69,124,43,13,12,095,42*78
$GPGSV,4,2,15,15,43,122,43,18,29,305,40,23,57,220,34,24,27,167,35*7F
$GPGSV,4,3,15,25,72,332,42,28,08,281,,29,19,356,31,36,52,277,38*7F
$GPGSV,4,4,15,40,86,351,45,41,58,082,34,49,32,274,*49
$GLGSV,3,1,09,68,06,050,20,69,38,090,40,70,32,175,22,73,67,254,34*6C
$GLGSV,3,2,09,74,33,315,21,80,32,168,30,84,09,345,12,85,05,298,*60
$GLGSV,3,3,09,,,,34*6B
$GNGLL,0419.82240,S,05539.92462,E,072545.00,A,D*6F
$GNTXT,01,01,01,More than 100 frame errors, UART RX was disabled*70
$GNRMC,072546.00,A,0419.82234,S,05539.92464,E,0.391,,200525,,,D*7B
$GNVTG,,T,,M,0.391,N,0.723,K,D*35
$GNGGA,072546.00,0419.82234,S,05539.92464,E,2,12,0.65,12.4,M,-47.6,M,,0000*45
$GNGSA,A,3,05,12,24,18,15,25,23,13,29,10,,,1.19,0.65,1.00*14
$GNGSA,A,3,80,73,69,84,68,70,74,,,,,,1.19,0.65,1.00*12
$GPGSV,4,1,15,05,29,030,29,10,15,214,26,12,69,124,36,13,12,095,35*7D
$GPGSV,4,2,15,15,43,122,35,18,29,305,31,23,57,220,32,24,27,167,29*73
$GPGSV,4,3,15,25,72,332,34,28,08,281,,29,19,356,30,36,52,277,34*73
$GPGSV,4,4,15,40,86,351,37,41,58,082,32,49,32,274,*4A
$GLGSV,3,1,09,68,06,050,23,69,38,090,37,70,32,175,22,73,67,254,34*6F
$GLGSV,3,2,09,74,33,315,21,80,32,168,30,84,09,345,14,85,05,298,*66
$GLGSV,3,3,09,,,,27*69
$GNGLL,0419.82234,S,05539.92464,E,072546.00,A,D*69
$GNTXT,01,01,01,More than 100 frame errors, UART RX was disabled*70
$GNRMC,072547.00,A,0419.82232,S,05539.92462,E,0.064,,200525,,,D*73
$GNVTG,,T,,M,0.064,N,0.118,K,D*32
$GNGGA,072547.00,0419.82232,S,05539.92462,E,2,12,0.65,12.4,M,-47.6,M,,0000*44
$GNGSA,A,3,05,12,24,18,15,25,23,13,29,10,,,1.19,0.65,1.00*14
$GNGSA,A,3,80,73,69,84,68,70,74,,,,,,1.19,0.65,1.00*12
$GPGSV,4,1,15,05,29,030,28,10,15,214,25,12,69,124,43,13,12,095,40*7F
$GPGSV,4,2,15,15,43,122,43,18,29,305,38,23,57,220,31,24,27,167,30*70
$GPGSV,4,3,15,25,72,332,42,28,08,281,,29,19,356,29,36,52,277,38*76
$GPGSV,4,4,15,40,86,351,45,41,58,082,32,49,32,274,*4F
$GLGSV,3,1,09,68,06,050,25,69,38,090,42,70,32,175,22,73,67,254,36*69
$GLGSV,3,2,09,74,33,315,21,80,32,168,30,84,09,345,15,85,05,298,*67
$GLGSV,3,3,09,,,,34*6B
$GNGLL,0419.82232,S,05539.92462,E,072547.00,A,D*68
$GNTXT,01,01,01,More than 100 frame errors, UART RX was disabled*70
$GNRMC,072548.00,A,0419.82235,S,05539.92456,E,0.059,,200525,,,D*72
$GNVTG,,T,,M,0.059,N,0.109,K,D*3C
$GNGGA,072548.00,0419.82235,S,05539.92456,E,2,12,0.65,12.4,M,-47.6,M,,0000*4B
$GNGSA,A,3,05,12,24,18,15,25,23,13,29,10,,,1.19,0.65,1.00*14
$GNGSA,A,3,80,73,69,84,68,70,74,,,,,,1.19,0.65,1.00*12
$GPGSV,4,1,15,05,29,030,30,10,15,214,28,12,69,124,44,13,12,095,42*7E
$GPGSV,4,2,15,15,43,122,44,18,29,305,40,23,57,220,34,24,27,167,35*78
$GPGSV,4,3,15,25,72,332,43,28,08,281,,29,19,356,31,36,52,277,38*7E
$GPGSV,4,4,15,40,86,351,46,41,58,082,34,49,32,274,*4A
$GLGSV,3,1,09,68,06,050,27,69,38,090,42,70,32,175,22,73,67,254,36*6B
$GLGSV,3,2,09,74,33,315,22,80,32,168,32,84,09,345,16,85,05,298,*65
$GLGSV,3,3,09,,,,37*68
$GNGLL,0419.82235,S,05539.92456,E,072548.00,A,D*67
$GNTXT,01,01,01,More than 100 frame errors, UART RX was disabled*70
$GNRMC,072549.00,A,0419.82238,S,05539.92454,E,0.056,,200525,,,D*73
$GNVTG,,T,,M,0.056,N,0.104,K,D*3E
$GNGGA,072549.00,0419.82238,S,05539.92454,E,2,12,0.65,12.4,M,-47.6,M,,0000*45
$GNGSA,A,3,05,12,24,18,15,25,23,13,29,10,,,1.19,0.65,1.00*14
$GNGSA,A,3,80,73,69,84,68,70,74,,,,,,1.19,0.65,1.00*12
$GPGSV,4,1,15,05,29,030,30,10,15,214,28,12,69,124,43,13,12,095,42*79
$GPGSV,4,2,15,15,43,122,43,18,29,305,39,23,57,220,35,24,27,167,35*70
$GPGSV,4,3,15,25,72,332,42,28,08,281,,29,19,356,32,36,52,277,38*7C
$GPGSV,4,4,15,40,86,351,46,41,58,082,34,49,32,274,*4A
$GLGSV,3,1,09,68,06,050,28,69,38,090,42,70,32,175,22,73,67,254,36*64
$GLGSV,3,2,09,74,33,315,23,80,32,168,33,84,09,345,15,85,05,298,*66
$GLGSV,3,3,09,,,,36*69
$GNGLL,0419.82238,S,05539.92454,E,072549.00,A,D*69
$GNTXT,01,01,01,More than 100 frame errors, UART RX was disabled*70
$GNRMC,072550.00,A,0419.82238,S,05539.92453,E,0.041,,200525,,,D*7A
$GNVTG,,T,,M,0.041,N,0.076,K,D*3C
$GNGGA,072550.00,0419.82238,S,05539.92453,E,2,12,0.65,12.5,M,-47.6,M,,0000*4B
$GNGSA,A,3,05,12,24,18,15,25,23,13,29,10,,,1.19,0.65,1.00*14
$GNGSA,A,3,80,73,69,84,68,70,74,,,,,,1.19,0.65,1.00*12
$GPGSV,4,1,15,05,29,030,30,10,15,214,28,12,69,124,43,13,12,095,42*79
$GPGSV,4,2,15,15,43,122,43,18,29,305,40,23,57,220,35,24,27,167,35*7E
$GPGSV,4,3,15,25,72,332,43,28,08,281,,29,19,356,32,36,52,277,38*7D
$GPGSV,4,4,15,40,86,351,45,41,58,082,35,49,32,274,*48
$GLGSV,3,1,09,68,06,050,28,69,38,090,39,70,32,175,22,73,67,254,33*6D
$GLGSV,3,2,09,74,33,315,23,80,32,168,33,84,09,345,18,85,05,298,*6B
$GLGSV,3,3,09,,,,35*6A
$GNGLL,0419.82238,S,05539.92453,E,072550.00,A,D*66
$GNTXT,01,01,01,More than 100 frame errors, UART RX was disabled*70
$GNRMC,072551.00,A,0419.82238,S,05539.92455,E,0.016,,200525,,,D*7F
$GNVTG,,T,,M,0.016,N,0.030,K,D*3C
$GNGGA,072551.00,0419.82238,S,05539.92455,E,2,12,0.65,12.6,M,-47.6,M,,0000*4F
$GNGSA,A,3,05,12,24,18,15,25,23,13,29,10,,,1.19,0.65,1.00*14
$GNGSA,A,3,80,73,69,84,68,70,74,,,,,,1.19,0.65,1.00*12
$GPGSV,4,1,15,05,29,030,30,10,15,214,28,12,69,124,42,13,12,095,39*74
$GPGSV,4,2,15,15,43,122,43,18,29,305,40,23,57,220,34,24,27,167,34*7E
$GPGSV,4,3,15,25,72,332,39,28,08,281,,29,19,356,33,36,52,277,37*7E
$GPGSV,4,4,15,40,86,351,45,41,58,082,36,49,32,274,*4B
$GLGSV,3,1,09,68,06,050,25,69,38,090,41,70,32,175,21,73,67,254,35*6A
$GLGSV,3,2,09,74,33,315,21,80,32,168,32,84,09,345,15,85,05,298,*65
$GLGSV,3,3,09,,,,34*6B
$GNGLL,0419.82238,S,05539.92455,E,072551.00,A,D*61
$GNTXT,01,01,01,More than 100 frame errors, UART RX was disabled*70
$GNRMC,072552.00,A,0419.82238,S,05539.92454,E,0.012,,200525,,,D*79
$GNVTG,,T,,M,0.012,N,0.023,K,D*3A
$GNGGA,072552.00,0419.82238,S,05539.92454,E,2,12,0.65,12.6,M,-47.6,M,,0000*4D
$GNGSA,A,3,05,12,24,18,15,25,23,13,29,10,,,1.19,0.65,1.00*14
$GNGSA,A,3,80,73,69,84,68,70,74,,,,,,1.19,0.65,1.00*12
$GPGSV,4,1,15,05,29,030,35,10,15,214,30,12,69,124,42,13,12,095,41*77
$GPGSV,4,2,15,15,43,122,43,18,29,305,40,23,57,220,32,24,27,167,33*7F
$GPGSV,4,3,15,25,72,332,37,28,08,281,,29,19,356,35,36,52,277,37*76
$GPGSV,4,4,15,40,86,351,42,41,58,082,32,49,32,274,*48
$GLGSV,3,1,09,68,06,050,23,69,38,090,43,70,32,175,21,73,67,254,36*6D
$GLGSV,3,2,09,74,33,315,18,80,32,168,31,84,09,345,14,85,05,298,*6D
$GLGSV,3,3,09,,,,33*6C
$GNGLL,0419.82238,S,05539.92454,E,072552.00,A,D*63
$GNTXT,01,01,01,More than 100 frame errors, UART RX was disabled*70
$GNRMC,072553.00,A,0419.82238,S,05539.92455,E,0.020,,200525,,,D*78
$GNVTG,,T,,M,0.020,N,0.036,K,D*3F
$GNGGA,072553.00,0419.82238,S,05539.92455,E,2,12,0.65,12.6,M,-47.6,M,,0000*4D
$GNGSA,A,3,05,12,24,18,15,25,23,13,29,10,,,1.19,0.65,1.00*14
$GNGSA,A,3,80,73,69,84,68,70,74,,,,,,1.19,0.65,1.00*12
$GPGSV,4,1,15,05,29,030,34,10,15,214,30,12,69,124,42,13,12,095,41*76
$GPGSV,4,2,15,15,43,122,43,18,29,305,40,23,57,220,31,24,27,167,32*7D
$GPGSV,4,3,15,25,72,332,38,28,08,281,,29,19,356,35,36,52,277,37*79
$GPGSV,4,4,15,40,86,351,43,41,58,082,31,49,32,274,*4A
$GLGSV,3,1,09,68,06,050,21,69,38,090,42,70,32,175,20,73,67,254,36*6F
$GLGSV,3,2,09,74,33,315,17,80,32,168,31,84,09,345,13,85,05,298,*65
$GLGSV,3,3,09,,,,33*6C
$GNGLL,0419.82238,S,05539.92455,E,072553.00,A,D*63
$GNTXT,01,01,01,More than 100 frame errors, UART RX was disabled*70
$GNRMC,072554.00,A,0419.82237,S,05539.92456,E,0.035,,200525,,,D*77
$GNVTG,,T,,M,0.035,N,0.064,K,D*3C
$GNGGA,072554.00,0419.82237,S,05539.92456,E,2,12,0.65,12.6,M,-47.6,M,,0000*46
$GNGSA,A,3,05,12,24,18,15,25,23,13,29,10,,,1.19,0.65,1.00*14
$GNGSA,A,3,80,73,69,84,68,70,74,,,,,,1.19,0.65,1.00*12
$GPGSV,4,1,15,05,29,030,34,10,15,214,30,12,69,124,42,13,12,095,41*76
$GPGSV,4,2,15,15,43,122,43,18,29,305,40,23,57,220,31,24,27,167,33*7C
$GPGSV,4,3,15,25,72,332,38,28,08,281,,29,19,356,35,36,52,277,37*79
$GPGSV,4,4,15,40,86,351,43,41,58,082,30,49,32,274,*4B
$GLGSV,3,1,09,68,06,050,21,69,38,090,44,70,32,175,22,73,67,254,36*6B
$GLGSV,3,2,09,74,33,315,17,80,32,168,31,84,09,345,11,85,05,298,*67
$GLGSV,3,3,09,,,,34*6B
$GNGLL,0419.82237,S,05539.92456,E,072554.00,A,D*68
$GNTXT,01,01,01,More than 100 frame errors, UART RX was disabled*70
$GNRMC,072555.00,A,0419.82237,S,05539.92456,E,0.030,,200525,,,D*73
$GNVTG,,T,,M,0.030,N,0.056,K,D*38
$GNGGA,072555.00,0419.82237,S,05539.92456,E,2,12,0.63,12.6,M,-47.6,M,,0000*41
$GNGSA,A,3,05,12,24,18,15,25,23,13,29,10,,,1.13,0.63,0.94*14
$GNGSA,A,3,80,73,69,84,68,70,74,,,,,,1.13,0.63,0.94*12
$GPGSV,4,1,15,05,29,030,33,10,15,214,30,12,69,124,42,13,12,095,40*70
$GPGSV,4,2,15,15,43,122,44,18,29,305,40,23,57,220,30,24,27,167,32*7B
$GPGSV,4,3,15,25,72,332,39,28,08,281,,29,19,356,34,36,52,277,37*79
$GPGSV,4,4,15,40,86,351,43,41,58,082,30,49,32,274,*4B
$GLGSV,3,1,09,68,06,050,20,69,38,090,42,70,32,175,22,73,67,254,36*6C
$GLGSV,3,2,09,74,33,315,16,80,32,168,30,84,09,345,16,85,05,298,*60
$GLGSV,3,3,09,,,,34*6B
$GNGLL,0419.82237,S,05539.92456,E,072555.00,A,D*69
$GNTXT,01,01,01,More than 100 frame errors, UART RX was disabled*70
$GNRMC,072556.00,A,0419.82237,S,05539.92458,E,0.035,,200525,,,D*7B
$GNVTG,,T,,M,0.035,N,0.065,K,D*3D
$GNGGA,072556.00,0419.82237,S,05539.92458,E,2,12,0.65,12.7,M,-47.6,M,,0000*4B
$GNGSA,A,3,05,12,24,18,15,25,23,13,29,10,,,1.19,0.65,1.00*14
$GNGSA,A,3,80,73,69,84,68,70,74,,,,,,1.19,0.65,1.00*12
$GPGSV,4,1,15,05,29,030,32,10,15,214,30,12,69,124,42,13,12,095,40*71
$GPGSV,4,2,15,15,43,122,44,18,29,305,41,23,57,220,30,24,27,167,32*7A
$GPGSV,4,3,15,25,72,332,39,28,08,281,,29,19,356,34,36,52,277,37*79
$GPGSV,4,4,15,40,86,351,43,41,58,082,31,49,32,274,*4A
$GLGSV,3,1,09,68,06,050,22,69,38,090,42,70,32,175,22,73,67,254,37*6F
$GLGSV,3,2,09,74,33,315,18,80,32,168,30,84,09,345,16,85,05,298,*6E
$GLGSV,3,3,09,,,,34*6B
$GNGLL,0419.82237,S,05539.92458,E,072556.00,A,D*64
$GNTXT,01,01,01,More than 100 frame errors, UART RX was disabled*70
$GNRMC,072557.00,A,0419.82238,S,05539.92459,E,0.123,,200525,,,D*72
$GNVTG,,T,,M,0.123,N,0.228,K,D*30
$GNGGA,072557.00,0419.82238,S,05539.92459,E,2,12,0.65,12.7,M,-47.6,M,,0000*44
$GNGSA,A,3,05,12,24,18,15,25,23,13,29,10,,,1.19,0.65,1.00*14
$GNGSA,A,3,80,73,69,84,68,70,74,,,,,,1.19,0.65,1.00*12
$GPGSV,4,1,15,05,29,030,31,10,15,214,30,12,69,124,42,13,12,095,38*7D
$GPGSV,4,2,15,15,43,122,43,18,29,305,40,23,57,220,31,24,27,167,31*7E
$GPGSV,4,3,15,25,72,332,38,28,08,281,,29,19,356,34,36,52,277,36*79
$GPGSV,4,4,15,40,86,351,45,41,58,082,33,49,32,274,*4E
$GLGSV,3,1,09,68,06,050,21,69,38,090,42,70,32,175,23,73,67,254,37*6D
$GLGSV,3,2,09,74,33,315,19,80,32,168,30,84,09,345,16,85,05,298,*6F
$GLGSV,3,3,09,,,,34*6B
$GNGLL,0419.82238,S,05539.92459,E,072557.00,A,D*6B
$GNTXT,01,01,01,More than 100 frame errors, UART RX was disabled*70
$GNRMC,072558.00,A,0419.82238,S,05539.92460,E,0.018,,200525,,,D*7E
$GNVTG,,T,,M,0.018,N,0.034,K,D*36
$GNGGA,072558.00,0419.82238,S,05539.92460,E,2,12,0.65,12.7,M,-47.6,M,,0000*41
$GNGSA,A,3,05,12,24,18,15,25,23,13,29,10,,,1.19,0.65,1.00*14
$GNGSA,A,3,80,73,69,84,68,70,74,,,,,,1.19,0.65,1.00*12
$GPGSV,4,1,15,05,29,030,30,10,15,214,30,12,69,124,43,13,12,095,40*72
$GPGSV,4,2,15,15,43,122,43,18,29,305,40,23,57,220,31,24,27,167,31*7E
$GPGSV,4,3,15,25,72,332,41,28,08,281,,29,19,356,33,36,52,277,37*71
$GPGSV,4,4,15,40,86,351,45,41,58,082,33,49,32,274,*4E
$GLGSV,3,1,09,68,06,050,21,69,38,090,42,70,32,175,22,73,67,254,35*6E
$GLGSV,3,2,09,74,33,315,19,80,32,168,29,84,09,345,11,85,05,298,*60
$GLGSV,3,3,09,,,,36*69
$GNGLL,0419.82238,S,05539.92460,E,072558.00,A,D*6E
$GNTXT,01,01,01,More than 100 frame errors, UART RX was disabled*70
$GNRMC,072559.00,A,0419.82243,S,05539.92459,E,0.171,,200525,,,D*77
$GNVTG,,T,,M,0.171,N,0.317,K,D*3A
$GNGGA,072559.00,0419.82243,S,05539.92459,E,2,12,0.65,12.7,M,-47.6,M,,0000*46
$GNGSA,A,3,05,12,24,18,15,25,23,13,29,10,,,1.19,0.65,1.00*14
$GNGSA,A,3,80,73,69,84,68,70,74,,,,,,1.19,0.65,1.00*12
$GPGSV,4,1,15,05,29,030,29,10,15,214,30,12,69,124,37,13,12,095,34*7A
$GPGSV,4,2,15,15,43,122,35,18,29,305,33,23,57,220,30,24,27,167,30*7B
$GPGSV,4,3,15,25,72,332,36,28,08,281,,29,19,356,31,36,52,277,33*77
$GPGSV,4,4,15,40,86,351,37,41,58,082,31,49,32,274,*49
$GLGSV,3,1,09,68,06,049,20,69,38,090,38,70,32,175,21,73,67,254,34*68
$GLGSV,3,2,09,74,33,315,19,80,32,168,28,84,09,345,14,85,05,298,*64
$GLGSV,3,3,09,,,,31*6E
$GNGLL,0419.82243,S,05539.92459,E,072559.00,A,D*69
$GNTXT,01,01,01,More than 100 frame errors, UART RX was disabled*70
$GNRMC,072600.00,A,0419.82245,S,05539.92459,E,0.051,,200525,,,D*7D
$GNVTG,,T,,M,0.051,N,0.095,K,D*30
$GNGGA,072600.00,0419.82245,S,05539.92459,E,2,12,0.65,12.7,M,-47.6,M,,0000*4F
$GNGSA,A,3,05,12,24,18,15,25,23,13,29,10,,,1.19,0.65,1.00*14
$GNGSA,A,3,80,73,69,84,68,70,74,,,,,,1.19,0.65,1.00*12
$GPGSV,4,1,15,05,29,030,27,10,15,214,26,12,69,124,40,13,12,095,37*70
$GPGSV,4,2,15,15,43,122,41,18,29,305,37,23,57,220,28,24,27,167,27*73
$GPGSV,4,3,15,25,72,332,38,28,08,281,,29,19,356,29,36,52,277,34*77
$GPGSV,4,4,15,40,86,351,41,41,58,082,30,49,32,274,*49
$GLGSV,3,1,09,68,06,049,20,69,38,089,44,70,32,175,19,73,67,254,34*60
$GLGSV,3,2,09,74,33,315,18,80,32,168,31,84,09,345,10,85,05,298,*69
$GLGSV,3,3,09,,,,37*68
$GNGLL,0419.82245,S,05539.92459,E,072600.00,A,D*60
$GNTXT,01,01,01,More than 100 frame errors, UART RX was disabled*70
$GNRMC,072601.00,A,0419.82245,S,05539.92458,E,0.054,,200525,,,D*78
$GNVTG,,T,,M,0.054,N,0.101,K,D*39
$GNGGA,072601.00,0419.82245,S,05539.92458,E,2,12,0.65,12.7,M,-47.6,M,,0000*4F
$GNGSA,A,3,05,12,24,18,15,25,23,13,29,10,,,1.19,0.65,1.00*14
$GNGSA,A,3,80,73,69,84,68,70,74,,,,,,1.19,0.65,1.00*12
$GPGSV,4,1,15,05,29,030,28,10,15,214,27,12,69,124,40,13,12,095,38*71
$GPGSV,4,2,15,15,43,122,41,18,29,305,37,23,57,220,29,24,27,167,28*7D
$GPGSV,4,3,15,25,72,332,38,28,08,281,,29,19,356,31,36,52,277,34*7E
$GPGSV,4,4,15,40,86,351,41,41,58,082,31,49,32,274,*48
$GLGSV,3,1,09,68,06,049,21,69,38,089,43,70,33,174,21,73,67,254,34*6D
$GLGSV,3,2,09,74,33,315,20,80,32,168,30,84,09,345,13,85,05,298,*60
$GLGSV,3,3,09,,,,36*69
$GNGLL,0419.82245,S,05539.92458,E,072601.00,A,D*60
$GNTXT,01,01,01,More than 100 frame errors, UART RX was disabled*70
$GNRMC,072602.00,A,0419.82245,S,05539.92458,E,0.073,,200525,,,D*7E
$GNVTG,,T,,M,0.073,N,0.134,K,D*3A
$GNGGA,072602.00,0419.82245,S,05539.92458,E,2,12,0.65,12.7,M,-47.6,M,,0000*4C
$GNGSA,A,3,05,12,24,18,15,25,23,13,29,10,,,1.19,0.65,1.00*14
$GNGSA,A,3,80,73,69,84,68,70,74,,,,,,1.19,0.65,1.00*12
$GPGSV,4,1,15,05,29,030,29,10,15,214,27,12,69,124,40,13,12,095,38*70
$GPGSV,4,2,15,15,43,122,41,18,29,305,37,23,57,220,30,24,27,167,28*75
$GPGSV,4,3,15,25,72,332,38,28,08,281,,29,19,356,31,36,52,277,34*7E
$GPGSV,4,4,15,40,86,351,41,41,58,082,31,49,32,274,*48
$GLGSV,3,1,09,68,06,049,21,69,38,089,44,70,33,174,22,73,67,254,34*69
$GLGSV,3,2,09,74,33,315,21,80,32,168,29,84,09,345,13,85,05,298,*69
$GLGSV,3,3,09,,,,36*69
$GNGLL,0419.82245,S,05539.92458,E,072602.00,A,D*63
$GNTXT,01,01,01,More than 100 frame errors, UART RX was disabled*70
$GNRMC,072603.00,A,0419.82245,S,05539.92460,E,0.033,,200525,,,D*70
$GNVTG,,T,,M,0.033,N,0.060,K,D*3E
$GNGGA,072603.00,0419.82245,S,05539.92460,E,2,12,0.65,12.8,M,-47.6,M,,0000*49
$GNGSA,A,3,05,12,24,18,15,25,23,13,29,10,,,1.19,0.65,1.00*14
$GNGSA,A,3,80,73,69,84,68,70,74,,,,,,1.19,0.65,1.00*12
$GPGSV,4,1,15,05,29,030,29,10,15,214,27,12,69,124,40,13,12,095,38*70
$GPGSV,4,2,15,15,43,122,41,18,29,305,37,23,57,220,30,24,27,167,28*75
$GPGSV,4,3,15,25,72,332,38,28,08,281,,29,19,356,30,36,52,277,34*7F
$GPGSV,4,4,15,40,86,351,41,41,58,082,30,49,32,274,*49
$GLGSV,3,1,09,68,06,049,21,69,38,089,44,70,33,174,22,73,67,254,34*69
$GLGSV,3,2,09,74,33,315,21,80,32,168,28,84,09,345,08,85,05,298,*62
$GLGSV,3,3,09,,,,36*69
$GNGLL,0419.82245,S,05539.92460,E,072603.00,A,D*69
$GNTXT,01,01,01,More than 100 frame errors, UART RX was disabled*70
$GNRMC,072604.00,A,0419.82246,S,05539.92462,E,0.013,,200525,,,D*74
$GNVTG,,T,,M,0.013,N,0.025,K,D*3D
$GNGGA,072604.00,0419.82246,S,05539.92462,E,2,12,0.63,12.9,M,-47.6,M,,0000*48
$GNGSA,A,3,05,12,24,18,15,25,23,13,29,10,,,1.13,0.63,0.94*14
$GNGSA,A,3,80,73,69,84,68,70,74,,,,,,1.13,0.63,0.94*12
$GPGSV,4,1,15,05,29,030,30,10,15,214,28,12,69,124,40,13,12,095,38*77
$GPGSV,4,2,15,15,43,122,42,18,29,305,38,23,57,220,30,24,27,167,29*78
$GPGSV,4,3,15,25,72,332,39,28,08,281,,29,19,356,31,36,52,277,35*7E
$GPGSV,4,4,15,40,86,351,42,41,58,082,31,49,32,274,*4B
$GLGSV,3,1,09,68,06,049,20,69,38,089,44,70,33,174,22,73,67,252,34*6E
$GLGSV,3,2,09,74,33,315,22,80,32,168,30,84,09,345,12,85,05,298,*63
$GLGSV,3,3,09,,,,37*68
$GNGLL,0419.82246,S,05539.92462,E,072604.00,A,D*6F
$GNTXT,01,01,01,More than 100 frame errors, UART RX was disabled*70
$GNRMC,072605.00,A,0419.82247,S,05539.92463,E,0.042,,200525,,,D*71
$GNVTG,,T,,M,0.042,N,0.078,K,D*31
$GNGGA,072605.00,0419.82247,S,05539.92463,E,2,12,0.65,12.9,M,-47.6,M,,0000*4F
$GNGSA,A,3,05,12,24,18,15,25,23,13,29,10,,,1.19,0.65,1.00*14
$GNGSA,A,3,80,73,69,84,68,70,74,,,,,,1.19,0.65,1.00*12
$GPGSV,4,1,15,05,29,030,31,10,15,214,28,12,69,124,41,13,12,095,39*76
$GPGSV,4,2,15,15,43,122,43,18,29,305,39,23,57,220,31,24,27,167,31*70
$GPGSV,4,3,15,25,72,332,41,28,08,281,,29,19,356,32,36,52,277,36*71
$GPGSV,4,4,15,40,86,351,43,41,58,082,32,49,32,274,*49
$GLGSV,3,1,09,68,06,049,19,69,38,089,44,70,33,174,21,73,67,252,34*67
$GLGSV,3,2,09,74,33,315,22,80,32,168,31,84,09,345,13,85,05,298,*63
$GLGSV,3,3,09,,,,37*68
$GNGLL,0419.82247,S,05539.92463,E,072605.00,A,D*6E
$GNTXT,01,01,01,More than 100 frame errors, UART RX was disabled*70
$GNRMC,072606.00,A,0419.82247,S,05539.92464,E,0.034,,200525,,,D*74
$GNVTG,,T,,M,0.034,N,0.063,K,D*3A
$GNGGA,072606.00,0419.82247,S,05539.92464,E,2,12,0.65,12.9,M,-47.6,M,,0000*4B
$GNGSA,A,3,05,12,24,18,15,25,23,13,29,10,,,1.19,0.65,1.00*14
$GNGSA,A,3,80,73,69,68,70,74,,,,,,,1.19,0.65,1.00*1E
$GPGSV,4,1,15,05,29,030,31,10,15,214,28,12,69,124,41,13,12,095,39*76
$GPGSV,4,2,15,15,43,122,43,18,29,305,39,23,57,220,32,24,27,167,30*72
$GPGSV,4,3,15,25,72,332,41,28,08,281,,29,19,356,32,36,52,277,36*71
$GPGSV,4,4,15,40,86,351,43,41,58,082,33,49,32,274,*48
$GLGSV,3,1,09,68,06,049,18,69,38,089,44,70,33,174,21,73,67,252,35*67
$GLGSV,3,2,09,74,33,315,22,80,32,168,30,84,09,345,05,85,05,298,*65
$GLGSV,3,3,09,,,,37*68
$GNGLL,0419.82247,S,05539.92464,E,072606.00,A,D*6A
$GNTXT,01,01,01,More than 100 frame errors, UART RX was disabled*70
$GNRMC,072607.00,A,0419.82248,S,05539.92466,E,0.051,,200525,,,D*7B
$GNVTG,,T,,M,0.051,N,0.095,K,D*30
$GNGGA,072607.00,0419.82248,S,05539.92466,E,2,12,0.65,13.0,M,-47.6,M,,0000*4F
$GNGSA,A,3,05,12,24,18,15,25,23,13,29,10,,,1.19,0.65,1.00*14
$GNGSA,A,3,80,73,69,84,68,70,74,,,,,,1.19,0.65,1.00*12
$GPGSV,4,1,15,05,29,030,31,10,15,214,27,12,69,124,40,13,12,095,39*78
$GPGSV,4,2,15,15,43,122,43,18,29,305,39,23,57,220,33,24,27,167,30*73
$GPGSV,4,3,15,25,72,332,40,28,08,281,,29,19,356,32,36,52,277,36*70
$GPGSV,4,4,15,40,86,351,43,41,58,082,36,49,32,274,*4D
$GLGSV,3,1,09,68,06,049,17,69,38,089,44,70,33,174,21,73,67,252,36*6B
$GLGSV,3,2,09,74,33,315,22,80,32,168,31,84,09,345,14,85,05,298,*64
$GLGSV,3,3,09,,,,37*68
$GNGLL,0419.82248,S,05539.92466,E,072607.00,A,D*66
$GNTXT,01,01,01,More than 100 frame errors, UART RX was disabled*70
$GNRMC,072608.00,A,0419.82249,S,05539.92467,E,0.006,,200525,,,D*76
$GNVTG,,T,,M,0.006,N,0.011,K,D*3E
$GNGGA,072608.00,0419.82249,S,05539.92467,E,2,12,0.65,13.0,M,-47.6,M,,0000*40
$GNGSA,A,3,05,12,24,18,15,25,23,13,29,10,,,1.19,0.65,1.00*14
$GNGSA,A,3,80,73,69,84,68,70,74,,,,,,1.19,0.65,1.00*12
$GPGSV,4,1,15,05,29,030,31,10,15,214,27,12,69,124,41,13,12,095,39*79
$GPGSV,4,2,15,15,43,122,43,18,29,305,39,23,57,220,34,24,27,167,30*74
$GPGSV,4,3,15,25,72,332,40,28,08,281,,29,19,356,32,36,52,277,36*70
$GPGSV,4,4,15,40,86,351,43,41,58,082,35,49,32,274,*4E
$GLGSV,3,1,09,68,06,049,17,69,38,089,44,70,33,174,20,73,67,252,36*6A
$GLGSV,3,2,09,74,33,315,22,80,32,168,31,84,09,345,13,85,05,298,*63
$GLGSV,3,3,09,,,,38*67
$GNGLL,0419.82249,S,05539.92467,E,072608.00,A,D*69
$GNTXT,01,01,01,More than 100 frame errors, UART RX was disabled*70
$GNRMC,072609.00,A,0419.82248,S,05539.92469,E,0.013,,200525,,,D*7C
$GNVTG,,T,,M,0.013,N,0.024,K,D*3C
$GNGGA,072609.00,0419.82248,S,05539.92469,E,2,12,0.65,13.1,M,-47.6,M,,0000*4F
$GNGSA,A,3,05,12,24,18,15,25,23,13,29,10,,,1.19,0.65,1.00*14
$GNGSA,A,3,80,73,69,84,68,70,74,,,,,,1.19,0.65,1.00*12
$GPGSV,4,1,15,05,29,030,30,10,15,214,27,12,69,124,39,13,12,095,37*79
$GPGSV,4,2,15,15,43,122,42,18,29,305,37,23,57,220,32,24,27,167,31*7C
$GPGSV,4,3,15,25,72,332,39,28,08,281,,29,19,356,31,36,52,277,35*7E
$GPGSV,4,4,15,40,86,351,42,41,58,082,34,49,32,274,*4E
$GLGSV,3,1,09,68,06,049,16,69,38,089,44,70,33,174,20,73,67,252,35*68
$GLGSV,3,2,09,74,33,315,23,80,32,168,31,84,09,345,10,85,05,298,*61
$GLGSV,3,3,09,,,,38*67
$GNGLL,0419.82248,S,05539.92469,E,072609.00,A,D*67
$GNTXT,01,01,01,More than 100 frame errors, UART RX was disabled*70
$GNRMC,072610.00,A,0419.82248,S,05539.92470,E,0.022,,200525,,,D*7E
$GNVTG,,T,,M,0.022,N,0.042,K,D*3E
$GNGGA,072610.00,0419.82248,S,05539.92470,E,2,12,0.65,13.1,M,-47.6,M,,0000*4F
$GNGSA,A,3,05,12,24,18,15,25,23,13,29,10,,,1.19,0.65,1.00*14
$GNGSA,A,3,80,73,69,84,68,70,74,,,,,,1.19,0.65,1.00*12
$GPGSV,4,1,15,05,29,030,30,10,15,214,27,12,69,124,40,13,12,095,38*78
$GPGSV,4,2,15,15,43,122,42,18,29,305,38,23,57,220,31,24,27,167,30*71
$GPGSV,4,3,15,25,72,332,39,28,08,281,,29,19,356,31,36,52,277,35*7E
$GPGSV,4,4,15,40,86,351,42,41,58,082,34,49,32,274,*4E
$GLGSV,3,1,09,68,06,049,16,69,38,089,44,70,33,174,20,73,67,252,35*68
$GLGSV,3,2,09,74,33,315,23,80,32,168,31,84,09,345,12,85,05,298,*63
$GLGSV,3,3,09,,,,38*67
$GNGLL,0419.82248,S,05539.92470,E,072610.00,A,D*67
$GNTXT,01,01,01,More than 100 frame errors, UART RX was disabled*70
$GNRMC,072611.00,A,0419.82249,S,05539.92470,E,0.022,,200525,,,D*7E
$GNVTG,,T,,M,0.022,N,0.040,K,D*3C
$GNGGA,072611.00,0419.82249,S,05539.92470,E,2,12,0.65,13.1,M,-47.6,M,,0000*4F
$GNGSA,A,3,05,12,24,18,15,25,23,13,29,10,,,1.19,0.65,1.00*14
$GNGSA,A,3,80,73,69,84,68,70,74,,,,,,1.19,0.65,1.00*12
$GPGSV,4,1,15,05,29,030,31,10,15,214,28,12,69,124,41,13,12,095,39*76
$GPGSV,4,2,15,15,43,122,43,18,29,305,39,23,57,220,32,24,27,167,31*73
$GPGSV,4,3,15,25,72,332,40,28,08,281,,29,19,356,31,36,52,277,35*70
$GPGSV,4,4,15,40,86,351,43,41,58,082,34,49,32,274,*4F
$GLGSV,3,1,09,68,06,049,17,69,38,089,44,70,33,174,20,73,67,252,35*69
$GLGSV,3,2,09,74,33,315,22,80,32,168,31,84,09,345,13,85,05,298,*63
$GLGSV,3,3,09,,,,37*68
$GNGLL,0419.82249,S,05539.92470,E,072611.00,A,D*67
$GNTXT,01,01,01,More than 100 frame errors, UART RX was disabled*70
$GNRMC,072612.00,A,0419.82248,S,05539.92471,E,0.025,,200525,,,D*7A
$GNVTG,,T,,M,0.025,N,0.046,K,D*3D
$GNGGA,072612.00,0419.82248,S,05539.92471,E,2,12,0.65,13.2,M,-47.6,M,,0000*4F
$GNGSA,A,3,05,12,24,18,15,25,23,13,29,10,,,1.19,0.65,1.00*14
$GNGSA,A,3,80,73,69,84,68,70,74,,,,,,1.19,0.65,1.00*12
$GPGSV,4,1,15,05,29,030,31,10,15,214,28,12,69,124,41,13,12,095,39*76
$GPGSV,4,2,15,15,43,122,43,18,29,305,39,23,57,220,32,24,27,167,32*70
$GPGSV,4,3,15,25,72,332,40,28,08,281,,29,19,356,31,36,52,277,36*73
$GPGSV,4,4,15,40,86,351,43,41,58,082,35,49,32,274,*4E
$GLGSV,3,1,09,68,06,049,16,69,38,089,44,70,33,174,20,73,67,252,35*68
$GLGSV,3,2,09,74,33,315,22,80,32,168,31,84,09,345,12,85,05,298,*62
$GLGSV,3,3,09,,,,38*67
$GNGLL,0419.82248,S,05539.92471,E,072612.00,A,D*64
$GNTXT,01,01,01,More than 100 frame errors, UART RX was disabled*70
$GNRMC,072613.00,A,0419.82248,S,05539.92472,E,0.010,,200525,,,D*7E
$GNVTG,,T,,M,0.010,N,0.018,K,D*30
$GNGGA,072613.00,0419.82248,S,05539.92472,E,2,12,0.63,13.2,M,-47.6,M,,0000*4B
$GNGSA,A,3,05,12,24,18,15,25,23,13,29,10,,,1.13,0.63,0.94*14
$GNGSA,A,3,80,73,69,84,68,70,74,,,,,,1.13,0.63,0.94*12
$GPGSV,4,1,15,05,29,030,31,10,15,214,28,12,69,124,41,13,12,095,39*76
$GPGSV,4,2,15,15,43,122,43,18,29,305,39,23,57,220,32,24,27,167,32*70
$GPGSV,4,3,15,25,72,332,40,28,08,281,,29,19,356,32,36,52,277,36*70
$GPGSV,4,4,15,40,86,351,43,41,58,082,35,49,32,274,*4E
$GLGSV,3,1,09,68,06,049,17,69,38,089,44,70,33,174,21,73,67,252,35*68
$GLGSV,3,2,09,74,33,315,22,80,32,168,31,84,09,345,12,85,05,298,*62
$GLGSV,3,3,09,,,,37*68
$GNGLL,0419.82248,S,05539.92472,E,072613.00,A,D*66
$GNTXT,01,01,01,More than 100 frame errors, UART RX was disabled*70
$GNRMC,072614.00,A,0419.82248,S,05539.92472,E,0.023,,200525,,,D*79
$GNVTG,,T,,M,0.023,N,0.042,K,D*3F
$GNGGA,072614.00,0419.82248,S,05539.92472,E,2,12,0.65,13.2,M,-47.6,M,,0000*4A
$GNGSA,A,3,05,12,24,18,15,25,23,13,29,10,,,1.19,0.65,1.00*14
$GNGSA,A,3,80,73,69,84,68,70,74,,,,,,1.19,0.65,1.00*12
$GPGSV,4,1,15,05,29,030,31,10,15,214,29,12,69,124,41,13,12,095,40*79
$GPGSV,4,2,15,15,43,122,43,18,29,305,39,23,57,220,32,24,27,167,31*73
$GPGSV,4,3,15,25,72,332,40,28,08,281,,29,19,356,32,36,52,277,36*70
$GPGSV,4,4,15,40,86,351,43,41,58,082,35,49,32,274,*4E
$GLGSV,3,1,09,68,06,049,15,69,38,089,44,70,33,174,20,73,67,252,34*6A
$GLGSV,3,2,09,74,33,315,22,80,32,168,31,84,09,345,16,85,05,298,*66
$GLGSV,3,3,09,,,,37*68
$GNGLL,0419.82248,S,05539.92472,E,072614.00,A,D*61
$GNTXT,01,01,01,More than 100 frame errors, UART RX was disabled*70
$GNRMC,072615.00,A,0419.82249,S,05539.92471,E,0.003,,200525,,,D*78
$GNVTG,,T,,M,0.003,N,0.006,K,D*3D
$GNGGA,072615.00,0419.82249,S,05539.92471,E,2,12,0.65,13.2,M,-47.6,M,,0000*49
$GNGSA,A,3,05,12,24,18,15,25,23,13,29,10,,,1.19,0.65,1.00*14
$GNGSA,A,3,80,73,69,84,68,70,74,,,,,,1.19,0.65,1.00*12
$GPGSV,4,1,15,05,29,030,31,10,15,214,29,12,69,124,40,13,12,095,39*76
$GPGSV,4,2,15,15,43,122,42,18,29,305,38,23,57,220,32,24,27,167,32*70
$GPGSV,4,3,15,25,72,332,40,28,08,281,,29,19,356,32,36,52,277,36*70
$GPGSV,4,4,15,40,86,351,43,41,58,082,35,49,32,274,*4E
$GLGSV,3,1,09,68,06,049,14,69,38,089,44,70,33,174,21,73,67,252,34*6A
$GLGSV,3,2,09,74,33,315,22,80,32,168,30,84,09,345,11,85,05,298,*60
$GLGSV,3,3,09,,,,37*68
$GNGLL,0419.82249,S,05539.92471,E,072615.00,A,D*62
$GNTXT,01,01,01,More than 100 frame errors, UART RX was disabled*70
$GNRMC,072616.00,A,0419.82248,S,05539.92471,E,0.015,,200525,,,D*7D
$GNVTG,,T,,M,0.015,N,0.028,K,D*36
$GNGGA,072616.00,0419.82248,S,05539.92471,E,2,12,0.63,13.2,M,-47.6,M,,0000*4D
$GNGSA,A,3,05,12,24,18,15,25,23,13,29,10,,,1.13,0.63,0.94*14
$GNGSA,A,3,80,73,69,84,68,70,74,,,,,,1.13,0.63,0.94*12
$GPGSV,4,1,15,05,29,030,31,10,15,214,29,12,69,124,41,13,12,095,39*77
$GPGSV,4,2,15,15,43,122,43,18,29,305,39,23,57,220,33,24,27,167,32*71
$GPGSV,4,3,15,25,72,332,41,28,08,281,,29,19,356,32,36,52,277,36*71
$GPGSV,4,4,15,40,86,351,43,41,58,082,35,49,32,274,*4E
$GLGSV,3,1,09,68,06,049,13,69,38,089,44,70,33,174,21,73,67,252,34*6D
$GLGSV,3,2,09,74,33,315,22,80,32,168,31,84,09,345,13,85,05,299,*62
$GLGSV,3,3,09,,,,37*68
$GNGLL,0419.82248,S,05539.92471,E,072616.00,A,D*60
$GNTXT,01,01,01,More than 100 frame errors, UART RX was disabled*70
$GNRMC,072617.00,A,0419.82249,S,05539.92470,E,0.039,,200525,,,D*72
$GNVTG,,T,,M,0.039,N,0.073,K,D*36
$GNGGA,072617.00,0419.82249,S,05539.92470,E,2,12,0.65,13.2,M,-47.6,M,,0000*4A
$GNGSA,A,3,05,12,24,18,15,25,23,13,29,10,,,1.19,0.65,1.00*14
$GNGSA,A,3,80,73,69,84,68,70,74,,,,,,1.19,0.65,1.00*12
$GPGSV,4,1,15,05,29,030,31,10,15,214,28,12,69,124,41,13,12,095,40*78
$GPGSV,4,2,15,15,43,122,44,18,29,305,40,23,57,220,32,24,27,167,31*7A
$GPGSV,4,3,15,25,72,332,42,28,08,281,,29,19,356,31,36,52,277,36*71
$GPGSV,4,4,15,40,86,351,43,41,58,082,35,49,32,274,*4E
$GLGSV,3,1,09,68,06,049,13,69,38,089,41,70,33,174,21,73,67,252,32*6E
$GLGSV,3,2,09,74,33,315,22,80,32,168,28,84,09,345,12,85,05,299,*6B
$GLGSV,3,3,09,,,,35*6A
$GNGLL,0419.82249,S,05539.92470,E,072617.00,A,D*61
$GNTXT,01,01,01,More than 100 frame errors, UART RX was disabled*70
$GNRMC,072618.00,A,0419.82249,S,05539.92469,E,0.088,,200525,,,D*7F
$GNVTG,,T,,M,0.088,N,0.163,K,D*3C
$GNGGA,072618.00,0419.82249,S,05539.92469,E,2,12,0.65,13.2,M,-47.6,M,,0000*4D
$GNGSA,A,3,05,12,24,18,15,25,23,13,29,10,,,1.19,0.65,1.00*14
$GNGSA,A,3,80,73,69,84,68,70,74,,,,,,1.19,0.65,1.00*12
$GPGSV,4,1,15,05,29,030,32,10,15,214,29,12,69,124,42,13,12,095,40*79
$GPGSV,4,2,15,15,43,122,44,18,29,305,40,23,57,220,34,24,27,167,32*7F
$GPGSV,4,3,15,25,72,332,42,28,08,281,,29,19,356,32,36,52,277,37*73
$GPGSV,4,4,15,40,86,351,44,41,58,082,36,49,32,274,*4A
$GLGSV,3,1,09,68,06,049,11,69,38,089,42,70,33,174,21,73,67,252,33*6E
$GLGSV,3,2,09,74,33,315,23,80,32,168,29,84,09,345,12,85,05,299,*6B
$GLGSV,3,3,09,,,,36*69
$GNGLL,0419.82249,S,05539.92469,E,072618.00,A,D*66
$GNTXT,01,01,01,More than 100 frame errors, UART RX was disabled*70
$GNRMC,072619.00,A,0419.82251,S,05539.92467,E,0.046,,200525,,,D*7B
$GNVTG,,T,,M,0.046,N,0.085,K,D*37
$GNGGA,072619.00,0419.82251,S,05539.92467,E,2,12,0.65,13.3,M,-47.6,M,,0000*4A
$GNGSA,A,3,05,12,24,18,15,25,23,13,29,10,,,1.19,0.65,1.00*14
$GNGSA,A,3,80,73,69,84,68,70,74,,,,,,1.19,0.65,1.00*12
$GPGSV,4,1,15,05,29,030,33,10,15,214,30,12,69,124,43,13,12,095,41*70
$GPGSV,4,2,15,15,43,122,45,18,29,305,40,23,57,220,35,24,27,167,33*7E
$GPGSV,4,3,15,25,72,332,43,28,08,281,,29,19,356,32,36,52,277,39*7C
$GPGSV,4,4,15,40,86,351,45,41,58,082,36,49,32,274,*4B
$GLGSV,3,1,09,68,06,049,10,69,38,089,42,70,33,174,20,73,67,252,33*6E
$GLGSV,3,2,09,74,33,315,20,80,32,168,29,84,09,345,11,85,05,299,*6B
$GLGSV,3,3,09,,,,36*69
$GNGLL,0419.82251,S,05539.92467,E,072619.00,A,D*60
$GNTXT,01,01,01,More than 100 frame errors, UART RX was disabled*70
$GNRMC,072620.00,A,0419.82252,S,05539.92466,E,0.015,,200525,,,D*75
$GNVTG,,T,,M,0.015,N,0.027,K,D*39
$GNGGA,072620.00,0419.82252,S,05539.92466,E,2,12,0.65,13.3,M,-47.6,M,,0000*42
$GNGSA,A,3,05,12,24,18,15,25,23,13,29,10,,,1.19,0.65,1.00*14
$GNGSA,A,3,80,73,69,84,68,70,74,,,,,,1.19,0.65,1.00*12
$GPGSV,4,1,15,05,29,030,33,10,15,214,31,12,69,124,43,13,12,095,41*71
$GPGSV,4,2,15,15,43,122,45,18,29,305,41,23,57,220,35,24,27,167,34*78
$GPGSV,4,3,15,25,72,332,42,28,08,281,,29,19,356,33,36,52,277,38*7D
$GPGSV,4,4,15,40,86,351,45,41,58,082,36,49,32,274,*4B
$GLGSV,3,1,09,68,06,049,13,69,38,089,44,70,33,174,19,73,67,252,34*66
$GLGSV,3,2,09,74,33,315,22,80,32,168,31,84,09,345,14,85,05,299,*65
$GLGSV,3,3,09,,,,37*68
$GNGLL,0419.82252,S,05539.92466,E,072620.00,A,D*68
$GNTXT,01,01,01,More than 100 frame errors, UART RX was disabled*70
$GNRMC,072621.00,A,0419.82252,S,05539.92466,E,0.022,,200525,,,D*70
$GNVTG,,T,,M,0.022,N,0.041,K,D*3D
$GNGGA,072621.00,0419.82252,S,05539.92466,E,2,12,0.65,13.3,M,-47.6,M,,0000*43
$GNGSA,A,3,05,12,24,18,15,25,23,13,29,10,,,1.19,0.65,1.00*14
$GNGSA,A,3,80,73,69,84,68,70,74,,,,,,1.19,0.65,1.00*12
$GPGSV,4,1,15,05,29,030,34,10,15,214,31,12,69,124,43,13,12,095,40*77
$GPGSV,4,2,15,15,43,122,44,18,29,305,41,23,57,220,34,24,27,167,34*78
$GPGSV,4,3,15,25,72,332,42,28,08,281,,29,19,356,34,36,52,277,38*7A
$GPGSV,4,4,15,40,86,351,45,41,58,082,36,49,32,274,*4B
$GLGSV,3,1,09,68,06,049,14,69,38,089,45,70,33,174,20,73,67,252,35*6B
$GLGSV,3,2,09,74,33,315,22,80,32,168,35,84,09,345,13,85,05,299,*66
