$GNRMC,071434.00,A,0419.80112,S,05539.90492,E,0.088,,200525,,,A*7C
$GNVTG,,T,,M,0.088,N,0.163,K,A*39
$GNGGA,071434.00,0419.80112,S,05539.90492,E,1,12,0.80,13.1,M,-47.6,M,,*40
$GNGSA,A,3,05,12,18,15,25,23,13,29,,,,,1.43,0.80,1.18*1E
$GNGSA,A,3,80,73,69,84,68,70,,,,,,,1.43,0.80,1.18*1C
$GPGSV,4,1,16,05,34,032,41,10,11,213,,12,72,109,35,13,13,100,29*7E
$GPGSV,4,2,16,15,42,129,38,18,30,299,11,20,01,033,25,23,53,215,33*76
$GPGSV,4,3,16,24,29,171,15,25,66,337,34,28,07,286,,29,16,352,38*72
$GPGSV,4,4,16,36,52,277,,40,86,351,,41,58,082,33,49,32,274,*7C
$GLGSV,3,1,09,68,09,055,37,69,38,098,32,70,28,179,08,73,68,273,27*6A
$GLGSV,3,2,09,74,28,320,15,80,38,168,23,84,10,340,09,85,07,292,*6C
$GLGSV,3,3,09,,,,28*66
$GNGLL,0419.80112,S,05539.90492,E,071434.00,A,A*65
$GNTXT,01,01,01,More than 100 frame errors, UART RX was disabled*70
$GNRMC,071435.00,A,0419.80110,S,05539.90487,E,0.068,,200525,,,A*75
$GNVTG,,T,,M,0.068,N,0.126,K,A*36
$GNGGA,071435.00,0419.80110,S,05539.90487,E,1,12,1.05,13.2,M,-47.6,M,,*48
$GNGSA,A,3,05,12,18,15,25,23,13,29,,,,,1.75,1.05,1.40*1A
$GNGSA,A,3,80,73,69,84,68,,,,,,,,1.75,1.05,1.40*1F
$GPGSV,4,1,16,05,34,032,35,10,11,213,,12,72,109,26,13,13,100,16*73
$GPGSV,4,2,16,15,42,129,35,18,30,299,11,20,01,033,22,23,53,215,34*7B
$GPGSV,4,3,16,24,29,171,16,25,66,337,28,28,07,286,,29,16,352,36*72
$GPGSV,4,4,16,36,52,277,,40,86,351,,41,58,082,28,49,32,274,*76
$GLGSV,3,1,09,68,09,055,37,69,38,098,27,70,28,179,09,73,68,273,25*6D
$GLGSV,3,2,09,74,28,320,15,80,38,168,20,84,10,340,11,85,07,292,*66
$GLGSV,3,3,09,,,,24*6A
$GNGLL,0419.80110,S,05539.90487,E,071435.00,A,A*62
$GNTXT,01,01,01,More than 100 frame errors, UART RX was disabled*70
$GNRMC,071436.00,A,0419.80107,S,05539.90484,E,0.030,,200525,,,A*7E
$GNVTG,,T,,M,0.030,N,0.056,K,A*3D
$GNGGA,071436.00,0419.80107,S,05539.90484,E,1,12,0.82,13.3,M,-47.6,M,,*41
$GNGSA,A,3,05,12,24,18,15,25,23,13,29,,,,1.45,0.82,1.20*17
$GNGSA,A,3,80,73,69,84,68,,,,,,,,1.45,0.82,1.20*14
$GPGSV,4,1,16,05,34,032,39,10,11,213,,12,72,109,27,13,13,100,27*7C
$GPGSV,4,2,16,15,42,129,36,18,30,299,10,20,01,033,20,23,53,215,28*76
$GPGSV,4,3,16,24,29,171,20,25,66,337,29,28,07,286,,29,16,352,36*76
$GPGSV,4,4,16,36,52,277,,40,86,351,,41,58,082,32,49,32,274,*7D
$GLGSV,3,1,09,68,09,055,38,69,38,098,29,70,28,179,09,73,68,273,25*6C
$GLGSV,3,2,09,74,28,320,15,80,38,168,19,84,10,340,14,85,07,292,*69
$GLGSV,3,3,09,,,,22*6C
$GNGLL,0419.80107,S,05539.90484,E,071436.00,A,A*64
$GNTXT,01,01,01,More than 100 frame errors, UART RX was disabled*70
$GNRMC,071437.00,A,0419.80106,S,05539.90482,E,0.126,,200525,,,A*7E
$GNVTG,,T,,M,0.126,N,0.234,K,A*3D
$GNGGA,071437.00,0419.80106,S,05539.90482,E,1,12,0.82,13.3,M,-47.6,M,,*47
$GNGSA,A,3,05,12,24,18,15,25,23,13,29,,,,1.45,0.82,1.20*17
$GNGSA,A,3,80,73,69,84,68,,,,,,,,1.45,0.82,1.20*14
$GPGSV,4,1,16,05,34,032,29,10,11,213,,12,72,109,28,13,13,100,25*70
$GPGSV,4,2,16,15,42,129,28,18,30,299,09,20,01,033,18,23,53,215,28*7A
$GPGSV,4,3,16,24,29,171,21,25,66,337,23,28,07,286,,29,16,352,31*7A
$GPGSV,4,4,16,36,52,277,,40,86,351,,41,58,082,,49,32,274,*7C
$GLGSV,3,1,09,68,09,055,32,69,38,098,25,70,28,179,10,73,68,273,24*63
$GLGSV,3,2,09,74,28,320,17,80,38,168,21,84,10,340,10,85,07,292,*64
$GLGSV,3,3,09,,,,28*66
$GNGLL,0419.80106,S,05539.90482,E,071437.00,A,A*62
$GNTXT,01,01,01,More than 100 frame errors, UART RX was disabled*70
$GNRMC,071438.00,A,0419.80102,S,05539.90479,E,0.015,,200525,,,A*70
$GNVTG,,T,,M,0.015,N,0.027,K,A*3C
$GNGGA,071438.00,0419.80102,S,05539.90479,E,1,12,0.78,13.3,M,-47.6,M,,*4D
$GNGSA,A,3,05,12,24,18,15,25,23,13,29,,,,1.34,0.78,1.10*17
$GNGSA,A,3,80,73,69,84,68,,,,,,,,1.34,0.78,1.10*14
$GPGSV,4,1,16,05,34,032,40,10,11,213,,12,72,109,33,13,13,100,25*75
$GPGSV,4,2,16,15,42,129,39,18,30,299,12,20,01,033,,23,53,215,32*72
$GPGSV,4,3,16,24,29,171,21,25,66,337,36,28,07,286,,29,16,352,39*76
$GPGSV,4,4,16,36,52,277,,40,86,351,,41,58,082,,49,32,274,*7C
$GLGSV,3,1,09,68,09,055,36,69,38,098,26,70,28,179,10,73,68,273,23*63
$GLGSV,3,2,09,74,28,320,14,80,38,168,18,84,10,340,08,85,07,292,*64
$GLGSV,3,3,09,,,,18*65
$GNGLL,0419.80102,S,05539.90479,E,071438.00,A,A*6D
$GNTXT,01,01,01,More than 100 frame errors, UART RX was disabled*70
$GNRMC,071439.00,A,0419.80096,S,05539.90476,E,0.114,,200525,,,A*72
$GNVTG,,T,,M,0.114,N,0.211,K,A*3B
$GNGGA,071439.00,0419.80096,S,05539.90476,E,1,12,0.82,13.3,M,-47.6,M,,*4A
$GNGSA,A,3,05,12,24,18,15,25,23,13,29,,,,1.45,0.82,1.20*17
$GNGSA,A,3,80,73,69,84,68,,,,,,,,1.45,0.82,1.20*14
$GPGSV,4,1,16,05,34,032,41,10,11,213,,12,72,109,36,13,13,100,32*77
$GPGSV,4,2,16,15,42,129,38,18,30,299,18,20,01,033,,23,53,215,35*7E
$GPGSV,4,3,16,24,29,171,29,25,66,337,35,28,07,286,,29,16,352,40*73
$GPGSV,4,4,16,36,52,277,,40,86,351,,41,58,082,,49,32,274,*7C
$GLGSV,3,1,09,68,09,055,42,69,38,098,32,70,28,179,10,73,68,273,25*63
$GLGSV,3,2,09,74,28,320,18,80,38,168,33,84,10,340,10,85,07,292,*68
$GLGSV,3,3,09,,,,29*67
$GNGLL,0419.80096,S,05539.90476,E,071439.00,A,A*6F
$GNTXT,01,01,01,More than 100 frame errors, UART RX was disabled*70
$GNRMC,071440.00,A,0419.80095,S,05539.90470,E,0.049,,200525,,,A*70
$GNVTG,,T,,M,0.049,N,0.091,K,A*38
$GNGGA,071440.00,0419.80095,S,05539.90470,E,1,12,0.82,13.3,M,-47.6,M,,*41
$GNGSA,A,3,05,12,24,18,15,25,23,13,29,,,,1.45,0.82,1.20*17
$GNGSA,A,3,80,73,69,84,68,,,,,,,,1.45,0.82,1.20*14
$GPGSV,4,1,16,05,34,032,42,10,11,213,,12,72,109,36,13,13,100,32*74
$GPGSV,4,2,16,15,42,129,41,18,30,299,12,20,01,033,,23,53,215,37*78
$GPGSV,4,3,16,24,29,171,27,25,66,337,36,28,07,286,,29,16,352,40*7E
$GPGSV,4,4,16,36,52,277,,40,86,351,,41,58,082,,49,32,274,*7C
$GLGSV,3,1,09,68,09,055,41,69,38,098,36,70,28,179,10,73,68,273,27*66
$GLGSV,3,2,09,74,28,320,20,80,38,168,27,84,10,340,12,85,07,292,*64
$GLGSV,3,3,09,,,,27*69
$GNGLL,0419.80095,S,05539.90470,E,071440.00,A,A*64
$GNTXT,01,01,01,More than 100 frame errors, UART RX was disabled*70
$GNRMC,071441.00,A,0419.80091,S,05539.90470,E,0.064,,200525,,,A*7A
$GNVTG,,T,,M,0.064,N,0.118,K,A*37
$GNGGA,071441.00,0419.80091,S,05539.90470,E,1,12,0.80,13.3,M,-47.6,M,,*46
$GNGSA,A,3,05,12,24,15,25,23,13,29,,,,,1.34,0.80,1.08*10
$GNGSA,A,3,80,73,69,84,68,70,,,,,,,1.34,0.80,1.08*1D
$GPGSV,4,1,16,05,34,032,41,10,11,213,,12,72,109,38,13,13,100,26*7C
$GPGSV,4,2,16,15,42,129,34,18,30,299,08,20,01,033,,23,53,215,37*71
$GPGSV,4,3,16,24,29,171,25,25,66,337,34,28,07,286,,29,16,352,40*7E
$GPGSV,4,4,16,36,52,277,,40,86,351,,41,58,082,,49,32,274,*7C
$GLGSV,3,1,09,68,09,055,42,69,38,098,35,70,28,179,12,73,68,273,27*64
$GLGSV,3,2,09,74,28,320,20,80,38,168,28,84,10,340,11,85,07,292,*68
$GLGSV,3,3,09,,,,27*69
$GNGLL,0419.80091,S,05539.90470,E,071441.00,A,A*61
$GNTXT,01,01,01,More than 100 frame errors, UART RX was disabled*70
$GNRMC,071442.00,A,0419.80080,S,05539.90485,E,0.013,,200525,,,A*73
$GNVTG,,T,,M,0.013,N,0.025,K,A*38
$GNGGA,071442.00,0419.80080,S,05539.90485,E,1,12,0.90,13.6,M,-47.6,M,,*4B
$GNGSA,A,3,05,12,24,15,25,23,13,29,,,,,1.55,0.90,1.26*1A
$GNGSA,A,3,80,73,69,84,68,70,,,,,,,1.55,0.90,1.26*17
$GPGSV,4,1,16,05,34,032,41,10,11,213,,12,72,109,35,13,13,100,32*74
$GPGSV,4,2,16,15,42,129,37,18,30,299,08,20,01,033,21,23,53,215,39*7F
$GPGSV,4,3,16,24,29,171,25,25,66,337,33,28,07,286,,29,16,352,39*77
$GPGSV,4,4,16,36,52,277,,40,86,351,,41,58,082,,49,32,274,*7C
$GLGSV,3,1,09,68,09,055,39,69,38,098,33,70,28,179,09,73,68,273,27*64
$GLGSV,3,2,09,74,28,320,20,80,38,168,26,84,10,340,12,85,07,292,*65
$GLGSV,3,3,09,,,,27*69
$GNGLL,0419.80080,S,05539.90485,E,071442.00,A,A*68
$GNTXT,01,01,01,More than 100 frame errors, UART RX was disabled*70
$GNRMC,071443.00,A,0419.80074,S,05539.90491,E,0.002,,200525,,,A*7C
$GNVTG,,T,,M,0.002,N,0.003,K,A*3C
$GNGGA,071443.00,0419.80074,S,05539.90491,E,1,12,0.90,13.7,M,-47.6,M,,*45
$GNGSA,A,3,05,12,24,15,25,23,13,29,,,,,1.55,0.90,1.26*1A
$GNGSA,A,3,80,73,69,84,68,70,,,,,,,1.55,0.90,1.26*17
$GPGSV,4,1,16,05,33,032,42,10,11,213,,12,72,109,38,13,13,100,31*7E
$GPGSV,4,2,16,15,42,129,36,18,30,299,08,20,01,033,23,23,53,215,38*7D
$GPGSV,4,3,16,24,29,171,25,25,66,337,32,28,07,286,,29,16,352,39*76
$GPGSV,4,4,16,36,52,277,,40,86,351,,41,58,082,,49,32,274,*7C
$GLGSV,3,1,09,68,09,055,40,69,38,098,34,70,28,179,10,73,68,273,27*65
$GLGSV,3,2,09,74,28,320,20,80,38,168,25,84,10,340,12,85,07,292,*66
$GLGSV,3,3,09,,,,28*66
$GNGLL,0419.80074,S,05539.90491,E,071443.00,A,A*67
$GNTXT,01,01,01,More than 100 frame errors, UART RX was disabled*70
$GNRMC,071444.00,A,0419.80066,S,05539.90496,E,0.057,,200525,,,A*7F
$GNVTG,,T,,M,0.057,N,0.106,K,A*38
$GNGGA,071444.00,0419.80066,S,05539.90496,E,1,12,0.96,13.9,M,-47.6,M,,*4E
$GNGSA,A,3,05,12,24,15,25,23,13,29,,,,,1.64,0.96,1.32*1B
$GNGSA,A,3,80,73,69,84,68,70,,,,,,,1.64,0.96,1.32*16
$GPGSV,4,1,16,05,33,032,42,10,11,213,,12,72,109,37,13,13,100,30*70
$GPGSV,4,2,16,15,42,129,38,18,30,299,08,20,01,033,23,23,53,215,38*73
$GPGSV,4,3,16,24,29,171,26,25,66,337,32,28,07,286,,29,16,352,41*7A
$GPGSV,4,4,16,36,52,277,,40,86,351,,41,58,082,,49,32,274,*7C
$GLGSV,3,1,09,68,09,054,39,69,38,098,35,70,28,179,09,73,68,273,27*63
$GLGSV,3,2,09,74,28,320,19,80,38,168,25,84,10,340,13,85,07,292,*6D
$GLGSV,3,3,09,,,,27*69
$GNGLL,0419.80066,S,05539.90496,E,071444.00,A,A*64
$GNTXT,01,01,01,More than 100 frame errors, UART RX was disabled*70
$GNRMC,071445.00,A,0419.80059,S,05539.90501,E,0.024,,200525,,,A*79
$GNVTG,,T,,M,0.024,N,0.045,K,A*3A
$GNGGA,071445.00,0419.80059,S,05539.90501,E,1,12,0.90,14.1,M,-47.6,M,,*45
$GNGSA,A,3,05,12,24,15,25,23,13,29,,,,,1.55,0.90,1.26*1A
$GNGSA,A,3,80,73,69,84,68,70,,,,,,,1.55,0.90,1.26*17
$GPGSV,4,1,16,05,33,032,42,10,11,213,,12,72,109,38,13,13,100,22*7C
$GPGSV,4,2,16,15,42,129,39,18,30,299,08,20,01,033,21,23,53,215,38*70
$GPGSV,4,3,16,24,29,171,28,25,66,337,32,28,07,286,,29,16,352,39*7B
$GPGSV,4,4,16,36,52,277,,40,86,351,,41,58,082,,49,32,274,*7C
$GLGSV,3,1,09,68,09,054,40,69,38,097,37,70,28,179,09,73,68,273,26*61
$GLGSV,3,2,09,74,28,320,19,80,38,168,27,84,10,340,10,85,07,292,*6C
$GLGSV,3,3,09,,,,25*6B
$GNGLL,0419.80059,S,05539.90501,E,071445.00,A,A*66
$GNTXT,01,01,01,More than 100 frame errors, UART RX was disabled*70
$GNRMC,071446.00,A,0419.80055,S,05539.90502,E,0.015,,200525,,,A*77
$GNVTG,,T,,M,0.015,N,0.027,K,A*3C
$GNGGA,071446.00,0419.80055,S,05539.90502,E,1,12,0.90,14.2,M,-47.6,M,,*4A
$GNGSA,A,3,05,12,24,18,15,25,23,13,29,,,,1.55,0.90,1.26*13
$GNGSA,A,3,80,73,69,84,68,70,,,,,,,1.55,0.90,1.26*17
$GPGSV,4,1,16,05,33,032,43,10,11,213,,12,72,109,38,13,13,100,26*79
$GPGSV,4,2,16,15,42,129,39,18,30,299,11,20,01,033,21,23,53,215,37*77
$GPGSV,4,3,16,24,29,171,28,25,66,337,32,28,07,286,,29,16,352,41*74
$GPGSV,4,4,16,36,52,277,,40,86,351,,41,58,082,,49,32,274,*7C
$GLGSV,3,1,09,68,09,054,39,69,38,097,36,70,28,178,10,73,68,273,26*67
$GLGSV,3,2,09,74,28,320,19,80,38,168,26,84,10,340,11,85,07,292,*6C
$GLGSV,3,3,09,,,,21*6F
$GNGLL,0419.80055,S,05539.90502,E,071446.00,A,A*6A
$GNTXT,01,01,01,More than 100 frame errors, UART RX was disabled*70
$GNRMC,071447.00,A,0419.80053,S,05539.90502,E,0.007,,200525,,,A*73
$GNVTG,,T,,M,0.007,N,0.013,K,A*38
$GNGGA,071447.00,0419.80053,S,05539.90502,E,1,12,0.86,14.2,M,-47.6,M,,*4A
$GNGSA,A,3,05,12,24,18,15,25,23,13,29,,,,1.42,0.86,1.13*14
$GNGSA,A,3,80,73,69,84,68,70,,,,,,,1.42,0.86,1.13*10
$GPGSV,4,1,16,05,33,032,42,10,11,213,,12,72,109,37,13,13,100,29*78
$GPGSV,4,2,16,15,42,129,40,18,30,299,12,20,01,033,22,23,53,215,37*79
$GPGSV,4,3,16,24,29,171,31,25,66,337,33,28,07,286,,29,16,352,39*72
$GPGSV,4,4,16,36,52,277,,40,86,351,,41,58,082,,49,32,274,*7C
$GLGSV,3,1,09,68,09,054,39,69,38,097,36,70,28,178,10,73,68,273,26*67
$GLGSV,3,2,09,74,28,320,19,80,38,168,26,84,10,340,11,85,07,292,*6C
$GLGSV,3,3,09,,,,15*68
$GNGLL,0419.80053,S,05539.90502,E,071447.00,A,A*6D
$GNTXT,01,01,01,More than 100 frame errors, UART RX was disabled*70
$GNRMC,071448.00,A,0419.80051,S,05539.90502,E,0.075,,200525,,,A*7B
$GNVTG,,T,,M,0.075,N,0.140,K,A*3A
$GNGGA,071448.00,0419.80051,S,05539.90502,E,1,12,0.90,14.2,M,-47.6,M,,*40
$GNGSA,A,3,05,12,24,15,25,23,13,29,,,,,1.55,0.90,1.26*1A
$GNGSA,A,3,80,73,69,84,68,70,,,,,,,1.55,0.90,1.26*17
$GPGSV,4,1,16,05,33,032,34,10,11,213,,12,72,109,30,13,13,100,23*74
$GPGSV,4,2,16,15,42,129,30,18,30,299,09,20,01,033,21,23,53,215,27*76
$GPGSV,4,3,16,24,29,171,23,25,66,337,29,28,07,286,,29,16,352,32*71
$GPGSV,4,4,16,36,52,277,,40,86,351,,41,58,082,,49,32,274,*7C
$GLGSV,2,1,08,68,09,054,31,69,38,097,28,70,28,178,09,73,68,273,25*6B
$GLGSV,2,2,08,74,28,320,19,80,38,168,27,84,10,340,11,85,07,292,*6D
$GNGLL,0419.80051,S,05539.90502,E,071448.00,A,A*60
$GNTXT,01,01,01,More than 100 frame errors, UART RX was disabled*70
$GNRMC,071449.00,A,0419.80050,S,05539.90506,E,0.029,,200525,,,A*76
$GNVTG,,T,,M,0.029,N,0.054,K,A*37
$GNGGA,071449.00,0419.80050,S,05539.90506,E,1,12,0.96,14.3,M,-47.6,M,,*43
$GNGSA,A,3,05,12,24,15,25,23,13,29,,,,,1.64,0.96,1.32*1B
$GNGSA,A,3,80,73,69,84,68,,,,,,,,1.64,0.96,1.32*11
$GPGSV,4,1,16,05,33,032,42,10,11,213,,12,72,109,37,13,13,100,29*78
$GPGSV,4,2,16,15,42,129,37,18,30,299,08,20,01,033,19,23,53,215,35*78
$GPGSV,4,3,16,24,29,171,30,25,66,337,32,28,07,286,,29,16,352,40*7C
$GPGSV,4,4,16,36,52,277,,40,86,351,,41,58,082,,49,32,274,*7C
$GLGSV,2,1,08,68,09,054,39,69,38,097,36,70,28,178,06,73,68,271,25*61
$GLGSV,2,2,08,74,28,320,18,80,38,168,26,84,10,340,09,85,07,292,*64
$GNGLL,0419.80050,S,05539.90506,E,071449.00,A,A*64
$GNTXT,01,01,01,More than 100 frame errors, UART RX was disabled*70
$GNRMC,071450.00,A,0419.80051,S,05539.90510,E,0.030,,200525,,,A*70
$GNVTG,,T,,M,0.030,N,0.056,K,A*3D
$GNGGA,071450.00,0419.80051,S,05539.90510,E,1,12,0.96,14.4,M,-47.6,M,,*4A
$GNGSA,A,3,05,12,24,15,25,23,13,29,,,,,1.64,0.96,1.32*1B
$GNGSA,A,3,80,73,69,84,68,70,,,,,,,1.64,0.96,1.32*16
$GPGSV,4,1,16,05,33,032,42,10,11,213,,12,72,109,38,13,13,100,28*76
$GPGSV,4,2,16,15,42,129,38,18,30,299,07,20,01,033,,23,53,215,33*76
$GPGSV,4,3,16,24,29,171,30,25,66,337,33,28,07,286,,29,16,352,40*7D
$GPGSV,4,4,16,36,52,277,,40,86,351,,41,58,082,,49,32,274,*7C
$GLGSV,2,1,08,68,09,054,39,69,38,097,36,70,28,178,10,73,68,271,26*65
$GLGSV,2,2,08,74,29,320,20,80,38,168,32,84,10,340,09,85,07,292,*6B
$GNGLL,0419.80051,S,05539.90510,E,071450.00,A,A*6A
$GNTXT,01,01,01,More than 100 frame errors, UART RX was disabled*70
$GNRMC,071451.00,A,0419.80052,S,05539.90509,E,0.018,,200525,,,A*70
$GNVTG,,T,,M,0.018,N,0.033,K,A*34
$GNGGA,071451.00,0419.80052,S,05539.90509,E,1,12,0.90,14.3,M,-47.6,M,,*41
$GNGSA,A,3,05,12,24,18,15,25,23,13,29,,,,1.55,0.90,1.26*13
$GNGSA,A,3,80,73,69,84,68,70,,,,,,,1.55,0.90,1.26*17
$GPGSV,4,1,16,05,33,032,43,10,11,213,,12,72,109,40,13,13,100,29*79
$GPGSV,4,2,16,15,42,129,38,18,30,299,14,20,01,033,,23,53,215,33*74
$GPGSV,4,3,16,24,29,171,31,25,66,337,34,28,07,286,,29,16,352,41*7A
$GPGSV,4,4,16,36,52,277,,40,86,351,,41,58,082,,49,32,274,*7C
$GLGSV,2,1,08,68,09,054,41,69,38,097,33,70,28,178,17,73,68,271,28*66
$GLGSV,2,2,08,74,29,320,20,80,38,168,35,84,10,340,12,85,07,292,*66
$GNGLL,0419.80052,S,05539.90509,E,071451.00,A,A*60
$GNTXT,01,01,01,More than 100 frame errors, UART RX was disabled*70
$GNRMC,071452.00,A,0419.80055,S,05539.90507,E,0.006,,200525,,,A*75
$GNVTG,,T,,M,0.006,N,0.011,K,A*3B
$GNGGA,071452.00,0419.80055,S,05539.90507,E,1,12,0.90,14.2,M,-47.6,M,,*4A
$GNGSA,A,3,05,12,24,18,15,25,23,13,29,,,,1.55,0.90,1.26*13
$GNGSA,A,3,80,73,69,84,68,70,,,,,,,1.55,0.90,1.26*17
$GPGSV,4,1,16,05,33,032,43,10,11,213,,12,72,109,40,13,13,100,31*70
$GPGSV,4,2,16,15,42,129,39,18,30,299,10,20,01,033,,23,53,215,33*71
$GPGSV,4,3,16,24,29,171,32,25,66,337,34,28,07,286,,29,16,352,41*79
$GPGSV,4,4,16,36,52,277,,40,86,351,,41,58,082,,49,32,274,*7C
$GLGSV,2,1,08,68,09,054,41,69,38,097,33,70,28,178,17,73,68,271,28*66
$GLGSV,2,2,08,74,29,320,20,80,38,168,35,84,10,340,13,85,07,292,*67
$GNGLL,0419.80055,S,05539.90507,E,071452.00,A,A*6A
$GNTXT,01,01,01,More than 100 frame errors, UART RX was disabled*70
$GNRMC,071453.00,A,0419.80059,S,05539.90502,E,0.017,,200525,,,A*7D
$GNVTG,,T,,M,0.017,N,0.032,K,A*3A
$GNGGA,071453.00,0419.80059,S,05539.90502,E,1,12,0.77,14.1,M,-47.6,M,,*48
$GNGSA,A,3,05,12,24,18,15,25,23,13,29,,,,1.39,0.77,1.16*13
$GNGSA,A,3,80,73,69,84,68,70,,,,,,,1.39,0.77,1.16*17
$GPGSV,4,1,16,05,33,032,43,10,11,213,,12,72,109,40,13,13,100,33*72
$GPGSV,4,2,16,15,42,129,39,18,30,299,14,20,01,033,21,23,53,215,33*76
$GPGSV,4,3,16,24,29,171,33,25,66,337,34,28,07,286,,29,16,352,40*79
$GPGSV,4,4,16,36,52,277,,40,86,351,,41,58,082,,49,32,274,*7C
$GLGSV,2,1,08,68,09,054,40,69,38,097,33,70,28,178,12,73,68,271,28*62
$GLGSV,2,2,08,74,29,320,20,80,38,168,36,84,10,340,10,85,07,292,*67
$GNGLL,0419.80059,S,05539.90502,E,071453.00,A,A*62
$GNTXT,01,01,01,More than 100 frame errors, UART RX was disabled*70
$GNRMC,071454.00,A,0419.80060,S,05539.90500,E,0.036,,200525,,,A*71
$GNVTG,,T,,M,0.036,N,0.067,K,A*39
$GNGGA,071454.00,0419.80060,S,05539.90500,E,1,12,0.77,14.0,M,-47.6,M,,*46
$GNGSA,A,3,05,12,24,18,15,25,23,13,29,,,,1.39,0.77,1.16*13
$GNGSA,A,3,80,73,69,84,68,70,,,,,,,1.39,0.77,1.16*17
$GPGSV,4,1,16,05,33,032,42,10,11,213,,12,72,109,39,13,13,100,33*7D
$GPGSV,4,2,16,15,42,129,37,18,30,299,13,20,01,033,19,23,53,215,33*74
$GPGSV,4,3,16,24,29,171,32,25,66,337,34,28,07,286,,29,16,352,39*76
$GPGSV,4,4,16,36,52,277,,40,86,351,,41,58,082,,49,32,274,*7C
$GLGSV,2,1,08,68,09,054,40,69,38,097,33,70,28,178,13,73,68,271,27*6C
$GLGSV,2,2,08,74,29,320,20,80,38,168,35,84,10,340,11,85,07,292,*65
$GNGLL,0419.80060,S,05539.90500,E,071454.00,A,A*6D
$GNTXT,01,01,01,More than 100 frame errors, UART RX was disabled*70
$GNRMC,071455.00,A,0419.80060,S,05539.90496,E,0.036,,200525,,,A*7E
$GNVTG,,T,,M,0.036,N,0.067,K,A*39
$GNGGA,071455.00,0419.80060,S,05539.90496,E,1,12,0.77,13.9,M,-47.6,M,,*47
$GNGSA,A,3,05,12,24,18,15,25,23,13,29,,,,1.39,0.77,1.16*13
$GNGSA,A,3,80,73,69,84,68,70,,,,,,,1.39,0.77,1.16*17
$GPGSV,4,1,16,05,33,032,42,10,11,213,,12,72,109,40,13,13,100,34*74
$GPGSV,4,2,16,15,42,129,38,18,30,299,15,20,01,033,20,23,53,215,33*77
$GPGSV,4,3,16,24,29,171,32,25,66,337,34,28,07,286,,29,16,352,40*78
$GPGSV,4,4,16,36,52,277,,40,86,351,,41,58,082,,49,32,274,*7C
$GLGSV,2,1,08,68,09,054,40,69,38,097,34,70,28,178,14,73,68,271,27*6C
$GLGSV,2,2,08,74,29,320,20,80,38,168,35,84,10,340,13,85,07,292,*67
$GNGLL,0419.80060,S,05539.90496,E,071455.00,A,A*62
$GNTXT,01,01,01,More than 100 frame errors, UART RX was disabled*70
$GNRMC,071456.00,A,0419.80061,S,05539.90493,E,0.012,,200525,,,A*7F
$GNVTG,,T,,M,0.012,N,0.023,K,A*3F
$GNGGA,071456.00,0419.80061,S,05539.90493,E,1,12,0.90,13.9,M,-47.6,M,,*49
$GNGSA,A,3,05,12,24,18,15,25,23,13,29,,,,1.55,0.90,1.26*13
$GNGSA,A,3,80,73,69,84,68,70,,,,,,,1.55,0.90,1.26*17
$GPGSV,4,1,16,05,33,032,42,10,11,213,,12,72,109,39,13,13,100,33*7D
$GPGSV,4,2,16,15,42,129,37,18,30,299,14,20,01,033,,23,53,215,33*7B
$GPGSV,4,3,16,24,29,171,32,25,66,337,33,28,07,286,,29,16,352,40*7F
$GPGSV,4,4,16,36,52,277,,40,86,351,,41,58,082,,49,32,274,*7C
$GLGSV,2,1,08,68,09,054,40,69,38,097,34,70,28,178,16,73,68,271,27*6E
$GLGSV,2,2,08,74,29,320,20,80,37,168,35,84,10,340,11,85,07,292,*6A
$GNGLL,0419.80061,S,05539.90493,E,071456.00,A,A*65
$GNTXT,01,01,01,More than 100 frame errors, UART RX was disabled*70
$GNRMC,071457.00,A,0419.80063,S,05539.90489,E,0.025,,200525,,,A*73
$GNVTG,,T,,M,0.025,N,0.046,K,A*38
$GNGGA,071457.00,0419.80063,S,05539.90489,E,1,12,0.77,13.9,M,-47.6,M,,*48
$GNGSA,A,3,05,12,24,18,15,25,23,13,29,,,,1.39,0.77,1.16*13
$GNGSA,A,3,80,73,69,84,68,70,,,,,,,1.39,0.77,1.16*17
$GPGSV,4,1,16,05,33,032,41,10,11,213,,12,72,109,40,13,13,100,34*77
$GPGSV,4,2,16,15,42,129,37,18,30,299,13,20,01,033,21,23,53,215,34*78
$GPGSV,4,3,16,24,29,171,32,25,66,337,34,28,07,286,,29,16,352,39*76
$GPGSV,4,4,16,36,52,277,,40,86,351,,41,58,082,,49,32,274,*7C
$GLGSV,2,1,08,68,09,054,40,69,38,097,33,70,28,178,14,73,68,271,26*6A
$GLGSV,2,2,08,74,29,320,20,80,37,168,35,84,10,340,11,85,07,292,*6A
$GNGLL,0419.80063,S,05539.90489,E,071457.00,A,A*6D
$GNTXT,01,01,01,More than 100 frame errors, UART RX was disabled*70
$GNRMC,071458.00,A,0419.80064,S,05539.90485,E,0.038,,200525,,,A*7B
$GNVTG,,T,,M,0.038,N,0.071,K,A*30
$GNGGA,071458.00,0419.80064,S,05539.90485,E,1,12,0.77,13.8,M,-47.6,M,,*4D
$GNGSA,A,3,05,12,24,18,15,25,23,13,29,,,,1.39,0.77,1.16*13
$GNGSA,A,3,80,73,69,84,68,70,,,,,,,1.39,0.77,1.16*17
$GPGSV,4,1,16,05,33,032,42,10,11,213,,12,72,109,41,13,13,100,30*71
$GPGSV,4,2,16,15,42,129,39,18,30,299,09,20,01,033,,23,53,215,31*7B
$GPGSV,4,3,16,24,29,171,33,25,66,337,34,28,07,286,,29,16,352,41*78
$GPGSV,4,4,16,36,52,277,,40,86,351,,41,58,082,,49,32,274,*7C
$GLGSV,2,1,08,68,09,054,41,69,38,097,34,70,28,178,09,73,68,271,27*61
$GLGSV,2,2,08,74,29,320,19,80,37,168,34,84,10,340,10,85,07,292,*60
$GNGLL,0419.80064,S,05539.90485,E,071458.00,A,A*69
$GNTXT,01,01,01,More than 100 frame errors, UART RX was disabled*70
$GNRMC,071459.00,A,0419.80065,S,05539.90482,E,0.043,,200525,,,A*70
$GNVTG,,T,,M,0.043,N,0.079,K,A*34
$GNGGA,071459.00,0419.80065,S,05539.90482,E,1,12,0.80,13.7,M,-47.6,M,,*4D
$GNGSA,A,3,05,12,24,18,15,25,23,13,29,,,,1.35,0.80,1.09*19
$GNGSA,A,3,80,73,69,84,68,70,,,,,,,1.35,0.80,1.09*1D
$GPGSV,4,1,16,05,33,032,42,10,11,213,17,12,72,109,40,13,13,100,30*76
$GPGSV,4,2,16,15,42,129,37,18,30,299,11,20,01,033,,23,53,215,32*7F
$GPGSV,4,3,16,24,29,171,32,25,66,337,34,28,07,286,,29,16,352,39*76
$GPGSV,4,4,16,36,52,277,,40,86,351,,41,58,082,,49,32,274,*7C
$GLGSV,2,1,08,68,09,054,41,69,38,097,35,70,28,178,12,73,68,271,26*6B
$GLGSV,2,2,08,74,29,320,18,80,37,168,34,84,10,340,08,85,07,292,*68
$GNGLL,0419.80065,S,05539.90482,E,071459.00,A,A*6E
$GNTXT,01,01,01,More than 100 frame errors, UART RX was disabled*70
$GNRMC,071500.00,A,0419.80069,S,05539.90479,E,0.024,,200525,,,A*74
$GNVTG,,T,,M,0.024,N,0.045,K,A*3A
$GNGGA,071500.00,0419.80069,S,05539.90479,E,1,12,0.77,13.6,M,-47.6,M,,*41
$GNGSA,A,3,05,12,24,18,15,25,23,13,29,,,,1.39,0.77,1.16*13
$GNGSA,A,3,80,73,69,84,68,70,,,,,,,1.39,0.77,1.16*17
$GPGSV,4,1,16,05,33,032,42,10,11,213,14,12,72,109,40,13,13,100,32*77
$GPGSV,4,2,16,15,42,129,37,18,30,299,07,20,01,033,,23,53,215,32*78
$GPGSV,4,3,16,24,29,171,32,25,66,337,34,28,07,286,,29,16,352,40*78
$GPGSV,4,4,16,36,52,277,,40,86,351,,41,58,082,,49,32,274,*7C
$GLGSV,2,1,08,68,09,054,40,69,38,097,34,70,28,178,14,73,68,271,27*6C
$GLGSV,2,2,08,74,29,320,17,80,37,168,36,84,10,340,11,85,07,292,*6D
$GNGLL,0419.80069,S,05539.90479,E,071500.00,A,A*6B
$GNTXT,01,01,01,More than 100 frame errors, UART RX was disabled*70
$GNRMC,071501.00,A,0419.80070,S,05539.90476,E,0.027,,200525,,,A*71
$GNVTG,,T,,M,0.027,N,0.051,K,A*3C
$GNGGA,071501.00,0419.80070,S,05539.90476,E,1,12,0.77,13.6,M,-47.6,M,,*47
$GNGSA,A,3,05,12,24,18,15,25,23,13,29,,,,1.39,0.77,1.16*13
$GNGSA,A,3,80,73,69,84,68,70,,,,,,,1.39,0.77,1.16*17
$GPGSV,4,1,16,05,33,032,41,10,11,213,11,12,72,109,39,13,13,100,31*7C
$GPGSV,4,2,16,15,42,129,36,18,30,299,09,20,01,033,,23,53,215,31*74
$GPGSV,4,3,16,24,29,171,31,25,66,337,33,28,07,286,,29,16,352,39*72
$GPGSV,4,4,16,36,52,277,,40,86,351,,41,58,082,,49,32,274,*7C
$GLGSV,2,1,08,68,09,054,40,69,38,097,34,70,28,178,14,73,68,271,27*6C
$GLGSV,2,2,08,74,29,320,17,80,37,168,34,84,10,340,11,85,06,293,*6F
$GNGLL,0419.80070,S,05539.90476,E,071501.00,A,A*6D
$GNTXT,01,01,01,More than 100 frame errors, UART RX was disabled*70
$GNRMC,071502.00,A,0419.80070,S,05539.90473,E,0.042,,200525,,,A*74
$GNVTG,,T,,M,0.042,N,0.079,K,A*35
$GNGGA,071502.00,0419.80070,S,05539.90473,E,1,12,0.80,13.5,M,-47.6,M,,*4A
$GNGSA,A,3,05,12,24,18,15,25,23,13,29,,,,1.35,0.80,1.09*19
$GNGSA,A,3,80,73,69,84,68,70,,,,,,,1.35,0.80,1.09*1D
$GPGSV,4,1,16,05,33,032,43,10,11,213,08,12,72,109,40,13,13,100,31*78
$GPGSV,4,2,16,15,42,129,38,18,30,299,13,20,01,033,,23,53,215,31*71
$GPGSV,4,3,16,24,29,171,31,25,66,337,36,28,07,286,,29,16,352,41*78
$GPGSV,4,4,16,36,52,277,,40,86,351,,41,58,082,,49,32,274,*7C
$GLGSV,2,1,08,68,09,054,41,69,38,097,34,70,28,178,14,73,68,271,28*62
$GLGSV,2,2,08,74,29,320,16,80,37,168,34,84,10,340,11,85,06,293,*6E
$GNGLL,0419.80070,S,05539.90473,E,071502.00,A,A*6B
$GNTXT,01,01,01,More than 100 frame errors, UART RX was disabled*70
$GNRMC,071503.00,A,0419.80071,S,05539.90471,E,0.012,,200525,,,A*73
$GNVTG,,T,,M,0.012,N,0.023,K,A*3F
$GNGGA,071503.00,0419.80071,S,05539.90471,E,1,12,0.77,13.5,M,-47.6,M,,*40
$GNGSA,A,3,05,12,24,18,15,25,23,13,29,,,,1.39,0.77,1.16*13
$GNGSA,A,3,80,73,69,84,68,70,,,,,,,1.39,0.77,1.16*17
$GPGSV,4,1,16,05,33,032,42,10,11,213,08,12,72,109,40,13,13,100,32*7A
$GPGSV,4,2,16,15,42,129,37,18,30,299,15,20,01,033,,23,53,215,32*7B
$GPGSV,4,3,16,24,29,171,31,25,66,337,35,28,07,286,,29,16,352,40*7A
$GPGSV,4,4,16,36,52,277,,40,86,351,,41,58,082,,49,32,274,*7C
$GLGSV,2,1,08,68,09,054,41,69,38,097,34,70,28,178,14,73,68,271,28*62
$GLGSV,2,2,08,74,29,320,17,80,37,168,34,84,10,340,10,85,06,293,*6E
$GNGLL,0419.80071,S,05539.90471,E,071503.00,A,A*69
$GNTXT,01,01,01,More than 100 frame errors, UART RX was disabled*70
$GNRMC,071504.00,A,0419.80071,S,05539.90470,E,0.058,,200525,,,A*7B
$GNVTG,,T,,M,0.058,N,0.107,K,A*36
$GNGGA,071504.00,0419.80071,S,05539.90470,E,1,12,0.77,13.4,M,-47.6,M,,*47
$GNGSA,A,3,05,12,24,18,15,25,23,13,29,,,,1.39,0.77,1.16*13
$GNGSA,A,3,80,73,69,84,68,70,,,,,,,1.39,0.77,1.16*17
$GPGSV,4,1,16,05,33,032,42,10,11,213,07,12,72,109,39,13,13,100,32*7B
$GPGSV,4,2,16,15,42,129,37,18,30,299,10,20,01,033,,23,53,215,36*7A
$GPGSV,4,3,16,24,29,171,32,25,66,337,34,28,07,286,,29,16,352,39*76
$GPGSV,4,4,16,36,52,277,,40,86,351,,41,58,082,,49,32,274,*7C
$GLGSV,2,1,08,68,09,054,39,69,38,097,35,70,28,178,14,73,68,271,27*63
$GLGSV,2,2,08,74,29,320,18,80,37,168,31,84,10,340,11,85,06,293,*65
$GNGLL,0419.80071,S,05539.90470,E,071504.00,A,A*6F
$GNTXT,01,01,01,More than 100 frame errors, UART RX was disabled*70
$GNRMC,071505.00,A,0419.80070,S,05539.90470,E,0.087,,200525,,,A*79
$GNVTG,,T,,M,0.087,N,0.162,K,A*37
$GNGGA,071505.00,0419.80070,S,05539.90470,E,1,12,0.86,13.4,M,-47.6,M,,*49
$GNGSA,A,3,05,12,24,18,15,25,23,13,29,,,,1.42,0.86,1.13*14
$GNGSA,A,3,80,73,69,84,68,70,,,,,,,1.42,0.86,1.13*10
$GPGSV,4,1,16,05,33,032,32,10,11,213,07,12,72,109,30,13,13,100,27*71
$GPGSV,4,2,16,15,42,129,28,18,30,299,11,20,01,033,,23,53,215,29*7B
$GPGSV,4,3,16,24,29,171,25,25,66,337,23,28,07,286,,29,16,352,32*7D
$GPGSV,4,4,16,36,52,277,,40,86,351,,41,58,082,,49,32,274,*7C
$GLGSV,2,1,08,68,09,054,32,69,38,097,29,70,28,178,12,73,68,271,26*62
$GLGSV,2,2,08,74,29,320,17,80,37,168,23,84,10,340,09,85,06,293,*60
$GNGLL,0419.80070,S,05539.90470,E,071505.00,A,A*6F
$GNTXT,01,01,01,More than 100 frame errors, UART RX was disabled*70
$GNRMC,071506.00,A,0419.80070,S,05539.90468,E,0.015,,200525,,,A*78
$GNVTG,,T,,M,0.015,N,0.028,K,A*33
$GNGGA,071506.00,0419.80070,S,05539.90468,E,1,12,0.77,13.4,M,-47.6,M,,*4D
$GNGSA,A,3,05,12,24,18,15,25,23,13,29,,,,1.39,0.77,1.16*13
$GNGSA,A,3,80,73,69,68,70,,,,,,,,1.39,0.77,1.16*1B
$GPGSV,4,1,16,05,33,032,41,10,11,213,07,12,72,109,39,13,13,100,27*7C
$GPGSV,4,2,16,15,42,129,38,18,30,299,11,20,01,033,,23,53,215,34*76
$GPGSV,4,3,16,24,29,171,27,25,66,337,34,28,07,286,,29,16,352,41*7D
$GPGSV,4,4,16,36,52,277,,40,86,351,,41,58,082,,49,32,274,*7C
$GLGSV,2,1,08,68,09,054,40,69,38,097,34,70,28,178,12,73,68,271,25*68
$GLGSV,2,2,08,74,29,320,16,80,37,168,23,84,10,340,06,85,06,293,*6E
$GNGLL,0419.80070,S,05539.90468,E,071506.00,A,A*65
$GNTXT,01,01,01,More than 100 frame errors, UART RX was disabled*70
$GNRMC,071507.00,A,0419.80071,S,05539.90469,E,0.067,,200525,,,A*7C
$GNVTG,,T,,M,0.067,N,0.124,K,A*3B
$GNGGA,071507.00,0419.80071,S,05539.90469,E,1,12,0.77,13.3,M,-47.6,M,,*4B
$GNGSA,A,3,05,12,24,18,15,25,23,13,29,,,,1.39,0.77,1.16*13
$GNGSA,A,3,80,73,69,84,68,70,,,,,,,1.39,0.77,1.16*17
$GPGSV,4,1,16,05,33,032,42,10,11,213,07,12,72,109,36,13,13,100,29*7E
$GPGSV,4,2,16,15,42,129,38,18,30,299,10,20,01,033,,23,53,215,33*70
$GPGSV,4,3,16,24,29,171,30,25,66,337,35,28,07,286,,29,16,352,40*7B
$GPGSV,4,4,16,36,52,277,,40,86,351,,41,58,082,,49,32,274,*7C
$GLGSV,2,1,08,68,09,054,41,69,38,097,35,70,28,178,10,73,68,271,26*69
$GLGSV,2,2,08,74,29,320,15,80,37,168,26,84,10,340,10,85,06,293,*6F
$GNGLL,0419.80071,S,05539.90469,E,071507.00,A,A*64
$GNTXT,01,01,01,More than 100 frame errors, UART RX was disabled*70
$GNRMC,071508.00,A,0419.80071,S,05539.90467,E,0.020,,200525,,,A*7E
$GNVTG,,T,,M,0.020,N,0.036,K,A*3A
$GNGGA,071508.00,0419.80071,S,05539.90467,E,1,12,0.78,13.3,M,-47.6,M,,*45
$GNGSA,A,3,05,12,24,18,15,25,23,13,29,,,,1.34,0.78,1.10*17
$GNGSA,A,3,80,73,69,84,68,,,,,,,,1.34,0.78,1.10*14
$GPGSV,4,1,16,05,33,032,41,10,11,213,08,12,72,109,37,13,13,100,29*73
$GPGSV,4,2,16,15,42,129,37,18,30,299,08,20,01,033,,23,53,215,36*73
$GPGSV,4,3,16,24,29,171,28,25,66,337,34,28,07,286,,29,16,352,40*73
$GPGSV,4,4,16,36,52,277,,40,86,351,,41,58,082,,49,32,274,*7C
$GLGSV,2,1,08,68,09,054,41,69,38,097,35,70,28,178,10,73,68,271,27*68
$GLGSV,2,2,08,74,29,320,15,80,37,168,23,84,10,340,08,85,06,293,*63
$GNGLL,0419.80071,S,05539.90467,E,071508.00,A,A*65
$GNTXT,01,01,01,More than 100 frame errors, UART RX was disabled*70
$GNRMC,071509.00,A,0419.80070,S,05539.90473,E,0.026,,200525,,,A*7D
$GNVTG,,T,,M,0.026,N,0.049,K,A*34
$GNGGA,071509.00,0419.80070,S,05539.90473,E,1,12,0.82,13.4,M,-47.6,M,,*42
$GNGSA,A,3,05,12,24,18,15,25,23,13,29,,,,1.45,0.82,1.20*17
$GNGSA,A,3,80,73,69,84,68,,,,,,,,1.45,0.82,1.20*14
$GPGSV,4,1,16,05,33,032,43,10,11,213,08,12,72,109,39,13,13,100,34*73
$GPGSV,4,2,16,15,42,129,39,18,30,299,13,20,01,033,18,23,53,215,38*70
$GPGSV,4,3,16,24,29,171,28,25,66,337,33,28,07,286,,29,16,352,38*7B
$GPGSV,4,4,16,36,52,277,,40,86,351,,41,58,082,,49,32,274,*7C
$GLGSV,2,1,08,68,09,054,38,69,38,097,39,70,28,178,10,73,68,271,27*6A
$GLGSV,2,2,08,74,29,320,16,80,37,168,24,84,10,340,12,85,06,293,*6C
$GNGLL,0419.80070,S,05539.90473,E,071509.00,A,A*60
$GNTXT,01,01,01,More than 100 frame errors, UART RX was disabled*70
$GNRMC,071510.00,A,0419.80071,S,05539.90475,E,0.037,,200525,,,A*72
$GNVTG,,T,,M,0.037,N,0.068,K,A*37
$GNGGA,071510.00,0419.80071,S,05539.90475,E,1,12,0.82,13.3,M,-47.6,M,,*4A
$GNGSA,A,3,05,12,24,18,15,25,23,13,29,,,,1.45,0.82,1.20*17
$GNGSA,A,3,80,73,69,84,68,,,,,,,,1.45,0.82,1.20*14
$GPGSV,4,1,16,05,33,032,42,10,11,213,,12,72,109,37,13,13,100,34*74
$GPGSV,4,2,16,15,42,129,39,18,30,299,08,20,01,033,18,23,53,215,38*7A
$GPGSV,4,3,16,24,29,171,27,25,66,337,34,28,07,286,,29,16,352,39*72
$GPGSV,4,4,16,36,52,277,,40,86,351,,41,58,082,,49,32,274,*7C
$GLGSV,2,1,08,68,09,054,39,69,38,097,39,70,28,178,10,73,68,271,27*6B
$GLGSV,2,2,08,74,29,320,18,80,37,168,21,84,10,340,10,85,06,293,*65
$GNGLL,0419.80071,S,05539.90475,E,071510.00,A,A*6F
$GNTXT,01,01,01,More than 100 frame errors, UART RX was disabled*70
$GNRMC,071511.00,A,0419.80078,S,05539.90472,E,0.358,,200525,,,A*77
$GNVTG,,T,,M,0.358,N,0.663,K,A*30
$GNGGA,071511.00,0419.80078,S,05539.90472,E,1,12,0.90,13.4,M,-47.6,M,,*41
$GNGSA,A,3,05,12,24,18,15,25,23,13,29,,,,1.55,0.90,1.26*13
$GNGSA,A,3,80,73,69,84,68,70,,,,,,,1.55,0.90,1.26*17
$GPGSV,4,1,16,05,33,032,28,10,11,213,,12,72,109,31,13,13,100,26*7D
$GPGSV,4,2,16,15,42,129,38,18,30,299,10,20,01,033,26,23,53,215,38*7F
$GPGSV,4,3,16,24,29,171,28,25,66,337,33,28,07,286,,29,16,352,34*77
$GPGSV,4,4,16,36,52,277,,40,86,351,,41,58,082,,49,32,274,*7C
$GLGSV,2,1,08,68,09,054,38,69,38,097,39,70,28,178,12,73,68,271,33*6D
$GLGSV,2,2,08,74,29,320,19,80,37,168,30,84,10,340,11,85,06,293,*65
$GNGLL,0419.80078,S,05539.90472,E,071511.00,A,A*60
$GNTXT,01,01,01,More than 100 frame errors, UART RX was disabled*70
$GNRMC,071512.00,A,0419.80083,S,05539.90474,E,0.186,,200525,,,A*77
$GNVTG,,T,,M,0.186,N,0.344,K,A*31
$GNGGA,071512.00,0419.80083,S,05539.90474,E,1,12,0.77,13.4,M,-47.6,M,,*49
$GNGSA,A,3,05,12,24,18,15,25,23,13,29,,,,1.39,0.77,1.16*13
$GNGSA,A,3,80,73,69,84,68,70,,,,,,,1.39,0.77,1.16*17
$GPGSV,4,1,16,05,33,032,29,10,11,213,,12,72,109,37,13,13,100,30*7D
$GPGSV,4,2,16,15,42,129,36,18,30,299,12,20,01,033,33,23,53,215,37*78
$GPGSV,4,3,16,24,29,171,34,25,66,337,31,28,07,286,,29,16,352,32*7E
$GPGSV,4,4,16,36,52,277,,40,86,351,,41,58,082,,49,32,274,*7C
$GLGSV,2,1,08,68,09,054,40,69,38,097,36,70,28,178,09,73,68,271,26*63
$GLGSV,2,2,08,74,29,320,20,80,37,168,25,84,10,340,10,85,06,293,*6A
$GNGLL,0419.80083,S,05539.90474,E,071512.00,A,A*61
$GNTXT,01,01,01,More than 100 frame errors, UART RX was disabled*70
$GNRMC,071513.00,A,0419.80083,S,05539.90476,E,0.054,,200525,,,A*7A
$GNVTG,,T,,M,0.054,N,0.100,K,A*3D
$GNGGA,071513.00,0419.80083,S,05539.90476,E,1,12,0.77,13.3,M,-47.6,M,,*4D
$GNGSA,A,3,05,12,24,18,15,25,23,13,29,,,,1.39,0.77,1.16*13
$GNGSA,A,3,80,73,69,84,68,70,,,,,,,1.39,0.77,1.16*17
$GPGSV,4,1,16,05,33,032,38,10,11,213,,12,72,109,35,13,13,100,23*7D
$GPGSV,4,2,16,15,42,129,36,18,30,299,17,20,01,033,20,23,53,215,39*71
$GPGSV,4,3,16,24,29,171,28,25,66,337,31,28,07,286,,29,16,352,36*77
$GPGSV,4,4,16,36,52,277,,40,86,351,,41,58,082,,49,32,274,*7C
$GLGSV,2,1,08,68,09,054,39,69,38,097,39,70,28,178,16,73,68,271,31*6A
$GLGSV,2,2,08,74,29,320,18,80,37,168,24,84,10,340,13,85,06,293,*63
$GNGLL,0419.80083,S,05539.90476,E,071513.00,A,A*62
$GNTXT,01,01,01,More than 100 frame errors, UART RX was disabled*70
$GNRMC,071514.00,A,0419.80081,S,05539.90480,E,0.101,,200525,,,A*77
$GNVTG,,T,,M,0.101,N,0.188,K,A*3C
$GNGGA,071514.00,0419.80081,S,05539.90480,E,1,12,0.77,13.3,M,-47.6,M,,*41
$GNGSA,A,3,05,12,24,18,15,25,23,13,29,,,,1.39,0.77,1.16*13
$GNGSA,A,3,80,73,69,84,68,70,,,,,,,1.39,0.77,1.16*17
$GPGSV,4,1,16,05,33,032,36,10,11,213,,12,72,109,38,13,13,100,30*7C
$GPGSV,4,2,16,15,42,129,34,18,30,299,09,20,01,033,20,23,53,215,39*7C
$GPGSV,4,3,16,24,29,171,33,25,66,337,29,28,07,286,,29,16,352,35*77
$GPGSV,4,4,16,36,52,277,,40,86,351,,41,58,082,,49,32,274,*7C
$GLGSV,2,1,08,68,09,054,33,69,38,097,34,70,28,178,15,73,68,271,30*6F
$GLGSV,2,2,08,74,29,320,18,80,37,168,34,84,10,340,07,85,06,293,*67
$GNGLL,0419.80081,S,05539.90480,E,071514.00,A,A*6E
$GNTXT,01,01,01,More than 100 frame errors, UART RX was disabled*70
$GNRMC,071515.00,A,0419.80077,S,05539.90482,E,0.165,,200525,,,A*7F
$GNVTG,,T,,M,0.165,N,0.306,K,A*3A
$GNGGA,071515.00,0419.80077,S,05539.90482,E,1,12,0.77,13.3,M,-47.6,M,,*4B
$GNGSA,A,3,05,12,24,18,15,25,23,13,29,,,,1.39,0.77,1.16*13
$GNGSA,A,3,80,73,69,84,68,70,,,,,,,1.39,0.77,1.16*17
$GPGSV,4,1,16,05,33,032,39,10,11,213,,12,72,109,39,13,13,100,37*75
$GPGSV,4,2,16,15,42,129,37,18,30,299,12,20,01,033,25,23,53,215,37*7E
$GPGSV,4,3,16,24,29,171,34,25,66,337,30,28,07,286,,29,16,352,42*78
$GPGSV,4,4,16,36,52,277,,40,86,351,,41,58,082,,49,32,274,*7C
$GLGSV,2,1,08,68,09,054,38,69,38,097,39,70,28,178,10,73,68,271,24*69
$GLGSV,2,2,08,74,29,320,18,80,37,168,29,84,10,340,14,85,06,293,*69
$GNGLL,0419.80077,S,05539.90482,E,071515.00,A,A*64
$GNTXT,01,01,01,More than 100 frame errors, UART RX was disabled*70
$GNRMC,071516.00,A,0419.80080,S,05539.90483,E,0.219,,200525,,,A*7D
$GNVTG,,T,,M,0.219,N,0.405,K,A*36
$GNGGA,071516.00,0419.80080,S,05539.90483,E,1,12,0.77,13.2,M,-47.6,M,,*40
$GNGSA,A,3,05,12,24,18,15,25,23,13,29,,,,1.39,0.77,1.16*13
$GNGSA,A,3,80,73,69,84,68,70,,,,,,,1.39,0.77,1.16*17
$GPGSV,4,1,16,05,33,032,31,10,11,213,,12,71,111,36,13,13,100,31*7E
$GPGSV,4,2,16,15,42,129,33,18,30,299,10,20,01,033,24,23,53,215,34*7A
$GPGSV,4,3,16,24,29,171,35,25,66,337,34,28,07,286,,29,16,352,41*7E
$GPGSV,4,4,16,36,52,277,,40,86,351,,41,58,082,,49,32,274,*7C
$GLGSV,2,1,08,68,09,054,36,69,38,097,34,70,28,178,10,73,68,271,23*6D
$GLGSV,2,2,08,74,29,320,18,80,37,168,33,84,10,340,10,85,06,293,*66
$GNGLL,0419.80080,S,05539.90483,E,071516.00,A,A*6E
$GNTXT,01,01,01,More than 100 frame errors, UART RX was disabled*70
$GNRMC,071517.00,A,0419.80080,S,05539.90483,E,0.108,,200525,,,A*7F
$GNVTG,,T,,M,0.108,N,0.201,K,A*37
$GNGGA,071517.00,0419.80080,S,05539.90483,E,1,12,0.77,13.2,M,-47.6,M,,*41
$GNGSA,A,3,05,12,24,18,15,25,23,13,29,,,,1.39,0.77,1.16*13
$GNGSA,A,3,80,73,69,84,68,70,,,,,,,1.39,0.77,1.16*17
$GPGSV,4,1,16,05,33,032,39,10,11,213,,12,71,111,34,13,13,099,44*77
$GPGSV,4,2,16,15,42,129,40,18,30,299,10,20,01,033,23,23,53,215,29*75
$GPGSV,4,3,16,24,29,171,34,25,66,337,33,28,07,286,,29,16,352,39*77
$GPGSV,4,4,16,36,52,277,,40,86,351,,41,58,082,,49,32,274,*7C
$GLGSV,2,1,08,68,09,054,37,69,38,097,39,70,28,178,11,73,68,271,23*60
$GLGSV,2,2,08,74,29,320,19,80,37,168,33,84,10,340,11,85,06,293,*66
$GNGLL,0419.80080,S,05539.90483,E,071517.00,A,A*6F
$GNTXT,01,01,01,More than 100 frame errors, UART RX was disabled*70
$GNRMC,071518.00,A,0419.80082,S,05539.90479,E,0.030,,200525,,,A*7D
$GNVTG,,T,,M,0.030,N,0.056,K,A*3D
$GNGGA,071518.00,0419.80082,S,05539.90479,E,1,12,0.77,13.2,M,-47.6,M,,*49
$GNGSA,A,3,05,12,24,18,15,25,23,13,29,,,,1.39,0.77,1.16*13
$GNGSA,A,3,80,73,69,84,68,70,,,,,,,1.39,0.77,1.16*17
$GPGSV,4,1,16,05,33,032,37,10,11,213,,12,71,111,39,13,13,099,33*74
$GPGSV,4,2,16,15,42,129,25,18,30,299,10,20,01,033,24,23,53,215,33*7A
$GPGSV,4,3,16,24,29,171,35,25,66,337,32,28,07,286,,29,16,352,42*7B
$GPGSV,4,4,16,36,52,277,,40,86,351,,41,58,082,,49,32,274,*7C
$GLGSV,2,1,08,68,09,054,38,69,38,097,33,70,28,178,11,73,68,271,23*65
$GLGSV,2,2,08,74,29,320,20,80,37,168,33,84,10,340,11,85,06,293,*6C
$GNGLL,0419.80082,S,05539.90479,E,071518.00,A,A*67
$GNTXT,01,01,01,More than 100 frame errors, UART RX was disabled*70
$GNRMC,071519.00,A,0419.80086,S,05539.90472,E,0.163,,200525,,,A*74
$GNVTG,,T,,M,0.163,N,0.301,K,A*3B
$GNGGA,071519.00,0419.80086,S,05539.90472,E,1,12,0.81,13.1,M,-47.6,M,,*4D
$GNGSA,A,3,05,12,24,18,15,25,23,13,29,,,,1.45,0.81,1.20*14
$GNGSA,A,3,80,73,69,84,68,70,,,,,,,1.45,0.81,1.20*10
$GPGSV,4,1,16,05,33,032,41,10,11,213,,12,71,111,41,13,13,099,42*7C
$GPGSV,4,2,16,15,42,128,42,18,30,299,08,20,01,033,23,23,53,215,28*7E
$GPGSV,4,3,16,24,29,171,33,25,66,337,32,28,07,286,,29,16,352,37*7F
$GPGSV,4,4,16,36,52,277,,40,86,351,,41,58,082,,49,32,274,*7C
$GLGSV,2,1,08,68,09,054,38,69,38,097,38,70,28,178,18,73,68,271,23*67
$GLGSV,2,2,08,74,29,320,21,80,37,168,33,84,10,340,08,85,06,293,*65
$GNGLL,0419.80086,S,05539.90472,E,071519.00,A,A*69
$GNTXT,01,01,01,More than 100 frame errors, UART RX was disabled*70
$GNRMC,071520.00,A,0419.80098,S,05539.90478,E,0.392,,200525,,,A*77
$GNVTG,,T,,M,0.392,N,0.727,K,A*37
$GNGGA,071520.00,0419.80098,S,05539.90478,E,1,12,0.80,13.1,M,-47.6,M,,*43
$GNGSA,A,3,05,12,24,18,15,25,23,13,29,,,,1.35,0.80,1.09*19
$GNGSA,A,3,80,73,69,84,68,70,,,,,,,1.35,0.80,1.09*1D
$GPGSV,4,1,16,05,33,032,35,10,11,213,,12,71,111,39,13,13,099,38*7D
$GPGSV,4,2,16,15,42,128,37,18,30,299,12,20,01,033,21,23,53,215,33*7F
$GPGSV,4,3,16,24,29,171,36,25,66,337,25,28,07,286,,29,16,352,37*7C
$GPGSV,4,4,16,36,52,277,,40,86,351,,41,58,082,,49,32,274,*7C
$GLGSV,2,1,08,68,09,054,40,69,38,097,39,70,28,178,18,73,68,271,22*68
$GLGSV,2,2,08,74,29,320,19,80,37,168,41,84,10,340,14,85,06,293,*66
$GNGLL,0419.80098,S,05539.90478,E,071520.00,A,A*66
$GNTXT,01,01,01,More than 100 frame errors, UART RX was disabled*70
$GNRMC,071521.00,A,0419.80103,S,05539.90478,E,0.107,,200525,,,A*7B
$GNVTG,,T,,M,0.107,N,0.198,K,A*3B
$GNGGA,071521.00,0419.80103,S,05539.90478,E,1,12,0.77,13.0,M,-47.6,M,,*48
$GNGSA,A,3,05,12,24,18,15,25,23,13,29,,,,1.39,0.77,1.16*13
$GNGSA,A,3,80,73,69,84,68,70,,,,,,,1.39,0.77,1.16*17
$GPGSV,4,1,16,05,33,032,37,10,11,213,,12,71,111,39,13,13,099,38*7F
$GPGSV,4,2,16,15,42,128,37,18,30,299,12,20,01,033,25,23,53,215,37*7F
$GPGSV,4,3,16,24,29,171,34,25,66,337,31,28,07,286,,29,16,352,37*7B
$GPGSV,4,4,16,36,52,277,,40,86,351,,41,58,082,,49,32,274,*7C
$GLGSV,2,1,08,68,09,054,35,69,38,097,38,70,28,178,20,73,68,271,24*66
$GLGSV,2,2,08,74,29,320,16,80,37,168,39,84,10,340,10,85,06,293,*62
$GNGLL,0419.80103,S,05539.90478,E,071521.00,A,A*64
$GNTXT,01,01,01,More than 100 frame errors, UART RX was disabled*70
$GNRMC,071522.00,A,0419.80102,S,05539.90478,E,0.005,,200525,,,A*7A
$GNVTG,,T,,M,0.005,N,0.010,K,A*39
$GNGGA,071522.00,0419.80102,S,05539.90478,E,1,12,0.77,12.9,M,-47.6,M,,*42
$GNGSA,A,3,05,12,24,18,15,25,23,13,29,,,,1.39,0.77,1.16*13
$GNGSA,A,3,80,73,69,84,68,70,,,,,,,1.39,0.77,1.16*17
$GPGSV,4,1,16,05,33,032,40,10,11,213,,12,71,111,38,13,13,099,34*72
$GPGSV,4,2,16,15,42,128,37,18,30,300,13,20,01,033,23,23,53,215,35*7B
$GPGSV,4,3,16,24,29,171,30,25,66,337,29,28,07,286,,29,16,352,38*79
$GPGSV,4,4,16,36,52,277,,40,86,351,,41,58,082,,49,32,274,*7C
$GLGSV,2,1,08,68,09,054,38,69,38,097,36,70,28,178,17,73,68,271,26*63
$GLGSV,2,2,08,74,29,320,14,80,37,168,36,84,10,340,13,85,06,293,*6C
$GNGLL,0419.80102,S,05539.90478,E,071522.00,A,A*66
$GNTXT,01,01,01,More than 100 frame errors, UART RX was disabled*70
$GNRMC,071523.00,A,0419.80101,S,05539.90476,E,0.178,,200525,,,A*7D
$GNVTG,,T,,M,0.178,N,0.330,K,A*33
$GNGGA,071523.00,0419.80101,S,05539.90476,E,1,12,0.77,12.8,M,-47.6,M,,*4F
$GNGSA,A,3,05,12,24,18,15,25,23,13,29,,,,1.39,0.77,1.16*13
$GNGSA,A,3,80,73,69,84,68,70,,,,,,,1.39,0.77,1.16*17
$GPGSV,4,1,16,05,33,032,40,10,11,213,,12,71,111,42,13,13,099,34*7F
$GPGSV,4,2,16,15,42,128,37,18,30,300,15,20,01,033,23,23,53,215,34*7C
$GPGSV,4,3,16,24,29,171,34,25,66,337,30,28,07,286,,29,16,352,37*7A
$GPGSV,4,4,16,36,52,277,,40,86,351,,41,58,082,,49,32,274,*7C
$GLGSV,2,1,08,68,09,054,36,69,38,097,36,70,28,178,18,73,68,271,26*62
$GLGSV,2,2,08,74,29,320,10,80,37,168,34,84,10,340,12,85,06,293,*6B
$GNGLL,0419.80101,S,05539.90476,E,071523.00,A,A*6A
$GNTXT,01,01,01,More than 100 frame errors, UART RX was disabled*70
$GNRMC,071524.00,A,0419.80099,S,05539.90478,E,0.142,,200525,,,A*7D
$GNVTG,,T,,M,0.142,N,0.264,K,A*3A
$GNGGA,071524.00,0419.80099,S,05539.90478,E,1,12,0.77,12.9,M,-47.6,M,,*47
$GNGSA,A,3,05,12,24,18,15,25,23,13,29,,,,1.39,0.77,1.16*13
$GNGSA,A,3,80,73,69,84,68,70,,,,,,,1.39,0.77,1.16*17
$GPGSV,4,1,16,05,33,032,40,10,11,213,,12,71,111,41,13,13,099,34*7C
$GPGSV,4,2,16,15,42,128,30,18,30,300,14,20,01,033,24,23,53,215,25*7D
$GPGSV,4,3,16,24,29,171,30,25,66,337,25,28,07,286,,29,16,352,31*7C
$GPGSV,4,4,16,36,52,277,,40,86,351,,41,58,082,32,49,32,274,*7D
$GLGSV,2,1,08,68,09,054,38,69,38,097,36,70,28,178,17,73,68,271,27*62
$GLGSV,2,2,08,74,29,320,,80,37,168,29,84,10,340,10,85,06,293,*64
$GNGLL,0419.80099,S,05539.90478,E,071524.00,A,A*63
$GNTXT,01,01,01,More than 100 frame errors, UART RX was disabled*70
$GNRMC,071525.00,A,0419.80104,S,05539.90473,E,0.037,,200525,,,A*71
$GNVTG,,T,,M,0.037,N,0.069,K,A*36
$GNGGA,071525.00,0419.80104,S,05539.90473,E,1,12,0.77,12.8,M,-47.6,M,,*49
$GNGSA,A,3,05,12,24,18,15,25,23,13,29,,,,1.39,0.77,1.16*13
$GNGSA,A,3,80,73,69,68,70,,,,,,,,1.39,0.77,1.16*1B
$GPGSV,4,1,16,05,33,032,37,10,11,213,,12,71,111,39,13,13,099,35*72
$GPGSV,4,2,16,15,42,128,30,18,30,300,14,20,01,033,24,23,53,215,35*7C
$GPGSV,4,3,16,24,29,171,34,25,66,337,27,28,07,286,,29,16,352,34*7F
$GPGSV,4,4,16,36,52,277,,40,86,351,,41,58,082,37,49,32,274,*78
$GLGSV,2,1,08,68,09,054,31,69,38,097,38,70,28,178,17,73,68,271,28*6A
$GLGSV,2,2,08,74,29,320,,80,37,168,38,84,10,340,06,85,06,293,*63
$GNGLL,0419.80104,S,05539.90473,E,071525.00,A,A*6C
$GNTXT,01,01,01,More than 100 frame errors, UART RX was disabled*70
$GNRMC,071526.00,A,0419.80104,S,05539.90474,E,0.036,,200525,,,A*74
$GNVTG,,T,,M,0.036,N,0.066,K,A*38
$GNGGA,071526.00,0419.80104,S,05539.90474,E,1,12,0.90,12.9,M,-47.6,M,,*45
$GNGSA,A,3,05,12,24,15,25,23,13,29,,,,,1.55,0.90,1.26*1A
$GNGSA,A,3,80,73,69,84,68,70,,,,,,,1.55,0.90,1.26*17
$GPGSV,4,1,16,05,33,032,34,10,11,213,,12,71,111,37,13,13,099,33*79
$GPGSV,4,2,16,15,42,128,30,18,30,300,06,20,01,033,24,23,53,216,35*7C
$GPGSV,4,3,16,24,29,171,32,25,66,337,28,28,07,286,,29,16,352,31*73
$GPGSV,4,4,16,36,52,277,,40,86,351,,41,58,082,35,49,32,274,*7A
$GLGSV,2,1,08,68,09,054,31,69,38,097,33,70,28,178,17,73,68,271,27*6E
$GLGSV,2,2,08,74,29,320,,80,37,168,33,84,10,340,10,85,06,293,*6F
$GNGLL,0419.80104,S,05539.90474,E,071526.00,A,A*68
$GNTXT,01,01,01,More than 100 frame errors, UART RX was disabled*70
$GNRMC,071527.00,A,0419.80106,S,05539.90474,E,0.024,,200525,,,A*74
$GNVTG,,T,,M,0.024,N,0.045,K,A*3A
$GNGGA,071527.00,0419.80106,S,05539.90474,E,1,12,0.91,12.9,M,-47.6,M,,*47
$GNGSA,A,3,05,12,24,15,25,23,13,29,,,,,1.55,0.91,1.26*1B
$GNGSA,A,3,80,73,69,84,68,70,,,,,,,1.55,0.91,1.26*16
$GPGSV,4,1,16,05,33,032,35,10,11,213,,12,71,111,37,13,13,099,34*7F
$GPGSV,4,2,16,15,42,128,31,18,30,300,07,20,01,033,22,23,53,216,35*7A
$GPGSV,4,3,16,24,29,171,33,25,66,337,28,28,07,286,,29,16,352,32*71
$GPGSV,4,4,16,36,52,277,,40,86,351,,41,58,082,35,49,32,274,*7A
$GLGSV,2,1,08,68,09,054,31,69,38,097,35,70,28,178,16,73,68,271,27*69
$GLGSV,2,2,08,74,29,320,,80,37,168,36,84,10,340,10,85,06,293,*6A
$GNGLL,0419.80106,S,05539.90474,E,071527.00,A,A*6B
$GNTXT,01,01,01,More than 100 frame errors, UART RX was disabled*70
$GNRMC,071528.00,A,0419.80106,S,05539.90474,E,0.047,,200525,,,A*7E
$GNVTG,,T,,M,0.047,N,0.087,K,A*31
$GNGGA,071528.00,0419.80106,S,05539.90474,E,1,12,0.91,12.9,M,-47.6,M,,*48
$GNGSA,A,3,05,12,24,15,25,23,13,29,,,,,1.55,0.91,1.26*1B
$GNGSA,A,3,80,73,69,84,68,70,,,,,,,1.55,0.91,1.26*16
$GPGSV,4,1,16,05,33,032,36,10,11,213,,12,71,111,36,13,13,099,33*7A
$GPGSV,4,2,16,15,42,128,32,18,30,300,10,20,01,033,22,23,53,216,35*7F
$GPGSV,4,3,16,24,29,171,34,25,67,337,29,28,07,286,,29,16,352,33*77
$GPGSV,4,4,16,36,52,277,,40,86,351,,41,58,082,35,49,32,274,*7A
$GLGSV,2,1,08,68,09,054,31,69,38,097,35,70,28,178,17,73,68,271,27*68
$GLGSV,2,2,08,74,29,320,,80,37,168,36,84,10,340,09,85,06,293,*62
$GNGLL,0419.80106,S,05539.90474,E,071528.00,A,A*64
$GNTXT,01,01,01,More than 100 frame errors, UART RX was disabled*70
$GNRMC,071529.00,A,0419.80108,S,05539.90471,E,0.049,,200525,,,A*7A
$GNVTG,,T,,M,0.049,N,0.090,K,A*39
$GNGGA,071529.00,0419.80108,S,05539.90471,E,1,12,0.77,12.8,M,-47.6,M,,*4B
$GNGSA,A,3,05,12,24,18,15,25,23,13,29,,,,1.39,0.77,1.16*13
$GNGSA,A,3,80,73,69,84,68,70,,,,,,,1.39,0.77,1.16*17
$GPGSV,4,1,16,05,33,032,36,10,11,213,,12,71,111,36,13,13,099,32*7B
$GPGSV,4,2,16,15,42,128,32,18,30,300,12,20,01,033,21,23,53,216,35*7E
$GPGSV,4,3,16,24,29,171,34,25,67,337,29,28,07,286,,29,16,352,33*77
$GPGSV,4,4,16,36,52,277,,40,86,351,,41,58,082,35,49,32,274,*7A
$GLGSV,2,1,08,68,09,054,31,69,38,097,37,70,28,178,17,73,68,271,26*6B
$GLGSV,2,2,08,74,29,320,,80,37,168,38,84,10,340,09,85,06,293,*6C
$GNGLL,0419.80108,S,05539.90471,E,071529.00,A,A*6E
$GNTXT,01,01,01,More than 100 frame errors, UART RX was disabled*70
$GNRMC,071530.00,A,0419.80108,S,05539.90470,E,0.018,,200525,,,A*77
$GNVTG,,T,,M,0.018,N,0.034,K,A*33
$GNGGA,071530.00,0419.80108,S,05539.90470,E,1,12,0.77,12.7,M,-47.6,M,,*4D
$GNGSA,A,3,05,12,24,18,15,25,23,13,29,,,,1.39,0.77,1.16*13
$GNGSA,A,3,80,73,69,68,70,,,,,,,,1.39,0.77,1.16*1B
$GPGSV,4,1,16,05,33,032,36,10,11,213,,12,71,111,37,13,13,099,33*7B
$GPGSV,4,2,16,15,42,128,32,18,30,300,10,20,01,033,21,23,53,216,35*7C
$GPGSV,4,3,16,24,29,171,34,25,67,337,29,28,07,286,,29,16,352,33*77
$GPGSV,4,4,16,36,52,277,,40,86,351,,41,58,082,35,49,32,274,*7A
$GLGSV,2,1,08,68,09,054,30,69,38,097,35,70,28,178,17,73,68,271,25*6B
$GLGSV,2,2,08,74,29,320,,80,37,168,36,84,10,340,07,85,06,293,*6C
$GNGLL,0419.80108,S,05539.90470,E,071530.00,A,A*67
$GNTXT,01,01,01,More than 100 frame errors, UART RX was disabled*70
$GNRMC,071531.00,A,0419.80108,S,05539.90470,E,0.034,,200525,,,A*78
$GNVTG,,T,,M,0.034,N,0.064,K,A*38
$GNGGA,071531.00,0419.80108,S,05539.90470,E,1,12,0.91,12.7,M,-47.6,M,,*44
$GNGSA,A,3,05,12,24,15,25,23,13,29,,,,,1.55,0.91,1.26*1B
$GNGSA,A,3,80,73,69,68,70,,,,,,,,1.55,0.91,1.26*1A
$GPGSV,4,1,16,05,33,032,35,10,11,213,,12,71,111,35,13,13,099,33*7A
$GPGSV,4,2,16,15,42,128,32,18,30,300,08,20,01,033,19,23,53,216,35*7E
$GPGSV,4,3,16,24,29,171,33,25,67,337,28,28,07,285,,29,16,352,32*73
$GPGSV,4,4,16,36,52,277,,40,86,351,,41,58,082,34,49,32,274,*7B
$GLGSV,2,1,08,68,09,054,30,69,38,097,32,70,28,178,16,73,68,271,25*6D
$GLGSV,2,2,08,74,29,320,,80,37,168,35,84,10,340,07,85,06,293,*6F
$GNGLL,0419.80108,S,05539.90470,E,071531.00,A,A*66
$GNTXT,01,01,01,More than 100 frame errors, UART RX was disabled*70
$GNRMC,071532.00,A,0419.80109,S,05539.90468,E,0.006,,200525,,,A*72
$GNVTG,,T,,M,0.006,N,0.011,K,A*3B
$GNGGA,071532.00,0419.80109,S,05539.90468,E,1,12,0.91,12.7,M,-47.6,M,,*4F
$GNGSA,A,3,05,12,24,15,25,23,13,29,,,,,1.55,0.91,1.26*1B
$GNGSA,A,3,80,73,69,68,70,,,,,,,,1.55,0.91,1.26*1A
$GPGSV,4,1,16,05,33,032,37,10,11,213,,12,71,111,37,13,13,099,36*7F
$GPGSV,4,2,16,15,42,128,33,18,30,300,07,20,01,033,18,23,53,216,36*72
$GPGSV,4,3,16,24,29,171,34,25,67,337,28,28,07,285,,29,17,352,33*74
$GPGSV,4,4,16,36,52,277,,40,86,351,,41,58,082,35,49,32,274,*7A
$GLGSV,2,1,08,68,09,054,31,69,38,097,36,70,28,178,17,73,68,271,26*6A
$GLGSV,2,2,08,74,29,320,,80,37,168,38,84,10,340,07,85,06,293,*62
$GNGLL,0419.80109,S,05539.90468,E,071532.00,A,A*6D
$GNTXT,01,01,01,More than 100 frame errors, UART RX was disabled*70
$GNRMC,071533.00,A,0419.80109,S,05539.90466,E,0.010,,200525,,,A*7A
$GNVTG,,T,,M,0.010,N,0.018,K,A*35
$GNGGA,071533.00,0419.80109,S,05539.90466,E,1,12,0.77,12.7,M,-47.6,M,,*48
$GNGSA,A,3,05,12,24,18,15,25,23,13,29,,,,1.39,0.77,1.16*13
$GNGSA,A,3,80,73,69,68,70,,,,,,,,1.39,0.77,1.16*1B
$GPGSV,4,1,16,05,33,032,33,10,11,213,,12,71,111,35,13,13,099,32*7D
$GPGSV,4,2,16,15,42,128,33,18,30,300,14,20,01,033,16,23,53,216,33*7B
$GPGSV,4,3,16,24,29,171,34,25,67,337,27,28,07,285,,29,17,352,32*7A
$GPGSV,4,4,16,36,52,277,,40,86,351,,41,58,082,32,49,32,274,*7D
$GLGSV,2,1,08,68,09,054,26,69,38,097,30,70,28,178,17,73,68,271,25*69
$GLGSV,2,2,08,74,29,320,,80,37,168,32,84,10,340,12,85,06,293,*6C
$GNGLL,0419.80109,S,05539.90466,E,071533.00,A,A*62
$GNTXT,01,01,01,More than 100 frame errors, UART RX was disabled*70
$GNRMC,071534.00,A,0419.80109,S,05539.90467,E,0.071,,200525,,,A*7B
$GNVTG,,T,,M,0.071,N,0.131,K,A*38
$GNGGA,071534.00,0419.80109,S,05539.90467,E,1,12,0.77,12.7,M,-47.6,M,,*4E
$GNGSA,A,3,05,12,24,18,15,25,23,13,29,,,,1.39,0.77,1.16*13
$GNGSA,A,3,80,73,69,68,70,,,,,,,,1.39,0.77,1.16*1B
$GPGSV,4,1,16,05,33,032,32,10,11,213,,12,71,111,35,13,13,099,32*7C
$GPGSV,4,2,16,15,42,128,32,18,30,300,09,20,01,033,15,23,53,216,33*75
$GPGSV,4,3,16,24,29,171,32,25,67,337,27,28,07,285,,29,17,352,31*7F
$GPGSV,4,4,16,36,52,277,,40,86,351,,41,58,082,33,49,32,274,*7C
$GLGSV,2,1,08,68,09,054,25,69,38,097,30,70,28,178,16,73,68,271,23*6D
$GLGSV,2,2,08,74,29,320,,80,37,168,31,84,10,340,08,85,06,293,*64
$GNGLL,0419.80109,S,05539.90467,E,071534.00,A,A*64
$GNTXT,01,01,01,More than 100 frame errors, UART RX was disabled*70
$GNRMC,071535.00,A,0419.80108,S,05539.90465,E,0.032,,200525,,,A*7E
$GNVTG,,T,,M,0.032,N,0.059,K,A*30
$GNGGA,071535.00,0419.80108,S,05539.90465,E,1,12,0.91,12.7,M,-47.6,M,,*44
$GNGSA,A,3,05,12,24,18,15,25,23,13,29,,,,1.55,0.91,1.26*12
$GNGSA,A,3,80,73,69,84,68,70,,,,,,,1.55,0.91,1.26*16
$GPGSV,4,1,16,05,33,032,33,10,11,213,,12,71,111,35,13,13,099,32*7D
$GPGSV,4,2,16,15,42,128,31,18,30,300,09,20,01,033,14,23,53,216,32*76
$GPGSV,4,3,16,24,29,171,31,25,67,337,26,28,07,285,,29,17,352,30*7C
$GPGSV,4,4,16,36,52,277,,40,86,351,,41,58,082,33,49,32,274,*7C
$GLGSV,2,1,08,68,09,054,26,69,38,097,34,70,28,178,17,73,68,271,23*6B
$GLGSV,2,2,08,74,29,320,,80,37,168,32,84,10,340,08,85,06,293,*67
$GNGLL,0419.80108,S,05539.90465,E,071535.00,A,A*66
$GNTXT,01,01,01,More than 100 frame errors, UART RX was disabled*70
$GNRMC,071536.00,A,0419.80108,S,05539.90464,E,0.084,,200525,,,A*71
$GNVTG,,T,,M,0.084,N,0.156,K,A*33
$GNGGA,071536.00,0419.80108,S,05539.90464,E,1,12,0.77,12.7,M,-47.6,M,,*4E
$GNGSA,A,3,05,12,24,18,15,25,23,13,29,,,,1.39,0.77,1.16*13
$GNGSA,A,3,80,73,69,84,68,70,,,,,,,1.39,0.77,1.16*17
$GPGSV,4,1,16,05,33,032,33,10,11,213,,12,71,111,36,13,13,099,32*7E
$GPGSV,4,2,16,15,42,128,31,18,30,300,11,20,01,033,14,23,53,216,32*7F
$GPGSV,4,3,16,24,29,171,32,25,67,337,25,28,07,285,,29,17,352,31*7D
$GPGSV,4,4,16,36,52,277,,40,86,351,,41,58,082,33,49,32,274,*7C
$GLGSV,2,1,08,68,09,054,27,69,38,097,37,70,28,178,16,73,68,271,23*68
$GLGSV,2,2,08,74,29,320,,80,37,168,35,84,10,340,09,85,06,293,*61
$GNGLL,0419.80108,S,05539.90464,E,071536.00,A,A*64
$GNTXT,01,01,01,More than 100 frame errors, UART RX was disabled*70
$GNRMC,071537.00,A,0419.80108,S,05539.90462,E,0.064,,200525,,,A*78
$GNVTG,,T,,M,0.064,N,0.119,K,A*36
$GNGGA,071537.00,0419.80108,S,05539.90462,E,1,12,0.77,12.7,M,-47.6,M,,*49
$GNGSA,A,3,05,12,24,18,15,25,23,13,29,,,,1.39,0.77,1.16*13
$GNGSA,A,3,80,73,69,84,68,70,,,,,,,1.39,0.77,1.16*17
$GPGSV,4,1,16,05,33,032,33,10,11,213,,12,71,111,36,13,13,099,32*7E
$GPGSV,4,2,16,15,42,128,32,18,30,300,11,20,01,033,14,23,53,216,33*7D
$GPGSV,4,3,16,24,29,171,32,25,67,337,25,28,07,285,,29,17,352,31*7D
$GPGSV,4,4,16,36,52,277,,40,86,351,,41,58,082,34,49,32,274,*7B
$GLGSV,2,1,08,68,09,054,27,69,38,097,35,70,28,178,17,73,68,271,23*6B
$GLGSV,2,2,08,74,29,320,,80,37,168,34,84,10,340,08,85,06,293,*61
$GNGLL,0419.80108,S,05539.90462,E,071537.00,A,A*63
$GNTXT,01,01,01,More than 100 frame errors, UART RX was disabled*70
$GNRMC,071538.00,A,0419.80108,S,05539.90459,E,0.079,,200525,,,A*73
$GNVTG,,T,,M,0.079,N,0.146,K,A*30
$GNGGA,071538.00,0419.80108,S,05539.90459,E,1,12,0.91,12.7,M,-47.6,M,,*46
$GNGSA,A,3,05,12,24,18,15,25,23,13,29,,,,1.55,0.91,1.26*12
$GNGSA,A,3,80,73,69,84,68,70,,,,,,,1.55,0.91,1.26*16
$GPGSV,4,1,16,05,33,032,33,10,11,213,,12,71,111,36,13,13,099,33*7F
$GPGSV,4,2,16,15,42,128,32,18,30,300,09,20,01,033,14,23,53,216,33*74
$GPGSV,4,3,16,24,29,171,32,25,67,337,25,28,07,285,,29,17,352,31*7D
$GPGSV,4,4,16,36,52,277,,40,86,351,,41,58,082,33,49,32,274,*7C
$GLGSV,2,1,08,68,09,054,27,69,38,097,34,70,28,178,17,73,68,271,23*6A
$GLGSV,2,2,08,74,29,320,,80,37,168,33,84,10,340,10,85,06,293,*6F
$GNGLL,0419.80108,S,05539.90459,E,071538.00,A,A*64
$GNTXT,01,01,01,More than 100 frame errors, UART RX was disabled*70
$GNRMC,071539.00,A,0419.80111,S,05539.90456,E,0.021,,200525,,,A*78
$GNVTG,,T,,M,0.021,N,0.039,K,A*34
$GNGGA,071539.00,0419.80111,S,05539.90456,E,1,12,0.77,12.6,M,-47.6,M,,*49
$GNGSA,A,3,05,12,24,18,15,25,23,13,29,,,,1.39,0.77,1.16*13
$GNGSA,A,3,80,73,69,84,68,70,,,,,,,1.39,0.77,1.16*17
$GPGSV,4,1,16,05,33,032,33,10,11,213,,12,71,111,36,13,13,099,33*7F
$GPGSV,4,2,16,15,42,128,32,18,30,300,11,20,01,033,15,23,53,216,33*7C
$GPGSV,4,3,16,24,29,171,33,25,67,337,24,28,07,285,,29,17,352,31*7D
$GPGSV,4,4,16,36,52,277,,40,86,351,,41,58,082,34,49,32,274,*7B
$GLGSV,2,1,08,68,09,054,32,69,38,097,38,70,28,178,18,73,68,271,25*6B
$GLGSV,2,2,08,74,29,320,,80,37,168,38,84,10,340,09,85,06,293,*6C
$GNGLL,0419.80111,S,05539.90456,E,071539.00,A,A*62
$GNTXT,01,01,01,More than 100 frame errors, UART RX was disabled*70
$GNRMC,071540.00,A,0419.80112,S,05539.90451,E,0.032,,200525,,,A*70
$GNVTG,,T,,M,0.032,N,0.059,K,A*30
$GNGGA,071540.00,0419.80112,S,05539.90451,E,1,12,0.77,12.5,M,-47.6,M,,*40
$GNGSA,A,3,05,12,24,18,15,25,23,13,29,,,,1.39,0.77,1.16*13
$GNGSA,A,3,80,73,69,84,68,70,,,,,,,1.39,0.77,1.16*17
$GPGSV,4,1,16,05,33,032,35,10,11,213,,12,71,111,39,13,13,099,36*73
$GPGSV,4,2,16,15,42,128,32,18,30,300,09,20,01,033,18,23,53,216,35*7E
$GPGSV,4,3,16,24,29,171,35,25,67,337,25,28,07,285,,29,17,352,33*78
$GPGSV,4,4,16,36,52,277,,40,86,351,,41,58,082,34,49,32,274,*7B
$GLGSV,2,1,08,68,09,054,31,69,38,097,38,70,28,178,19,73,68,271,27*6B
$GLGSV,2,2,08,74,29,320,,80,37,168,37,84,10,340,10,85,06,293,*6B
$GNGLL,0419.80112,S,05539.90451,E,071540.00,A,A*68
$GNTXT,01,01,01,More than 100 frame errors, UART RX was disabled*70
$GNRMC,071541.00,A,0419.80113,S,05539.90448,E,0.051,,200525,,,A*7D
$GNVTG,,T,,M,0.051,N,0.094,K,A*34
$GNGGA,071541.00,0419.80113,S,05539.90448,E,1,12,0.91,12.4,M,-47.6,M,,*41
$GNGSA,A,3,05,12,24,18,15,25,23,13,29,,,,1.55,0.91,1.26*12
$GNGSA,A,3,80,73,69,84,68,70,,,,,,,1.55,0.91,1.26*16
$GPGSV,4,1,16,05,33,032,32,10,11,213,,12,71,111,36,13,13,099,32*7F
$GPGSV,4,2,16,15,42,128,28,18,30,300,10,20,01,033,18,23,53,216,34*7C
$GPGSV,4,3,16,24,29,171,31,25,67,337,23,28,07,285,,29,17,352,29*71
$GPGSV,4,4,16,36,52,277,,40,86,351,,41,58,082,31,49,32,274,*7E
$GLGSV,2,1,08,68,09,054,25,69,38,097,36,70,28,178,17,73,68,271,24*6D
$GLGSV,2,2,08,74,29,320,,80,37,168,37,84,10,340,09,85,06,293,*63
$GNGLL,0419.80113,S,05539.90448,E,071541.00,A,A*60
$GNTXT,01,01,01,More than 100 frame errors, UART RX was disabled*70
$GNRMC,071542.00,A,0419.80113,S,05539.90447,E,0.034,,200525,,,A*72
$GNVTG,,T,,M,0.034,N,0.063,K,A*3F
$GNGGA,071542.00,0419.80113,S,05539.90447,E,1,12,0.77,12.4,M,-47.6,M,,*45
$GNGSA,A,3,05,12,24,18,15,25,23,13,29,,,,1.39,0.77,1.16*13
$GNGSA,A,3,80,73,69,84,68,70,,,,,,,1.39,0.77,1.16*17
$GPGSV,4,1,16,05,33,032,33,10,11,213,,12,71,111,36,13,13,099,33*7F
$GPGSV,4,2,16,15,42,128,32,18,30,300,15,20,01,033,19,23,53,216,35*72
$GPGSV,4,3,16,24,29,171,32,25,67,337,23,28,07,285,,29,17,352,31*7B
$GPGSV,4,4,16,36,52,277,,40,86,351,,41,58,082,32,49,32,274,*7D
$GLGSV,2,1,08,68,09,054,25,69,38,097,35,70,28,178,18,73,68,271,25*60
$GLGSV,2,2,08,74,29,320,,80,37,168,34,84,10,340,11,85,06,293,*69
$GNGLL,0419.80113,S,05539.90447,E,071542.00,A,A*6C
$GNTXT,01,01,01,More than 100 frame errors, UART RX was disabled*70
$GNRMC,071543.00,A,0419.80116,S,05539.90445,E,0.068,,200525,,,A*7D
$GNVTG,,T,,M,0.068,N,0.126,K,A*36
$GNGGA,071543.00,0419.80116,S,05539.90445,E,1,12,0.77,12.3,M,-47.6,M,,*44
$GNGSA,A,3,05,12,24,18,15,25,23,13,29,,,,1.39,0.77,1.16*13
$GNGSA,A,3,80,73,69,84,68,70,,,,,,,1.39,0.77,1.16*17
$GPGSV,4,1,16,05,33,032,32,10,11,213,,12,71,111,36,13,13,099,33*7E
$GPGSV,4,2,16,15,42,128,32,18,30,300,15,20,01,033,20,23,53,216,32*7F
$GPGSV,4,3,16,24,29,171,33,25,67,337,23,28,07,285,,29,17,352,30*7B
$GPGSV,4,4,16,36,52,277,,40,86,351,,41,58,082,33,49,32,274,*7C
$GLGSV,2,1,08,68,09,054,29,69,38,097,35,70,28,178,18,73,68,271,25*6C
$GLGSV,2,2,08,74,29,320,,80,37,168,33,84,10,340,11,85,06,293,*6E
$GNGLL,0419.80116,S,05539.90445,E,071543.00,A,A*6A
$GNTXT,01,01,01,More than 100 frame errors, UART RX was disabled*70
$GNRMC,071544.00,A,0419.80117,S,05539.90443,E,0.081,,200525,,,A*7A
$GNVTG,,T,,M,0.081,N,0.151,K,A*31
$GNGGA,071544.00,0419.80117,S,05539.90443,E,1,12,0.91,12.2,M,-47.6,M,,*4D
$GNGSA,A,3,05,12,24,15,25,23,13,29,,,,,1.55,0.91,1.26*1B
$GNGSA,A,3,80,73,69,84,68,70,,,,,,,1.55,0.91,1.26*16
$GPGSV,4,1,16,05,33,032,31,10,11,213,,12,71,111,33,13,13,099,31*7A
$GPGSV,4,2,16,15,42,128,30,18,30,300,07,20,01,033,19,23,53,216,32*74
$GPGSV,4,3,16,24,29,171,31,25,67,337,22,28,07,285,,29,17,352,29*70
$GPGSV,4,4,16,36,52,277,,40,86,351,,41,58,082,30,49,32,274,*7F
$GLGSV,2,1,08,68,09,054,28,69,38,097,34,70,28,178,17,73,68,271,24*62
$GLGSV,2,2,08,74,29,320,,80,37,168,33,84,10,340,09,85,06,293,*67
$GNGLL,0419.80117,S,05539.90443,E,071544.00,A,A*6A
$GNTXT,01,01,01,More than 100 frame errors, UART RX was disabled*70
$GNRMC,071545.00,A,0419.80117,S,05539.90443,E,0.012,,200525,,,A*71
$GNVTG,,T,,M,0.012,N,0.023,K,A*3F
$GNGGA,071545.00,0419.80117,S,05539.90443,E,1,12,0.77,12.2,M,-47.6,M,,*44
$GNGSA,A,3,05,12,24,18,15,25,23,13,29,,,,1.39,0.77,1.16*13
$GNGSA,A,3,80,73,69,84,68,70,,,,,,,1.39,0.77,1.16*17
$GPGSV,4,1,16,05,33,032,36,10,11,213,,12,71,111,38,13,13,099,34*73
$GPGSV,4,2,16,15,42,128,34,18,30,300,16,20,01,033,21,23,53,216,37*7E
$GPGSV,4,3,16,24,29,171,36,25,67,337,23,28,07,285,,29,17,352,32*7C
$GPGSV,4,4,16,36,52,277,,40,86,351,,41,58,082,35,49,32,274,*7A
$GLGSV,2,1,08,68,09,054,31,69,38,097,37,70,28,178,18,73,68,271,26*64
$GLGSV,2,2,08,74,29,320,,80,37,168,36,84,10,340,08,85,06,293,*63
$GNGLL,0419.80117,S,05539.90443,E,071545.00,A,A*6B
$GNTXT,01,01,01,More than 100 frame errors, UART RX was disabled*70
$GNRMC,071546.00,A,0419.80117,S,05539.90442,E,0.032,,200525,,,A*71
$GNVTG,,T,,M,0.032,N,0.060,K,A*3A
$GNGGA,071546.00,0419.80117,S,05539.90442,E,1,12,0.77,12.2,M,-47.6,M,,*46
$GNGSA,A,3,05,12,24,18,15,25,23,13,29,,,,1.39,0.77,1.16*13
$GNGSA,A,3,80,73,69,68,70,,,,,,,,1.39,0.77,1.16*1B
$GPGSV,4,1,16,05,33,032,35,10,11,213,,12,71,111,36,13,13,099,35*7F
$GPGSV,4,2,16,15,42,128,32,18,30,300,08,20,01,033,22,23,53,216,35*76
$GPGSV,4,3,16,24,29,171,34,25,67,337,23,28,07,285,,29,17,352,32*7E
$GPGSV,4,4,16,36,52,277,,40,86,351,,41,58,082,33,49,32,274,*7C
$GLGSV,2,1,08,68,09,054,30,69,38,097,37,70,28,178,18,73,68,271,26*65
$GLGSV,2,2,08,74,29,320,,80,37,168,36,84,10,340,06,85,06,293,*6D
$GNGLL,0419.80117,S,05539.90442,E,071546.00,A,A*69
