$GNRMC,070959.00,A,0419.79595,S,05539.92166,E,0.055,,200525,,,D*7F
$GNVTG,,T,,M,0.055,N,0.102,K,D*3B
$GNGGA,070959.00,0419.79595,S,05539.92166,E,2,12,0.69,12.8,M,-47.6,M,,0000*4A
$GNGSA,A,3,05,12,24,18,15,25,23,13,29,10,,,1.20,0.69,0.98*12
$GNGSA,A,3,80,73,69,68,,,,,,,,,1.20,0.69,0.98*1C
$GPGSV,4,1,16,05,36,033,29,10,09,213,28,12,73,101,32,13,13,102,32*76
$GPGSV,4,2,16,15,41,132,33,18,31,297,33,20,03,033,12,23,50,213,31*7A
$GPGSV,4,3,16,24,30,173,22,25,64,339,30,28,06,288,,29,16,350,32*73
$GPGSV,4,4,16,36,52,277,33,40,86,351,31,41,58,082,32,49,32,274,*7F
$GLGSV,3,1,09,68,10,056,30,69,38,101,33,70,26,180,23,73,68,279,34*6F
$GLGSV,3,2,09,74,27,322,18,80,40,169,33,84,11,338,,85,07,290,*66
$GLGSV,3,3,09,,,,31*6E
$GNGLL,0419.79595,S,05539.92166,E,070959.00,A,D*66
$GNTXT,01,01,01,More than 100 frame errors, UART RX was disabled*70
$GNRMC,071000.00,A,0419.79602,S,05539.92164,E,0.008,,200525,,,D*7C
$GNVTG,,T,,M,0.008,N,0.015,K,D*34
$GNGGA,071000.00,0419.79602,S,05539.92164,E,2,12,0.69,12.8,M,-47.6,M,,0000*41
$GNGSA,A,3,05,12,24,18,15,25,23,13,29,10,,,1.20,0.69,0.98*12
$GNGSA,A,3,80,73,69,68,,,,,,,,,1.20,0.69,0.98*1C
$GPGSV,4,1,16,05,36,033,32,10,09,213,27,12,73,101,32,13,13,102,34*75
$GPGSV,4,2,16,15,41,132,34,18,31,297,33,20,03,033,12,23,50,213,32*7E
$GPGSV,4,3,16,24,30,173,22,25,64,339,30,28,06,288,,29,16,350,28*78
$GPGSV,4,4,16,36,52,277,30,40,86,351,35,41,58,082,30,49,32,274,*7A
$GLGSV,3,1,09,68,10,056,30,69,38,101,37,70,26,180,22,73,68,279,34*6A
$GLGSV,3,2,09,74,27,322,17,80,40,169,36,84,11,338,,85,07,290,*6C
$GLGSV,3,3,09,,,,30*6F
$GNGLL,0419.79602,S,05539.92164,E,071000.00,A,D*6D
$GNTXT,01,01,01,More than 100 frame errors, UART RX was disabled*70
$GNRMC,071001.00,A,0419.79605,S,05539.92162,E,0.007,,200525,,,D*73
$GNVTG,,T,,M,0.007,N,0.012,K,D*3C
$GNGGA,071001.00,0419.79605,S,05539.92162,E,2,12,0.69,12.8,M,-47.6,M,,0000*41
$GNGSA,A,3,05,12,24,18,15,25,23,13,29,10,,,1.20,0.69,0.98*12
$GNGSA,A,3,80,73,69,68,,,,,,,,,1.20,0.69,0.98*1C
$GPGSV,4,1,16,05,36,033,35,10,09,213,27,12,73,101,36,13,13,102,37*75
$GPGSV,4,2,16,15,41,132,38,18,31,297,38,20,03,033,11,23,50,213,35*7D
$GPGSV,4,3,16,24,30,173,22,25,64,339,32,28,06,288,,29,16,350,28*7A
$GPGSV,4,4,16,36,52,277,38,40,86,351,40,41,58,082,33,49,32,274,*73
$GLGSV,3,1,09,68,10,056,34,69,38,101,38,70,26,180,23,73,68,279,35*61
$GLGSV,3,2,09,74,27,322,16,80,40,169,33,84,11,338,,85,07,291,*69
$GLGSV,3,3,09,,,,31*6E
$GNGLL,0419.79605,S,05539.92162,E,071001.00,A,D*6D
$GNTXT,01,01,01,More than 100 frame errors, UART RX was disabled*70
$GNRMC,071002.00,A,0419.79607,S,05539.92160,E,0.004,,200525,,,D*73
$GNVTG,,T,,M,0.004,N,0.008,K,D*34
$GNGGA,071002.00,0419.79607,S,05539.92160,E,2,12,0.69,12.9,M,-47.6,M,,0000*43
$GNGSA,A,3,05,12,24,18,15,25,23,13,29,10,,,1.20,0.69,0.98*12
$GNGSA,A,3,80,73,69,68,,,,,,,,,1.20,0.69,0.98*1C
$GPGSV,4,1,16,05,36,033,32,10,09,213,28,12,73,101,33,13,13,102,37*78
$GPGSV,4,2,16,15,41,132,38,18,31,297,39,20,03,033,04,23,50,213,38*75
$GPGSV,4,3,16,24,30,173,20,25,64,339,32,28,06,288,,29,16,350,30*71
$GPGSV,4,4,16,36,52,277,36,40,86,351,38,41,58,082,36,49,32,274,*77
$GLGSV,3,1,09,68,10,056,33,69,38,101,38,70,26,180,22,73,68,279,35*67
$GLGSV,3,2,09,74,27,322,14,80,40,169,30,84,11,338,,85,07,291,*68
$GLGSV,3,3,09,,,,29*67
$GNGLL,0419.79607,S,05539.92160,E,071002.00,A,D*6E
$GNTXT,01,01,01,More than 100 frame errors, UART RX was disabled*70
$GNRMC,071003.00,A,0419.79615,S,05539.92155,E,0.023,,200525,,,D*72
$GNVTG,,T,,M,0.023,N,0.043,K,D*3E
$GNGGA,071003.00,0419.79615,S,05539.92155,E,2,12,0.69,13.0,M,-47.6,M,,0000*4F
$GNGSA,A,3,05,12,24,18,15,25,23,13,29,10,,,1.20,0.69,0.98*12
$GNGSA,A,3,80,73,69,68,,,,,,,,,1.20,0.69,0.98*1C
$GPGSV,4,1,16,05,36,033,35,10,09,213,29,12,73,101,33,13,13,102,37*7E
$GPGSV,4,2,16,15,41,132,38,18,31,297,40,20,03,033,10,23,50,213,38*7E
$GPGSV,4,3,16,24,30,173,19,25,64,339,32,28,06,288,,29,16,350,31*7A
$GPGSV,4,4,16,36,52,277,35,40,86,351,40,41,58,082,35,49,32,274,*78
$GLGSV,3,1,09,68,10,056,31,69,38,101,37,70,26,180,21,73,68,279,32*6E
$GLGSV,3,2,09,74,27,322,10,80,40,169,31,84,11,338,,85,07,291,*6D
$GLGSV,3,3,09,,,,29*67
$GNGLL,0419.79615,S,05539.92155,E,071003.00,A,D*6A
$GNTXT,01,01,01,More than 100 frame errors, UART RX was disabled*70
$GNRMC,071004.00,A,0419.79617,S,05539.92155,E,0.020,,200525,,,D*74
$GNVTG,,T,,M,0.020,N,0.038,K,D*31
$GNGGA,071004.00,0419.79617,S,05539.92155,E,2,12,0.69,13.1,M,-47.6,M,,0000*4B
$GNGSA,A,3,05,12,24,18,15,25,23,13,29,10,,,1.20,0.69,0.98*12
$GNGSA,A,3,80,73,69,68,,,,,,,,,1.20,0.69,0.98*1C
$GPGSV,4,1,16,05,36,033,34,10,09,213,30,12,73,101,34,13,13,102,38*7F
$GPGSV,4,2,16,15,41,132,38,18,31,297,40,20,03,033,08,23,50,213,39*76
$GPGSV,4,3,16,24,30,173,20,25,64,339,32,28,06,288,,29,16,350,32*73
$GPGSV,4,4,16,36,52,277,36,40,86,351,40,41,58,082,38,49,32,274,*76
$GLGSV,3,1,09,68,10,056,31,69,38,101,39,70,26,180,21,73,68,279,36*64
$GLGSV,3,2,09,74,27,322,09,80,40,169,32,84,11,338,,85,07,291,*66
$GLGSV,3,3,09,,,,29*67
$GNGLL,0419.79617,S,05539.92155,E,071004.00,A,D*6F
$GNTXT,01,01,01,More than 100 frame errors, UART RX was disabled*70
$GNRMC,071005.00,A,0419.79617,S,05539.92155,E,0.017,,200525,,,D*71
$GNVTG,,T,,M,0.017,N,0.031,K,D*3C
$GNGGA,071005.00,0419.79617,S,05539.92155,E,2,12,0.69,13.1,M,-47.6,M,,0000*4A
$GNGSA,A,3,05,12,24,18,15,25,23,13,29,10,,,1.20,0.69,0.98*12
$GNGSA,A,3,80,73,69,68,,,,,,,,,1.20,0.69,0.98*1C
$GPGSV,4,1,16,05,36,033,31,10,09,213,30,12,73,101,31,13,13,102,35*72
$GPGSV,4,2,16,15,41,132,37,18,31,297,39,20,03,033,10,23,50,213,39*7E
$GPGSV,4,3,16,24,30,173,21,25,64,339,31,28,06,288,,29,16,350,31*72
$GPGSV,4,4,16,36,52,277,34,40,86,351,38,41,58,082,36,49,32,274,*75
$GLGSV,3,1,09,68,10,056,30,69,38,101,37,70,26,180,22,73,68,279,35*6B
$GLGSV,3,2,09,74,27,322,,80,40,169,31,84,11,338,,85,07,291,*6C
$GLGSV,3,3,09,,,,29*67
$GNGLL,0419.79617,S,05539.92155,E,071005.00,A,D*6E
$GNTXT,01,01,01,More than 100 frame errors, UART RX was disabled*70
$GNRMC,071006.00,A,0419.79614,S,05539.92159,E,0.023,,200525,,,D*7A
$GNVTG,,T,,M,0.023,N,0.042,K,D*3F
$GNGGA,071006.00,0419.79614,S,05539.92159,E,2,12,0.69,13.2,M,-47.6,M,,0000*45
$GNGSA,A,3,05,12,24,18,15,25,23,13,29,10,,,1.20,0.69,0.98*12
$GNGSA,A,3,80,73,69,68,,,,,,,,,1.20,0.69,0.98*1C
$GPGSV,4,1,16,05,36,033,36,10,09,213,31,12,73,101,33,13,13,102,38*7B
$GPGSV,4,2,16,15,41,132,38,18,31,297,41,20,03,033,12,23,50,213,40*72
$GPGSV,4,3,16,24,30,173,23,25,64,339,31,28,06,288,,29,16,350,31*70
$GPGSV,4,4,16,36,52,277,37,40,86,351,39,41,58,082,35,49,32,274,*74
$GLGSV,3,1,09,68,10,056,31,69,38,101,38,70,26,180,22,73,68,279,35*65
$GLGSV,3,2,09,74,27,322,,80,40,169,32,84,11,338,,85,07,291,*6F
$GLGSV,3,3,09,,,,29*67
$GNGLL,0419.79614,S,05539.92159,E,071006.00,A,D*62
$GNTXT,01,01,01,More than 100 frame errors, UART RX was disabled*70
$GNRMC,071007.00,A,0419.79614,S,05539.92162,E,0.031,,200525,,,D*70
$GNVTG,,T,,M,0.031,N,0.057,K,D*38
$GNGGA,071007.00,0419.79614,S,05539.92162,E,2,12,0.69,13.3,M,-47.6,M,,0000*4D
$GNGSA,A,3,05,12,24,18,15,25,23,13,29,10,,,1.20,0.69,0.98*12
$GNGSA,A,3,80,73,69,68,,,,,,,,,1.20,0.69,0.98*1C
$GPGSV,4,1,16,05,36,033,36,10,09,213,31,12,73,101,33,13,13,102,38*7B
$GPGSV,4,2,16,15,41,132,38,18,31,297,41,20,03,033,10,23,50,213,39*7E
$GPGSV,4,3,16,24,30,173,23,25,64,339,32,28,06,288,,29,16,350,31*73
$GPGSV,4,4,16,36,52,277,37,40,86,351,39,41,58,082,37,49,32,274,*76
$GLGSV,3,1,09,68,10,056,31,69,38,101,39,70,26,180,22,73,68,279,36*67
$GLGSV,3,2,09,74,27,322,,80,40,169,33,84,11,338,,85,07,291,*6E
$GLGSV,3,3,09,,,,29*67
$GNGLL,0419.79614,S,05539.92162,E,071007.00,A,D*6B
$GNTXT,01,01,01,More than 100 frame errors, UART RX was disabled*70
$GNRMC,071008.00,A,0419.79611,S,05539.92165,E,0.018,,200525,,,D*76
$GNVTG,,T,,M,0.018,N,0.034,K,D*36
$GNGGA,071008.00,0419.79611,S,05539.92165,E,2,12,0.69,13.4,M,-47.6,M,,0000*47
$GNGSA,A,3,05,12,24,18,15,25,23,13,29,10,,,1.20,0.69,0.98*12
$GNGSA,A,3,80,73,69,68,,,,,,,,,1.20,0.69,0.98*1C
$GPGSV,4,1,16,05,36,033,36,10,09,213,31,12,73,101,34,13,13,102,37*73
$GPGSV,4,2,16,15,41,132,39,18,31,297,41,20,03,033,12,23,50,213,39*7D
$GPGSV,4,3,16,24,30,173,22,25,64,339,32,28,06,288,,29,16,350,31*72
$GPGSV,4,4,16,36,52,277,38,40,86,351,39,41,58,082,36,49,32,274,*78
$GLGSV,3,1,09,68,10,056,32,69,38,101,39,70,26,180,23,73,68,279,36*65
$GLGSV,3,2,09,74,27,322,,80,40,169,33,84,11,338,,85,07,291,*6E
$GLGSV,3,3,09,,,,28*66
$GNGLL,0419.79611,S,05539.92165,E,071008.00,A,D*66
$GNTXT,01,01,01,More than 100 frame errors, UART RX was disabled*70
$GNRMC,071009.00,A,0419.79610,S,05539.92167,E,0.014,,200525,,,D*78
$GNVTG,,T,,M,0.014,N,0.025,K,D*3A
$GNGGA,071009.00,0419.79610,S,05539.92167,E,2,12,0.69,13.5,M,-47.6,M,,0000*44
$GNGSA,A,3,05,12,24,18,15,25,23,13,29,10,,,1.20,0.69,0.98*12
$GNGSA,A,3,80,73,69,68,,,,,,,,,1.20,0.69,0.98*1C
$GPGSV,4,1,16,05,35,033,36,10,09,213,31,12,73,101,34,13,13,102,38*7F
$GPGSV,4,2,16,15,41,132,38,18,31,297,41,20,03,033,09,23,50,213,39*76
$GPGSV,4,3,16,24,30,173,22,25,64,339,31,28,06,288,,29,16,350,31*71
$GPGSV,4,4,16,36,52,277,38,40,86,351,39,41,58,082,34,49,32,274,*7A
$GLGSV,3,1,09,68,10,056,32,69,38,101,38,70,26,180,24,73,68,279,37*62
$GLGSV,3,2,09,74,27,322,,80,40,169,33,84,11,338,,85,07,291,*6E
$GLGSV,3,3,09,,,,27*69
$GNGLL,0419.79610,S,05539.92167,E,071009.00,A,D*64
$GNTXT,01,01,01,More than 100 frame errors, UART RX was disabled*70
$GNRMC,071010.00,A,0419.79607,S,05539.92170,E,0.044,,200525,,,D*75
$GNVTG,,T,,M,0.044,N,0.082,K,D*32
$GNGGA,071010.00,0419.79607,S,05539.92170,E,2,12,0.69,13.6,M,-47.6,M,,0000*4F
$GNGSA,A,3,05,12,24,18,15,25,23,13,29,10,,,1.20,0.69,0.98*12
$GNGSA,A,3,80,73,69,68,,,,,,,,,1.20,0.69,0.98*1C
$GPGSV,4,1,16,05,35,033,36,10,09,213,31,12,73,101,34,13,13,102,37*70
$GPGSV,4,2,16,15,41,132,39,18,31,297,41,20,03,033,10,23,50,213,40*71
$GPGSV,4,3,16,24,30,173,20,25,64,339,31,28,06,288,,29,16,350,31*73
$GPGSV,4,4,16,36,52,277,38,40,86,351,39,41,58,082,36,49,32,274,*78
$GLGSV,3,1,09,68,10,056,32,69,38,101,38,70,26,180,24,73,68,279,38*6D
$GLGSV,3,2,09,74,27,322,,80,40,169,28,84,11,338,,85,07,291,*64
$GLGSV,3,3,09,,,,26*68
$GNGLL,0419.79607,S,05539.92170,E,071010.00,A,D*6C
$GNTXT,01,01,01,More than 100 frame errors, UART RX was disabled*70
$GNRMC,071011.00,A,0419.79605,S,05539.92172,E,0.021,,200525,,,D*77
$GNVTG,,T,,M,0.021,N,0.038,K,D*30
$GNGGA,071011.00,0419.79605,S,05539.92172,E,2,12,0.69,13.6,M,-47.6,M,,0000*4E
$GNGSA,A,3,05,12,24,18,15,25,23,13,29,10,,,1.20,0.69,0.98*12
$GNGSA,A,3,80,73,69,68,,,,,,,,,1.20,0.69,0.98*1C
$GPGSV,4,1,16,05,35,033,36,10,09,213,30,12,73,101,32,13,13,102,36*76
$GPGSV,4,2,16,15,41,132,39,18,31,297,40,20,03,033,11,23,50,213,40*71
$GPGSV,4,3,16,24,30,173,21,25,64,339,31,28,06,288,,29,16,350,31*72
$GPGSV,4,4,16,36,52,277,38,40,86,351,39,41,58,082,36,49,32,274,*78
$GLGSV,3,1,09,68,10,056,31,69,38,101,38,70,26,180,25,73,68,279,36*61
$GLGSV,3,2,09,74,27,322,,80,40,169,28,84,11,338,,85,07,291,*64
$GLGSV,3,3,09,,,,27*69
$GNGLL,0419.79605,S,05539.92172,E,071011.00,A,D*6D
$GNTXT,01,01,01,More than 100 frame errors, UART RX was disabled*70
$GNRMC,071012.00,A,0419.79602,S,05539.92174,E,0.032,,200525,,,D*77
$GNVTG,,T,,M,0.032,N,0.058,K,D*34
$GNGGA,071012.00,0419.79602,S,05539.92174,E,2,12,0.69,13.7,M,-47.6,M,,0000*4D
$GNGSA,A,3,05,12,24,18,15,25,23,13,29,10,,,1.20,0.69,0.98*12
$GNGSA,A,3,80,73,69,68,,,,,,,,,1.20,0.69,0.98*1C
$GPGSV,4,1,16,05,35,033,36,10,09,213,30,12,73,101,33,13,13,102,37*76
$GPGSV,4,2,16,15,41,132,39,18,31,297,40,20,03,033,10,23,50,213,40*70
$GPGSV,4,3,16,24,30,173,23,25,64,339,31,28,06,288,,29,16,350,31*70
$GPGSV,4,4,16,36,52,277,38,40,86,351,39,41,58,082,36,49,32,274,*78
$GLGSV,3,1,09,68,10,056,30,69,38,101,38,70,26,180,24,73,68,279,36*61
$GLGSV,3,2,09,74,27,322,,80,40,169,28,84,11,338,,85,07,291,*64
$GLGSV,3,3,09,,,,27*69
$GNGLL,0419.79602,S,05539.92174,E,071012.00,A,D*6F
$GNTXT,01,01,01,More than 100 frame errors, UART RX was disabled*70
$GNRMC,071013.00,A,0419.79599,S,05539.92177,E,0.279,,200525,,,D*79
$GNVTG,,T,,M,0.279,N,0.517,K,D*37
$GNGGA,071013.00,0419.79599,S,05539.92177,E,2,12,0.69,13.8,M,-47.6,M,,0000*41
$GNGSA,A,3,05,12,24,18,15,25,23,13,29,10,,,1.20,0.69,0.98*12
$GNGSA,A,3,80,73,69,68,,,,,,,,,1.20,0.69,0.98*1C
$GPGSV,4,1,16,05,35,033,30,10,09,213,29,12,73,101,27,13,13,102,31*7B
$GPGSV,4,2,16,15,41,132,31,18,31,297,34,20,03,033,10,23,50,213,33*7F
$GPGSV,4,3,16,24,30,173,23,25,64,339,30,28,06,288,,29,16,350,23*72
$GPGSV,4,4,16,36,52,277,31,40,86,351,32,41,58,082,29,49,32,274,*74
$GLGSV,3,1,09,68,10,056,30,69,38,101,33,70,26,180,24,73,68,279,31*6D
$GLGSV,3,2,09,74,27,322,,80,40,169,28,84,11,338,,85,07,291,*64
$GLGSV,3,3,09,,,,27*69
$GNGLL,0419.79599,S,05539.92177,E,071013.00,A,D*6C
$GNTXT,01,01,01,More than 100 frame errors, UART RX was disabled*70
$GNRMC,071014.00,A,0419.79596,S,05539.92180,E,0.017,,200525,,,D*73
$GNVTG,,T,,M,0.017,N,0.032,K,D*3F
$GNGGA,071014.00,0419.79596,S,05539.92180,E,2,12,0.69,13.9,M,-47.6,M,,0000*40
$GNGSA,A,3,05,12,24,18,15,25,23,13,29,10,,,1.20,0.69,0.98*12
$GNGSA,A,3,80,73,69,68,,,,,,,,,1.20,0.69,0.98*1C
$GPGSV,4,1,16,05,35,033,36,10,09,213,31,12,73,101,32,13,13,102,37*76
$GPGSV,4,2,16,15,41,132,39,18,31,297,40,20,03,033,09,23,50,213,40*78
$GPGSV,4,3,16,24,30,173,25,25,64,339,31,28,06,288,,29,16,350,31*76
$GPGSV,4,4,16,36,52,277,37,40,86,351,39,41,58,082,36,49,32,274,*77
$GLGSV,3,1,09,68,10,056,30,69,38,101,38,70,26,180,24,73,68,279,36*61
$GLGSV,3,2,09,74,27,322,,80,40,169,27,84,11,338,,85,07,291,*6B
$GLGSV,3,3,09,,,,27*69
$GNGLL,0419.79596,S,05539.92180,E,071014.00,A,D*6C
$GNTXT,01,01,01,More than 100 frame errors, UART RX was disabled*70
$GNRMC,071015.00,A,0419.79596,S,05539.92184,E,0.036,,200525,,,D*75
$GNVTG,,T,,M,0.036,N,0.066,K,D*3D
$GNGGA,071015.00,0419.79596,S,05539.92184,E,2,12,0.69,13.9,M,-47.6,M,,0000*45
$GNGSA,A,3,05,12,24,18,15,25,23,13,29,10,,,1.20,0.69,0.98*12
$GNGSA,A,3,80,73,69,68,,,,,,,,,1.20,0.69,0.98*1C
$GPGSV,4,1,16,05,35,033,36,10,09,213,31,12,73,101,33,13,13,102,36*76
$GPGSV,4,2,16,15,41,132,39,18,31,297,41,20,03,033,10,23,50,213,39*7F
$GPGSV,4,3,16,24,30,173,25,25,64,339,31,28,06,288,,29,16,350,31*76
$GPGSV,4,4,16,36,52,277,37,40,86,351,39,41,58,082,36,49,32,274,*77
$GLGSV,3,1,09,68,10,056,32,69,38,101,40,70,26,180,25,73,68,279,38*63
$GLGSV,3,2,09,74,27,322,,80,40,169,28,84,11,338,,85,07,291,*64
$GLGSV,3,3,09,,,,29*67
$GNGLL,0419.79596,S,05539.92184,E,071015.00,A,D*69
$GNTXT,01,01,01,More than 100 frame errors, UART RX was disabled*70
$GNRMC,071016.00,A,0419.79594,S,05539.92186,E,0.006,,200525,,,D*75
$GNVTG,,T,,M,0.006,N,0.012,K,D*3D
$GNGGA,071016.00,0419.79594,S,05539.92186,E,2,12,0.69,13.9,M,-47.6,M,,0000*46
$GNGSA,A,3,05,12,24,18,15,25,23,13,29,10,,,1.20,0.69,0.98*12
$GNGSA,A,3,80,73,69,68,,,,,,,,,1.20,0.69,0.98*1C
$GPGSV,4,1,16,05,35,033,36,10,09,213,31,12,72,103,33,13,13,102,37*74
$GPGSV,4,2,16,15,41,132,39,18,31,297,41,20,03,033,07,23,50,213,40*77
$GPGSV,4,3,16,24,30,173,24,25,64,339,32,28,06,288,,29,16,350,31*74
$GPGSV,4,4,16,36,52,277,37,40,86,351,39,41,58,082,36,49,32,274,*77
$GLGSV,3,1,09,68,10,056,32,69,38,101,40,70,26,180,26,73,68,279,38*60
$GLGSV,3,2,09,74,27,322,,80,40,169,28,84,11,338,,85,07,291,*64
$GLGSV,3,3,09,,,,28*66
$GNGLL,0419.79594,S,05539.92186,E,071016.00,A,D*6A
$GNTXT,01,01,01,More than 100 frame errors, UART RX was disabled*70
$GNRMC,071017.00,A,0419.79592,S,05539.92187,E,0.013,,200525,,,D*77
$GNVTG,,T,,M,0.013,N,0.024,K,D*3C
$GNGGA,071017.00,0419.79592,S,05539.92187,E,2,12,0.69,13.8,M,-47.6,M,,0000*41
$GNGSA,A,3,05,12,24,18,15,25,23,13,29,10,,,1.20,0.69,0.98*12
$GNGSA,A,3,80,73,69,68,,,,,,,,,1.20,0.69,0.98*1C
$GPGSV,4,1,16,05,35,033,36,10,09,213,31,12,72,103,34,13,13,102,37*73
$GPGSV,4,2,16,15,41,132,39,18,31,297,41,20,03,033,08,23,50,213,40*78
$GPGSV,4,3,16,24,30,173,26,25,64,339,31,28,06,288,,29,16,350,32*76
$GPGSV,4,4,16,36,52,277,37,40,86,351,39,41,58,082,35,49,32,274,*74
$GLGSV,3,1,09,68,10,056,32,69,38,101,40,70,26,180,26,73,68,279,39*61
$GLGSV,3,2,09,74,27,322,,80,40,169,29,84,11,338,,85,07,291,*65
$GLGSV,3,3,09,,,,28*66
$GNGLL,0419.79592,S,05539.92187,E,071017.00,A,D*6C
$GNTXT,01,01,01,More than 100 frame errors, UART RX was disabled*70
$GNRMC,071018.00,A,0419.79591,S,05539.92189,E,0.002,,200525,,,D*75
$GNVTG,,T,,M,0.002,N,0.003,K,D*39
$GNGGA,071018.00,0419.79591,S,05539.92189,E,2,12,0.69,13.9,M,-47.6,M,,0000*42
$GNGSA,A,3,05,12,24,18,15,25,23,13,29,10,,,1.20,0.69,0.98*12
$GNGSA,A,3,80,73,69,68,,,,,,,,,1.20,0.69,0.98*1C
$GPGSV,4,1,16,05,35,033,36,10,09,213,32,12,72,103,34,13,13,102,37*70
$GPGSV,4,2,16,15,41,132,40,18,31,297,41,20,03,033,07,23,50,213,40*79
$GPGSV,4,3,16,24,30,173,26,25,64,339,31,28,06,288,,29,16,350,31*75
$GPGSV,4,4,16,36,52,277,38,40,86,351,40,41,58,082,35,49,32,274,*75
$GLGSV,3,1,09,68,10,056,32,69,38,101,40,70,26,180,26,73,68,279,38*60
$GLGSV,3,2,09,74,27,322,,80,40,169,28,84,11,338,,85,07,291,*64
$GLGSV,3,3,09,,,,27*69
$GNGLL,0419.79591,S,05539.92189,E,071018.00,A,D*6E
$GNTXT,01,01,01,More than 100 frame errors, UART RX was disabled*70
$GNRMC,071019.00,A,0419.79590,S,05539.92189,E,0.002,,200525,,,D*75
$GNVTG,,T,,M,0.002,N,0.004,K,D*3E
$GNGGA,071019.00,0419.79590,S,05539.92189,E,2,12,0.69,13.9,M,-47.6,M,,0000*42
$GNGSA,A,3,05,12,24,18,15,25,23,13,29,10,,,1.20,0.69,0.98*12
$GNGSA,A,3,80,73,69,68,,,,,,,,,1.20,0.69,0.98*1C
$GPGSV,4,1,16,05,35,033,36,10,09,213,32,12,72,103,34,13,13,102,37*70
$GPGSV,4,2,16,15,41,131,39,18,31,297,40,20,03,033,10,23,50,213,40*73
$GPGSV,4,3,16,24,30,173,25,25,64,339,31,28,06,288,,29,16,350,31*76
$GPGSV,4,4,16,36,52,277,37,40,86,351,40,41,58,082,35,49,32,274,*7A
$GLGSV,3,1,09,68,10,056,32,69,38,101,40,70,26,180,26,73,68,279,38*60
$GLGSV,3,2,09,74,27,322,,80,40,169,28,84,11,338,,85,07,291,*64
$GLGSV,3,3,09,,,,27*69
$GNGLL,0419.79590,S,05539.92189,E,071019.00,A,D*6E
$GNTXT,01,01,01,More than 100 frame errors, UART RX was disabled*70
$GNRMC,071020.00,A,0419.79588,S,05539.92187,E,0.019,,200525,,,D*72
$GNVTG,,T,,M,0.019,N,0.035,K,D*36
$GNGGA,071020.00,0419.79588,S,05539.92187,E,2,12,0.69,13.8,M,-47.6,M,,0000*4E
$GNGSA,A,3,05,12,24,18,15,25,23,13,29,10,,,1.20,0.69,0.98*12
$GNGSA,A,3,80,73,69,68,,,,,,,,,1.20,0.69,0.98*1C
$GPGSV,4,1,16,05,35,033,36,10,09,213,32,12,72,103,35,13,13,102,37*71
$GPGSV,4,2,16,15,41,131,39,18,31,297,40,20,03,033,09,23,50,213,39*75
$GPGSV,4,3,16,24,30,173,24,25,64,339,31,28,06,288,,29,16,350,31*77
$GPGSV,4,4,16,36,52,277,38,40,86,351,39,41,58,082,35,49,32,274,*7B
$GLGSV,3,1,09,68,10,056,32,69,38,101,40,70,26,180,27,73,68,279,38*61
$GLGSV,3,2,09,74,27,322,,80,40,169,28,84,11,338,,85,07,291,*64
$GLGSV,3,3,09,,,,27*69
$GNGLL,0419.79588,S,05539.92187,E,071020.00,A,D*63
$GNTXT,01,01,01,More than 100 frame errors, UART RX was disabled*70
$GNRMC,071021.00,A,0419.79585,S,05539.92186,E,0.016,,200525,,,D*70
$GNVTG,,T,,M,0.016,N,0.030,K,D*3C
$GNGGA,071021.00,0419.79585,S,05539.92186,E,2,12,0.69,13.7,M,-47.6,M,,0000*4C
$GNGSA,A,3,05,12,24,18,15,25,23,13,29,10,,,1.20,0.69,0.98*12
$GNGSA,A,3,80,73,69,68,,,,,,,,,1.20,0.69,0.98*1C
$GPGSV,4,1,16,05,35,033,36,10,09,213,31,12,72,103,36,13,13,102,37*71
$GPGSV,4,2,16,15,41,131,39,18,31,297,40,20,03,033,09,23,50,213,39*75
$GPGSV,4,3,16,24,30,173,25,25,64,339,32,28,06,288,,29,16,350,31*75
$GPGSV,4,4,16,36,52,277,38,40,86,351,39,41,58,082,36,49,32,274,*78
$GLGSV,3,1,09,68,10,056,31,69,38,101,41,70,26,180,27,73,68,279,38*63
$GLGSV,3,2,09,74,27,322,,80,40,169,29,84,11,338,,85,07,291,*65
$GLGSV,3,3,09,,,,27*69
$GNGLL,0419.79585,S,05539.92186,E,071021.00,A,D*6E
$GNTXT,01,01,01,More than 100 frame errors, UART RX was disabled*70
$GNRMC,071022.00,A,0419.79586,S,05539.92186,E,0.016,,200525,,,D*70
$GNVTG,,T,,M,0.016,N,0.031,K,D*3D
$GNGGA,071022.00,0419.79586,S,05539.92186,E,2,12,0.69,13.6,M,-47.6,M,,0000*4D
$GNGSA,A,3,05,12,24,18,15,25,23,13,29,10,,,1.20,0.69,0.98*12
$GNGSA,A,3,80,73,69,68,,,,,,,,,1.20,0.69,0.98*1C
$GPGSV,4,1,16,05,35,033,31,10,09,213,26,12,72,103,31,13,13,102,31*71
$GPGSV,4,2,16,15,41,131,34,18,31,297,34,20,03,033,10,23,50,213,34*7E
$GPGSV,4,3,16,24,30,173,22,25,64,339,25,28,06,288,,29,16,350,25*71
$GPGSV,4,4,16,36,52,277,32,40,86,351,35,41,58,082,29,49,32,274,*70
$GLGSV,3,1,09,68,10,056,30,69,38,101,36,70,26,180,26,73,68,279,35*6E
$GLGSV,3,2,09,74,27,322,,80,40,169,28,84,11,338,,85,07,291,*64
$GLGSV,3,3,09,,,,26*68
$GNGLL,0419.79586,S,05539.92186,E,071022.00,A,D*6E
$GNTXT,01,01,01,More than 100 frame errors, UART RX was disabled*70
$GNRMC,071023.00,A,0419.79586,S,05539.92184,E,0.014,,200525,,,D*71
$GNVTG,,T,,M,0.014,N,0.026,K,D*39
$GNGGA,071023.00,0419.79586,S,05539.92184,E,2,12,0.69,13.5,M,-47.6,M,,0000*4D
$GNGSA,A,3,05,12,24,18,15,25,23,13,29,10,,,1.20,0.69,0.98*12
$GNGSA,A,3,80,73,69,68,,,,,,,,,1.20,0.69,0.98*1C
$GPGSV,4,1,16,05,35,033,33,10,09,213,27,12,72,103,32,13,13,102,36*76
$GPGSV,4,2,16,15,41,131,38,18,31,297,39,20,03,033,09,23,50,213,38*7B
$GPGSV,4,3,16,24,30,173,21,25,64,339,26,28,06,288,,29,16,350,27*73
$GPGSV,4,4,16,36,52,277,37,40,86,351,38,41,58,082,34,49,32,274,*74
$GLGSV,3,1,09,68,10,056,32,69,38,101,41,70,26,180,27,73,68,279,40*6F
$GLGSV,3,2,09,74,27,322,,80,40,169,30,84,11,338,,85,07,291,*6D
$GLGSV,3,3,09,,,,28*66
$GNGLL,0419.79586,S,05539.92184,E,071023.00,A,D*6D
$GNTXT,01,01,01,More than 100 frame errors, UART RX was disabled*70
$GNRMC,071024.00,A,0419.79587,S,05539.92179,E,0.021,,200525,,,D*73
$GNVTG,,T,,M,0.021,N,0.039,K,D*31
$GNGGA,071024.00,0419.79587,S,05539.92179,E,2,12,0.69,13.2,M,-47.6,M,,0000*4E
$GNGSA,A,3,05,12,24,18,15,25,23,13,29,10,,,1.20,0.69,0.98*12
$GNGSA,A,3,80,73,69,68,,,,,,,,,1.20,0.69,0.98*1C
$GPGSV,4,1,16,05,35,033,35,10,09,213,30,12,72,103,37,13,13,102,37*72
$GPGSV,4,2,16,15,41,131,40,18,31,297,40,20,03,033,06,23,50,213,39*74
$GPGSV,4,3,16,24,30,173,23,25,64,339,28,28,06,288,,29,16,350,30*79
$GPGSV,4,4,16,36,52,277,39,40,86,351,39,41,58,082,35,49,32,274,*7A
$GLGSV,3,1,09,68,10,056,32,69,38,101,41,70,26,180,27,73,68,279,39*61
$GLGSV,3,2,09,74,27,322,,80,40,169,31,84,11,338,,85,07,291,*6C
$GLGSV,3,3,09,,,,29*67
$GNGLL,0419.79587,S,05539.92179,E,071024.00,A,D*69
$GNTXT,01,01,01,More than 100 frame errors, UART RX was disabled*70
$GNRMC,071025.00,A,0419.79584,S,05539.92176,E,0.013,,200525,,,D*7F
$GNVTG,,T,,M,0.013,N,0.024,K,D*3C
$GNGGA,071025.00,0419.79584,S,05539.92176,E,2,12,0.69,13.1,M,-47.6,M,,0000*40
$GNGSA,A,3,05,12,24,18,15,25,23,13,29,10,,,1.20,0.69,0.98*12
$GNGSA,A,3,80,73,69,68,,,,,,,,,1.20,0.69,0.98*1C
$GPGSV,4,1,16,05,35,033,36,10,09,213,31,12,72,103,36,13,13,102,38*7E
$GPGSV,4,2,16,15,41,131,40,18,31,297,40,20,03,033,10,23,50,213,40*7D
$GPGSV,4,3,16,24,30,173,25,25,64,339,28,28,06,288,,29,16,350,32*7D
$GPGSV,4,4,16,36,52,277,38,40,86,351,40,41,58,082,36,49,32,274,*76
$GLGSV,3,1,09,68,10,056,32,69,38,101,41,70,26,180,27,73,68,279,38*60
$GLGSV,3,2,09,74,27,322,,80,40,169,31,84,11,338,,85,07,291,*6C
$GLGSV,3,3,09,,,,28*66
$GNGLL,0419.79584,S,05539.92176,E,071025.00,A,D*64
$GNTXT,01,01,01,More than 100 frame errors, UART RX was disabled*70
$GNRMC,071026.00,A,0419.79583,S,05539.92173,E,0.019,,200525,,,D*74
$GNVTG,,T,,M,0.019,N,0.036,K,D*35
$GNGGA,071026.00,0419.79583,S,05539.92173,E,2,12,0.69,13.0,M,-47.6,M,,0000*40
$GNGSA,A,3,05,12,24,18,15,25,23,13,29,10,,,1.20,0.69,0.98*12
$GNGSA,A,3,80,73,69,68,,,,,,,,,1.20,0.69,0.98*1C
$GPGSV,4,1,16,05,35,033,36,10,09,213,32,12,72,103,36,13,13,102,37*72
$GPGSV,4,2,16,15,41,131,40,18,31,297,40,20,03,033,10,23,51,214,40*7B
$GPGSV,4,3,16,24,30,173,24,25,64,339,28,28,06,288,,29,16,350,31*7F
$GPGSV,4,4,16,36,52,277,38,40,86,351,40,41,58,082,36,49,32,274,*76
$GLGSV,3,1,09,68,10,056,32,69,38,101,41,70,26,180,28,73,68,279,39*6E
$GLGSV,3,2,09,74,27,322,,80,40,169,30,84,11,338,,85,07,291,*6D
$GLGSV,3,3,09,,,,28*66
$GNGLL,0419.79583,S,05539.92173,E,071026.00,A,D*65
$GNTXT,01,01,01,More than 100 frame errors, UART RX was disabled*70
$GNRMC,071027.00,A,0419.79582,S,05539.92169,E,0.053,,200525,,,D*71
$GNVTG,,T,,M,0.053,N,0.098,K,D*3F
$GNGGA,071027.00,0419.79582,S,05539.92169,E,2,12,0.69,12.8,M,-47.6,M,,0000*42
$GNGSA,A,3,05,12,24,18,15,25,23,13,29,10,,,1.20,0.69,0.98*12
$GNGSA,A,3,80,73,69,68,,,,,,,,,1.20,0.69,0.98*1C
$GPGSV,4,1,16,05,35,033,36,10,09,213,31,12,72,103,36,13,13,102,37*71
$GPGSV,4,2,16,15,41,131,40,18,31,297,40,20,03,033,10,23,51,214,40*7B
$GPGSV,4,3,16,24,30,172,24,25,64,339,28,28,06,288,,29,16,350,31*7E
$GPGSV,4,4,16,36,52,277,38,40,86,351,39,41,58,082,37,49,32,274,*79
$GLGSV,3,1,09,68,10,056,31,69,38,101,40,70,26,180,28,73,68,279,38*6D
$GLGSV,3,2,09,74,27,322,,80,40,169,30,84,11,338,,85,07,291,*6D
$GLGSV,3,3,09,,,,29*67
$GNGLL,0419.79582,S,05539.92169,E,071027.00,A,D*6E
$GNTXT,01,01,01,More than 100 frame errors, UART RX was disabled*70
$GNRMC,071028.00,A,0419.79581,S,05539.92166,E,0.033,,200525,,,D*74
$GNVTG,,T,,M,0.033,N,0.061,K,D*3F
$GNGGA,071028.00,0419.79581,S,05539.92166,E,2,12,0.69,12.7,M,-47.6,M,,0000*4E
$GNGSA,A,3,05,12,24,18,15,25,23,13,29,10,,,1.20,0.69,0.98*12
$GNGSA,A,3,80,73,69,68,,,,,,,,,1.20,0.69,0.98*1C
$GPGSV,4,1,16,05,35,033,35,10,09,213,32,12,72,103,35,13,13,102,38*7D
$GPGSV,4,2,16,15,41,131,39,18,31,297,40,20,03,033,10,23,51,214,40*75
$GPGSV,4,3,16,24,30,172,25,25,64,338,28,28,06,288,,29,16,350,32*7D
$GPGSV,4,4,16,36,52,277,38,40,86,351,39,41,58,082,37,49,32,274,*79
$GLGSV,3,1,09,68,10,056,31,69,38,101,40,70,26,180,27,73,68,279,38*62
$GLGSV,3,2,09,74,27,322,,80,40,169,30,84,11,338,,85,07,291,*6D
$GLGSV,3,3,09,,,,29*67
$GNGLL,0419.79581,S,05539.92166,E,071028.00,A,D*6D
$GNTXT,01,01,01,More than 100 frame errors, UART RX was disabled*70
$GNRMC,071029.00,A,0419.79580,S,05539.92163,E,0.010,,200525,,,D*70
$GNVTG,,T,,M,0.010,N,0.018,K,D*30
$GNGGA,071029.00,0419.79580,S,05539.92163,E,2,12,0.69,12.6,M,-47.6,M,,0000*4A
$GNGSA,A,3,05,12,24,18,15,25,23,13,29,10,,,1.20,0.69,0.98*12
$GNGSA,A,3,80,73,69,68,,,,,,,,,1.20,0.69,0.98*1C
$GPGSV,4,1,16,05,35,033,36,10,09,213,32,12,72,103,35,13,13,102,38*7E
$GPGSV,4,2,16,15,41,131,39,18,31,297,40,20,03,033,08,23,51,214,40*7C
$GPGSV,4,3,16,24,30,172,24,25,64,338,28,28,06,288,,29,16,350,31*7F
$GPGSV,4,4,16,36,52,277,38,40,86,351,40,41,58,082,37,49,32,274,*77
$GLGSV,3,1,09,68,10,056,32,69,38,101,39,70,26,180,27,73,68,279,38*6F
$GLGSV,3,2,09,74,27,322,,80,40,169,30,84,11,338,,85,07,291,*6D
$GLGSV,3,3,09,,,,29*67
$GNGLL,0419.79580,S,05539.92163,E,071029.00,A,D*68
$GNTXT,01,01,01,More than 100 frame errors, UART RX was disabled*70
$GNRMC,071030.00,A,0419.79580,S,05539.92161,E,0.030,,200525,,,D*78
$GNVTG,,T,,M,0.030,N,0.055,K,D*3B
$GNGGA,071030.00,0419.79580,S,05539.92161,E,2,12,0.69,12.5,M,-47.6,M,,0000*43
$GNGSA,A,3,05,12,24,18,15,25,23,13,29,10,,,1.20,0.69,0.98*12
$GNGSA,A,3,80,73,69,68,,,,,,,,,1.20,0.69,0.98*1C
$GPGSV,4,1,16,05,35,033,36,10,09,213,32,12,72,103,35,13,13,102,38*7E
$GPGSV,4,2,16,15,41,131,39,18,31,297,40,20,03,033,11,23,51,214,39*7A
$GPGSV,4,3,16,24,30,172,26,25,64,338,28,28,06,288,,29,16,350,32*7E
$GPGSV,4,4,16,36,52,277,38,40,86,351,39,41,58,082,36,49,32,274,*78
$GLGSV,3,1,09,68,10,056,32,69,38,101,40,70,26,180,27,73,68,279,38*61
$GLGSV,3,2,09,74,27,322,,80,40,169,30,84,11,338,,85,07,291,*6D
$GLGSV,3,3,09,,,,32*6D
$GNGLL,0419.79580,S,05539.92161,E,071030.00,A,D*62
$GNTXT,01,01,01,More than 100 frame errors, UART RX was disabled*70
$GNRMC,071031.00,A,0419.79580,S,05539.92159,E,0.028,,200525,,,D*7B
$GNVTG,,T,,M,0.028,N,0.052,K,D*35
$GNGGA,071031.00,0419.79580,S,05539.92159,E,2,12,0.69,12.5,M,-47.6,M,,0000*49
$GNGSA,A,3,05,12,24,18,15,25,23,13,29,10,,,1.20,0.69,0.98*12
$GNGSA,A,3,80,73,69,68,,,,,,,,,1.20,0.69,0.98*1C
$GPGSV,4,1,16,05,35,033,36,10,09,213,32,12,72,103,35,13,13,102,38*7E
$GPGSV,4,2,16,15,41,131,39,18,31,297,41,20,03,033,09,23,51,214,39*72
$GPGSV,4,3,16,24,30,172,26,25,64,338,27,28,06,287,,29,16,350,33*7F
$GPGSV,4,4,16,36,52,277,38,40,86,351,39,41,58,082,36,49,32,274,*78
$GLGSV,3,1,09,68,10,056,32,69,38,101,40,70,26,180,27,73,68,279,38*61
$GLGSV,3,2,09,74,27,322,,80,40,169,30,84,11,338,,85,07,291,*6D
$GLGSV,3,3,09,,,,32*6D
$GNGLL,0419.79580,S,05539.92159,E,071031.00,A,D*68
$GNTXT,01,01,01,More than 100 frame errors, UART RX was disabled*70
$GNRMC,071032.00,A,0419.79580,S,05539.92158,E,0.017,,200525,,,D*75
$GNVTG,,T,,M,0.017,N,0.032,K,D*3F
$GNGGA,071032.00,0419.79580,S,05539.92158,E,2,12,0.69,12.5,M,-47.6,M,,0000*4B
$GNGSA,A,3,05,12,24,18,15,25,23,13,29,10,,,1.20,0.69,0.98*12
$GNGSA,A,3,80,73,69,68,,,,,,,,,1.20,0.69,0.98*1C
$GPGSV,4,1,16,05,35,033,36,10,09,213,32,12,72,103,35,13,13,102,38*7E
$GPGSV,4,2,16,15,41,131,39,18,31,297,41,20,03,033,06,23,51,214,39*7D
$GPGSV,4,3,16,24,30,172,26,25,64,338,27,28,06,287,,29,16,350,32*7E
$GPGSV,4,4,16,36,52,277,38,40,86,351,40,41,58,082,36,49,32,274,*76
$GLGSV,3,1,09,68,10,056,33,69,38,101,40,70,26,180,27,73,68,279,38*60
$GLGSV,3,2,09,74,27,322,,80,40,169,30,84,11,338,,85,07,291,*6D
$GLGSV,3,3,09,,,,32*6D
$GNGLL,0419.79580,S,05539.92158,E,071032.00,A,D*6A
$GNTXT,01,01,01,More than 100 frame errors, UART RX was disabled*70
$GNRMC,071033.00,A,0419.79579,S,05539.92157,E,0.020,,200525,,,D*79
$GNVTG,,T,,M,0.020,N,0.038,K,D*31
$GNGGA,071033.00,0419.79579,S,05539.92157,E,2,12,0.69,12.5,M,-47.6,M,,0000*43
$GNGSA,A,3,05,12,24,18,15,25,23,13,29,10,,,1.20,0.69,0.98*12
$GNGSA,A,3,80,73,69,68,,,,,,,,,1.20,0.69,0.98*1C
$GPGSV,4,1,16,05,35,033,32,10,09,213,31,12,72,103,31,13,13,102,35*70
$GPGSV,4,2,16,15,41,131,36,18,31,297,36,20,03,033,14,23,51,214,36*7E
$GPGSV,4,3,16,24,30,172,25,25,64,338,26,28,06,287,,29,16,350,31*7F
$GPGSV,4,4,16,36,52,277,35,40,86,351,35,41,58,082,33,49,32,274,*7C
$GLGSV,3,1,09,68,10,056,31,69,38,101,33,70,26,180,26,73,68,279,33*6C
$GLGSV,3,2,09,74,27,322,,80,40,169,29,84,11,338,,85,07,291,*65
$GLGSV,3,3,09,,,,27*69
$GNGLL,0419.79579,S,05539.92157,E,071033.00,A,D*62
$GNTXT,01,01,01,More than 100 frame errors, UART RX was disabled*70
$GNRMC,071034.00,A,0419.79582,S,05539.92157,E,0.056,,200525,,,D*7B
$GNVTG,,T,,M,0.056,N,0.104,K,D*3E
$GNGGA,071034.00,0419.79582,S,05539.92157,E,2,12,0.70,12.5,M,-47.6,M,,0000*48
$GNGSA,A,3,05,12,24,18,15,25,23,13,29,10,,,1.26,0.70,1.04*18
$GNGSA,A,3,80,73,69,68,,,,,,,,,1.26,0.70,1.04*16
$GPGSV,4,1,16,05,35,033,33,10,09,213,27,12,72,103,30,13,13,102,33*71
$GPGSV,4,2,16,15,41,131,34,18,31,297,36,20,03,033,10,23,51,214,34*7A
$GPGSV,4,3,16,24,30,172,24,25,64,338,25,28,06,287,,29,16,350,27*7A
$GPGSV,4,4,16,36,52,277,33,40,86,351,36,41,58,082,32,49,32,274,*78
$GLGSV,3,1,09,68,10,056,33,69,38,101,39,70,26,180,25,73,68,279,37*63
$GLGSV,3,2,09,74,27,322,,80,40,169,28,84,11,338,,85,07,291,*64
$GLGSV,3,3,09,,,,32*6D
$GNGLL,0419.79582,S,05539.92157,E,071034.00,A,D*61
$GNTXT,01,01,01,More than 100 frame errors, UART RX was disabled*70
$GNRMC,071035.00,A,0419.79582,S,05539.92157,E,0.003,,200525,,,D*7A
$GNVTG,,T,,M,0.003,N,0.005,K,D*3E
$GNGGA,071035.00,0419.79582,S,05539.92157,E,2,12,0.69,12.6,M,-47.6,M,,0000*42
$GNGSA,A,3,05,12,24,18,15,25,23,13,29,10,,,1.20,0.69,0.98*12
$GNGSA,A,3,80,73,69,68,,,,,,,,,1.20,0.69,0.98*1C
$GPGSV,4,1,16,05,35,033,35,10,09,213,30,12,72,103,33,13,13,102,37*76
$GPGSV,4,2,16,15,41,131,38,18,31,297,39,20,03,033,12,23,51,214,38*77
$GPGSV,4,3,16,24,30,172,25,25,64,338,26,28,06,287,,29,16,350,32*7C
$GPGSV,4,4,16,36,52,277,36,40,86,351,39,41,58,082,34,49,32,274,*74
$GLGSV,3,1,09,68,10,056,32,69,38,101,39,70,26,180,25,73,68,279,37*62
$GLGSV,3,2,09,74,27,322,,80,40,169,29,84,11,338,,85,07,291,*65
$GLGSV,3,3,09,,,,31*6E
$GNGLL,0419.79582,S,05539.92157,E,071035.00,A,D*60
$GNTXT,01,01,01,More than 100 frame errors, UART RX was disabled*70
$GNRMC,071036.00,A,0419.79583,S,05539.92156,E,0.029,,200525,,,D*71
$GNVTG,,T,,M,0.029,N,0.053,K,D*35
$GNGGA,071036.00,0419.79583,S,05539.92156,E,2,12,0.69,12.7,M,-47.6,M,,0000*40
$GNGSA,A,3,05,12,24,18,15,25,23,13,29,10,,,1.20,0.69,0.98*12
$GNGSA,A,3,80,73,69,68,,,,,,,,,1.20,0.69,0.98*1C
$GPGSV,4,1,16,05,35,033,37,10,09,213,31,12,72,103,34,13,13,102,38*7D
$GPGSV,4,2,16,15,41,131,38,18,31,297,40,20,03,033,12,23,51,214,39*78
$GPGSV,4,3,16,24,30,172,26,25,64,338,28,28,06,287,,29,16,350,32*71
$GPGSV,4,4,16,36,52,277,38,40,86,351,41,41,58,082,38,49,32,274,*79
$GLGSV,3,1,09,68,10,056,31,69,38,101,39,70,26,180,25,73,68,279,37*61
$GLGSV,3,2,09,74,27,322,,80,40,169,33,84,11,338,,85,07,291,*6E
$GLGSV,3,3,09,,,,31*6E
$GNGLL,0419.79583,S,05539.92156,E,071036.00,A,D*63
$GNTXT,01,01,01,More than 100 frame errors, UART RX was disabled*70
$GNRMC,071037.00,A,0419.79584,S,05539.92156,E,0.006,,200525,,,D*7A
$GNVTG,,T,,M,0.006,N,0.011,K,D*3E
$GNGGA,071037.00,0419.79584,S,05539.92156,E,2,12,0.69,12.8,M,-47.6,M,,0000*49
$GNGSA,A,3,05,12,24,18,15,25,23,13,29,10,,,1.20,0.69,0.98*12
$GNGSA,A,3,80,73,69,68,,,,,,,,,1.20,0.69,0.98*1C
$GPGSV,4,1,16,05,35,033,38,10,09,213,32,12,72,103,33,13,13,102,39*77
$GPGSV,4,2,16,15,41,131,38,18,31,297,41,20,03,033,11,23,51,214,39*7A
$GPGSV,4,3,16,24,30,172,25,25,64,338,31,28,06,287,,29,16,350,31*79
$GPGSV,4,4,16,36,52,277,40,40,86,351,39,41,58,082,39,49,32,274,*78
$GLGSV,3,1,09,68,10,056,32,69,38,101,38,70,26,180,23,73,68,279,36*64
$GLGSV,3,2,09,74,27,322,,80,40,169,30,84,11,338,,85,07,291,*6D
$GLGSV,3,3,09,,,,31*6E
$GNGLL,0419.79584,S,05539.92156,E,071037.00,A,D*65
$GNTXT,01,01,01,More than 100 frame errors, UART RX was disabled*70
$GNRMC,071038.00,A,0419.79584,S,05539.92156,E,0.016,,200525,,,D*74
$GNVTG,,T,,M,0.016,N,0.030,K,D*3C
$GNGGA,071038.00,0419.79584,S,05539.92156,E,2,12,0.69,12.9,M,-47.6,M,,0000*47
$GNGSA,A,3,05,12,24,18,15,25,23,13,29,10,,,1.20,0.69,0.98*12
$GNGSA,A,3,80,73,69,68,,,,,,,,,1.20,0.69,0.98*1C
$GPGSV,4,1,16,05,35,033,39,10,09,213,32,12,72,103,31,13,13,102,39*74
$GPGSV,4,2,16,15,41,131,38,18,31,297,41,20,03,033,16,23,51,214,39*7D
$GPGSV,4,3,16,24,30,172,23,25,64,338,31,28,06,287,,29,16,350,31*7F
$GPGSV,4,4,16,36,52,277,39,40,86,351,39,41,58,082,39,49,32,274,*76
$GLGSV,3,1,09,68,10,056,32,69,38,101,39,70,26,180,21,73,68,279,35*64
$GLGSV,3,2,09,74,27,322,,80,40,169,30,84,11,338,,85,07,291,*6D
$GLGSV,3,3,09,,,,30*6F
$GNGLL,0419.79584,S,05539.92156,E,071038.00,A,D*6A
$GNTXT,01,01,01,More than 100 frame errors, UART RX was disabled*70
$GNRMC,071039.00,A,0419.79581,S,05539.92158,E,0.013,,200525,,,D*7B
$GNVTG,,T,,M,0.013,N,0.023,K,D*3B
$GNGGA,071039.00,0419.79581,S,05539.92158,E,2,12,0.69,13.1,M,-47.6,M,,0000*44
$GNGSA,A,3,05,12,24,18,15,25,23,13,29,10,,,1.20,0.69,0.98*12
$GNGSA,A,3,80,73,69,68,,,,,,,,,1.20,0.69,0.98*1C
$GPGSV,4,1,16,05,35,033,39,10,09,213,32,12,72,103,36,13,13,102,39*73
$GPGSV,4,2,16,15,41,131,38,18,31,297,41,20,03,033,15,23,51,214,38*7F
$GPGSV,4,3,16,24,30,172,24,25,64,338,31,28,06,287,,29,16,350,32*7B
$GPGSV,4,4,16,36,52,277,40,40,86,351,41,41,58,082,36,49,32,274,*78
$GLGSV,3,1,09,68,10,056,32,69,38,101,39,70,26,180,20,73,68,279,35*65
$GLGSV,3,2,09,74,27,322,,80,40,169,31,84,11,338,,85,07,291,*6C
$GLGSV,3,3,09,,,,29*67
$GNGLL,0419.79581,S,05539.92158,E,071039.00,A,D*60
$GNTXT,01,01,01,More than 100 frame errors, UART RX was disabled*70
$GNRMC,071040.00,A,0419.79581,S,05539.92159,E,0.011,,200525,,,D*76
$GNVTG,,T,,M,0.011,N,0.021,K,D*3B
$GNGGA,071040.00,0419.79581,S,05539.92159,E,2,12,0.69,13.3,M,-47.6,M,,0000*49
$GNGSA,A,3,05,12,24,18,15,25,23,13,29,10,,,1.20,0.69,0.98*12
$GNGSA,A,3,80,73,69,68,,,,,,,,,1.20,0.69,0.98*1C
$GPGSV,4,1,16,05,35,033,39,10,09,213,32,12,72,103,32,13,13,102,39*77
$GPGSV,4,2,16,15,41,131,38,18,31,297,41,20,03,033,09,23,51,214,39*73
$GPGSV,4,3,16,24,30,172,26,25,64,338,31,28,06,287,,29,16,350,32*79
$GPGSV,4,4,16,36,52,277,40,40,86,351,39,41,58,082,37,49,32,274,*76
$GLGSV,3,1,09,68,10,056,33,69,38,101,39,70,26,180,21,73,68,279,35*65
$GLGSV,3,2,09,74,27,322,,80,40,169,32,84,11,338,,85,07,291,*6F
$GLGSV,3,3,09,,,,30*6F
$GNGLL,0419.79581,S,05539.92159,E,071040.00,A,D*6F
$GNTXT,01,01,01,More than 100 frame errors, UART RX was disabled*70
$GNRMC,071041.00,A,0419.79580,S,05539.92161,E,0.012,,200525,,,D*7E
$GNVTG,,T,,M,0.012,N,0.022,K,D*3B
$GNGGA,071041.00,0419.79580,S,05539.92161,E,2,12,0.69,13.4,M,-47.6,M,,0000*45
$GNGSA,A,3,05,12,24,18,15,25,23,13,29,10,,,1.20,0.69,0.98*12
$GNGSA,A,3,80,73,69,68,,,,,,,,,1.20,0.69,0.98*1C
$GPGSV,4,1,16,05,35,033,37,10,09,213,33,12,72,103,36,13,13,102,38*7D
$GPGSV,4,2,16,15,41,131,38,18,31,297,40,20,03,033,10,23,51,214,39*7A
$GPGSV,4,3,16,24,30,172,27,25,64,338,31,28,06,287,,29,16,350,33*79
$GPGSV,4,4,16,36,52,277,39,40,86,351,41,41,58,082,39,49,32,274,*79
$GLGSV,3,1,09,68,10,056,32,69,38,101,40,70,26,180,21,73,68,279,35*6A
$GLGSV,3,2,09,74,27,322,,80,40,169,34,84,11,338,,85,07,291,*69
$GLGSV,3,3,09,,,,31*6E
$GNGLL,0419.79580,S,05539.92161,E,071041.00,A,D*64
$GNTXT,01,01,01,More than 100 frame errors, UART RX was disabled*70
$GNRMC,071042.00,A,0419.79580,S,05539.92161,E,0.041,,200525,,,D*7B
$GNVTG,,T,,M,0.041,N,0.076,K,D*3C
$GNGGA,071042.00,0419.79580,S,05539.92161,E,2,12,0.69,13.5,M,-47.6,M,,0000*47
$GNGSA,A,3,05,12,24,18,15,25,23,13,29,10,,,1.20,0.69,0.98*12
$GNGSA,A,3,80,73,69,68,,,,,,,,,1.20,0.69,0.98*1C
$GPGSV,4,1,16,05,35,033,39,10,09,213,32,12,72,103,34,13,13,102,38*70
$GPGSV,4,2,16,15,41,131,38,18,31,297,41,20,03,033,13,23,51,214,41*77
$GPGSV,4,3,16,24,30,172,27,25,64,338,31,28,06,287,,29,16,350,32*78
$GPGSV,4,4,16,36,52,277,38,40,86,351,39,41,58,082,39,49,32,274,*77
$GLGSV,3,1,09,68,10,056,31,69,38,101,40,70,26,180,21,73,68,279,35*69
$GLGSV,3,2,09,74,27,322,,80,40,169,34,84,11,338,,85,07,291,*69
$GLGSV,3,3,09,,,,30*6F
$GNGLL,0419.79580,S,05539.92161,E,071042.00,A,D*67
$GNTXT,01,01,01,More than 100 frame errors, UART RX was disabled*70
$GNRMC,071043.00,A,0419.79580,S,05539.92162,E,0.016,,200525,,,D*7B
$GNVTG,,T,,M,0.016,N,0.030,K,D*3C
$GNGGA,071043.00,0419.79580,S,05539.92162,E,2,12,0.69,13.6,M,-47.6,M,,0000*46
$GNGSA,A,3,05,12,24,18,15,25,23,13,29,10,,,1.20,0.69,0.98*12
$GNGSA,A,3,80,73,69,68,,,,,,,,,1.20,0.69,0.98*1C
$GPGSV,4,1,16,05,35,033,39,10,09,213,31,12,72,103,33,13,13,102,39*75
$GPGSV,4,2,16,15,41,131,38,18,31,297,41,20,03,033,14,23,51,214,41*70
$GPGSV,4,3,16,24,30,172,26,25,64,338,31,28,06,287,,29,16,350,32*79
$GPGSV,4,4,16,36,52,277,39,40,86,351,39,41,58,082,38,49,32,274,*77
$GLGSV,3,1,09,68,10,056,31,69,38,101,40,70,26,180,20,73,68,279,36*6B
$GLGSV,3,2,09,74,27,322,23,80,40,169,32,84,11,338,,85,07,291,*6E
$GLGSV,3,3,09,,,,28*66
$GNGLL,0419.79580,S,05539.92162,E,071043.00,A,D*65
$GNTXT,01,01,01,More than 100 frame errors, UART RX was disabled*70
$GNRMC,071044.00,A,0419.79581,S,05539.92164,E,0.026,,200525,,,D*78
$GNVTG,,T,,M,0.026,N,0.048,K,D*30
$GNGGA,071044.00,0419.79581,S,05539.92164,E,2,12,0.69,13.7,M,-47.6,M,,0000*47
$GNGSA,A,3,05,12,24,18,15,25,23,13,29,10,,,1.20,0.69,0.98*12
$GNGSA,A,3,80,73,69,68,,,,,,,,,1.20,0.69,0.98*1C
$GPGSV,4,1,16,05,35,033,38,10,09,213,30,12,72,103,32,13,13,102,38*75
$GPGSV,4,2,16,15,41,131,38,18,31,297,40,20,03,033,14,23,51,214,40*70
$GPGSV,4,3,16,24,30,172,25,25,64,338,30,28,06,287,,29,16,350,31*78
$GPGSV,4,4,16,36,52,277,38,40,86,351,39,41,58,082,38,49,32,274,*76
$GLGSV,3,1,09,68,10,056,31,69,38,101,40,70,26,180,20,73,68,279,37*6A
$GLGSV,3,2,09,74,27,322,22,80,40,169,30,84,11,338,,85,07,291,*6D
$GLGSV,3,3,09,,,,27*69
$GNGLL,0419.79581,S,05539.92164,E,071044.00,A,D*65
$GNTXT,01,01,01,More than 100 frame errors, UART RX was disabled*70
$GNRMC,071045.00,A,0419.79583,S,05539.92165,E,0.001,,200525,,,D*7F
$GNVTG,,T,,M,0.001,N,0.002,K,D*3B
$GNGGA,071045.00,0419.79583,S,05539.92165,E,2,12,0.69,13.7,M,-47.6,M,,0000*45
$GNGSA,A,3,05,12,24,18,15,25,23,13,29,10,,,1.20,0.69,0.98*12
$GNGSA,A,3,80,73,69,68,,,,,,,,,1.20,0.69,0.98*1C
$GPGSV,4,1,16,05,35,033,37,10,09,213,31,12,72,103,31,13,13,102,38*78
$GPGSV,4,2,16,15,41,131,38,18,31,297,40,20,03,033,13,23,51,214,41*76
$GPGSV,4,3,16,24,30,172,26,25,64,338,31,28,06,287,,29,16,350,31*7A
$GPGSV,4,4,16,36,52,277,39,40,86,351,39,41,58,082,38,49,32,274,*77
$GLGSV,3,1,09,68,10,056,31,69,38,101,40,70,26,180,20,73,68,279,37*6A
$GLGSV,3,2,09,74,27,322,22,80,40,169,31,84,11,338,,85,07,291,*6C
$GLGSV,3,3,09,,,,27*69
$GNGLL,0419.79583,S,05539.92165,E,071045.00,A,D*67
$GNTXT,01,01,01,More than 100 frame errors, UART RX was disabled*70
$GNRMC,071046.00,A,0419.79585,S,05539.92165,E,0.036,,200525,,,D*7E
$GNVTG,,T,,M,0.036,N,0.067,K,D*3C
$GNGGA,071046.00,0419.79585,S,05539.92165,E,2,12,0.69,13.8,M,-47.6,M,,0000*4F
$GNGSA,A,3,05,12,24,18,15,25,23,13,29,10,,,1.20,0.69,0.98*12
$GNGSA,A,3,80,73,69,68,,,,,,,,,1.20,0.69,0.98*1C
$GPGSV,4,1,16,05,35,033,32,10,09,213,30,12,72,103,30,13,13,102,32*77
$GPGSV,4,2,16,15,41,131,33,18,31,297,34,20,03,033,13,23,51,214,36*7E
$GPGSV,4,3,16,24,30,172,25,25,64,338,30,28,06,287,,29,16,350,25*7D
$GPGSV,4,4,16,36,52,277,33,40,86,351,34,41,58,082,33,49,32,274,*7B
$GLGSV,3,1,09,68,10,056,30,69,38,101,37,70,26,180,20,73,68,279,34*68
$GLGSV,3,2,09,74,27,322,22,80,40,169,30,84,11,338,,85,07,291,*6D
$GLGSV,3,3,09,,,,27*69
$GNGLL,0419.79585,S,05539.92165,E,071046.00,A,D*62
$GNTXT,01,01,01,More than 100 frame errors, UART RX was disabled*70
$GNRMC,071047.00,A,0419.79586,S,05539.92166,E,0.015,,200525,,,D*7E
$GNVTG,,T,,M,0.015,N,0.028,K,D*36
$GNGGA,071047.00,0419.79586,S,05539.92166,E,2,12,0.69,13.9,M,-47.6,M,,0000*4F
$GNGSA,A,3,05,12,24,18,15,25,23,13,29,10,,,1.20,0.69,0.98*12
$GNGSA,A,3,80,73,69,68,,,,,,,,,1.20,0.69,0.98*1C
$GPGSV,4,1,16,05,35,033,37,10,09,213,31,12,72,103,33,13,13,102,37*75
$GPGSV,4,2,16,15,41,131,38,18,31,297,40,20,03,033,12,23,51,214,41*77
$GPGSV,4,3,16,24,30,172,26,25,64,338,30,28,06,287,,29,16,350,31*7B
$GPGSV,4,4,16,36,52,277,39,40,86,351,39,41,58,082,37,49,32,274,*78
$GLGSV,3,1,09,68,10,056,31,69,38,101,41,70,26,180,20,73,68,279,37*6B
$GLGSV,3,2,09,74,27,322,21,80,40,169,30,84,11,338,,85,07,291,*6E
$GLGSV,3,3,09,,,,26*68
$GNGLL,0419.79586,S,05539.92166,E,071047.00,A,D*63
$GNTXT,01,01,01,More than 100 frame errors, UART RX was disabled*70
$GNRMC,071048.00,A,0419.79586,S,05539.92167,E,0.003,,200525,,,D*77
$GNVTG,,T,,M,0.003,N,0.005,K,D*3E
$GNGGA,071048.00,0419.79586,S,05539.92167,E,2,12,0.69,13.8,M,-47.6,M,,0000*40
$GNGSA,A,3,05,12,24,18,15,25,23,13,29,10,,,1.20,0.69,0.98*12
$GNGSA,A,3,80,73,69,68,,,,,,,,,1.20,0.69,0.98*1C
$GPGSV,4,1,16,05,35,033,38,10,09,213,30,12,72,103,32,13,13,102,37*7A
$GPGSV,4,2,16,15,41,131,38,18,31,297,40,20,03,033,13,23,51,214,41*76
$GPGSV,4,3,16,24,30,172,27,25,64,338,31,28,06,287,,29,16,350,31*7B
$GPGSV,4,4,16,36,52,277,38,40,86,351,39,41,58,082,37,49,32,274,*79
$GLGSV,3,1,09,68,10,056,32,69,38,101,41,70,26,180,20,73,68,279,37*68
$GLGSV,3,2,09,74,27,322,21,80,40,169,31,84,11,338,,85,07,291,*6F
$GLGSV,3,3,09,,,,26*68
$GNGLL,0419.79586,S,05539.92167,E,071048.00,A,D*6D
$GNTXT,01,01,01,More than 100 frame errors, UART RX was disabled*70
$GNRMC,071049.00,A,0419.79586,S,05539.92166,E,0.003,,200525,,,D*77
$GNVTG,,T,,M,0.003,N,0.005,K,D*3E
$GNGGA,071049.00,0419.79586,S,05539.92166,E,2,12,0.69,13.7,M,-47.6,M,,0000*4F
$GNGSA,A,3,05,12,24,18,15,25,23,13,29,10,,,1.20,0.69,0.98*12
$GNGSA,A,3,80,73,69,68,,,,,,,,,1.20,0.69,0.98*1C
$GPGSV,4,1,16,05,35,033,38,10,09,213,31,12,72,103,32,13,13,102,37*7B
$GPGSV,4,2,16,15,41,131,38,18,31,297,40,20,03,033,12,23,51,214,40*76
$GPGSV,4,3,16,24,30,172,27,25,64,338,31,28,06,287,,29,16,350,31*7B
$GPGSV,4,4,16,36,52,277,38,40,86,351,38,41,58,082,38,49,32,274,*77
$GLGSV,3,1,09,68,10,056,31,69,38,101,41,70,26,180,21,73,68,279,38*65
$GLGSV,3,2,09,74,27,322,21,80,40,169,32,84,11,338,,85,07,291,*6C
$GLGSV,3,3,09,,,,26*68
$GNGLL,0419.79586,S,05539.92166,E,071049.00,A,D*6D
$GNTXT,01,01,01,More than 100 frame errors, UART RX was disabled*70
$GNRMC,071050.00,A,0419.79586,S,05539.92166,E,0.015,,200525,,,D*78
$GNVTG,,T,,M,0.015,N,0.028,K,D*36
$GNGGA,071050.00,0419.79586,S,05539.92166,E,2,12,0.69,13.6,M,-47.6,M,,0000*46
$GNGSA,A,3,05,12,24,18,15,25,23,13,29,10,,,1.20,0.69,0.99*13
$GNGSA,A,3,80,73,69,68,,,,,,,,,1.20,0.69,0.99*1D
$GPGSV,4,1,16,05,35,033,38,10,09,213,31,12,72,103,33,13,13,102,37*7A
$GPGSV,4,2,16,15,41,131,38,18,31,297,40,20,03,033,12,23,51,214,40*76
$GPGSV,4,3,16,24,30,172,27,25,64,338,31,28,06,287,,29,16,350,31*7B
$GPGSV,4,4,16,36,52,277,39,40,86,351,39,41,58,082,38,49,32,274,*77
$GLGSV,3,1,09,68,10,056,32,69,38,101,41,70,26,180,21,73,68,279,38*66
$GLGSV,3,2,09,74,27,322,20,80,40,169,32,84,11,338,,85,07,291,*6D
$GLGSV,3,3,09,,,,26*68
$GNGLL,0419.79586,S,05539.92166,E,071050.00,A,D*65
$GNTXT,01,01,01,More than 100 frame errors, UART RX was disabled*70
$GNRMC,071051.00,A,0419.79587,S,05539.92166,E,0.009,,200525,,,D*75
$GNVTG,,T,,M,0.009,N,0.018,K,D*38
$GNGGA,071051.00,0419.79587,S,05539.92166,E,2,12,0.69,13.6,M,-47.6,M,,0000*46
$GNGSA,A,3,05,12,24,18,15,25,23,13,29,10,,,1.20,0.69,0.99*13
$GNGSA,A,3,80,73,69,68,,,,,,,,,1.20,0.69,0.99*1D
$GPGSV,4,1,16,05,35,033,38,10,09,213,31,12,72,103,32,13,13,102,37*7B
$GPGSV,4,2,16,15,41,131,39,18,31,297,40,20,03,033,10,23,51,214,41*74
$GPGSV,4,3,16,24,30,172,28,25,64,338,31,28,06,287,,29,16,350,31*74
$GPGSV,4,4,16,36,52,277,38,40,86,351,39,41,58,082,38,49,32,274,*76
$GLGSV,3,1,09,68,10,056,32,69,38,101,41,70,26,180,20,73,68,279,37*68
$GLGSV,3,2,09,74,27,322,20,80,40,169,32,84,11,338,,85,07,291,*6D
$GLGSV,3,3,09,,,,26*68
$GNGLL,0419.79587,S,05539.92166,E,071051.00,A,D*65
$GNTXT,01,01,01,More than 100 frame errors, UART RX was disabled*70
$GNRMC,071052.00,A,0419.79586,S,05539.92166,E,0.015,,200525,,,D*7A
$GNVTG,,T,,M,0.015,N,0.027,K,D*39
$GNGGA,071052.00,0419.79586,S,05539.92166,E,2,12,0.69,13.5,M,-47.6,M,,0000*47
$GNGSA,A,3,05,12,24,18,15,25,23,13,29,10,,,1.20,0.69,0.99*13
$GNGSA,A,3,80,73,69,68,,,,,,,,,1.20,0.69,0.99*1D
$GPGSV,4,1,16,05,35,033,36,10,09,213,30,12,72,103,32,13,13,102,37*74
$GPGSV,4,2,16,15,41,131,38,18,31,297,40,20,03,033,10,23,51,214,41*75
$GPGSV,4,3,16,24,30,172,28,25,64,338,31,28,06,287,,29,16,350,31*74
$GPGSV,4,4,16,36,52,277,38,40,86,351,38,41,58,082,38,49,32,274,*77
$GLGSV,3,1,09,68,10,056,32,69,38,101,41,70,26,180,20,73,68,279,37*68
$GLGSV,3,2,09,74,27,322,20,80,40,169,31,84,11,338,,85,07,291,*6E
$GLGSV,3,3,09,,,,25*6B
$GNGLL,0419.79586,S,05539.92166,E,071052.00,A,D*67
$GNTXT,01,01,01,More than 100 frame errors, UART RX was disabled*70
$GNRMC,071053.00,A,0419.79585,S,05539.92165,E,0.014,,200525,,,D*7A
$GNVTG,,T,,M,0.014,N,0.025,K,D*3A
$GNGGA,071053.00,0419.79585,S,05539.92165,E,2,12,0.69,13.5,M,-47.6,M,,0000*46
$GNGSA,A,3,05,12,24,18,15,25,23,13,29,10,,,1.20,0.69,0.99*13
$GNGSA,A,3,80,73,69,68,,,,,,,,,1.20,0.69,0.99*1D
$GPGSV,4,1,16,05,35,033,37,10,09,213,31,12,72,103,32,13,13,102,38*7B
$GPGSV,4,2,16,15,41,131,38,18,31,297,40,20,03,033,12,23,51,214,41*77
$GPGSV,4,3,16,24,30,172,28,25,64,338,31,28,06,287,,29,16,350,31*74
$GPGSV,4,4,16,36,52,277,38,40,86,351,39,41,58,082,38,49,32,274,*76
$GLGSV,3,1,09,68,10,056,32,69,38,101,41,70,26,180,21,73,68,279,38*66
$GLGSV,3,2,09,74,27,322,21,80,40,169,32,84,11,338,,85,07,291,*6C
$GLGSV,3,3,09,,,,25*6B
$GNGLL,0419.79585,S,05539.92165,E,071053.00,A,D*66
$GNTXT,01,01,01,More than 100 frame errors, UART RX was disabled*70
$GNRMC,071054.00,A,0419.79584,S,05539.92164,E,0.023,,200525,,,D*79
$GNVTG,,T,,M,0.023,N,0.043,K,D*3E
$GNGGA,071054.00,0419.79584,S,05539.92164,E,2,12,0.69,13.4,M,-47.6,M,,0000*40
$GNGSA,A,3,05,12,24,18,15,25,23,13,29,10,,,1.20,0.69,0.99*13
$GNGSA,A,3,80,73,69,68,,,,,,,,,1.20,0.69,0.99*1D
$GPGSV,4,1,16,05,35,033,37,10,09,213,31,12,72,103,32,13,13,102,37*74
$GPGSV,4,2,16,15,41,131,38,18,31,297,40,20,03,033,14,23,51,214,41*71
$GPGSV,4,3,16,24,30,172,28,25,64,338,32,28,06,287,,29,16,350,31*77
$GPGSV,4,4,16,36,52,277,38,40,86,351,38,41,58,082,38,49,32,274,*77
$GLGSV,3,1,09,68,10,056,32,69,38,101,41,70,26,180,21,73,68,279,37*69
$GLGSV,3,2,09,74,27,322,21,80,40,169,31,84,11,338,,85,07,291,*6F
$GLGSV,3,3,09,,,,25*6B
$GNGLL,0419.79584,S,05539.92164,E,071054.00,A,D*61
$GNTXT,01,01,01,More than 100 frame errors, UART RX was disabled*70
$GNRMC,071055.00,A,0419.79583,S,05539.92164,E,0.006,,200525,,,D*78
$GNVTG,,T,,M,0.006,N,0.011,K,D*3E
$GNGGA,071055.00,0419.79583,S,05539.92164,E,2,12,0.69,13.4,M,-47.6,M,,0000*46
$GNGSA,A,3,05,12,24,18,15,25,23,13,29,10,,,1.20,0.69,0.99*13
$GNGSA,A,3,80,73,69,68,,,,,,,,,1.20,0.69,0.99*1D
$GPGSV,4,1,16,05,35,033,37,10,09,213,31,12,72,103,32,13,13,102,37*74
$GPGSV,4,2,16,15,41,131,38,18,31,297,40,20,03,033,13,23,51,214,41*76
$GPGSV,4,3,16,24,30,172,28,25,64,338,31,28,06,287,,29,16,350,31*74
$GPGSV,4,4,16,36,52,277,38,40,86,351,38,41,58,082,38,49,32,274,*77
$GLGSV,3,1,09,68,10,056,32,69,38,101,41,70,26,180,21,73,68,279,38*66
$GLGSV,3,2,09,74,27,322,21,80,40,169,32,84,11,338,,85,07,291,*6C
$GLGSV,3,3,09,,,,26*68
$GNGLL,0419.79583,S,05539.92164,E,071055.00,A,D*67
$GNTXT,01,01,01,More than 100 frame errors, UART RX was disabled*70
$GNRMC,071056.00,A,0419.79583,S,05539.92164,E,0.013,,200525,,,D*7F
$GNVTG,,T,,M,0.013,N,0.024,K,D*3C
$GNGGA,071056.00,0419.79583,S,05539.92164,E,2,12,0.69,13.3,M,-47.6,M,,0000*42
$GNGSA,A,3,05,12,24,18,15,25,23,13,29,10,,,1.20,0.69,0.99*13
$GNGSA,A,3,80,73,69,68,,,,,,,,,1.20,0.69,0.99*1D
$GPGSV,4,1,16,05,35,033,37,10,09,213,30,12,72,103,31,13,13,102,37*76
$GPGSV,4,2,16,15,41,131,38,18,31,297,40,20,03,033,15,23,51,214,41*70
$GPGSV,4,3,16,24,30,172,28,25,64,338,31,28,06,287,,29,16,350,31*74
$GPGSV,4,4,16,36,52,277,38,40,86,351,38,41,58,082,38,49,32,274,*77
$GLGSV,3,1,09,68,10,056,32,69,38,101,41,70,26,180,22,73,68,279,38*65
$GLGSV,3,2,09,74,27,322,21,80,40,169,32,84,11,338,,85,07,291,*6C
$GLGSV,3,3,09,,,,25*6B
$GNGLL,0419.79583,S,05539.92164,E,071056.00,A,D*64
$GNTXT,01,01,01,More than 100 frame errors, UART RX was disabled*70
$GNRMC,071057.00,A,0419.79582,S,05539.92164,E,0.004,,200525,,,D*79
$GNVTG,,T,,M,0.004,N,0.007,K,D*3B
$GNGGA,071057.00,0419.79582,S,05539.92164,E,2,12,0.69,13.2,M,-47.6,M,,0000*43
$GNGSA,A,3,05,12,24,18,15,25,23,13,29,10,,,1.20,0.69,0.99*13
$GNGSA,A,3,80,73,69,68,,,,,,,,,1.20,0.69,0.99*1D
$GPGSV,4,1,16,05,35,033,37,10,09,213,31,12,72,103,32,13,13,102,37*74
$GPGSV,4,2,16,15,41,131,38,18,31,297,40,20,03,033,15,23,51,214,42*73
$GPGSV,4,3,16,24,30,172,28,25,64,338,31,28,06,287,,29,16,350,31*74
$GPGSV,4,4,16,36,52,277,39,40,86,351,38,41,58,082,37,49,32,274,*79
$GLGSV,3,1,09,68,10,056,32,69,38,101,41,70,26,180,22,73,68,279,38*65
$GLGSV,3,2,09,74,27,322,20,80,40,169,32,84,11,338,,85,07,291,*6D
$GLGSV,3,3,09,,,,26*68
$GNGLL,0419.79582,S,05539.92164,E,071057.00,A,D*64
$GNTXT,01,01,01,More than 100 frame errors, UART RX was disabled*70
$GNRMC,071058.00,A,0419.79581,S,05539.92164,E,0.007,,200525,,,D*76
$GNVTG,,T,,M,0.007,N,0.013,K,D*3D
$GNGGA,071058.00,0419.79581,S,05539.92164,E,2,12,0.69,13.2,M,-47.6,M,,0000*4F
$GNGSA,A,3,05,12,24,18,15,25,23,13,29,10,,,1.20,0.69,0.99*13
$GNGSA,A,3,80,73,69,68,,,,,,,,,1.20,0.69,0.99*1D
$GPGSV,4,1,16,05,35,033,37,10,09,213,31,12,72,103,31,13,13,102,37*77
$GPGSV,4,2,16,15,41,131,38,18,31,297,40,20,03,033,17,23,51,214,42*71
$GPGSV,4,3,16,24,30,172,29,25,64,338,32,28,06,287,,29,16,350,31*76
$GPGSV,4,4,16,36,52,277,39,40,86,351,38,41,58,082,37,49,32,274,*79
$GLGSV,3,1,09,68,10,056,32,69,38,101,41,70,26,180,21,73,68,279,38*66
$GLGSV,3,2,09,74,27,322,20,80,40,169,32,84,11,338,,85,07,291,*6D
$GLGSV,3,3,09,,,,26*68
$GNGLL,0419.79581,S,05539.92164,E,071058.00,A,D*68
$GNTXT,01,01,01,More than 100 frame errors, UART RX was disabled*70
$GNRMC,071059.00,A,0419.79581,S,05539.92165,E,0.061,,200525,,,D*76
$GNVTG,,T,,M,0.061,N,0.113,K,D*3C
$GNGGA,071059.00,0419.79581,S,05539.92165,E,2,12,0.69,13.2,M,-47.6,M,,0000*4F
$GNGSA,A,3,05,12,24,18,15,25,23,13,29,10,,,1.20,0.69,0.99*13
$GNGSA,A,3,80,73,69,68,,,,,,,,,1.20,0.69,0.99*1D
$GPGSV,4,1,16,05,35,033,31,10,09,213,25,12,72,103,26,13,13,102,30*75
$GPGSV,4,2,16,15,41,131,33,18,31,297,34,20,03,033,16,23,51,214,35*78
$GPGSV,4,3,16,24,30,172,28,25,64,338,31,28,06,287,,29,16,350,26*72
$GPGSV,4,4,16,36,52,277,34,40,86,351,33,41,58,082,32,49,32,274,*7A
$GLGSV,3,1,09,68,09,056,31,69,38,101,38,70,26,180,21,73,68,279,35*6E
$GLGSV,3,2,09,74,27,322,19,80,40,169,31,84,11,338,,85,07,291,*64
$GLGSV,3,3,09,,,,27*69
$GNGLL,0419.79581,S,05539.92165,E,071059.00,A,D*68
$GNTXT,01,01,01,More than 100 frame errors, UART RX was disabled*70
$GNRMC,071100.00,A,0419.79580,S,05539.92166,E,0.017,,200525,,,D*78
$GNVTG,,T,,M,0.017,N,0.031,K,D*3C
$GNGGA,071100.00,0419.79580,S,05539.92166,E,2,12,0.69,13.2,M,-47.6,M,,0000*40
$GNGSA,A,3,05,12,24,18,15,25,23,13,29,10,,,1.20,0.69,0.99*13
$GNGSA,A,3,80,73,69,68,,,,,,,,,1.20,0.69,0.99*1D
$GPGSV,4,1,16,05,35,033,38,10,09,213,32,12,72,103,32,13,13,102,39*76
$GPGSV,4,2,16,15,41,131,38,18,31,297,42,20,03,033,17,23,51,214,42*73
$GPGSV,4,3,16,24,30,172,29,25,64,338,32,28,06,287,,29,16,350,33*74
$GPGSV,4,4,16,36,52,277,39,40,86,351,40,41,58,082,38,49,32,274,*79
$GLGSV,3,1,09,68,09,056,31,69,38,100,41,70,26,180,22,73,68,279,37*60
$GLGSV,3,2,09,74,27,322,18,80,40,169,30,84,11,338,,85,07,291,*64
$GLGSV,3,3,09,,,,27*69
$GNGLL,0419.79580,S,05539.92166,E,071100.00,A,D*67
$GNTXT,01,01,01,More than 100 frame errors, UART RX was disabled*70
$GNRMC,071101.00,A,0419.79581,S,05539.92167,E,0.027,,200525,,,D*7A
$GNVTG,,T,,M,0.027,N,0.050,K,D*38
$GNGGA,071101.00,0419.79581,S,05539.92167,E,2,12,0.69,13.2,M,-47.6,M,,0000*41
$GNGSA,A,3,05,12,24,18,15,25,23,13,29,10,,,1.20,0.69,0.99*13
$GNGSA,A,3,80,73,69,68,,,,,,,,,1.20,0.69,0.99*1D
$GPGSV,4,1,16,05,35,033,38,10,09,213,32,12,72,103,32,13,13,102,38*77
$GPGSV,4,2,16,15,41,131,38,18,31,297,40,20,03,033,19,23,51,214,42*7F
$GPGSV,4,3,16,24,30,172,29,25,64,338,33,28,06,287,,29,16,350,32*74
$GPGSV,4,4,16,36,52,277,39,40,86,351,39,41,58,082,38,49,32,274,*77
$GLGSV,3,1,09,68,09,056,32,69,38,100,41,70,27,179,22,73,68,279,37*64
$GLGSV,3,2,09,74,27,322,19,80,40,169,31,84,11,338,,85,07,291,*64
$GLGSV,3,3,09,,,,28*66
$GNGLL,0419.79581,S,05539.92167,E,071101.00,A,D*66
$GNTXT,01,01,01,More than 100 frame errors, UART RX was disabled*70
$GNRMC,071102.00,A,0419.79580,S,05539.92168,E,0.022,,200525,,,D*72
$GNVTG,,T,,M,0.022,N,0.040,K,D*3C
$GNGGA,071102.00,0419.79580,S,05539.92168,E,2,12,0.69,13.3,M,-47.6,M,,0000*4D
$GNGSA,A,3,05,12,24,18,15,25,23,13,29,10,,,1.20,0.69,0.99*13
$GNGSA,A,3,80,73,69,68,,,,,,,,,1.20,0.69,0.99*1D
$GPGSV,4,1,16,05,35,033,37,10,09,213,32,12,72,103,32,13,13,102,37*77
$GPGSV,4,2,16,15,41,131,38,18,31,297,40,20,03,033,20,23,51,214,42*75
$GPGSV,4,3,16,24,30,172,29,25,64,338,32,28,06,287,,29,16,350,33*74
$GPGSV,4,4,16,36,52,277,39,40,86,351,39,41,58,082,39,49,32,274,*76
$GLGSV,3,1,09,68,09,056,32,69,38,100,41,70,27,179,23,73,68,279,37*65
$GLGSV,3,2,09,74,27,322,19,80,40,169,31,84,11,338,,85,07,291,*64
$GLGSV,3,3,09,,,,28*66
$GNGLL,0419.79580,S,05539.92168,E,071102.00,A,D*6B
$GNTXT,01,01,01,More than 100 frame errors, UART RX was disabled*70
$GNRMC,071103.00,A,0419.79579,S,05539.92168,E,0.005,,200525,,,D*70
$GNVTG,,T,,M,0.005,N,0.009,K,D*34
$GNGGA,071103.00,0419.79579,S,05539.92168,E,2,12,0.69,13.3,M,-47.6,M,,0000*4A
$GNGSA,A,3,05,12,24,18,15,25,23,13,29,10,,,1.20,0.69,0.99*13
$GNGSA,A,3,80,73,69,68,,,,,,,,,1.20,0.69,0.99*1D
$GPGSV,4,1,16,05,35,033,38,10,09,213,32,12,72,103,32,13,13,102,38*77
$GPGSV,4,2,16,15,41,131,38,18,31,297,41,20,03,033,22,23,51,214,42*76
$GPGSV,4,3,16,24,30,172,29,25,64,338,33,28,06,287,,29,16,350,32*74
$GPGSV,4,4,16,36,52,277,39,40,86,351,39,41,58,082,39,49,32,274,*76
$GLGSV,3,1,09,68,09,056,32,69,38,100,41,70,27,179,23,73,68,279,37*65
$GLGSV,3,2,09,74,27,322,19,80,40,169,31,84,11,338,,85,07,291,*64
$GLGSV,3,3,09,,,,28*66
$GNGLL,0419.79579,S,05539.92168,E,071103.00,A,D*6C
$GNTXT,01,01,01,More than 100 frame errors, UART RX was disabled*70
$GNRMC,071104.00,A,0419.79580,S,05539.92168,E,0.026,,200525,,,D*70
$GNVTG,,T,,M,0.026,N,0.047,K,D*3F
$GNGGA,071104.00,0419.79580,S,05539.92168,E,2,12,0.69,13.2,M,-47.6,M,,0000*4A
$GNGSA,A,3,05,12,24,18,15,25,23,13,29,10,,,1.20,0.69,0.99*13
$GNGSA,A,3,80,73,69,68,,,,,,,,,1.20,0.69,0.99*1D
$GPGSV,4,1,16,05,35,033,38,10,09,213,32,12,72,103,32,13,13,102,38*77
$GPGSV,4,2,16,15,41,131,38,18,31,297,41,20,03,033,21,23,51,214,41*76
$GPGSV,4,3,16,24,30,172,29,25,64,338,34,28,06,287,,29,16,350,32*73
$GPGSV,4,4,16,36,52,277,39,40,86,351,39,41,58,082,39,49,32,274,*76
$GLGSV,3,1,09,68,09,056,32,69,38,100,41,70,27,179,23,73,68,277,37*6B
$GLGSV,3,2,09,74,27,322,19,80,40,169,31,84,11,338,,85,07,291,*64
$GLGSV,3,3,09,,,,28*66
$GNGLL,0419.79580,S,05539.92168,E,071104.00,A,D*6D
$GNTXT,01,01,01,More than 100 frame errors, UART RX was disabled*70
$GNRMC,071105.00,A,0419.79578,S,05539.92169,E,0.004,,200525,,,D*77
$GNVTG,,T,,M,0.004,N,0.007,K,D*3B
$GNGGA,071105.00,0419.79578,S,05539.92169,E,2,12,0.69,13.2,M,-47.6,M,,0000*4D
$GNGSA,A,3,05,12,24,18,15,25,23,13,29,10,,,1.20,0.69,0.99*13
$GNGSA,A,3,80,73,69,68,,,,,,,,,1.20,0.69,0.99*1D
$GPGSV,4,1,16,05,35,033,38,10,09,213,32,12,72,103,33,13,13,102,38*76
$GPGSV,4,2,16,15,41,131,38,18,31,297,41,20,03,033,21,23,51,214,41*76
$GPGSV,4,3,16,24,30,172,29,25,64,338,32,28,06,287,,29,16,350,32*75
$GPGSV,4,4,16,36,52,277,39,40,86,351,39,41,58,082,38,49,32,274,*77
$GLGSV,3,1,09,68,09,056,32,69,38,100,41,70,27,179,23,73,68,277,37*6B
$GLGSV,3,2,09,74,27,321,19,80,40,169,30,84,11,338,,85,07,291,*66
$GLGSV,3,3,09,,,,27*69
$GNGLL,0419.79578,S,05539.92169,E,071105.00,A,D*6A
$GNTXT,01,01,01,More than 100 frame errors, UART RX was disabled*70
$GNRMC,071106.00,A,0419.79577,S,05539.92169,E,0.017,,200525,,,D*79
$GNVTG,,T,,M,0.017,N,0.031,K,D*3C
$GNGGA,071106.00,0419.79577,S,05539.92169,E,2,12,0.69,13.2,M,-47.6,M,,0000*41
$GNGSA,A,3,05,12,24,18,15,25,23,13,29,10,,,1.20,0.69,0.99*13
$GNGSA,A,3,80,73,69,68,,,,,,,,,1.20,0.69,0.99*1D
$GPGSV,4,1,16,05,35,033,38,10,09,213,32,12,72,103,34,13,13,102,38*71
$GPGSV,4,2,16,15,41,131,38,18,31,297,41,20,03,033,21,23,51,214,41*76
$GPGSV,4,3,16,24,30,172,29,25,64,338,33,28,06,287,,29,16,350,32*74
$GPGSV,4,4,16,36,52,277,39,40,86,351,39,41,58,082,38,49,32,274,*77
$GLGSV,3,1,09,68,09,056,32,69,38,100,41,70,27,179,22,73,68,277,37*6A
$GLGSV,3,2,09,74,27,321,20,80,40,169,31,84,11,338,,85,07,291,*6D
$GLGSV,3,3,09,,,,27*69
$GNGLL,0419.79577,S,05539.92169,E,071106.00,A,D*66
$GNTXT,01,01,01,More than 100 frame errors, UART RX was disabled*70
$GNRMC,071107.00,A,0419.79577,S,05539.92169,E,0.011,,200525,,,D*7E
$GNVTG,,T,,M,0.011,N,0.020,K,D*3A
$GNGGA,071107.00,0419.79577,S,05539.92169,E,2,12,0.69,13.2,M,-47.6,M,,0000*40
$GNGSA,A,3,05,12,24,18,15,25,23,13,29,10,,,1.20,0.69,0.99*13
$GNGSA,A,3,80,73,69,68,,,,,,,,,1.20,0.69,0.99*1D
$GPGSV,4,1,16,05,35,033,38,10,09,213,31,12,72,103,34,13,13,102,38*72
$GPGSV,4,2,16,15,41,131,38,18,31,297,41,20,03,033,21,23,51,214,41*76
$GPGSV,4,3,16,24,30,172,29,25,64,338,33,28,06,287,,29,16,350,32*74
$GPGSV,4,4,16,36,52,277,39,40,86,351,39,41,58,082,39,49,32,274,*76
$GLGSV,3,1,09,68,09,056,32,69,38,100,41,70,27,179,23,73,68,277,37*6B
$GLGSV,3,2,09,74,27,321,20,80,40,169,32,84,11,338,,85,07,291,*6E
$GLGSV,3,3,09,,,,28*66
$GNGLL,0419.79577,S,05539.92169,E,071107.00,A,D*67
$GNTXT,01,01,01,More than 100 frame errors, UART RX was disabled*70
$GNRMC,071108.00,A,0419.79576,S,05539.92169,E,0.016,,200525,,,D*77
$GNVTG,,T,,M,0.016,N,0.029,K,D*34
$GNGGA,071108.00,0419.79576,S,05539.92169,E,2,12,0.69,13.1,M,-47.6,M,,0000*4D
$GNGSA,A,3,05,12,24,18,15,25,23,13,29,10,,,1.20,0.69,0.99*13
$GNGSA,A,3,80,73,69,68,,,,,,,,,1.20,0.69,0.99*1D
$GPGSV,4,1,16,05,35,033,37,10,09,213,31,12,72,103,33,13,13,102,37*75
$GPGSV,4,2,16,15,41,131,37,18,31,297,40,20,03,033,22,23,51,214,40*7A
$GPGSV,4,3,16,24,30,172,29,25,64,338,33,28,06,287,,29,16,350,31*77
$GPGSV,4,4,16,36,52,277,38,40,86,351,38,41,58,082,38,49,32,274,*77
$GLGSV,3,1,09,68,09,056,32,69,38,100,41,70,27,179,23,73,68,277,37*6B
$GLGSV,3,2,09,74,27,321,21,80,40,169,31,84,11,338,,85,07,291,*6C
$GLGSV,3,3,09,,,,28*66
$GNGLL,0419.79576,S,05539.92169,E,071108.00,A,D*69
$GNTXT,01,01,01,More than 100 frame errors, UART RX was disabled*70
$GNRMC,071109.00,A,0419.79577,S,05539.92170,E,0.028,,200525,,,D*72
$GNVTG,,T,,M,0.028,N,0.052,K,D*35
$GNGGA,071109.00,0419.79577,S,05539.92170,E,2,12,0.69,13.1,M,-47.6,M,,0000*45
$GNGSA,A,3,05,12,24,18,15,25,23,13,29,10,,,1.20,0.69,0.99*13
$GNGSA,A,3,80,73,69,68,,,,,,,,,1.20,0.69,0.99*1D
$GPGSV,4,1,16,05,35,033,37,10,09,213,31,12,72,103,33,13,13,102,36*74
$GPGSV,4,2,16,15,41,131,37,18,31,297,39,20,03,033,22,23,51,214,40*74
$GPGSV,4,3,16,24,30,172,29,25,64,338,33,28,06,287,,29,16,350,31*77
