$GNRMC,070528.00,A,0419.79482,S,05539.93750,E,0.033,,200525,,,A*75
$GNVTG,,T,,M,0.033,N,0.060,K,A*3B
$GNGGA,070528.00,0419.79482,S,05539.93750,E,1,12,0.77,14.1,M,-47.6,M,,*46
$GNGSA,A,3,05,12,24,18,15,25,23,13,29,41,,,1.35,0.77,1.10*1C
$GNGSA,A,3,80,73,69,68,,,,,,,,,1.35,0.77,1.10*16
$GPGSV,4,1,16,05,37,034,39,10,08,213,22,12,73,094,38,13,13,104,35*7C
$GPGSV,4,2,16,15,40,134,34,18,31,295,31,20,05,033,31,23,49,212,35*70
$GPGSV,4,3,16,24,31,174,37,25,62,340,39,28,05,290,,29,15,348,36*74
$GPGSV,4,4,16,36,52,277,,40,86,351,41,41,58,082,38,49,32,274,*72
$GLGSV,3,1,09,68,11,059,32,69,37,104,35,70,24,181,20,73,67,287,34*61
$GLGSV,3,2,09,74,25,324,23,80,43,168,34,84,12,336,26,85,07,288,*6F
$GLGSV,3,3,09,,,,31*6E
$GNGLL,0419.79482,S,05539.93750,E,070528.00,A,A*6C
$GNTXT,01,01,01,More than 100 frame errors, UART RX was disabled*70
$GNRMC,070529.00,A,0419.79483,S,05539.93750,E,0.058,,200525,,,A*78
$GNVTG,,T,,M,0.058,N,0.107,K,A*36
$GNGGA,070529.00,0419.79483,S,05539.93750,E,1,12,0.81,14.1,M,-47.6,M,,*4F
$GNGSA,A,3,05,12,24,18,15,25,23,13,29,41,,,1.45,0.81,1.20*11
$GNGSA,A,3,80,73,69,68,,,,,,,,,1.45,0.81,1.20*1B
$GPGSV,4,1,16,05,37,034,30,10,08,213,20,12,73,094,32,13,13,104,28*71
$GPGSV,4,2,16,15,40,134,29,18,31,295,24,20,05,033,26,23,49,212,31*7A
$GPGSV,4,3,16,24,31,174,25,25,62,340,31,28,05,290,,29,15,348,28*70
$GPGSV,4,4,16,36,52,277,,40,86,351,33,41,58,082,29,49,32,274,*77
$GLGSV,3,1,09,68,11,059,32,69,37,104,31,70,24,181,18,73,67,287,30*6A
$GLGSV,3,2,09,74,25,324,21,80,43,168,29,84,12,336,23,85,07,288,*64
$GLGSV,3,3,09,,,,26*68
$GNGLL,0419.79483,S,05539.93750,E,070529.00,A,A*6C
$GNTXT,01,01,01,More than 100 frame errors, UART RX was disabled*70
$GNRMC,070530.00,A,0419.79482,S,05539.93755,E,0.047,,200525,,,A*7A
$GNVTG,,T,,M,0.047,N,0.087,K,A*31
$GNGGA,070530.00,0419.79482,S,05539.93755,E,1,12,0.81,14.3,M,-47.6,M,,*41
$GNGSA,A,3,05,12,24,18,15,25,23,13,29,41,,,1.45,0.81,1.20*11
$GNGSA,A,3,80,73,69,68,,,,,,,,,1.45,0.81,1.20*1B
$GPGSV,4,1,16,05,37,034,40,10,08,213,20,12,73,094,38,13,13,104,38*7D
$GPGSV,4,2,16,15,40,134,33,18,31,295,31,20,05,033,37,23,49,212,37*73
$GPGSV,4,3,16,24,31,174,39,25,62,340,38,28,05,290,,29,15,348,36*7B
$GPGSV,4,4,16,36,52,277,,40,86,351,40,41,58,082,39,49,32,274,*72
$GLGSV,3,1,09,68,11,059,35,69,37,104,37,70,24,181,19,73,67,287,37*6D
$GLGSV,3,2,09,74,25,324,22,80,43,168,34,84,12,336,30,85,07,288,*69
$GLGSV,3,3,09,,,,31*6E
$GNGLL,0419.79482,S,05539.93755,E,070530.00,A,A*60
$GNTXT,01,01,01,More than 100 frame errors, UART RX was disabled*70
$GNRMC,070531.00,A,0419.79479,S,05539.93755,E,0.058,,200525,,,A*71
$GNVTG,,T,,M,0.058,N,0.108,K,A*39
$GNGGA,070531.00,0419.79479,S,05539.93755,E,1,12,0.77,14.3,M,-47.6,M,,*4D
$GNGSA,A,3,05,12,24,18,15,25,23,13,29,41,,,1.35,0.77,1.10*1C
$GNGSA,A,3,80,73,69,68,,,,,,,,,1.35,0.77,1.10*16
$GPGSV,4,1,16,05,37,034,37,10,08,213,22,12,73,094,39,13,13,104,36*70
$GPGSV,4,2,16,15,40,134,34,18,31,295,32,20,05,033,39,23,49,212,38*76
$GPGSV,4,3,16,24,31,174,40,25,62,340,37,28,06,289,,29,15,348,38*7F
$GPGSV,4,4,16,36,52,277,,40,86,351,41,41,58,082,37,49,32,274,*7D
$GLGSV,3,1,09,68,11,059,38,69,37,104,39,70,24,181,21,73,67,287,38*6A
$GLGSV,3,2,09,74,25,324,23,80,43,168,37,84,12,336,29,85,07,288,*63
$GLGSV,3,3,09,,,,35*6A
$GNGLL,0419.79479,S,05539.93755,E,070531.00,A,A*65
$GNTXT,01,01,01,More than 100 frame errors, UART RX was disabled*70
$GNRMC,070532.00,A,0419.79478,S,05539.93756,E,0.028,,200525,,,A*77
$GNVTG,,T,,M,0.028,N,0.052,K,A*30
$GNGGA,070532.00,0419.79478,S,05539.93756,E,1,12,0.77,14.4,M,-47.6,M,,*4B
$GNGSA,A,3,05,12,24,18,15,25,23,13,29,41,,,1.35,0.77,1.10*1C
$GNGSA,A,3,80,73,69,68,,,,,,,,,1.35,0.77,1.10*16
$GPGSV,4,1,16,05,37,034,37,10,08,213,22,12,73,094,38,13,13,104,36*71
$GPGSV,4,2,16,15,40,134,34,18,31,295,32,20,05,033,38,23,49,212,36*79
$GPGSV,4,3,16,24,31,174,38,25,62,340,37,28,06,289,,29,15,348,38*70
$GPGSV,4,4,16,36,52,277,,40,86,351,41,41,58,082,37,49,32,274,*7D
$GLGSV,3,1,09,68,11,059,35,69,37,104,38,70,24,181,23,73,67,287,36*6A
$GLGSV,3,2,09,74,25,324,24,80,43,168,34,84,12,336,28,85,07,288,*66
$GLGSV,3,3,09,,,,32*6D
$GNGLL,0419.79478,S,05539.93756,E,070532.00,A,A*64
$GNTXT,01,01,01,More than 100 frame errors, UART RX was disabled*70
$GNRMC,070533.00,A,0419.79478,S,05539.93760,E,0.004,,200525,,,A*7D
$GNVTG,,T,,M,0.004,N,0.007,K,A*3E
$GNGGA,070533.00,0419.79478,S,05539.93760,E,1,12,0.77,14.5,M,-47.6,M,,*4E
$GNGSA,A,3,05,12,24,18,15,25,23,13,29,41,,,1.35,0.77,1.10*1C
$GNGSA,A,3,80,73,69,68,,,,,,,,,1.35,0.77,1.10*16
$GPGSV,4,1,16,05,37,034,37,10,08,213,21,12,73,094,39,13,13,104,38*7D
$GPGSV,4,2,16,15,40,134,35,18,31,295,32,20,05,033,39,23,49,212,39*76
$GPGSV,4,3,16,24,31,174,38,25,62,340,37,28,06,289,,29,15,348,38*70
$GPGSV,4,4,16,36,52,277,,40,86,351,42,41,58,082,37,49,32,274,*7E
$GLGSV,3,1,09,68,11,059,36,69,37,104,38,70,24,181,23,73,67,287,37*68
$GLGSV,3,2,09,74,25,324,24,80,43,168,34,84,12,336,28,85,07,288,*66
$GLGSV,3,3,09,,,,35*6A
$GNGLL,0419.79478,S,05539.93760,E,070533.00,A,A*60
$GNTXT,01,01,01,More than 100 frame errors, UART RX was disabled*70
$GNRMC,070534.00,A,0419.79475,S,05539.93761,E,0.013,,200525,,,A*70
$GNVTG,,T,,M,0.013,N,0.024,K,A*39
$GNGGA,070534.00,0419.79475,S,05539.93761,E,1,12,0.77,14.6,M,-47.6,M,,*46
$GNGSA,A,3,05,12,24,18,15,25,23,13,29,41,,,1.35,0.77,1.10*1C
$GNGSA,A,3,80,73,69,68,,,,,,,,,1.35,0.77,1.10*16
$GPGSV,4,1,16,05,37,034,39,10,08,213,22,12,73,094,39,13,13,104,38*70
$GPGSV,4,2,16,15,40,134,35,18,31,295,32,20,05,033,36,23,49,212,37*77
$GPGSV,4,3,16,24,31,174,40,25,62,340,39,28,06,289,,29,15,348,36*7F
$GPGSV,4,4,16,36,52,277,,40,86,351,40,41,58,082,39,49,32,274,*72
$GLGSV,3,1,09,68,11,059,35,69,37,104,35,70,24,181,23,73,67,287,37*66
$GLGSV,3,2,09,74,25,324,24,80,43,168,37,84,12,336,28,85,07,288,*65
$GLGSV,3,3,09,,,,35*6A
$GNGLL,0419.79475,S,05539.93761,E,070534.00,A,A*6B
$GNTXT,01,01,01,More than 100 frame errors, UART RX was disabled*70
$GNRMC,070535.00,A,0419.79476,S,05539.93761,E,0.011,,200525,,,A*70
$GNVTG,,T,,M,0.011,N,0.021,K,A*3E
$GNGGA,070535.00,0419.79476,S,05539.93761,E,1,12,0.77,14.6,M,-47.6,M,,*44
$GNGSA,A,3,05,12,24,18,15,25,23,13,29,41,,,1.35,0.77,1.10*1C
$GNGSA,A,3,80,73,69,68,,,,,,,,,1.35,0.77,1.10*16
$GPGSV,4,1,16,05,37,034,37,10,08,213,23,12,73,094,38,13,13,104,31*77
$GPGSV,4,2,16,15,40,134,31,18,31,295,31,20,05,033,33,23,49,212,34*76
$GPGSV,4,3,16,24,31,174,36,25,62,340,37,28,06,289,,29,15,348,36*70
$GPGSV,4,4,16,36,52,277,,40,86,351,40,41,58,082,34,49,32,274,*7F
$GLGSV,3,1,09,68,11,059,34,69,37,104,35,70,24,181,23,73,67,287,37*67
$GLGSV,3,2,09,74,25,324,24,80,43,168,35,84,12,336,28,85,07,288,*67
$GLGSV,3,3,09,,,,33*6C
$GNGLL,0419.79476,S,05539.93761,E,070535.00,A,A*69
$GNTXT,01,01,01,More than 100 frame errors, UART RX was disabled*70
$GNRMC,070536.00,A,0419.79475,S,05539.93764,E,0.162,,200525,,,A*70
$GNVTG,,T,,M,0.162,N,0.301,K,A*3A
$GNGGA,070536.00,0419.79475,S,05539.93764,E,1,12,0.77,14.6,M,-47.6,M,,*41
$GNGSA,A,3,05,12,24,18,15,25,23,13,29,41,,,1.35,0.77,1.10*1C
$GNGSA,A,3,80,73,69,68,,,,,,,,,1.35,0.77,1.10*16
$GPGSV,4,1,16,05,37,034,41,10,08,213,24,12,73,094,40,13,13,104,38*77
$GPGSV,4,2,16,15,40,134,31,18,31,295,32,20,05,033,36,23,49,212,37*73
$GPGSV,4,3,16,24,31,174,40,25,62,340,39,28,06,289,,29,15,348,39*70
$GPGSV,4,4,16,36,52,277,,40,86,351,41,41,58,082,40,49,32,274,*7D
$GLGSV,3,1,09,68,11,059,30,69,37,104,37,70,24,181,23,73,67,287,35*63
$GLGSV,3,2,09,74,25,324,23,80,43,168,36,84,12,336,28,85,07,288,*63
$GLGSV,3,3,09,,,,34*6B
$GNGLL,0419.79475,S,05539.93764,E,070536.00,A,A*6C
$GNTXT,01,01,01,More than 100 frame errors, UART RX was disabled*70
$GNRMC,070537.00,A,0419.79474,S,05539.93766,E,0.101,,200525,,,A*77
$GNVTG,,T,,M,0.101,N,0.187,K,A*33
$GNGGA,070537.00,0419.79474,S,05539.93766,E,1,12,0.77,14.6,M,-47.6,M,,*43
$GNGSA,A,3,05,12,24,18,15,25,23,13,29,41,,,1.35,0.77,1.10*1C
$GNGSA,A,3,80,73,69,68,,,,,,,,,1.35,0.77,1.10*16
$GPGSV,4,1,16,05,37,034,42,10,08,213,24,12,73,094,40,13,13,104,36*7A
$GPGSV,4,2,16,15,40,134,32,18,31,295,30,20,05,033,33,23,49,212,38*78
$GPGSV,4,3,16,24,31,174,38,25,62,340,39,28,06,289,,29,15,348,38*7E
$GPGSV,4,4,16,36,52,277,,40,86,351,42,41,58,082,39,49,32,274,*70
$GLGSV,3,1,09,68,11,059,38,69,37,104,36,70,24,181,23,73,67,287,35*6A
$GLGSV,3,2,09,74,25,324,23,80,43,168,34,84,12,336,28,85,07,288,*61
$GLGSV,3,3,09,,,,34*6B
$GNGLL,0419.79474,S,05539.93766,E,070537.00,A,A*6E
$GNTXT,01,01,01,More than 100 frame errors, UART RX was disabled*70
$GNRMC,070538.00,A,0419.79474,S,05539.93765,E,0.022,,200525,,,A*7B
$GNVTG,,T,,M,0.022,N,0.041,K,A*38
$GNGGA,070538.00,0419.79474,S,05539.93765,E,1,12,0.77,14.5,M,-47.6,M,,*4C
$GNGSA,A,3,05,12,24,18,15,25,23,13,29,41,,,1.35,0.77,1.10*1C
$GNGSA,A,3,80,73,69,68,,,,,,,,,1.35,0.77,1.10*16
$GPGSV,4,1,16,05,37,034,39,10,08,213,24,12,73,094,39,13,13,104,36*78
$GPGSV,4,2,16,15,40,134,29,18,31,295,24,20,05,033,34,23,49,212,35*7D
$GPGSV,4,3,16,24,31,174,37,25,62,340,37,28,06,289,,29,15,348,39*7E
$GPGSV,4,4,16,36,52,277,,40,86,351,40,41,58,082,37,49,32,274,*7C
$GLGSV,3,1,09,68,11,059,33,69,37,104,36,70,24,181,22,73,67,287,36*63
$GLGSV,3,2,09,74,25,324,25,80,43,168,34,84,12,336,26,85,07,288,*69
$GLGSV,3,3,09,,,,33*6C
$GNGLL,0419.79474,S,05539.93765,E,070538.00,A,A*62
$GNTXT,01,01,01,More than 100 frame errors, UART RX was disabled*70
$GNRMC,070539.00,A,0419.79475,S,05539.93765,E,0.012,,200525,,,A*78
$GNVTG,,T,,M,0.012,N,0.022,K,A*3E
$GNGGA,070539.00,0419.79475,S,05539.93765,E,1,12,0.77,14.4,M,-47.6,M,,*4D
$GNGSA,A,3,05,12,24,18,15,25,23,13,29,41,,,1.35,0.77,1.10*1C
$GNGSA,A,3,80,73,69,68,,,,,,,,,1.35,0.77,1.10*16
$GPGSV,4,1,16,05,37,034,39,10,08,213,25,12,73,094,39,13,13,104,32*7D
$GPGSV,4,2,16,15,40,134,34,18,31,295,29,20,05,033,36,23,49,212,36*7D
$GPGSV,4,3,16,24,31,174,37,25,62,340,39,28,06,289,,29,15,348,37*7E
$GPGSV,4,4,16,36,52,277,,40,86,351,41,41,58,082,37,49,32,274,*7D
$GLGSV,3,1,09,68,11,059,35,69,37,104,36,70,24,181,21,73,67,287,37*67
$GLGSV,3,2,09,74,25,324,25,80,43,168,34,84,12,336,27,85,07,288,*68
$GLGSV,3,3,09,,,,32*6D
$GNGLL,0419.79475,S,05539.93765,E,070539.00,A,A*62
$GNTXT,01,01,01,More than 100 frame errors, UART RX was disabled*70
$GNRMC,070540.00,A,0419.79476,S,05539.93760,E,0.196,,200525,,,A*7D
$GNVTG,,T,,M,0.196,N,0.363,K,A*35
$GNGGA,070540.00,0419.79476,S,05539.93760,E,1,12,0.81,14.4,M,-47.6,M,,*4C
$GNGSA,A,3,05,12,24,18,15,25,23,13,29,41,,,1.45,0.81,1.20*11
$GNGSA,A,3,80,73,69,68,,,,,,,,,1.45,0.81,1.20*1B
$GPGSV,4,1,16,05,37,034,29,10,08,213,24,12,73,094,31,13,13,104,27*71
$GPGSV,4,2,16,15,40,134,29,18,31,295,26,20,05,033,30,23,49,212,29*76
$GPGSV,4,3,16,24,31,174,29,25,62,340,30,28,06,289,,29,15,348,30*7F
$GPGSV,4,4,16,36,52,277,,40,86,351,31,41,58,082,31,49,32,274,*7C
$GLGSV,3,1,09,68,11,059,31,69,37,104,28,70,24,181,20,73,67,287,30*6A
$GLGSV,3,2,09,74,25,324,24,80,43,168,30,84,12,336,26,85,07,288,*6C
$GLGSV,3,3,09,,,,28*66
$GNGLL,0419.79476,S,05539.93760,E,070540.00,A,A*6A
$GNTXT,01,01,01,More than 100 frame errors, UART RX was disabled*70
$GNRMC,070541.00,A,0419.79482,S,05539.93758,E,0.028,,200525,,,A*78
$GNVTG,,T,,M,0.028,N,0.051,K,A*33
$GNGGA,070541.00,0419.79482,S,05539.93758,E,1,12,0.81,14.2,M,-47.6,M,,*4B
$GNGSA,A,3,05,12,24,18,15,25,23,13,29,41,,,1.45,0.81,1.20*11
$GNGSA,A,3,80,73,69,68,,,,,,,,,1.45,0.81,1.20*1B
$GPGSV,4,1,16,05,37,034,38,10,08,213,25,12,73,094,38,13,13,104,32*7D
$GPGSV,4,2,16,15,40,134,30,18,31,295,31,20,05,033,35,23,49,212,38*7D
$GPGSV,4,3,16,24,31,174,37,25,62,340,38,28,06,289,,29,15,348,37*7F
$GPGSV,4,4,16,36,52,277,,40,86,351,42,41,58,082,37,49,32,274,*7E
$GLGSV,3,1,09,68,11,059,35,69,37,104,38,70,24,181,20,73,67,287,39*66
$GLGSV,3,2,09,74,25,324,22,80,43,168,35,84,12,336,25,85,07,288,*6C
$GLGSV,3,3,09,,,,33*6C
$GNGLL,0419.79482,S,05539.93758,E,070541.00,A,A*6B
$GNTXT,01,01,01,More than 100 frame errors, UART RX was disabled*70
$GNRMC,070542.00,A,0419.79483,S,05539.93760,E,0.010,,200525,,,A*7A
$GNVTG,,T,,M,0.010,N,0.019,K,A*34
$GNGGA,070542.00,0419.79483,S,05539.93760,E,1,12,0.77,14.2,M,-47.6,M,,*4B
$GNGSA,A,3,05,12,24,18,15,25,23,13,29,41,,,1.35,0.77,1.10*1C
$GNGSA,A,3,80,73,69,68,,,,,,,,,1.35,0.77,1.10*16
$GPGSV,4,1,16,05,37,034,40,10,08,213,25,12,73,094,41,13,13,104,35*7B
$GPGSV,4,2,16,15,40,134,34,18,31,295,34,20,05,033,36,23,49,212,38*7F
$GPGSV,4,3,16,24,31,174,39,25,62,340,39,28,06,289,,29,15,348,37*70
$GPGSV,4,4,16,36,52,277,,40,86,351,42,41,58,082,38,49,32,274,*71
$GLGSV,3,1,09,68,11,059,36,69,37,104,36,70,24,181,20,73,67,287,34*66
$GLGSV,3,2,09,74,25,324,22,80,43,168,35,84,12,336,26,85,07,288,*6F
$GLGSV,3,3,09,,,,33*6C
$GNGLL,0419.79483,S,05539.93760,E,070542.00,A,A*62
$GNTXT,01,01,01,More than 100 frame errors, UART RX was disabled*70
$GNRMC,070543.00,A,0419.79481,S,05539.93761,E,0.015,,200525,,,A*7D
$GNVTG,,T,,M,0.015,N,0.028,K,A*33
$GNGGA,070543.00,0419.79481,S,05539.93761,E,1,12,0.77,14.1,M,-47.6,M,,*4A
$GNGSA,A,3,05,12,24,18,15,25,23,13,29,41,,,1.35,0.77,1.10*1C
$GNGSA,A,3,80,73,69,68,,,,,,,,,1.35,0.77,1.10*16
$GPGSV,4,1,16,05,37,034,40,10,08,213,25,12,73,094,39,13,13,104,37*76
$GPGSV,4,2,16,15,40,134,33,18,31,295,34,20,05,033,36,23,49,212,36*76
$GPGSV,4,3,16,24,31,174,38,25,62,340,39,28,06,289,,29,15,348,37*71
$GPGSV,4,4,16,36,52,277,,40,86,351,42,41,58,082,37,49,32,274,*7E
$GLGSV,3,1,09,68,11,059,33,69,37,104,36,70,24,181,22,73,67,287,37*62
$GLGSV,3,2,09,74,25,324,24,80,43,168,34,84,12,336,27,85,07,288,*69
$GLGSV,3,3,09,,,,33*6C
$GNGLL,0419.79481,S,05539.93761,E,070543.00,A,A*60
$GNTXT,01,01,01,More than 100 frame errors, UART RX was disabled*70
$GNRMC,070544.00,A,0419.79488,S,05539.93757,E,0.033,,200525,,,A*72
$GNVTG,,T,,M,0.033,N,0.061,K,A*3A
$GNGGA,070544.00,0419.79488,S,05539.93757,E,1,12,0.77,14.0,M,-47.6,M,,*40
$GNGSA,A,3,05,12,24,18,15,25,23,13,29,41,,,1.35,0.77,1.10*1C
$GNGSA,A,3,80,73,69,68,,,,,,,,,1.35,0.77,1.10*16
$GPGSV,4,1,16,05,37,034,40,10,08,213,25,12,73,094,39,13,13,104,37*76
$GPGSV,4,2,16,15,40,134,34,18,31,295,33,20,05,033,36,23,49,212,36*76
$GPGSV,4,3,16,24,31,174,38,25,62,340,39,28,06,289,,29,15,348,36*70
$GPGSV,4,4,16,36,52,277,,40,86,351,42,41,58,082,35,49,32,274,*7C
$GLGSV,3,1,09,68,11,059,38,69,37,104,38,70,24,181,23,73,67,287,37*66
$GLGSV,3,2,09,74,25,324,26,80,43,168,35,84,12,336,28,85,07,288,*65
$GLGSV,3,3,09,,,,33*6C
$GNGLL,0419.79488,S,05539.93757,E,070544.00,A,A*6B
$GNTXT,01,01,01,More than 100 frame errors, UART RX was disabled*70
$GNRMC,070545.00,A,0419.79491,S,05539.93755,E,0.042,,200525,,,A*7F
$GNVTG,,T,,M,0.042,N,0.078,K,A*34
$GNGGA,070545.00,0419.79491,S,05539.93755,E,1,12,0.77,14.0,M,-47.6,M,,*4B
$GNGSA,A,3,05,12,24,18,15,25,23,13,29,41,,,1.35,0.77,1.10*1C
$GNGSA,A,3,80,73,69,68,,,,,,,,,1.35,0.77,1.10*16
$GPGSV,4,1,16,05,37,034,38,10,08,213,26,12,73,094,39,13,13,104,31*7C
$GPGSV,4,2,16,15,40,134,34,18,31,295,32,20,05,033,36,23,49,212,36*77
$GPGSV,4,3,16,24,31,174,36,25,62,340,37,28,06,289,,29,15,348,36*70
$GPGSV,4,4,16,36,52,277,,40,86,351,42,41,58,082,37,49,32,274,*7E
$GLGSV,3,1,09,68,11,059,38,69,37,104,34,70,24,181,23,73,67,287,37*6A
$GLGSV,3,2,09,74,25,324,26,80,43,168,35,84,12,336,28,85,07,288,19*6D
$GLGSV,3,3,09,,,,32*6D
$GNGLL,0419.79491,S,05539.93755,E,070545.00,A,A*60
$GNTXT,01,01,01,More than 100 frame errors, UART RX was disabled*70
$GNRMC,070546.00,A,0419.79491,S,05539.93753,E,0.035,,200525,,,A*7A
$GNVTG,,T,,M,0.035,N,0.065,K,A*38
$GNGGA,070546.00,0419.79491,S,05539.93753,E,1,12,0.77,14.0,M,-47.6,M,,*4E
$GNGSA,A,3,05,12,24,18,15,25,23,13,29,41,,,1.35,0.77,1.10*1C
$GNGSA,A,3,80,73,69,68,,,,,,,,,1.35,0.77,1.10*16
$GPGSV,4,1,16,05,37,034,38,10,08,213,26,12,73,094,38,13,13,104,36*7A
$GPGSV,4,2,16,15,40,134,33,18,31,295,30,20,05,033,33,23,49,212,36*77
$GPGSV,4,3,16,24,31,174,36,25,62,340,37,28,06,289,,29,15,348,38*7E
$GPGSV,4,4,16,36,52,277,,40,86,351,39,41,58,082,35,49,32,274,*70
$GLGSV,3,1,09,68,11,059,35,69,37,104,36,70,24,181,22,73,67,287,36*65
$GLGSV,3,2,09,74,25,324,25,80,43,168,35,84,12,336,28,85,07,288,18*6F
$GLGSV,3,3,09,,,,32*6D
$GNGLL,0419.79491,S,05539.93753,E,070546.00,A,A*65
$GNTXT,01,01,01,More than 100 frame errors, UART RX was disabled*70
$GNRMC,070547.00,A,0419.79491,S,05539.93751,E,0.049,,200525,,,A*72
$GNVTG,,T,,M,0.049,N,0.091,K,A*38
$GNGGA,070547.00,0419.79491,S,05539.93751,E,1,12,0.77,14.0,M,-47.6,M,,*4D
$GNGSA,A,3,05,12,24,18,15,25,23,13,29,41,,,1.35,0.77,1.10*1C
$GNGSA,A,3,80,73,69,68,,,,,,,,,1.35,0.77,1.10*16
$GPGSV,4,1,16,05,37,034,36,10,08,213,27,12,73,094,37,13,13,104,33*7F
$GPGSV,4,2,16,15,40,134,33,18,31,295,29,20,05,033,36,23,49,212,35*79
$GPGSV,4,3,16,24,31,174,36,25,62,340,37,28,06,289,,29,15,348,37*71
$GPGSV,4,4,16,36,52,277,,40,86,351,39,41,58,082,35,49,32,274,*70
$GLGSV,3,1,09,68,11,059,36,69,37,104,34,70,24,181,22,73,67,287,34*66
$GLGSV,3,2,09,74,25,324,23,80,43,168,34,84,12,336,28,85,07,288,17*67
$GLGSV,3,3,09,,,,32*6D
$GNGLL,0419.79491,S,05539.93751,E,070547.00,A,A*66
$GNTXT,01,01,01,More than 100 frame errors, UART RX was disabled*70
$GNRMC,070548.00,A,0419.79491,S,05539.93754,E,0.151,,200525,,,A*70
$GNVTG,,T,,M,0.151,N,0.280,K,A*32
$GNGGA,070548.00,0419.79491,S,05539.93754,E,1,12,0.77,14.0,M,-47.6,M,,*47
$GNGSA,A,3,05,12,24,18,15,25,23,13,29,41,,,1.35,0.77,1.10*1C
$GNGSA,A,3,80,73,69,68,,,,,,,,,1.35,0.77,1.10*16
$GPGSV,4,1,16,05,37,034,29,10,08,213,26,12,73,094,31,13,13,104,22*76
$GPGSV,4,2,16,15,40,134,28,18,31,295,24,20,05,033,30,23,49,212,28*74
$GPGSV,4,3,16,24,31,174,28,25,62,340,30,28,06,289,,29,15,348,31*7F
$GPGSV,4,4,16,36,52,277,,40,86,351,30,41,58,082,31,49,32,274,*7D
$GLGSV,3,1,09,68,11,059,26,69,37,104,27,70,24,181,21,73,67,287,29*6A
$GLGSV,3,2,09,74,25,324,22,80,43,168,25,84,12,336,18,85,07,288,17*65
$GLGSV,3,3,09,,,,27*69
$GNGLL,0419.79491,S,05539.93754,E,070548.00,A,A*6C
$GNTXT,01,01,01,More than 100 frame errors, UART RX was disabled*70
$GNRMC,070549.00,A,0419.79491,S,05539.93757,E,0.089,,200525,,,A*76
$GNVTG,,T,,M,0.089,N,0.164,K,A*3F
$GNGGA,070549.00,0419.79491,S,05539.93757,E,1,12,0.77,14.0,M,-47.6,M,,*45
$GNGSA,A,3,05,12,24,18,15,25,23,13,29,41,,,1.35,0.77,1.10*1C
$GNGSA,A,3,80,73,69,68,,,,,,,,,1.35,0.77,1.10*16
$GPGSV,4,1,16,05,37,034,39,10,08,213,28,12,73,094,39,13,13,104,36*74
$GPGSV,4,2,16,15,40,134,33,18,31,295,30,20,05,033,38,23,49,212,34*7E
$GPGSV,4,3,16,24,31,174,39,25,62,340,39,28,06,289,,29,15,348,37*70
$GPGSV,4,4,16,36,52,277,,40,86,351,42,41,58,082,37,49,32,274,*7E
$GLGSV,3,1,09,68,11,059,31,69,37,104,34,70,24,181,20,73,67,287,34*63
$GLGSV,3,2,09,74,25,324,22,80,43,168,31,84,12,336,28,85,07,288,16*62
$GLGSV,3,3,09,,,,31*6E
$GNGLL,0419.79491,S,05539.93757,E,070549.00,A,A*6E
$GNTXT,01,01,01,More than 100 frame errors, UART RX was disabled*70
$GNRMC,070550.00,A,0419.79488,S,05539.93761,E,0.033,,200525,,,A*72
$GNVTG,,T,,M,0.033,N,0.061,K,A*3A
$GNGGA,070550.00,0419.79488,S,05539.93761,E,1,12,0.77,13.9,M,-47.6,M,,*4E
$GNGSA,A,3,05,12,24,18,15,25,23,13,29,41,,,1.35,0.77,1.10*1C
$GNGSA,A,3,80,73,69,68,,,,,,,,,1.35,0.77,1.10*16
$GPGSV,4,1,16,05,37,034,39,10,08,213,30,12,73,094,39,13,13,104,35*7E
$GPGSV,4,2,16,15,40,134,33,18,31,295,30,20,05,033,37,23,49,212,36*73
$GPGSV,4,3,16,24,31,174,38,25,62,340,39,28,06,289,,29,15,348,37*71
$GPGSV,4,4,16,36,52,277,,40,86,351,41,41,58,082,37,49,32,274,*7D
$GLGSV,3,1,09,68,11,059,30,69,37,104,34,70,24,181,19,73,67,287,36*6A
$GLGSV,3,2,09,74,25,324,22,80,43,168,34,84,12,336,28,85,07,288,17*66
$GLGSV,3,3,09,,,,33*6C
$GNGLL,0419.79488,S,05539.93761,E,070550.00,A,A*6B
$GNTXT,01,01,01,More than 100 frame errors, UART RX was disabled*70
$GNRMC,070551.00,A,0419.79484,S,05539.93766,E,0.099,,200525,,,A*78
$GNVTG,,T,,M,0.099,N,0.184,K,A*30
$GNGGA,070551.00,0419.79484,S,05539.93766,E,1,12,0.77,14.0,M,-47.6,M,,*4A
$GNGSA,A,3,05,12,24,18,15,25,23,13,29,41,,,1.35,0.77,1.10*1C
$GNGSA,A,3,80,73,69,68,,,,,,,,,1.35,0.77,1.10*16
$GPGSV,4,1,16,05,37,034,39,10,08,213,30,12,73,094,39,13,13,104,34*7F
$GPGSV,4,2,16,15,40,134,33,18,31,295,30,20,05,033,35,23,49,212,34*73
$GPGSV,4,3,16,24,31,174,38,25,62,340,38,28,06,289,,29,15,348,37*70
$GPGSV,4,4,16,36,52,277,,40,86,351,41,41,58,082,35,49,32,274,*7F
$GLGSV,3,1,09,68,11,059,35,69,37,104,35,70,24,181,19,73,67,287,36*6E
$GLGSV,3,2,09,74,25,324,23,80,43,168,33,84,12,336,28,85,07,288,17*60
$GLGSV,3,3,09,,,,33*6C
$GNGLL,0419.79484,S,05539.93766,E,070551.00,A,A*61
$GNTXT,01,01,01,More than 100 frame errors, UART RX was disabled*70
$GNRMC,070552.00,A,0419.79484,S,05539.93770,E,0.025,,200525,,,A*7B
$GNVTG,,T,,M,0.025,N,0.047,K,A*39
$GNGGA,070552.00,0419.79484,S,05539.93770,E,1,12,0.77,14.1,M,-47.6,M,,*4F
$GNGSA,A,3,05,12,24,18,15,25,23,13,29,41,,,1.35,0.77,1.10*1C
$GNGSA,A,3,80,73,69,68,,,,,,,,,1.35,0.77,1.10*16
$GPGSV,4,1,16,05,37,034,38,10,08,213,29,12,73,094,39,13,13,104,36*74
$GPGSV,4,2,16,15,40,134,32,18,31,295,31,20,05,033,37,23,49,212,35*70
$GPGSV,4,3,16,24,31,174,37,25,62,340,38,28,06,289,,29,15,348,37*7F
$GPGSV,4,4,16,36,52,277,,40,86,351,40,41,58,082,37,49,32,274,*7C
$GLGSV,3,1,09,68,11,059,35,69,37,104,36,70,24,181,20,73,67,287,36*67
$GLGSV,3,2,09,74,25,324,23,80,43,168,33,84,12,336,28,85,07,288,16*61
$GLGSV,3,3,09,,,,33*6C
$GNGLL,0419.79484,S,05539.93770,E,070552.00,A,A*65
$GNTXT,01,01,01,More than 100 frame errors, UART RX was disabled*70
$GNRMC,070553.00,A,0419.79483,S,05539.93775,E,0.024,,200525,,,A*79
$GNVTG,,T,,M,0.024,N,0.045,K,A*3A
$GNGGA,070553.00,0419.79483,S,05539.93775,E,1,12,0.77,14.0,M,-47.6,M,,*4D
$GNGSA,A,3,05,12,24,18,15,25,23,13,29,41,,,1.35,0.77,1.10*1C
$GNGSA,A,3,80,73,69,68,,,,,,,,,1.35,0.77,1.10*16
$GPGSV,4,1,16,05,37,034,40,10,08,213,30,12,73,094,40,13,13,104,33*78
$GPGSV,4,2,16,15,40,134,34,18,31,295,30,20,05,033,37,23,49,212,37*75
$GPGSV,4,3,16,24,31,174,39,25,62,340,40,28,06,289,,29,15,348,38*71
$GPGSV,4,4,16,36,52,277,,40,86,351,42,41,58,082,37,49,32,274,*7E
$GLGSV,3,1,09,68,11,059,35,69,37,104,36,70,24,181,20,73,67,287,37*66
$GLGSV,3,2,09,74,25,324,25,80,43,168,34,84,12,336,29,85,07,288,17*60
$GLGSV,3,3,09,,,,34*6B
$GNGLL,0419.79483,S,05539.93775,E,070553.00,A,A*66
$GNTXT,01,01,01,More than 100 frame errors, UART RX was disabled*70
$GNRMC,070554.00,A,0419.79483,S,05539.93775,E,0.009,,200525,,,A*71
$GNVTG,,T,,M,0.009,N,0.017,K,A*32
$GNGGA,070554.00,0419.79483,S,05539.93775,E,1,12,0.77,14.1,M,-47.6,M,,*4B
$GNGSA,A,3,05,12,24,18,15,25,23,13,29,41,,,1.35,0.77,1.10*1C
$GNGSA,A,3,80,73,69,68,,,,,,,,,1.35,0.77,1.10*16
$GPGSV,4,1,16,05,37,034,37,10,08,213,29,12,73,094,40,13,13,104,38*7B
$GPGSV,4,2,16,15,40,134,34,18,31,295,29,20,05,033,35,23,49,212,35*7D
$GPGSV,4,3,16,24,31,174,37,25,62,340,38,28,06,289,,29,15,348,35*7D
$GPGSV,4,4,16,36,52,277,,40,86,351,38,41,58,082,37,49,32,274,*73
$GLGSV,3,1,09,68,11,059,38,69,37,104,34,70,24,181,22,73,67,287,35*69
$GLGSV,3,2,09,74,25,324,25,80,43,168,31,84,12,336,22,85,07,288,16*6F
$GLGSV,3,3,09,,,,33*6C
$GNGLL,0419.79483,S,05539.93775,E,070554.00,A,A*61
$GNTXT,01,01,01,More than 100 frame errors, UART RX was disabled*70
$GNRMC,070555.00,A,0419.79481,S,05539.93775,E,0.018,,200525,,,A*72
$GNVTG,,T,,M,0.018,N,0.033,K,A*34
$GNGGA,070555.00,0419.79481,S,05539.93775,E,1,12,0.77,14.1,M,-47.6,M,,*48
$GNGSA,A,3,05,12,24,18,15,25,23,13,29,41,,,1.35,0.77,1.10*1C
$GNGSA,A,3,80,73,69,68,,,,,,,,,1.35,0.77,1.10*16
$GPGSV,4,1,16,05,37,034,39,10,08,213,27,12,73,094,38,13,13,104,38*74
$GPGSV,4,2,16,15,40,134,37,18,31,295,28,20,05,033,36,23,49,212,36*7F
$GPGSV,4,3,16,24,31,174,37,25,62,340,36,28,06,289,,29,15,348,39*7F
$GPGSV,4,4,16,36,52,277,,40,86,351,39,41,58,082,39,49,32,274,*7C
$GLGSV,3,1,09,68,11,059,35,69,37,104,35,70,24,181,20,73,67,287,32*60
$GLGSV,3,2,09,74,25,324,23,80,43,168,31,84,12,336,23,85,07,288,15*6B
$GLGSV,3,3,09,,,,31*6E
$GNGLL,0419.79481,S,05539.93775,E,070555.00,A,A*62
$GNTXT,01,01,01,More than 100 frame errors, UART RX was disabled*70
$GNRMC,070556.00,A,0419.79479,S,05539.93777,E,0.024,,200525,,,A*7B
$GNVTG,,T,,M,0.024,N,0.045,K,A*3A
$GNGGA,070556.00,0419.79479,S,05539.93777,E,1,12,0.77,14.0,M,-47.6,M,,*4F
$GNGSA,A,3,05,12,24,18,15,25,23,13,29,41,,,1.35,0.77,1.10*1C
$GNGSA,A,3,80,73,69,68,,,,,,,,,1.35,0.77,1.10*16
$GPGSV,4,1,16,05,37,034,38,10,08,213,27,12,73,094,38,13,13,104,29*75
$GPGSV,4,2,16,15,40,134,36,18,31,295,29,20,05,033,36,23,49,212,36*7F
$GPGSV,4,3,16,24,31,174,37,25,62,340,38,28,06,289,,29,15,348,39*71
$GPGSV,4,4,16,36,52,277,,40,86,351,40,41,58,082,39,49,32,274,*72
$GLGSV,3,1,09,68,11,059,33,69,37,104,35,70,24,181,20,73,67,287,34*60
$GLGSV,3,2,09,74,25,324,23,80,43,168,31,84,12,336,26,85,07,288,14*6F
$GLGSV,3,3,09,,,,30*6F
$GNGLL,0419.79479,S,05539.93777,E,070556.00,A,A*64
$GNTXT,01,01,01,More than 100 frame errors, UART RX was disabled*70
$GNRMC,070557.00,A,0419.79479,S,05539.93780,E,0.015,,200525,,,A*70
$GNVTG,,T,,M,0.015,N,0.028,K,A*33
$GNGGA,070557.00,0419.79479,S,05539.93780,E,1,12,0.77,14.0,M,-47.6,M,,*46
$GNGSA,A,3,05,12,24,18,15,25,23,13,29,41,,,1.35,0.77,1.10*1C
$GNGSA,A,3,80,73,69,68,,,,,,,,,1.35,0.77,1.10*16
$GPGSV,4,1,16,05,37,034,38,10,08,213,29,12,73,094,39,13,13,104,38*7A
$GPGSV,4,2,16,15,40,134,36,18,31,295,32,20,05,033,38,23,49,212,37*7A
$GPGSV,4,3,16,24,31,174,38,25,62,340,38,28,06,289,,29,15,348,40*70
$GPGSV,4,4,16,36,52,277,,40,86,351,40,41,58,082,39,49,32,274,*72
$GLGSV,3,1,09,68,11,059,38,69,37,104,38,70,24,181,20,73,67,287,37*65
$GLGSV,3,2,09,74,25,324,23,80,43,168,35,84,12,336,28,85,07,288,15*64
$GLGSV,3,3,09,,,,32*6D
$GNGLL,0419.79479,S,05539.93780,E,070557.00,A,A*6D
$GNTXT,01,01,01,More than 100 frame errors, UART RX was disabled*70
$GNRMC,070558.00,A,0419.79477,S,05539.93785,E,0.046,,200525,,,A*72
$GNVTG,,T,,M,0.046,N,0.086,K,A*31
$GNGGA,070558.00,0419.79477,S,05539.93785,E,1,12,0.77,13.9,M,-47.6,M,,*4C
$GNGSA,A,3,05,12,24,18,15,25,23,13,29,41,,,1.35,0.77,1.10*1C
$GNGSA,A,3,80,73,69,68,,,,,,,,,1.35,0.77,1.10*16
$GPGSV,4,1,16,05,37,034,38,10,08,213,29,12,73,094,39,13,13,104,34*76
$GPGSV,4,2,16,15,40,134,33,18,31,295,31,20,05,033,38,23,49,212,35*7E
$GPGSV,4,3,16,24,31,174,38,25,62,340,38,28,06,289,,29,15,348,39*7E
$GPGSV,4,4,16,36,52,277,,40,86,351,39,41,58,082,38,49,32,274,*7D
$GLGSV,3,1,09,68,11,059,32,69,37,104,38,70,24,181,19,73,67,287,36*64
$GLGSV,3,2,09,74,25,324,24,80,43,168,35,84,12,336,29,85,07,288,15*62
$GLGSV,3,3,09,,,,33*6C
$GNGLL,0419.79477,S,05539.93785,E,070558.00,A,A*69
$GNTXT,01,01,01,More than 100 frame errors, UART RX was disabled*70
$GNRMC,070559.00,A,0419.79476,S,05539.93786,E,0.045,,200525,,,A*72
$GNVTG,,T,,M,0.045,N,0.084,K,A*30
$GNGGA,070559.00,0419.79476,S,05539.93786,E,1,12,0.77,13.9,M,-47.6,M,,*4F
$GNGSA,A,3,05,12,24,18,15,25,23,13,29,41,,,1.35,0.77,1.10*1C
$GNGSA,A,3,80,73,69,68,,,,,,,,,1.35,0.77,1.10*16
$GPGSV,4,1,16,05,37,034,38,10,08,213,29,12,73,094,38,13,13,104,36*75
$GPGSV,4,2,16,15,40,134,29,18,31,295,30,20,05,033,38,23,49,212,36*77
$GPGSV,4,3,16,24,31,174,37,25,62,340,38,28,06,289,,29,15,348,39*71
$GPGSV,4,4,16,36,52,277,,40,86,351,40,41,58,082,38,49,32,274,*73
$GLGSV,3,1,09,68,10,058,32,69,37,104,34,70,24,181,20,73,67,287,36*62
$GLGSV,3,2,09,74,25,324,25,80,43,168,35,84,12,336,29,85,07,288,15*63
$GLGSV,3,3,09,,,,33*6C
$GNGLL,0419.79476,S,05539.93786,E,070559.00,A,A*6A
$GNTXT,01,01,01,More than 100 frame errors, UART RX was disabled*70
$GNRMC,070600.00,A,0419.79475,S,05539.93789,E,0.021,,200525,,,A*73
$GNVTG,,T,,M,0.021,N,0.039,K,A*34
$GNGGA,070600.00,0419.79475,S,05539.93789,E,1,12,0.77,13.9,M,-47.6,M,,*4C
$GNGSA,A,3,05,12,24,18,15,25,23,13,29,41,,,1.35,0.77,1.10*1C
$GNGSA,A,3,80,73,69,68,,,,,,,,,1.35,0.77,1.10*16
$GPGSV,4,1,16,05,37,034,39,10,08,213,29,12,73,094,39,13,13,104,33*70
$GPGSV,4,2,16,15,40,134,36,18,31,295,29,20,05,033,39,23,49,212,38*7E
$GPGSV,4,3,16,24,31,174,39,25,62,340,38,28,06,289,,29,15,348,41*70
$GPGSV,4,4,16,36,52,277,,40,86,351,41,41,58,082,38,49,32,274,*72
$GLGSV,3,1,09,68,10,058,34,69,37,103,35,70,24,181,20,73,67,287,36*62
$GLGSV,3,2,09,74,25,324,25,80,43,168,34,84,12,336,29,85,07,288,16*61
$GLGSV,3,3,09,,,,33*6C
$GNGLL,0419.79475,S,05539.93789,E,070600.00,A,A*69
$GNTXT,01,01,01,More than 100 frame errors, UART RX was disabled*70
$GNRMC,070601.00,A,0419.79472,S,05539.93788,E,0.045,,200525,,,A*76
$GNVTG,,T,,M,0.045,N,0.084,K,A*30
$GNGGA,070601.00,0419.79472,S,05539.93788,E,1,12,0.77,13.9,M,-47.6,M,,*4B
$GNGSA,A,3,05,12,24,18,15,25,23,13,29,41,,,1.35,0.77,1.10*1C
$GNGSA,A,3,80,73,69,68,,,,,,,,,1.35,0.77,1.10*16
$GPGSV,4,1,16,05,37,034,39,10,08,213,29,12,73,094,37,13,13,104,36*7B
$GPGSV,4,2,16,15,40,134,36,18,31,295,28,20,05,033,41,23,49,212,36*7E
$GPGSV,4,3,16,24,31,174,38,25,62,340,36,28,06,289,,29,15,348,39*70
$GPGSV,4,4,16,36,52,277,,40,86,351,41,41,58,082,38,49,32,274,*72
$GLGSV,3,1,09,68,10,058,33,69,37,103,32,70,25,181,20,73,67,287,33*66
$GLGSV,3,2,09,74,25,323,23,80,43,168,30,84,12,336,29,85,07,288,15*67
$GLGSV,3,3,09,,,,29*67
$GNGLL,0419.79472,S,05539.93788,E,070601.00,A,A*6E
$GNTXT,01,01,01,More than 100 frame errors, UART RX was disabled*70
$GNRMC,070602.00,A,0419.79472,S,05539.93786,E,0.018,,200525,,,A*73
$GNVTG,,T,,M,0.018,N,0.033,K,A*34
$GNGGA,070602.00,0419.79472,S,05539.93786,E,1,12,0.77,13.9,M,-47.6,M,,*46
$GNGSA,A,3,05,12,24,18,15,25,23,13,29,41,,,1.35,0.77,1.10*1C
$GNGSA,A,3,80,73,69,68,,,,,,,,,1.35,0.77,1.10*16
$GPGSV,4,1,16,05,37,034,39,10,08,213,28,12,73,094,39,13,13,104,36*74
$GPGSV,4,2,16,15,40,134,35,18,31,295,28,20,05,033,42,23,49,212,37*7F
$GPGSV,4,3,16,24,31,174,38,25,62,340,37,28,06,289,,29,15,348,39*71
$GPGSV,4,4,16,36,52,277,,40,86,351,41,41,58,082,39,49,32,274,*73
$GLGSV,3,1,09,68,10,058,37,69,37,103,34,70,25,181,20,73,67,287,33*64
$GLGSV,3,2,09,74,25,323,22,80,43,168,34,84,12,336,27,85,07,288,13*6A
$GLGSV,3,3,09,,,,31*6E
$GNGLL,0419.79472,S,05539.93786,E,070602.00,A,A*63
$GNTXT,01,01,01,More than 100 frame errors, UART RX was disabled*70
$GNRMC,070603.00,A,0419.79470,S,05539.93784,E,0.042,,200525,,,A*7D
$GNVTG,,T,,M,0.042,N,0.078,K,A*34
$GNGGA,070603.00,0419.79470,S,05539.93784,E,1,12,0.77,14.0,M,-47.6,M,,*49
$GNGSA,A,3,05,12,24,18,15,25,23,13,29,41,,,1.35,0.77,1.10*1C
$GNGSA,A,3,80,73,69,68,,,,,,,,,1.35,0.77,1.10*16
$GPGSV,4,1,16,05,37,034,39,10,08,213,27,12,73,094,39,13,13,104,36*7B
$GPGSV,4,2,16,15,40,134,32,18,31,295,27,20,05,033,41,23,49,212,37*74
$GPGSV,4,3,16,24,31,174,38,25,62,340,36,28,06,289,,29,15,348,39*70
$GPGSV,4,4,16,36,52,277,,40,86,351,40,41,58,082,39,49,32,274,*72
$GLGSV,3,1,09,68,10,058,37,69,37,103,36,70,25,181,20,73,67,287,36*63
$GLGSV,3,2,09,74,25,323,21,80,43,168,35,84,12,336,27,85,07,288,12*69
$GLGSV,3,3,09,,,,32*6D
$GNGLL,0419.79470,S,05539.93784,E,070603.00,A,A*62
$GNTXT,01,01,01,More than 100 frame errors, UART RX was disabled*70
$GNRMC,070604.00,A,0419.79470,S,05539.93785,E,0.032,,200525,,,A*7C
$GNVTG,,T,,M,0.032,N,0.059,K,A*30
$GNGGA,070604.00,0419.79470,S,05539.93785,E,1,12,0.77,13.9,M,-47.6,M,,*41
$GNGSA,A,3,05,12,24,18,15,25,23,13,29,41,,,1.35,0.77,1.10*1C
$GNGSA,A,3,80,73,69,68,,,,,,,,,1.35,0.77,1.10*16
$GPGSV,4,1,16,05,37,034,39,10,08,213,28,12,73,094,41,13,13,104,41*7B
$GPGSV,4,2,16,15,40,134,35,18,31,295,28,20,05,033,40,23,49,212,38*72
$GPGSV,4,3,16,24,31,174,38,25,62,340,40,28,06,289,,29,15,348,38*70
$GPGSV,4,4,16,36,52,277,,40,86,351,41,41,58,082,39,49,32,274,*73
$GLGSV,3,1,09,68,10,058,37,69,37,103,37,70,25,181,22,73,67,285,36*62
$GLGSV,3,2,09,74,25,323,21,80,43,168,33,84,12,336,27,85,07,288,13*6E
$GLGSV,3,3,09,,,,31*6E
$GNGLL,0419.79470,S,05539.93785,E,070604.00,A,A*64
$GNTXT,01,01,01,More than 100 frame errors, UART RX was disabled*70
$GNRMC,070605.00,A,0419.79471,S,05539.93786,E,0.021,,200525,,,A*7D
$GNVTG,,T,,M,0.021,N,0.039,K,A*34
$GNGGA,070605.00,0419.79471,S,05539.93786,E,1,12,0.77,13.9,M,-47.6,M,,*42
$GNGSA,A,3,05,12,24,18,15,25,23,13,29,41,,,1.35,0.77,1.10*1C
$GNGSA,A,3,80,73,69,68,,,,,,,,,1.35,0.77,1.10*16
$GPGSV,4,1,16,05,37,034,39,10,08,213,27,12,73,094,39,13,13,104,33*7E
$GPGSV,4,2,16,15,40,134,33,18,31,295,28,20,05,033,40,23,49,212,37*7B
$GPGSV,4,3,16,24,31,174,40,25,62,340,38,28,06,289,,29,15,348,39*71
$GPGSV,4,4,16,36,52,277,,40,86,351,39,41,58,082,39,49,32,274,*7C
$GLGSV,3,1,09,68,10,058,36,69,37,103,37,70,25,181,22,73,67,285,35*60
$GLGSV,3,2,09,74,25,323,22,80,43,168,36,84,12,336,28,85,07,288,14*60
$GLGSV,3,3,09,,,,32*6D
$GNGLL,0419.79471,S,05539.93786,E,070605.00,A,A*67
$GNTXT,01,01,01,More than 100 frame errors, UART RX was disabled*70
$GNRMC,070606.00,A,0419.79474,S,05539.93788,E,0.160,,200525,,,A*71
$GNVTG,,T,,M,0.160,N,0.296,K,A*37
$GNGGA,070606.00,0419.79474,S,05539.93788,E,1,12,0.77,13.9,M,-47.6,M,,*4A
$GNGSA,A,3,05,12,24,18,15,25,23,13,29,41,,,1.35,0.77,1.10*1C
$GNGSA,A,3,80,73,69,68,,,,,,,,,1.35,0.77,1.10*16
$GPGSV,4,1,16,05,37,034,39,10,08,213,27,12,73,094,39,13,13,104,38*75
$GPGSV,4,2,16,15,40,134,31,18,31,295,29,20,05,033,38,23,49,212,35*75
$GPGSV,4,3,16,24,31,174,40,25,62,340,38,28,06,289,,29,15,348,39*71
$GPGSV,4,4,16,36,52,277,,40,86,351,39,41,58,082,38,49,32,274,*7D
$GLGSV,3,1,09,68,10,058,34,69,37,103,41,70,25,181,24,73,67,285,36*66
$GLGSV,3,2,09,74,25,323,22,80,43,168,37,84,12,336,28,85,07,288,16*63
$GLGSV,3,3,09,,,,34*6B
$GNGLL,0419.79474,S,05539.93788,E,070606.00,A,A*6F
$GNTXT,01,01,01,More than 100 frame errors, UART RX was disabled*70
$GNRMC,070607.00,A,0419.79475,S,05539.93788,E,0.048,,200525,,,A*7A
$GNVTG,,T,,M,0.048,N,0.088,K,A*31
$GNGGA,070607.00,0419.79475,S,05539.93788,E,1,12,0.77,13.8,M,-47.6,M,,*4B
$GNGSA,A,3,05,12,24,18,15,25,23,13,29,41,,,1.35,0.77,1.10*1C
$GNGSA,A,3,80,73,69,68,,,,,,,,,1.35,0.77,1.10*16
$GPGSV,4,1,16,05,37,034,40,10,08,213,25,12,73,094,40,13,13,104,29*77
$GPGSV,4,2,16,15,40,134,31,18,31,295,33,20,05,033,40,23,49,212,36*72
$GPGSV,4,3,16,24,31,174,41,25,62,340,39,28,06,289,,29,15,348,40*7F
$GPGSV,4,4,16,36,52,277,,40,86,351,41,41,58,082,39,49,32,274,*73
$GLGSV,3,1,09,68,10,058,34,69,37,103,34,70,25,181,24,73,67,285,34*66
$GLGSV,3,2,09,74,25,323,22,80,43,168,34,84,12,336,29,85,07,288,16*61
$GLGSV,3,3,09,,,,32*6D
$GNGLL,0419.79475,S,05539.93788,E,070607.00,A,A*6F
$GNTXT,01,01,01,More than 100 frame errors, UART RX was disabled*70
$GNRMC,070608.00,A,0419.79473,S,05539.93787,E,0.065,,200525,,,A*73
$GNVTG,,T,,M,0.065,N,0.121,K,A*3C
$GNGGA,070608.00,0419.79473,S,05539.93787,E,1,12,0.77,13.8,M,-47.6,M,,*4D
$GNGSA,A,3,05,12,24,18,15,25,23,13,29,41,,,1.35,0.77,1.10*1C
$GNGSA,A,3,80,73,69,68,,,,,,,,,1.35,0.77,1.10*16
$GPGSV,4,1,16,05,37,034,44,10,08,213,28,12,73,094,45,13,13,104,44*70
$GPGSV,4,2,16,15,40,134,31,18,31,295,35,20,05,033,40,23,49,212,41*74
$GPGSV,4,3,16,24,31,174,46,25,62,340,43,28,06,289,24,29,15,348,43*70
$GPGSV,4,4,16,36,52,277,,40,86,351,45,41,58,082,43,49,32,274,*7A
$GLGSV,3,1,09,68,10,058,34,69,37,103,36,70,25,181,21,73,67,285,35*60
$GLGSV,3,2,09,74,25,323,21,80,43,168,37,84,12,336,28,85,07,288,*67
$GLGSV,3,3,09,,,,34*6B
$GNGLL,0419.79473,S,05539.93787,E,070608.00,A,A*69
$GNTXT,01,01,01,More than 100 frame errors, UART RX was disabled*70
$GNRMC,070609.00,A,0419.79472,S,05539.93786,E,0.061,,200525,,,A*76
$GNVTG,,T,,M,0.061,N,0.113,K,A*39
$GNGGA,070609.00,0419.79472,S,05539.93786,E,1,12,0.74,13.8,M,-47.6,M,,*4F
$GNGSA,A,3,05,12,24,18,15,25,23,13,29,41,,,1.26,0.74,1.02*1E
$GNGSA,A,3,80,73,69,84,68,,,,,,,,1.26,0.74,1.02*18
$GPGSV,4,1,16,05,37,034,43,10,08,213,29,12,73,094,43,13,13,104,42*76
$GPGSV,4,2,16,15,40,134,35,18,31,295,35,20,05,033,41,23,49,212,39*7E
$GPGSV,4,3,16,24,31,174,43,25,62,340,41,28,06,289,23,29,15,348,42*71
$GPGSV,4,4,16,36,52,277,,40,86,351,43,41,58,082,42,49,32,274,*7D
$GLGSV,3,1,09,68,10,058,32,69,37,103,36,70,25,181,20,73,67,285,35*67
$GLGSV,3,2,09,74,25,323,22,80,43,168,37,84,12,336,27,85,07,288,*6B
$GLGSV,3,3,09,,,,34*6B
$GNGLL,0419.79472,S,05539.93786,E,070609.00,A,A*68
$GNTXT,01,01,01,More than 100 frame errors, UART RX was disabled*70
$GNRMC,070610.00,A,0419.79472,S,05539.93784,E,0.022,,200525,,,A*7B
$GNVTG,,T,,M,0.022,N,0.040,K,A*39
$GNGGA,070610.00,0419.79472,S,05539.93784,E,1,12,0.74,13.8,M,-47.6,M,,*45
$GNGSA,A,3,05,12,24,18,15,25,23,13,29,41,,,1.26,0.74,1.02*1E
$GNGSA,A,3,80,73,69,84,68,,,,,,,,1.26,0.74,1.02*18
$GPGSV,4,1,16,05,37,034,43,10,08,213,28,12,73,094,42,13,13,104,42*76
$GPGSV,4,2,16,15,40,134,34,18,31,295,34,20,05,033,44,23,49,212,40*75
$GPGSV,4,3,16,24,31,174,43,25,62,340,42,28,06,289,,29,15,348,43*72
$GPGSV,4,4,16,36,52,277,,40,86,351,43,41,58,082,42,49,32,274,*7D
$GLGSV,3,1,09,68,10,058,33,69,37,103,36,70,25,181,20,73,67,285,35*66
$GLGSV,3,2,09,74,25,323,21,80,43,168,37,84,12,336,27,85,07,288,*68
$GLGSV,3,3,09,,,,34*6B
$GNGLL,0419.79472,S,05539.93784,E,070610.00,A,A*62
$GNTXT,01,01,01,More than 100 frame errors, UART RX was disabled*70
$GNRMC,070611.00,A,0419.79471,S,05539.93781,E,0.038,,200525,,,A*77
$GNVTG,,T,,M,0.038,N,0.071,K,A*30
$GNGGA,070611.00,0419.79471,S,05539.93781,E,1,12,0.74,13.7,M,-47.6,M,,*4D
$GNGSA,A,3,05,12,24,18,15,25,23,13,29,41,,,1.26,0.74,1.02*1E
$GNGSA,A,3,80,73,69,84,68,,,,,,,,1.26,0.74,1.02*18
$GPGSV,4,1,16,05,37,034,41,10,08,213,28,12,73,094,42,13,13,104,38*79
$GPGSV,4,2,16,15,40,134,33,18,31,295,33,20,05,033,42,23,49,212,37*73
$GPGSV,4,3,16,24,31,174,42,25,62,340,40,28,06,289,,29,15,348,42*70
$GPGSV,4,4,16,36,52,277,,40,86,351,42,41,58,082,40,49,32,274,*7E
$GLGSV,3,1,09,68,10,058,34,69,37,103,33,70,25,181,19,73,67,285,35*6E
$GLGSV,3,2,09,74,25,323,20,80,42,168,37,84,12,336,28,85,07,288,*67
$GLGSV,3,3,09,,,,34*6B
$GNGLL,0419.79471,S,05539.93781,E,070611.00,A,A*65
$GNTXT,01,01,01,More than 100 frame errors, UART RX was disabled*70
$GNRMC,070612.00,A,0419.79472,S,05539.93779,E,0.038,,200525,,,A*70
$GNVTG,,T,,M,0.038,N,0.071,K,A*30
$GNGGA,070612.00,0419.79472,S,05539.93779,E,1,12,0.74,13.6,M,-47.6,M,,*4B
$GNGSA,A,3,05,12,24,18,15,25,23,13,29,41,,,1.26,0.74,1.02*1E
$GNGSA,A,3,80,73,69,84,68,,,,,,,,1.26,0.74,1.02*18
$GPGSV,4,1,16,05,37,034,40,10,08,213,26,12,73,094,40,13,13,104,37*7B
$GPGSV,4,2,16,15,40,134,33,18,31,295,33,20,05,033,41,23,49,212,37*70
$GPGSV,4,3,16,24,31,174,42,25,62,340,37,28,06,289,,29,15,348,42*70
$GPGSV,4,4,16,36,52,277,,40,86,351,40,41,58,082,39,49,32,274,*72
$GLGSV,3,1,09,68,10,058,35,69,37,103,33,70,25,181,19,73,67,285,35*6F
$GLGSV,3,2,09,74,25,323,19,80,42,168,37,84,12,336,28,85,07,288,*6D
$GLGSV,3,3,09,,,,34*6B
$GNGLL,0419.79472,S,05539.93779,E,070612.00,A,A*62
$GNTXT,01,01,01,More than 100 frame errors, UART RX was disabled*70
$GNRMC,070613.00,A,0419.79472,S,05539.93778,E,0.068,,200525,,,A*75
$GNVTG,,T,,M,0.068,N,0.126,K,A*36
$GNGGA,070613.00,0419.79472,S,05539.93778,E,1,12,0.74,13.7,M,-47.6,M,,*4A
$GNGSA,A,3,05,12,24,18,15,25,23,13,29,41,,,1.26,0.74,1.02*1E
$GNGSA,A,3,80,73,69,84,68,,,,,,,,1.26,0.74,1.02*18
$GPGSV,4,1,16,05,37,034,41,10,08,213,28,12,73,094,41,13,13,104,39*7B
$GPGSV,4,2,16,15,40,134,32,18,31,295,31,20,05,033,40,23,49,212,39*7C
$GPGSV,4,3,16,24,31,174,41,25,62,340,36,28,06,289,21,29,15,348,40*73
$GPGSV,4,4,16,36,52,277,,40,86,351,40,41,58,082,41,49,32,274,*7D
$GLGSV,3,1,09,68,10,058,35,69,37,103,34,70,25,181,19,73,67,285,35*68
$GLGSV,3,2,09,74,25,323,20,80,42,168,37,84,12,336,27,85,07,288,*68
$GLGSV,3,3,09,,,,34*6B
$GNGLL,0419.79472,S,05539.93778,E,070613.00,A,A*62
$GNTXT,01,01,01,More than 100 frame errors, UART RX was disabled*70
$GNRMC,070614.00,A,0419.79471,S,05539.93777,E,0.028,,200525,,,A*7A
$GNVTG,,T,,M,0.028,N,0.051,K,A*33
$GNGGA,070614.00,0419.79471,S,05539.93777,E,1,12,0.74,13.7,M,-47.6,M,,*41
$GNGSA,A,3,05,12,24,18,15,25,23,13,29,41,,,1.26,0.74,1.02*1E
$GNGSA,A,3,80,73,69,84,68,,,,,,,,1.26,0.74,1.02*18
$GPGSV,4,1,16,05,37,034,40,10,08,213,30,12,73,094,41,13,13,104,36*7C
$GPGSV,4,2,16,15,40,134,31,18,31,295,29,20,05,033,38,23,49,212,36*76
$GPGSV,4,3,16,24,31,174,39,25,62,340,35,28,06,289,19,29,15,348,39*7A
$GPGSV,4,4,16,36,52,277,,40,86,351,40,41,58,082,39,49,32,274,*72
$GLGSV,3,1,09,68,10,058,33,69,37,103,35,70,25,181,19,73,67,285,34*6E
$GLGSV,3,2,09,74,25,323,18,80,42,168,36,84,12,336,27,85,07,288,*62
$GLGSV,3,3,09,,,,33*6C
$GNGLL,0419.79471,S,05539.93777,E,070614.00,A,A*69
$GNTXT,01,01,01,More than 100 frame errors, UART RX was disabled*70
$GNRMC,070615.00,A,0419.79470,S,05539.93773,E,0.016,,200525,,,A*73
$GNVTG,,T,,M,0.016,N,0.030,K,A*39
$GNGGA,070615.00,0419.79470,S,05539.93773,E,1,12,0.74,13.6,M,-47.6,M,,*44
$GNGSA,A,3,05,12,24,18,15,25,23,13,29,41,,,1.26,0.74,1.02*1E
$GNGSA,A,3,80,73,69,84,68,,,,,,,,1.26,0.74,1.02*18
$GPGSV,4,1,16,05,37,034,42,10,08,213,35,12,73,094,42,13,13,104,39*77
$GPGSV,4,2,16,15,40,134,32,18,31,295,25,20,05,033,41,23,49,212,40*76
$GPGSV,4,3,16,24,31,174,40,25,62,340,36,28,06,289,,29,15,348,41*70
$GPGSV,4,4,16,36,52,277,,40,86,351,43,41,58,082,39,49,32,274,*71
$GLGSV,3,1,09,68,10,058,32,69,37,103,34,70,25,181,19,73,67,285,33*69
$GLGSV,3,2,09,74,25,323,17,80,42,168,35,84,12,336,27,85,07,288,*6E
$GLGSV,3,3,09,,,,32*6D
$GNGLL,0419.79470,S,05539.93773,E,070615.00,A,A*6D
$GNTXT,01,01,01,More than 100 frame errors, UART RX was disabled*70
$GNRMC,070616.00,A,0419.79468,S,05539.93773,E,0.079,,200525,,,D*75
$GNVTG,,T,,M,0.079,N,0.146,K,D*35
$GNGGA,070616.00,0419.79468,S,05539.93773,E,2,12,0.80,13.6,M,-47.6,M,,0000*46
$GNGSA,A,3,05,12,24,15,25,23,13,29,41,,,,1.31,0.80,1.04*1C
$GNGSA,A,3,80,73,69,84,68,,,,,,,,1.31,0.80,1.04*13
$GPGSV,4,1,16,05,37,034,42,10,08,213,34,12,73,094,41,13,13,104,39*75
$GPGSV,4,2,16,15,40,134,31,18,31,295,,20,05,033,41,23,49,212,40*72
$GPGSV,4,3,16,24,31,174,40,25,62,340,37,28,06,289,,29,15,348,40*70
$GPGSV,4,4,16,36,52,277,,40,86,351,44,41,58,082,38,49,32,274,*77
$GLGSV,3,1,09,68,10,058,34,69,37,103,35,70,25,181,17,73,67,285,33*60
$GLGSV,3,2,09,74,25,323,16,80,42,168,34,84,12,336,27,85,07,289,*6F
$GLGSV,3,3,09,,,,31*6E
$GNGLL,0419.79468,S,05539.93773,E,070616.00,A,D*62
$GNTXT,01,01,01,More than 100 frame errors, UART RX was disabled*70
$GNRMC,070617.00,A,0419.79465,S,05539.93773,E,0.076,,200525,,,D*76
$GNVTG,,T,,M,0.076,N,0.140,K,D*3C
$GNGGA,070617.00,0419.79465,S,05539.93773,E,2,12,0.80,13.6,M,-47.6,M,,0000*4A
$GNGSA,A,3,05,12,24,15,25,23,13,29,41,,,,1.31,0.80,1.04*1C
$GNGSA,A,3,80,73,69,84,68,,,,,,,,1.31,0.80,1.04*13
$GPGSV,4,1,16,05,37,034,42,10,08,213,34,12,73,094,40,13,13,104,39*74
$GPGSV,4,2,16,15,40,134,32,18,31,295,20,20,05,033,41,23,49,212,40*73
$GPGSV,4,3,16,24,31,174,40,25,62,340,37,28,06,289,,29,15,348,40*70
$GPGSV,4,4,16,36,52,277,,40,86,351,44,41,58,082,39,49,32,274,*76
$GLGSV,3,1,09,68,10,058,34,69,37,103,35,70,25,181,17,73,67,285,34*67
$GLGSV,3,2,09,74,25,323,18,80,42,168,34,84,12,336,27,85,07,289,*61
$GLGSV,3,3,09,,,,31*6E
$GNGLL,0419.79465,S,05539.93773,E,070617.00,A,D*6E
$GNTXT,01,01,01,More than 100 frame errors, UART RX was disabled*70
$GNRMC,070618.00,A,0419.79463,S,05539.93773,E,0.050,,200525,,,D*7B
$GNVTG,,T,,M,0.050,N,0.093,K,D*37
$GNGGA,070618.00,0419.79463,S,05539.93773,E,2,12,0.80,13.5,M,-47.6,M,,0000*40
$GNGSA,A,3,05,12,24,15,25,23,13,29,41,,,,1.31,0.80,1.04*1C
$GNGSA,A,3,80,73,69,84,68,,,,,,,,1.31,0.80,1.04*13
$GPGSV,4,1,16,05,37,034,41,10,08,213,33,12,73,094,39,13,13,104,35*72
$GPGSV,4,2,16,15,40,134,33,18,31,295,18,20,05,033,40,23,49,212,40*78
$GPGSV,4,3,16,24,31,174,39,25,62,340,37,28,06,289,,29,15,348,40*7E
$GPGSV,4,4,16,36,52,277,,40,86,351,43,41,58,082,38,49,32,274,*70
$GLGSV,3,1,09,68,10,058,34,69,37,103,36,70,25,181,15,73,67,285,33*61
$GLGSV,3,2,09,74,25,323,19,80,42,168,33,84,12,336,27,85,07,289,*67
$GLGSV,3,3,09,,,,31*6E
$GNGLL,0419.79463,S,05539.93773,E,070618.00,A,D*67
$GNTXT,01,01,01,More than 100 frame errors, UART RX was disabled*70
$GNRMC,070619.00,A,0419.79461,S,05539.93771,E,0.006,,200525,,,D*79
$GNVTG,,T,,M,0.006,N,0.011,K,D*3E
$GNGGA,070619.00,0419.79461,S,05539.93771,E,2,12,0.80,13.5,M,-47.6,M,,0000*41
$GNGSA,A,3,05,12,24,15,25,23,13,29,41,,,,1.31,0.80,1.04*1C
$GNGSA,A,3,80,73,69,84,68,,,,,,,,1.31,0.80,1.04*13
$GPGSV,4,1,16,05,37,034,42,10,08,213,36,12,73,094,43,13,13,104,40*7B
$GPGSV,4,2,16,15,40,134,34,18,31,295,,20,05,033,42,23,49,212,40*74
$GPGSV,4,3,16,24,31,174,41,25,62,340,37,28,06,289,,29,15,348,42*73
$GPGSV,4,4,16,36,52,277,,40,86,351,45,41,58,082,38,49,32,274,*76
$GLGSV,3,1,09,68,10,058,34,69,37,103,35,70,25,181,17,73,67,285,34*67
$GLGSV,3,2,09,74,25,323,19,80,42,168,34,84,12,336,27,85,07,289,*60
$GLGSV,3,3,09,,,,31*6E
$GNGLL,0419.79461,S,05539.93771,E,070619.00,A,D*66
$GNTXT,01,01,01,More than 100 frame errors, UART RX was disabled*70
$GNRMC,070620.00,A,0419.79461,S,05539.93770,E,0.057,,200525,,,D*76
$GNVTG,,T,,M,0.057,N,0.106,K,D*3D
$GNGGA,070620.00,0419.79461,S,05539.93770,E,2,12,0.80,13.5,M,-47.6,M,,0000*4A
$GNGSA,A,3,05,12,24,15,25,23,13,29,41,,,,1.31,0.80,1.04*1C
$GNGSA,A,3,80,73,69,84,68,,,,,,,,1.31,0.80,1.04*13
$GPGSV,4,1,16,05,37,034,41,10,08,213,31,12,73,094,41,13,13,104,37*7D
$GPGSV,4,2,16,15,40,134,29,18,31,295,26,20,05,033,38,23,49,212,37*71
$GPGSV,4,3,16,24,31,174,41,25,62,340,37,28,06,289,,29,15,348,41*70
$GPGSV,4,4,16,36,52,277,,40,86,351,41,41,58,082,38,49,32,274,*72
$GLGSV,3,1,09,68,10,058,36,69,37,103,36,70,25,181,19,73,67,285,34*68
$GLGSV,3,2,09,74,25,323,19,80,42,168,36,84,12,336,27,85,07,289,*62
$GLGSV,3,3,09,,,,32*6D
$GNGLL,0419.79461,S,05539.93770,E,070620.00,A,D*6D
$GNTXT,01,01,01,More than 100 frame errors, UART RX was disabled*70
$GNRMC,070621.00,A,0419.79460,S,05539.93769,E,0.038,,200525,,,D*77
$GNVTG,,T,,M,0.038,N,0.071,K,D*35
$GNGGA,070621.00,0419.79460,S,05539.93769,E,2,12,0.74,13.5,M,-47.6,M,,0000*49
$GNGSA,A,3,05,12,24,18,15,25,23,13,29,41,,,1.26,0.74,1.02*1E
$GNGSA,A,3,80,73,69,84,68,,,,,,,,1.26,0.74,1.02*18
$GPGSV,4,1,16,05,37,034,41,10,08,213,29,12,73,094,40,13,13,104,35*77
$GPGSV,4,2,16,15,40,134,35,18,31,295,32,20,05,033,38,23,49,212,37*79
$GPGSV,4,3,16,24,31,174,41,25,62,340,38,28,06,289,,29,15,348,41*7F
$GPGSV,4,4,16,36,52,277,,40,86,351,43,41,58,082,38,49,32,274,*70
$GLGSV,3,1,09,68,10,058,35,69,37,103,33,70,25,181,22,73,67,285,35*67
$GLGSV,3,2,09,74,25,323,19,80,42,168,36,84,12,336,27,85,07,289,*62
$GLGSV,3,3,09,,,,32*6D
$GNGLL,0419.79460,S,05539.93769,E,070621.00,A,D*65
$GNTXT,01,01,01,More than 100 frame errors, UART RX was disabled*70
$GNRMC,070622.00,A,0419.79459,S,05539.93768,E,0.044,,200525,,,D*74
$GNVTG,,T,,M,0.044,N,0.082,K,D*32
$GNGGA,070622.00,0419.79459,S,05539.93768,E,2,12,0.74,13.5,M,-47.6,M,,0000*41
$GNGSA,A,3,05,12,24,18,15,25,23,13,29,41,,,1.26,0.74,1.02*1E
$GNGSA,A,3,80,73,69,84,68,,,,,,,,1.26,0.74,1.02*18
$GPGSV,4,1,16,05,37,034,41,10,08,213,30,12,73,094,40,13,13,104,36*7C
$GPGSV,4,2,16,15,40,134,35,18,31,295,30,20,05,033,38,23,49,212,39*75
$GPGSV,4,3,16,24,31,174,41,25,62,340,39,28,06,289,,29,15,348,39*71
$GPGSV,4,4,16,36,52,277,,40,86,351,44,41,58,082,39,49,32,274,*76
$GLGSV,3,1,09,68,10,058,33,69,37,103,33,70,25,181,21,73,67,285,33*64
$GLGSV,3,2,09,74,25,323,20,80,42,168,33,84,12,336,26,85,07,289,*6C
$GLGSV,3,3,09,,,,32*6D
$GNGLL,0419.79459,S,05539.93768,E,070622.00,A,D*6D
$GNTXT,01,01,01,More than 100 frame errors, UART RX was disabled*70
$GNRMC,070623.00,A,0419.79458,S,05539.93767,E,0.054,,200525,,,D*7A
$GNVTG,,T,,M,0.054,N,0.099,K,D*39
$GNGGA,070623.00,0419.79458,S,05539.93767,E,2,12,0.74,13.5,M,-47.6,M,,0000*4E
$GNGSA,A,3,05,12,24,18,15,25,23,13,29,41,,,1.26,0.74,1.02*1E
$GNGSA,A,3,80,73,69,84,68,,,,,,,,1.26,0.74,1.02*18
$GPGSV,4,1,16,05,37,034,41,10,08,213,33,12,73,094,40,13,13,104,35*7C
$GPGSV,4,2,16,15,40,134,35,18,31,295,31,20,05,033,37,23,49,212,36*74
$GPGSV,4,3,16,24,31,174,41,25,62,340,40,28,06,289,,29,15,348,38*7E
$GPGSV,4,4,16,36,52,277,,40,86,351,43,41,58,082,38,49,32,274,*70
$GLGSV,3,1,09,68,10,058,33,69,37,103,34,70,25,181,22,73,67,285,36*65
$GLGSV,3,2,09,74,25,323,23,80,42,168,34,84,12,336,27,85,07,289,*69
$GLGSV,3,3,09,,,,35*6A
$GNGLL,0419.79458,S,05539.93767,E,070623.00,A,D*62
$GNTXT,01,01,01,More than 100 frame errors, UART RX was disabled*70
$GNRMC,070624.00,A,0419.79458,S,05539.93766,E,0.034,,200525,,,D*7A
$GNVTG,,T,,M,0.034,N,0.062,K,D*3B
$GNGGA,070624.00,0419.79458,S,05539.93766,E,2,12,0.74,13.4,M,-47.6,M,,0000*49
$GNGSA,A,3,05,12,24,18,15,25,23,13,29,41,,,1.26,0.74,1.02*1E
$GNGSA,A,3,80,73,69,84,68,,,,,,,,1.26,0.74,1.02*18
$GPGSV,4,1,16,05,37,034,39,10,08,213,33,12,73,094,37,13,13,104,34*72
$GPGSV,4,2,16,15,40,134,33,18,31,295,29,20,05,033,35,23,49,212,35*7A
$GPGSV,4,3,16,24,31,174,40,25,62,340,39,28,06,289,,29,15,348,38*71
$GPGSV,4,4,16,36,52,277,,40,86,351,43,41,58,082,38,49,32,274,*70
$GLGSV,3,1,09,68,10,058,33,69,37,103,34,70,25,181,21,73,67,285,33*63
$GLGSV,3,2,09,74,25,323,22,80,42,168,33,84,12,336,26,85,07,289,*6E
$GLGSV,3,3,09,,,,30*6F
$GNGLL,0419.79458,S,05539.93766,E,070624.00,A,D*64
$GNTXT,01,01,01,More than 100 frame errors, UART RX was disabled*70
$GNRMC,070625.00,A,0419.79457,S,05539.93765,E,0.019,,200525,,,D*78
$GNVTG,,T,,M,0.019,N,0.036,K,D*35
$GNGGA,070625.00,0419.79457,S,05539.93765,E,2,12,0.74,13.4,M,-47.6,M,,0000*44
$GNGSA,A,3,05,12,24,18,15,25,23,13,29,41,,,1.26,0.74,1.02*1E
$GNGSA,A,3,80,73,69,84,68,,,,,,,,1.26,0.74,1.02*18
$GPGSV,4,1,16,05,37,034,39,10,08,213,33,12,73,094,39,13,13,104,28*71
$GPGSV,4,2,16,15,40,134,33,18,31,295,29,20,05,033,38,23,49,212,37*75
$GPGSV,4,3,16,24,31,174,40,25,62,340,39,28,06,289,,29,15,348,38*71
$GPGSV,4,4,16,36,52,277,,40,86,351,43,41,58,082,39,49,32,274,*71
$GLGSV,3,1,09,68,10,058,34,69,37,103,34,70,25,181,21,73,67,285,35*62
$GLGSV,3,2,09,74,25,323,23,80,42,168,34,84,12,336,26,85,07,289,*68
$GLGSV,3,3,09,,,,31*6E
$GNGLL,0419.79457,S,05539.93765,E,070625.00,A,D*69
$GNTXT,01,01,01,More than 100 frame errors, UART RX was disabled*70
$GNRMC,070626.00,A,0419.79457,S,05539.93765,E,0.055,,200525,,,D*73
$GNVTG,,T,,M,0.055,N,0.103,K,D*3A
$GNGGA,070626.00,0419.79457,S,05539.93765,E,2,12,0.74,13.3,M,-47.6,M,,0000*40
$GNGSA,A,3,05,12,24,18,15,25,23,13,29,41,,,1.26,0.74,1.02*1E
$GNGSA,A,3,80,73,69,84,68,,,,,,,,1.26,0.74,1.02*18
$GPGSV,4,1,16,05,37,034,41,10,08,213,34,12,73,094,41,13,13,104,34*7B
$GPGSV,4,2,16,15,40,134,34,18,31,295,30,20,05,033,38,23,49,212,37*7A
$GPGSV,4,3,16,24,31,174,42,25,62,340,41,28,06,289,,29,15,348,39*7D
$GPGSV,4,4,16,36,52,277,,40,86,351,44,41,58,082,40,49,32,274,*78
$GLGSV,3,1,09,68,10,058,33,69,37,103,34,70,25,181,21,73,67,285,35*65
$GLGSV,3,2,09,74,25,323,23,80,42,168,35,84,12,336,26,85,07,289,*69
$GLGSV,3,3,09,,,,33*6C
$GNGLL,0419.79457,S,05539.93765,E,070626.00,A,D*6A
$GNTXT,01,01,01,More than 100 frame errors, UART RX was disabled*70
$GNRMC,070627.00,A,0419.79459,S,05539.93764,E,0.062,,200525,,,D*79
$GNVTG,,T,,M,0.062,N,0.115,K,D*39
$GNGGA,070627.00,0419.79459,S,05539.93764,E,2,12,0.74,13.3,M,-47.6,M,,0000*4E
$GNGSA,A,3,05,12,24,18,15,25,23,13,29,41,,,1.26,0.74,1.02*1E
$GNGSA,A,3,80,73,69,84,68,,,,,,,,1.26,0.74,1.02*18
$GPGSV,4,1,16,05,37,034,39,10,08,213,33,12,73,094,40,13,13,104,37*71
$GPGSV,4,2,16,15,40,134,35,18,31,295,30,20,05,033,38,23,49,212,35*79
$GPGSV,4,3,16,24,31,174,40,25,62,340,38,28,06,289,,29,15,348,39*71
$GPGSV,4,4,16,36,52,277,,40,86,351,41,41,58,082,39,49,32,274,*73
$GLGSV,3,1,09,68,10,058,34,69,37,103,38,70,25,181,22,73,67,285,35*6D
$GLGSV,3,2,09,74,25,323,23,80,42,168,35,84,12,336,27,85,07,289,*68
$GLGSV,3,3,09,,,,33*6C
$GNGLL,0419.79459,S,05539.93764,E,070627.00,A,D*64
$GNTXT,01,01,01,More than 100 frame errors, UART RX was disabled*70
$GNRMC,070628.00,A,0419.79459,S,05539.93759,E,0.092,,200525,,,D*77
$GNVTG,,T,,M,0.092,N,0.170,K,D*35
$GNGGA,070628.00,0419.79459,S,05539.93759,E,2,12,0.74,13.2,M,-47.6,M,,0000*4E
$GNGSA,A,3,05,12,24,18,15,25,23,13,29,41,,,1.26,0.74,1.02*1E
$GNGSA,A,3,80,73,69,84,68,,,,,,,,1.26,0.74,1.02*18
$GPGSV,4,1,16,05,37,034,40,10,08,213,32,12,73,094,38,13,13,104,34*72
$GPGSV,4,2,16,15,40,134,39,18,31,295,30,20,05,033,38,23,49,212,35*75
$GPGSV,4,3,16,24,31,174,42,25,62,340,38,28,06,289,,29,15,348,38*72
$GPGSV,4,4,16,36,52,277,,40,86,351,41,41,58,082,39,49,32,274,*73
$GLGSV,3,1,09,68,10,058,32,69,37,103,35,70,25,181,23,73,67,285,35*67
$GLGSV,3,2,09,74,25,323,23,80,42,168,36,84,12,336,27,85,07,289,*6B
$GLGSV,3,3,09,,,,37*68
$GNGLL,0419.79459,S,05539.93759,E,070628.00,A,D*65
$GNTXT,01,01,01,More than 100 frame errors, UART RX was disabled*70
$GNRMC,070629.00,A,0419.79459,S,05539.93757,E,0.053,,200525,,,D*75
$GNVTG,,T,,M,0.053,N,0.098,K,D*3F
$GNGGA,070629.00,0419.79459,S,05539.93757,E,2,12,0.74,13.2,M,-47.6,M,,0000*41
$GNGSA,A,3,05,12,24,18,15,25,23,13,29,41,,,1.26,0.74,1.02*1E
$GNGSA,A,3,80,73,69,84,68,,,,,,,,1.26,0.74,1.02*18
$GPGSV,4,1,16,05,37,034,39,10,08,213,30,12,73,094,38,13,13,104,37*7D
$GPGSV,4,2,16,15,40,134,35,18,31,295,30,20,05,033,38,23,49,212,35*79
$GPGSV,4,3,16,24,31,174,40,25,62,340,38,28,06,289,,29,15,348,38*70
$GPGSV,4,4,16,36,52,277,,40,86,351,41,41,58,082,39,49,32,274,*73
$GLGSV,3,1,09,68,10,058,31,69,37,103,36,70,25,181,25,73,67,285,34*60
$GLGSV,3,2,09,74,25,323,24,80,42,168,35,84,12,336,27,85,07,289,*6F
$GLGSV,3,3,09,,,,36*69
$GNGLL,0419.79459,S,05539.93757,E,070629.00,A,D*6A
$GNTXT,01,01,01,More than 100 frame errors, UART RX was disabled*70
$GNRMC,070630.00,A,0419.79459,S,05539.93754,E,0.028,,200525,,,D*72
$GNVTG,,T,,M,0.028,N,0.052,K,D*35
$GNGGA,070630.00,0419.79459,S,05539.93754,E,2,12,0.74,13.2,M,-47.6,M,,0000*4A
$GNGSA,A,3,05,12,24,18,15,25,23,13,29,41,,,1.26,0.74,1.02*1E
$GNGSA,A,3,80,73,69,84,68,,,,,,,,1.26,0.74,1.02*18
$GPGSV,4,1,16,05,37,034,40,10,08,213,29,12,73,094,37,13,13,104,37*74
$GPGSV,4,2,16,15,40,134,36,18,31,295,32,20,05,033,40,23,49,212,36*74
$GPGSV,4,3,16,24,31,174,40,25,62,340,37,28,06,289,,29,15,348,38*7F
$GPGSV,4,4,16,36,52,277,,40,86,351,40,41,58,082,39,49,32,274,*72
$GLGSV,3,1,09,68,10,058,36,69,37,103,38,70,25,181,24,73,67,285,34*68
$GLGSV,3,2,09,74,25,323,25,80,42,168,33,84,12,336,26,85,07,289,*69
$GLGSV,3,3,09,,,,36*69
$GNGLL,0419.79459,S,05539.93754,E,070630.00,A,D*61
$GNTXT,01,01,01,More than 100 frame errors, UART RX was disabled*70
$GNRMC,070631.00,A,0419.79459,S,05539.93754,E,0.025,,200525,,,D*7E
$GNVTG,,T,,M,0.025,N,0.045,K,D*3E
$GNGGA,070631.00,0419.79459,S,05539.93754,E,2,12,0.74,13.2,M,-47.6,M,,0000*4B
$GNGSA,A,3,05,12,24,18,15,25,23,13,29,41,,,1.26,0.74,1.02*1E
$GNGSA,A,3,80,73,69,84,68,,,,,,,,1.26,0.74,1.02*18
$GPGSV,4,1,16,05,37,034,39,10,08,213,29,12,73,096,40,13,13,104,37*78
$GPGSV,4,2,16,15,40,134,34,18,31,295,31,20,05,033,41,23,49,212,38*7A
$GPGSV,4,3,16,24,31,174,40,25,62,340,38,28,06,289,,29,15,348,39*71
$GPGSV,4,4,16,36,52,277,,40,86,351,41,41,58,082,40,49,32,274,*7D
$GLGSV,3,1,09,68,10,058,37,69,37,103,35,70,25,181,24,73,67,285,34*64
$GLGSV,3,2,09,74,25,323,23,80,42,168,34,84,12,336,27,85,07,289,*69
$GLGSV,3,3,09,,,,31*6E
$GNGLL,0419.79459,S,05539.93754,E,070631.00,A,D*60
$GNTXT,01,01,01,More than 100 frame errors, UART RX was disabled*70
$GNRMC,070632.00,A,0419.79459,S,05539.93754,E,0.032,,200525,,,D*7B
$GNVTG,,T,,M,0.032,N,0.058,K,D*34
$GNGGA,070632.00,0419.79459,S,05539.93754,E,2,12,0.74,13.3,M,-47.6,M,,0000*49
$GNGSA,A,3,05,12,24,18,15,25,23,13,29,41,,,1.26,0.74,1.02*1E
$GNGSA,A,3,80,73,69,84,68,,,,,,,,1.26,0.74,1.02*18
$GPGSV,4,1,16,05,37,034,40,10,08,213,28,12,73,096,40,13,13,104,33*73
$GPGSV,4,2,16,15,40,134,34,18,31,295,29,20,05,033,40,23,49,212,38*72
$GPGSV,4,3,16,24,31,174,40,25,62,340,38,28,06,289,,29,15,348,39*71
$GPGSV,4,4,16,36,52,277,,40,86,351,40,41,58,082,39,49,32,274,*72
$GLGSV,3,1,09,68,10,058,37,69,37,103,35,70,25,181,24,73,67,285,34*64
$GLGSV,3,2,09,74,25,323,20,80,42,168,36,84,12,336,27,85,07,289,*68
$GLGSV,3,3,09,,,,33*6C
$GNGLL,0419.79459,S,05539.93754,E,070632.00,A,D*63
$GNTXT,01,01,01,More than 100 frame errors, UART RX was disabled*70
$GNRMC,070633.00,A,0419.79458,S,05539.93750,E,0.064,,200525,,,D*7C
$GNVTG,,T,,M,0.064,N,0.119,K,D*33
$GNGGA,070633.00,0419.79458,S,05539.93750,E,2,12,0.74,13.3,M,-47.6,M,,0000*4D
$GNGSA,A,3,05,12,24,18,15,25,23,13,29,41,,,1.26,0.74,1.02*1E
$GNGSA,A,3,80,73,69,84,68,,,,,,,,1.26,0.74,1.02*18
$GPGSV,4,1,16,05,37,034,40,10,08,213,29,12,73,096,38,13,13,104,40*79
$GPGSV,4,2,16,15,40,134,33,18,31,295,27,20,05,033,39,23,49,212,37*7A
$GPGSV,4,3,16,24,31,174,41,25,62,340,37,28,06,289,,29,15,348,40*71
$GPGSV,4,4,16,36,52,277,,40,86,351,40,41,58,082,39,49,32,274,*72
$GLGSV,3,1,09,68,10,058,34,69,37,103,36,70,25,181,23,73,67,285,35*62
$GLGSV,3,2,09,74,25,323,,80,42,168,36,84,12,336,28,85,07,289,*65
$GLGSV,3,3,09,,,,35*6A
$GNGLL,0419.79458,S,05539.93750,E,070633.00,A,D*67
$GNTXT,01,01,01,More than 100 frame errors, UART RX was disabled*70
$GNRMC,070634.00,A,0419.79457,S,05539.93746,E,0.067,,200525,,,D*70
$GNVTG,,T,,M,0.067,N,0.123,K,D*39
$GNGGA,070634.00,0419.79457,S,05539.93746,E,2,12,0.74,13.3,M,-47.6,M,,0000*42
$GNGSA,A,3,05,12,24,18,15,25,23,13,29,41,,,1.26,0.74,1.02*1E
$GNGSA,A,3,80,73,69,84,68,,,,,,,,1.26,0.74,1.02*18
$GPGSV,4,1,16,05,37,034,37,10,08,213,29,12,73,096,37,13,13,104,37*76
$GPGSV,4,2,16,15,41,133,34,18,31,295,28,20,05,033,36,23,49,212,36*7A
$GPGSV,4,3,16,24,31,174,39,25,62,340,37,28,06,289,,29,15,348,40*7E
$GPGSV,4,4,16,36,52,277,,40,86,351,41,41,58,082,39,49,32,274,*73
$GLGSV,3,1,09,68,10,058,36,69,37,103,38,70,25,181,24,73,67,285,35*69
$GLGSV,3,2,09,74,25,323,,80,42,168,35,84,12,336,27,85,07,289,*69
$GLGSV,3,3,09,,,,36*69
$GNGLL,0419.79457,S,05539.93746,E,070634.00,A,D*68
$GNTXT,01,01,01,More than 100 frame errors, UART RX was disabled*70
$GNRMC,070635.00,A,0419.79458,S,05539.93743,E,0.065,,200525,,,D*79
$GNVTG,,T,,M,0.065,N,0.121,K,D*39
$GNGGA,070635.00,0419.79458,S,05539.93743,E,2,12,0.80,13.2,M,-47.6,M,,0000*43
$GNGSA,A,3,05,12,24,15,25,23,13,29,41,,,,1.31,0.80,1.04*1C
$GNGSA,A,3,80,73,69,84,68,,,,,,,,1.31,0.80,1.04*13
$GPGSV,4,1,16,05,37,034,35,10,08,213,26,12,73,096,36,13,13,104,30*7D
$GPGSV,4,2,16,15,41,133,33,18,31,295,,20,05,033,35,23,49,212,32*70
$GPGSV,4,3,16,24,31,174,39,25,62,340,32,28,06,289,,29,15,348,37*7B
$GPGSV,4,4,16,36,52,277,,40,86,351,36,41,58,082,34,49,32,274,*7E
$GLGSV,3,1,09,68,10,058,36,69,37,103,37,70,25,181,25,73,67,285,37*65
$GLGSV,3,2,09,74,25,323,26,80,42,168,35,84,12,336,30,85,07,289,*6B
$GLGSV,3,3,09,,,,40*68
$GNGLL,0419.79458,S,05539.93743,E,070635.00,A,D*63
$GNTXT,01,01,01,More than 100 frame errors, UART RX was disabled*70
$GNRMC,070636.00,A,0419.79461,S,05539.93741,E,0.073,,200525,,,D*75
$GNVTG,,T,,M,0.073,N,0.135,K,D*3B
$GNGGA,070636.00,0419.79461,S,05539.93741,E,2,12,0.80,13.1,M,-47.6,M,,0000*4B
$GNGSA,A,3,05,12,24,15,25,23,13,29,41,,,,1.31,0.80,1.04*1C
$GNGSA,A,3,80,73,69,84,68,,,,,,,,1.31,0.80,1.04*13
$GPGSV,4,1,16,05,37,034,37,10,08,213,27,12,73,096,34,13,13,104,32*7E
$GPGSV,4,2,16,15,41,133,33,18,31,295,,20,05,033,37,23,49,212,33*73
$GPGSV,4,3,16,24,31,174,39,25,62,340,33,28,06,289,,29,15,348,37*7A
$GPGSV,4,4,16,36,52,277,,40,86,351,35,41,58,082,35,49,32,274,*7C
$GLGSV,3,1,09,68,10,058,35,69,37,103,37,70,25,181,27,73,67,285,37*64
$GLGSV,3,2,09,74,25,323,21,80,42,168,37,84,12,336,29,85,07,289,*66
$GLGSV,3,3,09,,,,38*67
$GNGLL,0419.79461,S,05539.93741,E,070636.00,A,D*68
$GNTXT,01,01,01,More than 100 frame errors, UART RX was disabled*70
$GNRMC,070637.00,A,0419.79462,S,05539.93738,E,0.047,,200525,,,D*7E
$GNVTG,,T,,M,0.047,N,0.087,K,D*34
$GNGGA,070637.00,0419.79462,S,05539.93738,E,2,12,0.80,13.0,M,-47.6,M,,0000*46
$GNGSA,A,3,05,12,24,15,25,23,13,29,41,,,,1.31,0.80,1.04*1C
$GNGSA,A,3,80,73,69,84,68,,,,,,,,1.31,0.80,1.04*13
$GPGSV,4,1,16,05,37,034,37,10,08,213,28,12,73,096,36,13,13,104,36*77
$GPGSV,4,2,16,15,41,133,30,18,31,295,,20,05,033,37,23,49,212,34*77
$GPGSV,4,3,16,24,31,174,40,25,62,340,34,28,06,289,,29,15,348,38*7C
$GPGSV,4,4,16,36,52,277,,40,86,351,36,41,58,082,36,49,32,274,*7C
$GLGSV,3,1,09,68,10,058,35,69,37,103,38,70,25,181,28,73,67,285,37*64
$GLGSV,3,2,09,74,25,323,17,80,42,168,37,84,12,336,29,85,07,289,*63
$GLGSV,3,3,09,,,,39*66
$GNGLL,0419.79462,S,05539.93738,E,070637.00,A,D*64
$GNTXT,01,01,01,More than 100 frame errors, UART RX was disabled*70
$GNRMC,070638.00,A,0419.79462,S,05539.93739,E,0.005,,200525,,,D*76
$GNVTG,,T,,M,0.005,N,0.010,K,D*3C
$GNGGA,070638.00,0419.79462,S,05539.93739,E,2,12,0.80,13.0,M,-47.6,M,,0000*48
$GNGSA,A,3,05,12,24,15,25,23,13,29,41,,,,1.31,0.80,1.04*1C
$GNGSA,A,3,80,73,69,84,68,,,,,,,,1.31,0.80,1.04*13
$GPGSV,4,1,16,05,37,034,38,10,08,213,28,12,73,096,36,13,13,104,35*7B
$GPGSV,4,2,16,15,41,133,34,18,31,295,,20,05,033,39,23,49,212,35*7C
$GPGSV,4,3,16,24,31,174,40,25,62,340,34,28,06,289,,29,15,348,39*7D
