$GNRMC,080716.00,A,0419.72665,S,05539.92412,E,0.102,,030625,,,A*70
$GNVTG,,T,,M,0.102,N,0.188,K,A*3F
$GNGGA,080716.00,0419.72665,S,05539.92412,E,1,12,0.58,10.0,M,-47.6,M,,*4A
$GNGSA,A,3,25,23,12,15,29,18,24,10,28,32,26,,1.15,0.58,1.00*1E
$GNGSA,A,3,79,80,67,68,82,69,73,,,,,,1.15,0.58,1.00*1D
$GPGSV,5,1,17,10,47,253,25,12,27,154,28,15,33,060,28,18,17,349,31*7D
$GPGSV,5,2,17,23,57,328,30,24,15,128,34,25,56,180,30,26,15,307,31*77
$GPGSV,5,3,17,28,14,237,30,29,45,038,31,31,02,259,,32,22,202,29*74
$GPGSV,5,4,17,36,52,277,,40,85,352,28,41,58,082,,49,32,274,*76
$GPGSV,5,5,17,50,10,089,30*49
$GLGSV,3,1,09,67,20,035,33,68,65,071,25,69,49,184,29,73,12,300,31*65
$GLGSV,3,2,09,79,27,182,29,80,42,248,27,81,04,075,29,82,09,031,34*61
$GLGSV,3,3,09,83,04,344,28*5A
$GNGLL,0419.72665,S,05539.92412,E,080716.00,A,A*68
$GNRMC,080717.00,A,0419.72665,S,05539.92413,E,0.021,,030625,,,A*70
$GNVTG,,T,,M,0.021,N,0.039,K,A*34
$GNGGA,080717.00,0419.72665,S,05539.92413,E,1,12,0.58,10.0,M,-47.6,M,,*4A
$GNGSA,A,3,25,23,12,15,29,18,24,10,28,32,26,,1.15,0.58,1.00*1E
$GNGSA,A,3,79,80,67,68,82,69,73,,,,,,1.15,0.58,1.00*1D
$GPGSV,5,1,17,10,47,253,23,12,27,154,29,15,33,060,30,18,17,349,37*75
$GPGSV,5,2,17,23,57,328,34,24,15,128,40,25,56,180,33,26,15,307,36*74
$GPGSV,5,3,17,28,14,237,31,29,45,038,34,31,02,259,,32,22,202,34*7C
$GPGSV,5,4,17,36,52,277,,40,85,352,33,41,58,082,,49,32,274,*7C
$GPGSV,5,5,17,50,10,089,35*4C
$GLGSV,3,1,09,67,20,035,35,68,65,071,24,69,49,184,29,73,12,300,35*66
$GLGSV,3,2,09,79,27,182,31,80,42,248,24,81,04,075,29,82,09,031,34*6B
$GLGSV,3,3,09,83,04,344,28*5A
$GNGLL,0419.72665,S,05539.92413,E,080717.00,A,A*68
$GNRMC,080718.00,A,0419.72665,S,05539.92413,E,0.020,,030625,,,A*7E
$GNVTG,,T,,M,0.020,N,0.038,K,A*34
$GNGGA,080718.00,0419.72665,S,05539.92413,E,1,12,0.58,10.1,M,-47.6,M,,*44
$GNGSA,A,3,25,23,12,15,29,18,24,10,28,32,26,,1.15,0.58,1.00*1E
$GNGSA,A,3,79,80,67,68,82,69,73,,,,,,1.15,0.58,1.00*1D
$GPGSV,5,1,17,10,47,253,24,12,27,154,32,15,33,060,32,18,17,349,39*74
$GPGSV,5,2,17,23,57,328,35,24,15,128,42,25,56,180,34,26,15,307,38*7E
$GPGSV,5,3,17,28,14,237,33,29,45,038,36,31,02,259,,32,22,202,34*7C
$GPGSV,5,4,17,36,52,277,,40,85,352,34,41,58,082,,49,32,274,*7B
$GPGSV,5,5,17,50,10,089,36*4F
$GLGSV,3,1,09,67,20,035,38,68,65,071,26,69,49,184,29,73,12,300,37*6B
$GLGSV,3,2,09,79,27,182,33,80,42,248,22,81,04,075,31,82,09,031,37*65
$GLGSV,3,3,09,83,04,344,32*51
$GNGLL,0419.72665,S,05539.92413,E,080718.00,A,A*67
$GNRMC,080719.00,A,0419.72664,S,05539.92415,E,0.044,,030625,,,A*7A
$GNVTG,,T,,M,0.044,N,0.081,K,A*34
$GNGGA,080719.00,0419.72664,S,05539.92415,E,1,12,0.58,10.3,M,-47.6,M,,*40
$GNGSA,A,3,25,23,12,15,29,18,24,10,28,32,26,,1.15,0.58,1.00*1E
$GNGSA,A,3,79,80,67,68,82,69,73,,,,,,1.15,0.58,1.00*1D
$GPGSV,5,1,17,10,47,253,26,12,27,154,34,15,33,060,34,18,17,349,41*79
$GPGSV,5,2,17,23,57,328,35,24,15,128,43,25,56,180,35,26,15,307,38*7E
$GPGSV,5,3,17,28,14,237,34,29,45,038,38,31,02,259,,32,22,202,36*77
$GPGSV,5,4,17,36,52,277,,40,85,352,33,41,58,082,,49,32,274,*7C
$GPGSV,5,5,17,50,10,089,38*41
$GLGSV,3,1,09,67,20,035,38,68,65,071,29,69,49,184,34,73,12,300,37*68
$GLGSV,3,2,09,79,27,182,35,80,42,248,23,81,04,075,33,82,09,031,38*6F
$GLGSV,3,3,09,83,04,344,33*50
$GNGLL,0419.72664,S,05539.92415,E,080719.00,A,A*61
$GNRMC,080720.00,A,0419.72663,S,05539.92417,E,0.009,,030625,,,A*7C
$GNVTG,,T,,M,0.009,N,0.016,K,A*33
$GNGGA,080720.00,0419.72663,S,05539.92417,E,1,12,0.58,10.3,M,-47.6,M,,*4F
$GNGSA,A,3,25,23,12,15,29,18,24,10,28,32,26,,1.15,0.58,1.00*1E
$GNGSA,A,3,79,80,67,68,82,69,73,,,,,,1.15,0.58,1.00*1D
$GPGSV,5,1,17,10,47,253,27,12,27,154,35,15,33,060,35,18,17,349,41*78
$GPGSV,5,2,17,23,57,328,36,24,15,128,43,25,56,180,36,26,15,307,38*7E
$GPGSV,5,3,17,28,14,237,34,29,45,038,38,31,02,259,,32,22,202,36*77
$GPGSV,5,4,17,36,52,277,,40,85,352,34,41,58,082,,49,32,274,*7B
$GPGSV,5,5,17,50,10,089,38*41
$GLGSV,3,1,09,67,20,035,38,68,65,071,29,69,49,184,34,73,12,300,37*68
$GLGSV,3,2,09,79,27,182,35,80,42,248,25,81,04,075,33,82,09,031,37*66
$GLGSV,3,3,09,83,04,344,33*50
$GNGLL,0419.72663,S,05539.92417,E,080720.00,A,A*6E
$GNRMC,080721.00,A,0419.72663,S,05539.92418,E,0.012,,030625,,,A*78
$GNVTG,,T,,M,0.012,N,0.022,K,A*3E
$GNGGA,080721.00,0419.72663,S,05539.92418,E,1,12,0.58,10.4,M,-47.6,M,,*46
$GNGSA,A,3,25,23,12,15,29,18,24,10,28,32,26,,1.15,0.58,1.00*1E
$GNGSA,A,3,79,80,67,68,82,69,73,,,,,,1.15,0.58,1.00*1D
$GPGSV,5,1,17,10,47,253,28,12,27,154,35,15,33,060,34,18,17,349,41*76
$GPGSV,5,2,17,23,57,328,36,24,15,128,43,25,56,180,36,26,15,307,38*7E
$GPGSV,5,3,17,28,14,237,34,29,45,038,38,31,02,259,,32,22,202,36*77
$GPGSV,5,4,17,36,52,277,,40,85,352,34,41,58,082,,49,32,274,*7B
$GPGSV,5,5,17,50,10,089,38*41
$GLGSV,3,1,09,67,20,035,38,68,65,071,29,69,49,184,35,73,12,300,37*69
$GLGSV,3,2,09,79,27,182,35,80,42,248,26,81,04,075,34,82,09,031,38*6D
$GLGSV,3,3,09,83,04,344,33*50
$GNGLL,0419.72663,S,05539.92418,E,080721.00,A,A*60
$GNRMC,080722.00,A,0419.72663,S,05539.92419,E,0.009,,030625,,,A*70
$GNVTG,,T,,M,0.009,N,0.016,K,A*33
$GNGGA,080722.00,0419.72663,S,05539.92419,E,1,12,0.58,10.4,M,-47.6,M,,*44
$GNGSA,A,3,25,23,12,15,29,18,24,10,28,32,26,,1.15,0.58,1.00*1E
$GNGSA,A,3,79,80,67,68,82,69,73,,,,,,1.15,0.58,1.00*1D
$GPGSV,5,1,17,10,47,253,27,12,27,154,34,15,33,060,33,18,17,349,40*7E
$GPGSV,5,2,17,23,57,328,35,24,15,128,42,25,56,180,35,26,15,307,38*7F
$GPGSV,5,3,17,28,14,237,33,29,45,038,37,31,02,259,,32,22,202,35*7C
$GPGSV,5,4,17,36,52,277,,40,85,352,34,41,58,082,,49,32,274,*7B
$GPGSV,5,5,17,50,10,089,37*4E
$GLGSV,3,1,09,67,20,035,39,68,65,071,29,69,49,184,34,73,12,300,37*69
$GLGSV,3,2,09,79,27,182,35,80,42,248,25,81,04,075,34,82,09,031,37*61
$GLGSV,3,3,09,83,04,344,34*57
$GNGLL,0419.72663,S,05539.92419,E,080722.00,A,A*62
$GNRMC,080723.00,A,0419.72665,S,05539.92418,E,0.013,,030625,,,A*7D
$GNVTG,,T,,M,0.013,N,0.025,K,A*38
$GNGGA,080723.00,0419.72665,S,05539.92418,E,1,12,0.58,10.5,M,-47.6,M,,*43
$GNGSA,A,3,25,23,12,15,29,18,24,10,28,32,26,,1.15,0.58,1.00*1E
$GNGSA,A,3,79,80,67,68,82,69,73,,,,,,1.15,0.58,1.00*1D
$GPGSV,5,1,17,10,47,253,26,12,27,154,34,15,33,060,33,18,17,349,40*7F
$GPGSV,5,2,17,23,57,328,35,24,15,128,42,25,56,180,35,26,15,307,38*7F
$GPGSV,5,3,17,28,14,237,33,29,45,038,36,31,02,259,,32,22,202,34*7C
$GPGSV,5,4,17,36,52,277,,40,85,352,35,41,58,082,,49,32,274,*7A
$GPGSV,5,5,17,50,10,089,36*4F
$GLGSV,3,1,09,67,20,035,39,68,65,071,28,69,49,184,30,73,12,300,37*6C
$GLGSV,3,2,09,79,27,182,35,80,42,248,24,81,04,075,31,82,09,031,37*65
$GLGSV,3,3,09,83,04,344,33*50
$GNGLL,0419.72665,S,05539.92418,E,080723.00,A,A*64
$GNRMC,080724.00,A,0419.72667,S,05539.92418,E,0.007,,030625,,,A*7D
$GNVTG,,T,,M,0.007,N,0.014,K,A*3F
$GNGGA,080724.00,0419.72667,S,05539.92418,E,1,12,0.58,10.5,M,-47.6,M,,*46
$GNGSA,A,3,25,23,12,15,29,18,24,10,28,32,26,,1.15,0.58,1.00*1E
$GNGSA,A,3,79,80,67,68,82,69,73,,,,,,1.15,0.58,1.00*1D
$GPGSV,5,1,17,10,47,253,27,12,27,154,34,15,33,060,33,18,17,349,40*7E
$GPGSV,5,2,17,23,57,329,35,24,15,128,42,25,56,180,35,26,15,307,37*71
$GPGSV,5,3,17,28,14,237,33,29,45,038,36,31,02,259,,32,22,202,34*7C
$GPGSV,5,4,17,36,52,277,,40,85,352,35,41,58,082,,49,32,274,*7A
$GPGSV,5,5,17,50,10,089,36*4F
$GLGSV,3,1,09,67,20,035,38,68,65,071,27,69,49,184,32,73,12,300,37*60
$GLGSV,3,2,09,79,27,182,35,80,42,248,25,81,04,075,33,82,09,031,37*66
$GLGSV,3,3,09,83,04,344,32*51
$GNGLL,0419.72667,S,05539.92418,E,080724.00,A,A*61
$GNRMC,080725.00,A,0419.72667,S,05539.92417,E,0.022,,030625,,,A*74
$GNVTG,,T,,M,0.022,N,0.040,K,A*39
$GNGGA,080725.00,0419.72667,S,05539.92417,E,1,12,0.58,10.4,M,-47.6,M,,*49
$GNGSA,A,3,25,23,12,15,29,18,24,10,28,32,26,,1.15,0.58,1.00*1E
$GNGSA,A,3,79,80,67,68,82,69,73,,,,,,1.15,0.58,1.00*1D
$GPGSV,5,1,17,10,47,253,28,12,27,154,34,15,33,060,32,18,17,349,39*7E
$GPGSV,5,2,17,23,57,329,34,24,15,128,42,25,56,180,35,26,15,307,36*71
$GPGSV,5,3,17,28,14,237,33,29,45,038,37,31,02,259,,32,22,202,34*7D
$GPGSV,5,4,17,36,52,277,,40,85,352,35,41,58,082,,49,32,274,*7A
$GPGSV,5,5,17,50,10,089,37*4E
$GLGSV,3,1,09,67,20,035,37,68,65,071,27,69,49,184,32,73,12,300,36*6E
$GLGSV,3,2,09,79,27,182,35,80,42,248,26,81,04,075,33,82,09,031,37*65
$GLGSV,3,3,09,83,04,344,32*51
$GNGLL,0419.72667,S,05539.92417,E,080725.00,A,A*6F
$GNRMC,080726.00,A,0419.72666,S,05539.92417,E,0.021,,030625,,,A*75
$GNVTG,,T,,M,0.021,N,0.039,K,A*34
$GNGGA,080726.00,0419.72666,S,05539.92417,E,1,12,0.58,10.4,M,-47.6,M,,*4B
$GNGSA,A,3,25,23,12,15,29,18,24,10,28,32,26,,1.15,0.58,1.00*1E
$GNGSA,A,3,79,80,67,68,82,69,73,,,,,,1.15,0.58,1.00*1D
$GPGSV,5,1,17,10,47,253,29,12,27,154,35,15,33,060,33,18,17,349,39*7F
$GPGSV,5,2,17,23,57,329,34,24,15,128,42,25,56,180,36,26,15,307,36*72
$GPGSV,5,3,17,28,14,237,32,29,45,038,36,31,02,259,,32,22,202,35*7C
$GPGSV,5,4,17,36,52,277,,40,85,352,34,41,58,082,,49,32,274,*7B
$GPGSV,5,5,17,50,10,089,36*4F
$GLGSV,3,1,09,67,20,035,37,68,65,071,27,69,49,184,32,73,12,300,36*6E
$GLGSV,3,2,09,79,27,182,35,80,42,248,27,81,04,075,33,82,09,031,37*64
$GLGSV,3,3,09,83,04,344,33*50
$GNGLL,0419.72666,S,05539.92417,E,080726.00,A,A*6D
$GNRMC,080727.00,A,0419.72666,S,05539.92417,E,0.012,,030625,,,A*74
$GNVTG,,T,,M,0.012,N,0.022,K,A*3E
$GNGGA,080727.00,0419.72666,S,05539.92417,E,1,12,0.58,10.4,M,-47.6,M,,*4A
$GNGSA,A,3,25,23,12,15,29,18,24,10,28,32,26,,1.15,0.58,1.00*1E
$GNGSA,A,3,79,80,67,68,82,69,73,,,,,,1.15,0.58,1.00*1D
$GPGSV,5,1,17,10,47,253,29,12,27,154,35,15,33,060,33,18,17,349,39*7F
$GPGSV,5,2,17,23,57,329,34,24,15,128,42,25,56,180,36,26,15,307,36*72
$GPGSV,5,3,17,28,14,237,33,29,45,038,36,31,02,259,,32,22,202,35*7D
$GPGSV,5,4,17,36,52,277,,40,85,352,34,41,58,082,,49,32,274,*7B
$GPGSV,5,5,17,50,10,089,36*4F
$GLGSV,3,1,09,67,20,035,37,68,65,071,26,69,49,184,33,73,12,300,35*6D
$GLGSV,3,2,09,79,27,182,34,80,42,248,27,81,04,075,33,82,09,031,37*65
$GLGSV,3,3,09,83,04,344,33*50
$GNGLL,0419.72666,S,05539.92417,E,080727.00,A,A*6C
$GNRMC,080728.00,A,0419.72665,S,05539.92418,E,0.013,,030625,,,A*76
$GNVTG,,T,,M,0.013,N,0.024,K,A*39
$GNGGA,080728.00,0419.72665,S,05539.92418,E,1,12,0.58,10.3,M,-47.6,M,,*4E
$GNGSA,A,3,25,23,12,15,29,18,24,10,28,32,26,,1.15,0.58,1.00*1E
$GNGSA,A,3,79,80,67,68,82,69,73,,,,,,1.15,0.58,1.00*1D
$GPGSV,5,1,17,10,47,253,29,12,27,154,34,15,33,060,33,18,17,349,40*70
$GPGSV,5,2,17,23,57,329,34,24,15,128,42,25,56,180,36,26,15,307,36*72
$GPGSV,5,3,17,28,14,237,33,29,45,038,36,31,02,259,,32,22,202,35*7D
$GPGSV,5,4,17,36,52,277,,40,85,352,34,41,58,082,,49,32,274,*7B
$GPGSV,5,5,17,50,10,089,36*4F
$GLGSV,3,1,09,67,20,035,37,68,65,071,26,69,49,184,32,73,12,300,35*6C
$GLGSV,3,2,09,79,27,182,34,80,42,248,28,81,04,075,33,82,09,031,37*6A
$GLGSV,3,3,09,83,04,344,33*50
$GNGLL,0419.72665,S,05539.92418,E,080728.00,A,A*6F
$GNRMC,080729.00,A,0419.72664,S,05539.92418,E,0.009,,030625,,,A*7D
$GNVTG,,T,,M,0.009,N,0.017,K,A*32
$GNGGA,080729.00,0419.72664,S,05539.92418,E,1,12,0.58,10.3,M,-47.6,M,,*4E
$GNGSA,A,3,25,23,12,15,29,18,24,10,28,32,26,,1.15,0.58,1.00*1E
$GNGSA,A,3,79,80,67,68,82,69,73,,,,,,1.15,0.58,1.00*1D
$GPGSV,5,1,17,10,47,253,29,12,27,154,34,15,33,060,33,18,17,349,40*70
$GPGSV,5,2,17,23,57,329,34,24,15,128,42,25,56,180,36,26,15,307,36*72
$GPGSV,5,3,17,28,14,237,33,29,45,038,36,31,02,259,,32,22,202,35*7D
$GPGSV,5,4,17,36,52,277,,40,85,352,34,41,58,082,,49,32,274,*7B
$GPGSV,5,5,17,50,10,089,36*4F
$GLGSV,3,1,09,67,20,035,37,68,65,071,27,69,49,184,33,73,12,300,35*6C
$GLGSV,3,2,09,79,27,182,34,80,42,248,28,81,04,075,33,82,09,031,37*6A
$GLGSV,3,3,09,83,04,344,34*57
$GNGLL,0419.72664,S,05539.92418,E,080729.00,A,A*6F
$GNRMC,080730.00,A,0419.72663,S,05539.92418,E,0.008,,030625,,,A*73
$GNVTG,,T,,M,0.008,N,0.015,K,A*31
$GNGGA,080730.00,0419.72663,S,05539.92418,E,1,12,0.58,10.3,M,-47.6,M,,*41
$GNGSA,A,3,25,23,12,15,29,18,24,10,28,32,26,,1.15,0.58,1.00*1E
$GNGSA,A,3,79,80,67,68,82,69,73,,,,,,1.15,0.58,1.00*1D
$GPGSV,5,1,17,10,47,253,29,12,27,154,34,15,33,060,33,18,17,349,40*70
$GPGSV,5,2,17,23,57,329,34,24,15,128,42,25,55,180,35,26,15,307,36*72
$GPGSV,5,3,17,28,14,237,33,29,45,038,37,31,02,259,,32,22,202,35*7C
$GPGSV,5,4,17,36,52,277,,40,85,352,34,41,58,082,,49,32,274,*7B
$GPGSV,5,5,17,50,10,089,36*4F
$GLGSV,3,1,09,67,20,035,36,68,65,071,26,69,49,184,32,73,12,300,35*6D
$GLGSV,3,2,09,79,27,182,34,80,42,248,27,81,04,075,32,82,09,031,36*65
$GLGSV,3,3,09,83,04,344,33*50
$GNGLL,0419.72663,S,05539.92418,E,080730.00,A,A*60
$GNRMC,080731.00,A,0419.72662,S,05539.92419,E,0.012,,030625,,,A*79
$GNVTG,,T,,M,0.012,N,0.022,K,A*3E
$GNGGA,080731.00,0419.72662,S,05539.92419,E,1,12,0.58,10.3,M,-47.6,M,,*40
$GNGSA,A,3,25,23,12,15,29,18,24,10,28,32,26,,1.15,0.58,1.00*1E
$GNGSA,A,3,79,80,67,68,82,69,73,,,,,,1.15,0.58,1.00*1D
$GPGSV,5,1,17,10,47,253,29,12,27,154,34,15,33,060,34,18,17,349,40*77
$GPGSV,5,2,17,23,57,329,34,24,15,128,42,25,55,180,35,26,15,307,36*72
$GPGSV,5,3,17,28,14,237,33,29,45,038,36,31,02,259,,32,22,202,35*7D
$GPGSV,5,4,17,36,52,277,,40,85,352,34,41,58,082,,49,32,274,*7B
$GPGSV,5,5,17,50,10,089,36*4F
$GLGSV,3,1,09,67,20,035,37,68,65,071,26,69,49,184,33,73,12,300,35*6D
$GLGSV,3,2,09,79,27,182,34,80,42,248,27,81,04,075,33,82,09,031,38*6A
$GLGSV,3,3,09,83,04,344,34*57
$GNGLL,0419.72662,S,05539.92419,E,080731.00,A,A*61
$GNRMC,080732.00,A,0419.72661,S,05539.92420,E,0.009,,030625,,,A*79
$GNVTG,,T,,M,0.009,N,0.017,K,A*32
$GNGGA,080732.00,0419.72661,S,05539.92420,E,1,12,0.58,10.3,M,-47.6,M,,*4A
$GNGSA,A,3,25,23,12,15,29,18,24,10,28,32,26,,1.15,0.58,1.00*1E
$GNGSA,A,3,79,80,67,68,82,69,73,,,,,,1.15,0.58,1.00*1D
$GPGSV,5,1,17,10,47,253,30,12,27,154,35,15,33,060,34,18,17,349,40*7E
$GPGSV,5,2,17,23,57,329,35,24,15,128,43,25,55,180,36,26,15,307,36*71
$GPGSV,5,3,17,28,14,237,34,29,45,038,37,31,02,259,,32,22,202,36*78
$GPGSV,5,4,17,36,52,277,,40,85,352,35,41,58,082,,49,32,274,*7A
$GPGSV,5,5,17,50,10,089,37*4E
$GLGSV,3,1,09,67,20,035,39,68,65,071,27,69,49,184,32,73,12,300,37*61
$GLGSV,3,2,09,79,27,182,35,80,42,248,28,81,04,075,33,82,09,031,38*64
$GLGSV,3,3,09,83,04,344,34*57
$GNGLL,0419.72661,S,05539.92420,E,080732.00,A,A*6B
$GNRMC,080733.00,A,0419.72661,S,05539.92420,E,0.014,,030625,,,A*74
$GNVTG,,T,,M,0.014,N,0.025,K,A*3F
$GNGGA,080733.00,0419.72661,S,05539.92420,E,1,12,0.58,10.3,M,-47.6,M,,*4B
$GNGSA,A,3,25,23,12,15,29,18,24,10,28,32,26,,1.15,0.58,1.00*1E
$GNGSA,A,3,79,80,67,68,82,69,73,,,,,,1.15,0.58,1.00*1D
$GPGSV,5,1,17,10,47,253,30,12,26,154,34,15,33,060,34,18,17,349,39*70
$GPGSV,5,2,17,23,57,329,34,24,15,128,42,25,55,180,36,26,15,307,36*71
$GPGSV,5,3,17,28,14,237,33,29,45,038,37,31,02,259,,32,22,202,35*7C
$GPGSV,5,4,17,36,52,277,,40,85,352,34,41,58,082,,49,32,274,*7B
$GPGSV,5,5,17,50,10,089,37*4E
$GLGSV,3,1,09,67,20,035,38,68,65,071,27,69,49,184,32,73,12,300,37*60
$GLGSV,3,2,09,79,27,182,35,80,42,248,28,81,04,075,33,82,09,031,38*64
$GLGSV,3,3,09,83,04,344,34*57
$GNGLL,0419.72661,S,05539.92420,E,080733.00,A,A*6A
$GNRMC,080734.00,A,0419.72659,S,05539.92422,E,0.022,,030625,,,A*7F
$GNVTG,,T,,M,0.022,N,0.040,K,A*39
$GNGGA,080734.00,0419.72659,S,05539.92422,E,1,12,0.58,10.2,M,-47.6,M,,*44
$GNGSA,A,3,25,23,12,15,29,18,24,10,28,32,26,,1.15,0.58,1.00*1E
$GNGSA,A,3,79,80,67,68,82,69,73,,,,,,1.15,0.58,1.00*1D
$GPGSV,5,1,17,10,47,253,30,12,26,154,36,15,33,060,34,18,17,349,41*7D
$GPGSV,5,2,17,23,57,329,35,24,15,128,43,25,55,180,36,26,15,307,36*71
$GPGSV,5,3,17,28,14,237,33,29,45,038,38,31,02,259,,32,22,202,36*70
$GPGSV,5,4,17,36,52,277,,40,85,352,34,41,58,082,,49,32,274,*7B
$GPGSV,5,5,17,50,10,089,38*41
$GLGSV,3,1,09,67,20,035,37,68,65,071,27,69,49,184,32,73,12,300,35*6D
$GLGSV,3,2,09,79,27,182,33,80,42,248,27,81,04,075,33,82,09,031,36*63
$GLGSV,3,3,09,83,04,344,33*50
$GNGLL,0419.72659,S,05539.92422,E,080734.00,A,A*64
$GNRMC,080735.00,A,0419.72658,S,05539.92422,E,0.027,,030625,,,A*7A
$GNVTG,,T,,M,0.027,N,0.050,K,A*3D
$GNGGA,080735.00,0419.72658,S,05539.92422,E,1,12,0.58,10.3,M,-47.6,M,,*45
$GNGSA,A,3,25,23,12,15,29,18,24,10,28,32,26,,1.15,0.58,1.00*1E
$GNGSA,A,3,79,80,67,68,82,69,73,,,,,,1.15,0.58,1.00*1D
$GPGSV,5,1,17,10,47,253,30,12,26,154,34,15,33,060,33,18,17,349,40*79
$GPGSV,5,2,17,23,57,329,34,24,15,128,42,25,55,180,36,26,15,307,36*71
$GPGSV,5,3,17,28,14,237,33,29,45,038,37,31,02,259,,32,22,202,35*7C
$GPGSV,5,4,17,36,52,277,,40,85,352,34,41,58,082,,49,32,274,*7B
$GPGSV,5,5,17,50,10,089,37*4E
$GLGSV,3,1,09,67,20,035,37,68,65,071,26,69,49,184,32,73,12,300,35*6C
$GLGSV,3,2,09,79,27,182,34,80,42,248,27,81,04,075,32,82,09,031,36*65
$GLGSV,3,3,09,83,04,344,32*51
$GNGLL,0419.72658,S,05539.92422,E,080735.00,A,A*64
$GNRMC,080736.00,A,0419.72657,S,05539.92424,E,0.009,,030625,,,A*7C
$GNVTG,,T,,M,0.009,N,0.017,K,A*32
$GNGGA,080736.00,0419.72657,S,05539.92424,E,1,12,0.58,10.3,M,-47.6,M,,*4F
$GNGSA,A,3,25,23,12,15,29,18,24,10,28,32,26,,1.15,0.58,1.00*1E
$GNGSA,A,3,79,80,67,68,82,69,73,,,,,,1.15,0.58,1.00*1D
$GPGSV,5,1,17,10,47,253,30,12,26,154,35,15,33,059,34,18,17,349,38*7A
$GPGSV,5,2,17,23,57,329,34,24,15,128,42,25,55,180,36,26,15,307,34*73
$GPGSV,5,3,17,28,14,237,33,29,45,038,35,31,02,259,,32,22,202,33*78
$GPGSV,5,4,17,36,52,277,,40,85,352,34,41,58,082,,49,32,274,*7B
$GPGSV,5,5,17,50,10,089,34*4D
$GLGSV,3,1,09,67,20,035,37,68,65,071,26,69,49,184,31,73,12,300,35*6F
$GLGSV,3,2,09,79,27,182,34,80,42,248,27,81,04,075,32,82,09,031,36*65
$GLGSV,3,3,09,83,04,344,32*51
$GNGLL,0419.72657,S,05539.92424,E,080736.00,A,A*6E
$GNRMC,080737.00,A,0419.72656,S,05539.92425,E,0.013,,030625,,,A*76
$GNVTG,,T,,M,0.013,N,0.025,K,A*38
$GNGGA,080737.00,0419.72656,S,05539.92425,E,1,12,0.58,10.3,M,-47.6,M,,*4E
$GNGSA,A,3,25,23,12,15,29,18,24,10,28,32,26,,1.15,0.58,1.00*1E
$GNGSA,A,3,79,80,67,68,82,69,73,,,,,,1.15,0.58,1.00*1D
$GPGSV,5,1,17,10,47,253,30,12,26,154,35,15,33,059,34,18,17,349,40*75
$GPGSV,5,2,17,23,57,329,35,24,15,128,43,25,55,180,36,26,15,307,37*70
$GPGSV,5,3,17,28,14,237,34,29,45,038,37,31,02,259,,32,22,202,35*7B
$GPGSV,5,4,17,36,52,277,,40,85,352,34,41,58,082,,49,32,274,*7B
$GPGSV,5,5,17,50,10,089,37*4E
$GLGSV,3,1,09,67,20,035,37,68,65,071,26,69,49,184,31,73,12,300,35*6F
$GLGSV,3,2,09,79,27,182,34,80,42,248,26,81,04,075,32,82,09,031,36*64
$GLGSV,3,3,09,83,04,344,32*51
$GNGLL,0419.72656,S,05539.92425,E,080737.00,A,A*6F
$GNRMC,080738.00,A,0419.72654,S,05539.92425,E,0.003,,030625,,,A*7A
$GNVTG,,T,,M,0.003,N,0.005,K,A*3B
$GNGGA,080738.00,0419.72654,S,05539.92425,E,1,12,0.58,10.3,M,-47.6,M,,*43
$GNGSA,A,3,25,23,12,15,29,18,24,10,28,32,26,,1.15,0.58,1.00*1E
$GNGSA,A,3,79,80,67,68,82,69,73,,,,,,1.15,0.58,1.00*1D
$GPGSV,5,1,17,10,47,253,30,12,26,154,35,15,33,059,34,18,17,349,40*75
$GPGSV,5,2,17,23,57,329,35,24,15,128,43,25,55,180,37,26,15,307,37*71
$GPGSV,5,3,17,28,14,237,34,29,45,038,38,31,02,259,,32,22,202,36*77
$GPGSV,5,4,17,36,52,277,,40,85,352,34,41,58,082,,49,32,274,*7B
$GPGSV,5,5,17,50,10,089,37*4E
$GLGSV,3,1,09,67,20,035,37,68,65,071,26,69,49,184,32,73,12,300,35*6C
$GLGSV,3,2,09,79,27,182,34,80,42,248,26,81,04,075,33,82,09,031,36*65
$GLGSV,3,3,09,83,04,344,32*51
$GNGLL,0419.72654,S,05539.92425,E,080738.00,A,A*62
$GNRMC,080739.00,A,0419.72653,S,05539.92426,E,0.007,,030625,,,A*7B
$GNVTG,,T,,M,0.007,N,0.013,K,A*38
$GNGGA,080739.00,0419.72653,S,05539.92426,E,1,12,0.58,10.3,M,-47.6,M,,*46
$GNGSA,A,3,25,23,12,15,29,18,24,10,28,32,26,,1.15,0.58,1.00*1E
$GNGSA,A,3,79,80,67,68,82,69,73,,,,,,1.15,0.58,1.00*1D
$GPGSV,5,1,17,10,47,253,30,12,26,154,35,15,33,059,34,18,17,349,41*74
$GPGSV,5,2,17,23,57,329,35,24,15,128,43,25,55,180,37,26,15,307,37*71
$GPGSV,5,3,17,28,14,237,34,29,45,038,37,31,02,259,,32,22,202,35*7B
$GPGSV,5,4,17,36,52,277,,40,85,352,34,41,58,082,,49,32,274,*7B
$GPGSV,5,5,17,50,10,089,37*4E
$GLGSV,3,1,09,67,20,035,37,68,65,071,26,69,49,184,31,73,12,300,35*6F
$GLGSV,3,2,09,79,27,182,34,80,42,247,26,81,04,075,33,82,09,031,36*6A
$GLGSV,3,3,09,83,04,344,33*50
$GNGLL,0419.72653,S,05539.92426,E,080739.00,A,A*67
$GNRMC,080740.00,A,0419.72652,S,05539.92428,E,0.007,,030625,,,A*7A
$GNVTG,,T,,M,0.007,N,0.013,K,A*38
$GNGGA,080740.00,0419.72652,S,05539.92428,E,1,12,0.58,10.4,M,-47.6,M,,*40
$GNGSA,A,3,25,23,12,15,29,18,24,10,28,32,26,,1.15,0.58,1.00*1E
$GNGSA,A,3,79,80,67,68,82,69,73,,,,,,1.15,0.58,1.00*1D
$GPGSV,5,1,17,10,47,253,30,12,26,154,35,15,33,059,34,18,17,349,40*75
$GPGSV,5,2,17,23,57,329,35,24,15,128,43,25,55,180,36,26,15,307,37*70
$GPGSV,5,3,17,28,14,237,34,29,45,038,38,31,02,259,,32,22,202,35*74
$GPGSV,5,4,17,36,52,277,,40,85,352,35,41,58,082,,49,32,274,*7A
$GPGSV,5,5,17,50,10,089,37*4E
$GLGSV,3,1,09,67,20,035,37,68,65,071,26,69,49,184,31,73,12,300,35*6F
$GLGSV,3,2,09,79,27,182,34,80,42,247,26,81,04,075,33,82,09,031,36*6A
$GLGSV,3,3,09,83,04,344,33*50
$GNGLL,0419.72652,S,05539.92428,E,080740.00,A,A*66
$GNRMC,080741.00,A,0419.72651,S,05539.92429,E,0.015,,030625,,,A*7A
$GNVTG,,T,,M,0.015,N,0.028,K,A*33
$GNGGA,080741.00,0419.72651,S,05539.92429,E,1,12,0.58,10.4,M,-47.6,M,,*43
$GNGSA,A,3,25,23,12,15,29,18,24,10,28,32,26,,1.15,0.58,1.00*1E
$GNGSA,A,3,79,80,67,68,82,69,73,,,,,,1.15,0.58,1.00*1D
$GPGSV,5,1,17,10,47,253,30,12,26,154,35,15,33,059,34,18,17,349,40*75
$GPGSV,5,2,17,23,57,329,35,24,15,128,43,25,55,180,36,26,15,307,36*71
$GPGSV,5,3,17,28,14,237,34,29,45,038,38,31,02,259,,32,22,202,35*74
$GPGSV,5,4,17,36,52,277,,40,85,352,35,41,58,082,,49,32,274,*7A
$GPGSV,5,5,17,50,10,089,37*4E
$GLGSV,3,1,09,67,20,035,37,68,65,071,26,69,49,184,32,73,12,300,35*6C
$GLGSV,3,2,09,79,27,182,34,80,42,247,27,81,04,075,33,82,09,031,36*6B
$GLGSV,3,3,09,83,04,344,32*51
$GNGLL,0419.72651,S,05539.92429,E,080741.00,A,A*65
$GNRMC,080742.00,A,0419.72650,S,05539.92430,E,0.004,,030625,,,A*70
$GNVTG,,T,,M,0.004,N,0.008,K,A*31
$GNGGA,080742.00,0419.72650,S,05539.92430,E,1,12,0.58,10.4,M,-47.6,M,,*49
$GNGSA,A,3,25,23,12,15,29,18,24,10,28,32,26,,1.15,0.58,1.00*1E
$GNGSA,A,3,79,80,67,68,82,69,73,,,,,,1.15,0.58,1.00*1D
$GPGSV,5,1,17,10,47,253,30,12,26,154,35,15,33,059,34,18,17,349,41*74
$GPGSV,5,2,17,23,57,329,35,24,15,128,43,25,55,180,37,26,15,307,36*70
$GPGSV,5,3,17,28,14,237,34,29,45,038,38,31,02,259,,32,22,202,35*74
$GPGSV,5,4,17,36,52,277,,40,85,352,34,41,58,082,,49,32,274,*7B
$GPGSV,5,5,17,50,10,089,37*4E
$GLGSV,3,1,09,67,20,035,37,68,65,071,27,69,49,184,32,73,12,300,35*6D
$GLGSV,3,2,09,79,27,182,34,80,42,247,27,81,04,075,32,82,09,031,36*6A
$GLGSV,3,3,09,83,04,344,32*51
$GNGLL,0419.72650,S,05539.92430,E,080742.00,A,A*6F
$GNRMC,080743.00,A,0419.72649,S,05539.92431,E,0.053,,030625,,,A*7A
$GNVTG,,T,,M,0.053,N,0.099,K,A*3B
$GNGGA,080743.00,0419.72649,S,05539.92431,E,1,12,0.58,10.4,M,-47.6,M,,*41
$GNGSA,A,3,25,23,12,15,29,18,24,10,28,32,26,,1.15,0.58,1.00*1E
$GNGSA,A,3,79,80,67,68,82,69,73,,,,,,1.15,0.58,1.00*1D
$GPGSV,5,1,17,10,47,253,30,12,26,154,35,15,33,059,34,18,17,349,41*74
$GPGSV,5,2,17,23,57,329,35,24,15,128,43,25,55,180,37,26,15,307,37*71
$GPGSV,5,3,17,28,14,237,34,29,45,038,38,31,02,259,,32,22,202,35*74
$GPGSV,5,4,17,36,52,277,,40,85,352,35,41,58,082,,49,32,274,*7A
$GPGSV,5,5,17,50,10,089,37*4E
$GLGSV,3,1,09,67,20,035,37,68,65,071,27,69,49,184,32,73,12,300,35*6D
$GLGSV,3,2,09,79,27,182,34,80,42,247,27,81,04,075,32,82,09,031,36*6A
$GLGSV,3,3,09,83,04,344,32*51
$GNGLL,0419.72649,S,05539.92431,E,080743.00,A,A*67
$GNRMC,080744.00,A,0419.72648,S,05539.92433,E,0.003,,030625,,,A*7B
$GNVTG,,T,,M,0.003,N,0.005,K,A*3B
$GNGGA,080744.00,0419.72648,S,05539.92433,E,1,12,0.58,10.5,M,-47.6,M,,*44
$GNGSA,A,3,25,23,12,15,29,18,24,10,28,32,26,,1.15,0.58,1.00*1E
$GNGSA,A,3,79,80,67,68,82,69,73,,,,,,1.15,0.58,1.00*1D
$GPGSV,5,1,17,10,47,253,30,12,26,154,35,15,33,059,34,18,17,349,41*74
$GPGSV,5,2,17,23,57,329,35,24,15,128,43,25,55,180,37,26,15,307,37*71
$GPGSV,5,3,17,28,14,237,34,29,45,038,38,31,02,259,,32,22,202,35*74
$GPGSV,5,4,17,36,52,277,,40,85,352,34,41,58,082,,49,32,274,*7B
$GPGSV,5,5,17,50,10,089,37*4E
$GLGSV,3,1,09,67,20,035,37,68,65,071,27,69,49,184,32,73,12,300,35*6D
$GLGSV,3,2,09,79,27,182,34,80,42,247,27,81,04,075,33,82,09,031,37*6A
$GLGSV,3,3,09,83,04,344,32*51
$GNGLL,0419.72648,S,05539.92433,E,080744.00,A,A*63
$GNRMC,080745.00,A,0419.72648,S,05539.92434,E,0.005,,030625,,,A*7B
$GNVTG,,T,,M,0.005,N,0.009,K,A*31
$GNGGA,080745.00,0419.72648,S,05539.92434,E,1,12,0.58,10.5,M,-47.6,M,,*42
$GNGSA,A,3,25,23,12,15,29,18,24,10,28,32,26,,1.15,0.58,1.00*1E
$GNGSA,A,3,79,80,67,68,82,69,73,,,,,,1.15,0.58,1.00*1D
$GPGSV,5,1,17,10,47,253,31,12,26,154,35,15,33,059,34,18,17,349,41*75
$GPGSV,5,2,17,23,57,329,35,24,15,128,43,25,55,180,37,26,15,307,37*71
$GPGSV,5,3,17,28,14,237,34,29,45,038,38,31,02,259,,32,22,202,35*74
$GPGSV,5,4,17,36,52,277,,40,85,352,35,41,58,082,,49,32,274,*7A
$GPGSV,5,5,17,50,10,089,37*4E
$GLGSV,3,1,09,67,20,035,37,68,65,071,27,69,49,184,32,73,12,300,35*6D
$GLGSV,3,2,09,79,27,182,34,80,42,247,26,81,04,075,34,82,09,031,36*6D
$GLGSV,3,3,09,83,04,344,32*51
$GNGLL,0419.72648,S,05539.92434,E,080745.00,A,A*65
$GNRMC,080746.00,A,0419.72647,S,05539.92434,E,0.003,,030625,,,A*71
$GNVTG,,T,,M,0.003,N,0.006,K,A*38
$GNGGA,080746.00,0419.72647,S,05539.92434,E,1,12,0.58,10.5,M,-47.6,M,,*4E
$GNGSA,A,3,25,23,12,15,29,18,24,10,28,32,26,,1.15,0.58,1.00*1E
$GNGSA,A,3,79,80,67,68,82,69,73,,,,,,1.15,0.58,1.00*1D
$GPGSV,5,1,17,10,47,253,30,12,26,154,34,15,33,059,33,18,17,349,39*7D
$GPGSV,5,2,17,23,57,329,35,24,15,128,42,25,55,180,36,26,15,306,36*71
$GPGSV,5,3,17,28,14,237,33,29,45,038,37,31,02,259,,32,22,202,34*7D
$GPGSV,5,4,17,36,52,277,,40,85,352,34,41,58,082,,49,32,274,*7B
$GPGSV,5,5,17,50,10,089,37*4E
$GLGSV,3,1,09,67,20,035,38,68,65,071,27,69,49,184,32,73,12,300,35*62
$GLGSV,3,2,09,79,27,182,34,80,42,247,26,81,04,075,34,82,09,031,36*6D
$GLGSV,3,3,09,83,04,344,32*51
$GNGLL,0419.72647,S,05539.92434,E,080746.00,A,A*69
$GNRMC,080747.00,A,0419.72647,S,05539.92434,E,0.019,,030625,,,A*7B
$GNVTG,,T,,M,0.019,N,0.035,K,A*33
$GNGGA,080747.00,0419.72647,S,05539.92434,E,1,12,0.58,10.5,M,-47.6,M,,*4F
$GNGSA,A,3,25,23,12,15,29,18,24,10,28,32,26,,1.15,0.58,1.00*1E
$GNGSA,A,3,79,80,67,68,82,69,73,,,,,,1.15,0.58,1.00*1D
$GPGSV,5,1,17,10,47,253,30,12,26,154,34,15,33,059,33,18,17,349,40*73
$GPGSV,5,2,17,23,57,329,35,24,15,128,43,25,55,180,36,26,15,306,36*70
$GPGSV,5,3,17,28,14,237,33,29,45,038,37,31,02,259,,32,22,202,35*7C
$GPGSV,5,4,17,36,52,277,,40,85,352,34,41,58,082,,49,32,274,*7B
$GPGSV,5,5,17,50,10,089,37*4E
$GLGSV,3,1,09,67,20,035,37,68,65,071,27,69,49,184,32,73,12,300,35*6D
$GLGSV,3,2,09,79,27,182,34,80,42,247,26,81,04,075,34,82,09,031,36*6D
$GLGSV,3,3,09,83,04,344,33*50
$GNGLL,0419.72647,S,05539.92434,E,080747.00,A,A*68
$GNRMC,080748.00,A,0419.72646,S,05539.92435,E,0.007,,030625,,,A*7B
$GNVTG,,T,,M,0.007,N,0.014,K,A*3F
$GNGGA,080748.00,0419.72646,S,05539.92435,E,1,12,0.58,10.5,M,-47.6,M,,*40
$GNGSA,A,3,25,23,12,15,29,18,24,10,28,32,26,,1.15,0.58,1.00*1E
$GNGSA,A,3,79,80,67,68,82,69,73,,,,,,1.15,0.58,1.00*1D
$GPGSV,5,1,17,10,47,253,31,12,26,154,35,15,33,059,33,18,17,349,40*73
$GPGSV,5,2,17,23,57,329,35,24,15,128,43,25,55,180,37,26,15,306,37*70
$GPGSV,5,3,17,28,14,236,33,29,45,038,38,31,02,259,,32,22,202,36*71
$GPGSV,5,4,17,36,52,277,,40,85,352,35,41,58,082,,49,32,274,*7A
$GPGSV,5,5,17,50,10,089,37*4E
$GLGSV,3,1,09,67,20,035,38,68,65,071,27,69,49,184,32,73,12,300,35*62
$GLGSV,3,2,09,79,27,182,34,80,42,247,26,81,04,075,34,82,09,031,37*6C
$GLGSV,3,3,09,83,04,344,32*51
$GNGLL,0419.72646,S,05539.92435,E,080748.00,A,A*67
$GNRMC,080749.00,A,0419.72646,S,05539.92435,E,0.034,,030625,,,A*7A
$GNVTG,,T,,M,0.034,N,0.062,K,A*3E
$GNGGA,080749.00,0419.72646,S,05539.92435,E,1,12,0.58,10.6,M,-47.6,M,,*42
$GNGSA,A,3,25,23,12,15,29,18,24,10,28,32,26,,1.15,0.58,1.00*1E
$GNGSA,A,3,79,80,67,68,82,69,73,,,,,,1.15,0.58,1.00*1D
$GPGSV,5,1,17,10,47,253,22,12,26,154,33,15,33,059,34,18,17,349,38*7F
$GPGSV,5,2,17,23,57,329,36,24,15,128,42,25,55,180,36,26,15,306,36*72
$GPGSV,5,3,17,28,14,236,34,29,45,038,38,31,02,259,,32,22,202,37*77
$GPGSV,5,4,17,36,52,277,,40,85,352,33,41,58,082,,49,32,274,*7C
$GPGSV,5,5,17,50,10,089,37*4E
$GLGSV,3,1,09,67,20,035,38,68,65,071,26,69,49,184,33,73,12,300,35*62
$GLGSV,3,2,09,79,27,182,34,80,42,247,24,81,04,075,35,82,09,031,37*6F
$GLGSV,3,3,09,83,04,344,31*52
$GNGLL,0419.72646,S,05539.92435,E,080749.00,A,A*66
$GNRMC,080750.00,A,0419.72645,S,05539.92434,E,0.011,,030625,,,A*77
$GNVTG,,T,,M,0.011,N,0.020,K,A*3F
$GNGGA,080750.00,0419.72645,S,05539.92434,E,1,12,0.58,10.6,M,-47.6,M,,*48
$GNGSA,A,3,25,23,12,15,29,18,24,10,28,32,26,,1.15,0.58,1.00*1E
$GNGSA,A,3,79,80,67,68,82,69,73,,,,,,1.15,0.58,1.00*1D
$GPGSV,5,1,17,10,47,253,26,12,26,154,32,15,33,059,34,18,17,349,38*7A
$GPGSV,5,2,17,23,57,329,35,24,15,128,42,25,55,180,36,26,15,306,36*71
$GPGSV,5,3,17,28,14,236,33,29,45,038,37,31,02,259,,32,22,202,37*7F
$GPGSV,5,4,17,36,52,277,,40,85,352,33,41,58,082,,49,32,274,*7C
$GPGSV,5,5,17,50,10,089,37*4E
$GLGSV,3,1,09,67,20,035,39,68,65,071,26,69,49,184,33,73,12,300,35*63
$GLGSV,3,2,09,79,27,182,35,80,42,247,23,81,04,075,35,82,09,031,37*69
$GLGSV,3,3,09,83,04,344,32*51
$GNGLL,0419.72645,S,05539.92434,E,080750.00,A,A*6C
$GNRMC,080751.00,A,0419.72645,S,05539.92436,E,0.029,,030625,,,A*7F
$GNVTG,,T,,M,0.029,N,0.054,K,A*37
$GNGGA,080751.00,0419.72645,S,05539.92436,E,1,12,0.58,10.6,M,-47.6,M,,*4B
$GNGSA,A,3,25,23,12,15,29,18,24,10,28,32,26,,1.15,0.58,1.00*1E
$GNGSA,A,3,79,80,67,68,82,69,73,,,,,,1.15,0.58,1.00*1D
$GPGSV,5,1,17,10,47,253,27,12,26,154,32,15,33,059,33,18,17,349,39*7D
$GPGSV,5,2,17,23,57,329,36,24,15,128,42,25,55,180,36,26,15,306,36*72
$GPGSV,5,3,17,28,14,236,33,29,45,038,37,31,02,259,,32,22,202,37*7F
$GPGSV,5,4,17,36,52,277,,40,85,352,33,41,58,082,,49,32,274,*7C
$GPGSV,5,5,17,50,10,089,37*4E
$GLGSV,3,1,09,67,20,035,39,68,65,071,26,69,49,184,33,73,12,300,35*63
$GLGSV,3,2,09,79,27,182,34,80,42,247,20,81,04,075,35,82,09,031,37*6B
$GLGSV,3,3,09,83,04,344,31*52
$GNGLL,0419.72645,S,05539.92436,E,080751.00,A,A*6F
$GNRMC,080752.00,A,0419.72645,S,05539.92437,E,0.022,,030625,,,A*76
$GNVTG,,T,,M,0.022,N,0.041,K,A*38
$GNGGA,080752.00,0419.72645,S,05539.92437,E,1,12,0.58,10.5,M,-47.6,M,,*4A
$GNGSA,A,3,25,23,12,15,29,18,24,10,28,32,26,,1.15,0.58,1.00*1E
$GNGSA,A,3,79,80,67,68,82,69,73,,,,,,1.15,0.58,1.00*1D
$GPGSV,5,1,17,10,47,253,27,12,26,154,33,15,33,059,33,18,17,349,39*7C
$GPGSV,5,2,17,23,57,329,36,24,15,128,43,25,55,180,36,26,15,306,38*7D
$GPGSV,5,3,17,28,14,236,34,29,45,038,37,31,02,259,,32,23,202,37*79
$GPGSV,5,4,17,36,52,277,,40,85,352,34,41,58,082,,49,32,274,*7B
$GPGSV,5,5,17,50,10,089,38*41
$GLGSV,3,1,09,67,20,035,39,68,65,071,27,69,49,184,33,73,12,300,35*62
$GLGSV,3,2,09,79,27,182,34,80,42,247,20,81,04,075,34,82,09,031,37*6A
$GLGSV,3,3,09,83,04,344,31*52
$GNGLL,0419.72645,S,05539.92437,E,080752.00,A,A*6D
$GNRMC,080753.00,A,0419.72645,S,05539.92438,E,0.004,,030625,,,A*7C
$GNVTG,,T,,M,0.004,N,0.007,K,A*3E
$GNGGA,080753.00,0419.72645,S,05539.92438,E,1,12,0.58,10.5,M,-47.6,M,,*44
$GNGSA,A,3,25,23,12,15,29,18,24,10,28,32,26,,1.15,0.58,1.00*1E
$GNGSA,A,3,79,80,67,68,82,69,73,,,,,,1.15,0.58,1.00*1D
$GPGSV,5,1,17,10,47,253,27,12,26,154,33,15,33,059,34,18,17,349,40*75
$GPGSV,5,2,17,23,57,329,37,24,15,128,43,25,55,180,36,26,15,306,36*72
$GPGSV,5,3,17,28,14,236,34,29,45,038,37,31,02,259,,32,23,202,37*79
$GPGSV,5,4,17,36,52,277,,40,85,352,33,41,58,082,,49,32,274,*7C
$GPGSV,5,5,17,50,10,089,38*41
$GLGSV,3,1,09,67,20,035,39,68,65,071,27,69,49,184,33,73,12,300,35*62
$GLGSV,3,2,09,79,27,182,35,80,42,247,20,81,04,075,34,82,09,031,37*6B
$GLGSV,3,3,09,83,04,344,31*52
$GNGLL,0419.72645,S,05539.92438,E,080753.00,A,A*63
$GNRMC,080754.00,A,0419.72644,S,05539.92439,E,0.016,,030625,,,A*78
$GNVTG,,T,,M,0.016,N,0.030,K,A*39
$GNGGA,080754.00,0419.72644,S,05539.92439,E,1,12,0.58,10.5,M,-47.6,M,,*43
$GNGSA,A,3,25,23,12,15,29,18,24,10,28,32,26,,1.15,0.58,1.00*1E
$GNGSA,A,3,79,80,67,68,82,69,73,,,,,,1.15,0.58,1.00*1D
$GPGSV,5,1,17,10,47,253,28,12,26,154,33,15,33,059,34,18,17,349,40*7A
$GPGSV,5,2,17,23,57,329,37,24,15,128,43,25,55,180,37,26,15,306,37*72
$GPGSV,5,3,17,28,14,236,34,29,45,038,37,31,02,259,,32,23,202,37*79
$GPGSV,5,4,17,36,52,277,,40,85,352,33,41,58,082,,49,32,274,*7C
$GPGSV,5,5,17,50,10,089,38*41
$GLGSV,3,1,09,67,20,035,39,68,65,071,27,69,49,184,33,73,12,300,35*62
$GLGSV,3,2,09,79,27,182,35,80,42,247,20,81,04,075,34,82,09,031,36*6A
$GLGSV,3,3,09,83,04,344,30*53
$GNGLL,0419.72644,S,05539.92439,E,080754.00,A,A*64
$GNRMC,080755.00,A,0419.72644,S,05539.92440,E,0.009,,030625,,,A*79
$GNVTG,,T,,M,0.009,N,0.017,K,A*32
$GNGGA,080755.00,0419.72644,S,05539.92440,E,1,12,0.58,10.4,M,-47.6,M,,*4D
$GNGSA,A,3,25,23,12,15,29,18,24,10,28,32,26,,1.15,0.58,1.00*1E
$GNGSA,A,3,79,80,67,68,82,69,73,,,,,,1.15,0.58,1.00*1D
$GPGSV,5,1,17,10,47,253,28,12,26,154,33,15,33,059,34,18,17,349,40*7A
$GPGSV,5,2,17,23,57,329,37,24,15,128,43,25,55,180,37,26,15,306,37*72
$GPGSV,5,3,17,28,14,236,34,29,45,038,37,31,02,259,,32,23,202,37*79
$GPGSV,5,4,17,36,52,277,,40,85,352,34,41,58,082,,49,32,274,*7B
$GPGSV,5,5,17,50,10,089,38*41
$GLGSV,3,1,09,67,20,035,39,68,65,071,27,69,49,184,33,73,12,300,36*61
$GLGSV,3,2,09,79,27,182,35,80,42,247,21,81,04,075,33,82,09,031,37*6D
$GLGSV,3,3,09,83,04,344,30*53
$GNGLL,0419.72644,S,05539.92440,E,080755.00,A,A*6B
$GNRMC,080756.00,A,0419.72643,S,05539.92440,E,0.011,,030625,,,A*74
$GNVTG,,T,,M,0.011,N,0.021,K,A*3E
$GNGGA,080756.00,0419.72643,S,05539.92440,E,1,12,0.58,10.5,M,-47.6,M,,*48
$GNGSA,A,3,25,23,12,15,29,18,24,10,28,32,26,,1.15,0.58,1.00*1E
$GNGSA,A,3,79,80,67,68,82,69,73,,,,,,1.15,0.58,1.00*1D
$GPGSV,5,1,17,10,47,253,28,12,26,154,33,15,33,059,33,18,17,349,40*7D
$GPGSV,5,2,17,23,57,329,36,24,15,128,42,25,55,180,36,26,15,306,36*72
$GPGSV,5,3,17,28,14,236,33,29,45,038,37,31,02,259,,32,23,202,37*7E
$GPGSV,5,4,17,36,52,277,,40,85,352,33,41,58,082,,49,32,274,*7C
$GPGSV,5,5,17,50,10,089,37*4E
$GLGSV,3,1,09,67,20,035,39,68,65,071,27,69,49,184,33,73,12,300,35*62
$GLGSV,3,2,09,79,27,182,35,80,42,247,20,81,04,075,33,82,09,031,37*6C
$GLGSV,3,3,09,83,04,344,31*52
$GNGLL,0419.72643,S,05539.92440,E,080756.00,A,A*6F
$GNRMC,080757.00,A,0419.72643,S,05539.92440,E,0.009,,030625,,,A*7C
$GNVTG,,T,,M,0.009,N,0.017,K,A*32
$GNGGA,080757.00,0419.72643,S,05539.92440,E,1,12,0.58,10.5,M,-47.6,M,,*49
$GNGSA,A,3,25,23,12,15,29,18,24,10,28,32,26,,1.15,0.58,1.00*1E
$GNGSA,A,3,79,80,67,68,82,69,73,,,,,,1.15,0.58,1.00*1D
$GPGSV,5,1,17,10,47,253,28,12,26,154,33,15,33,059,34,18,17,349,40*7A
$GPGSV,5,2,17,23,57,329,36,24,15,128,43,25,55,180,37,26,15,306,37*73
$GPGSV,5,3,17,28,14,236,34,29,45,038,38,31,02,259,,32,23,202,37*76
$GPGSV,5,4,17,36,52,277,,40,85,352,34,41,58,082,,49,32,274,*7B
$GPGSV,5,5,17,50,10,089,38*41
$GLGSV,3,1,09,67,20,035,39,68,65,071,27,69,49,184,33,73,12,300,35*62
$GLGSV,3,2,09,79,27,182,34,80,42,247,21,81,04,075,33,82,09,031,37*6C
$GLGSV,3,3,09,83,04,344,32*51
$GNGLL,0419.72643,S,05539.92440,E,080757.00,A,A*6E
$GNRMC,080758.00,A,0419.72642,S,05539.92441,E,0.008,,030625,,,A*72
$GNVTG,,T,,M,0.008,N,0.016,K,A*32
$GNGGA,080758.00,0419.72642,S,05539.92441,E,1,12,0.58,10.5,M,-47.6,M,,*46
$GNGSA,A,3,25,23,12,15,29,18,24,10,28,32,26,,1.15,0.58,1.00*1E
$GNGSA,A,3,79,80,67,68,82,69,73,,,,,,1.15,0.58,1.00*1D
$GPGSV,5,1,17,10,47,253,28,12,26,154,33,15,33,059,33,18,17,349,40*7D
$GPGSV,5,2,17,23,57,329,36,24,15,128,43,25,55,180,37,26,15,306,37*73
$GPGSV,5,3,17,28,14,236,34,29,45,038,38,31,02,259,,32,23,202,37*76
$GPGSV,5,4,17,36,52,277,,40,85,352,33,41,58,082,,49,32,274,*7C
$GPGSV,5,5,17,50,10,089,38*41
$GLGSV,3,1,09,67,20,035,39,68,65,071,27,69,49,184,33,73,12,300,35*62
$GLGSV,3,2,09,79,27,182,34,80,42,247,20,81,04,075,34,82,09,031,37*6A
$GLGSV,3,3,09,83,04,344,31*52
$GNGLL,0419.72642,S,05539.92441,E,080758.00,A,A*61
$GNRMC,080759.00,A,0419.72641,S,05539.92441,E,0.015,,030625,,,A*7C
$GNVTG,,T,,M,0.015,N,0.028,K,A*33
$GNGGA,080759.00,0419.72641,S,05539.92441,E,1,12,0.58,10.5,M,-47.6,M,,*44
$GNGSA,A,3,25,23,12,15,29,18,24,10,28,32,26,,1.15,0.58,1.00*1E
$GNGSA,A,3,79,80,67,68,82,69,73,,,,,,1.15,0.58,1.00*1D
$GPGSV,5,1,17,10,47,253,28,12,26,154,33,15,33,059,33,18,17,349,39*73
$GPGSV,5,2,17,23,57,329,36,24,15,128,43,25,55,180,37,26,15,306,37*73
$GPGSV,5,3,17,28,14,236,34,29,45,038,38,31,02,259,,32,23,202,38*79
$GPGSV,5,4,17,36,52,277,,40,85,352,33,41,58,082,,49,32,274,*7C
$GPGSV,5,5,17,50,10,089,38*41
$GLGSV,3,1,09,67,20,035,39,68,65,071,27,69,49,184,33,73,12,300,35*62
$GLGSV,3,2,09,79,27,182,35,80,42,247,20,81,04,075,34,82,09,031,37*6B
$GLGSV,3,3,09,83,04,344,31*52
$GNGLL,0419.72641,S,05539.92441,E,080759.00,A,A*63
$GNRMC,080800.00,A,0419.72640,S,05539.92442,E,0.003,,030625,,,A*7A
$GNVTG,,T,,M,0.003,N,0.006,K,A*38
$GNGGA,080800.00,0419.72640,S,05539.92442,E,1,12,0.58,10.5,M,-47.6,M,,*45
$GNGSA,A,3,25,23,12,15,29,18,24,10,28,32,26,,1.15,0.58,1.00*1E
$GNGSA,A,3,79,80,67,68,82,69,73,,,,,,1.15,0.58,1.00*1D
$GPGSV,5,1,17,10,47,253,28,12,26,154,34,15,33,059,33,18,17,349,39*74
$GPGSV,5,2,17,23,57,329,36,24,15,128,43,25,55,180,37,26,15,306,37*73
$GPGSV,5,3,17,28,14,236,34,29,45,038,38,31,02,259,,32,23,202,38*79
$GPGSV,5,4,17,36,52,277,,40,85,352,33,41,58,082,,49,32,274,*7C
$GPGSV,5,5,17,50,10,089,38*41
$GLGSV,3,1,09,67,20,035,39,68,65,071,27,69,49,184,33,73,12,300,35*62
$GLGSV,3,2,09,79,27,182,35,80,42,247,20,81,04,075,34,82,09,031,37*6B
$GLGSV,3,3,09,83,04,344,31*52
$GNGLL,0419.72640,S,05539.92442,E,080800.00,A,A*62
$GNRMC,080801.00,A,0419.72639,S,05539.92443,E,0.025,,030625,,,A*70
$GNVTG,,T,,M,0.025,N,0.046,K,A*38
$GNGGA,080801.00,0419.72639,S,05539.92443,E,1,12,0.58,10.6,M,-47.6,M,,*48
$GNGSA,A,3,25,23,12,15,29,18,24,10,28,32,26,,1.15,0.58,1.00*1E
$GNGSA,A,3,79,80,67,68,82,69,73,,,,,,1.15,0.58,1.00*1D
$GPGSV,5,1,17,10,47,253,28,12,26,154,33,15,33,059,33,18,17,349,39*73
$GPGSV,5,2,17,23,57,329,37,24,15,128,43,25,55,180,37,26,15,306,36*73
$GPGSV,5,3,17,28,14,236,34,29,45,038,38,31,02,259,,32,23,202,38*79
$GPGSV,5,4,17,36,52,277,,40,85,352,33,41,58,082,,49,32,274,*7C
$GPGSV,5,5,17,50,10,089,38*41
$GLGSV,3,1,09,67,20,035,39,68,65,071,26,69,49,184,33,73,12,300,35*63
$GLGSV,3,2,09,79,27,182,35,80,42,247,20,81,04,075,34,82,09,031,37*6B
$GLGSV,3,3,09,83,04,344,31*52
$GNGLL,0419.72639,S,05539.92443,E,080801.00,A,A*6C
$GNRMC,080802.00,A,0419.72638,S,05539.92444,E,0.023,,030625,,,A*73
$GNVTG,,T,,M,0.023,N,0.042,K,A*3A
$GNGGA,080802.00,0419.72638,S,05539.92444,E,1,12,0.58,10.6,M,-47.6,M,,*4D
$GNGSA,A,3,25,23,12,15,29,18,24,10,28,32,26,,1.15,0.58,1.00*1E
$GNGSA,A,3,79,80,67,68,82,69,73,,,,,,1.15,0.58,1.00*1D
$GPGSV,5,1,17,10,47,253,28,12,26,154,33,15,33,059,32,18,17,349,39*72
$GPGSV,5,2,17,23,57,329,36,24,15,128,43,25,55,180,37,26,15,306,37*73
$GPGSV,5,3,17,28,14,236,33,29,45,038,38,31,02,259,,32,23,202,38*7E
$GPGSV,5,4,17,36,52,277,,40,85,352,34,41,58,082,,49,32,274,*7B
$GPGSV,5,5,17,50,10,089,38*41
$GLGSV,3,1,09,67,20,035,39,68,65,071,27,69,49,184,33,73,12,300,35*62
$GLGSV,3,2,09,79,27,182,35,80,42,247,21,81,04,075,36,82,09,031,38*67
$GLGSV,3,3,09,83,04,344,31*52
$GNGLL,0419.72638,S,05539.92444,E,080802.00,A,A*69
$GNRMC,080803.00,A,0419.72637,S,05539.92445,E,0.021,,030625,,,A*7E
$GNVTG,,T,,M,0.021,N,0.039,K,A*34
$GNGGA,080803.00,0419.72637,S,05539.92445,E,1,12,0.58,10.6,M,-47.6,M,,*42
$GNGSA,A,3,25,23,12,15,29,18,24,10,28,32,26,,1.15,0.58,1.00*1E
$GNGSA,A,3,79,80,67,68,82,69,73,,,,,,1.15,0.58,1.00*1D
$GPGSV,5,1,17,10,47,253,28,12,26,154,33,15,33,059,33,18,17,349,39*73
$GPGSV,5,2,17,23,57,329,37,24,15,128,42,25,55,180,37,26,15,306,37*73
$GPGSV,5,3,17,28,14,236,34,29,45,038,38,31,02,259,,32,23,202,38*79
$GPGSV,5,4,17,36,52,277,,40,85,352,33,41,58,082,,49,32,274,*7C
$GPGSV,5,5,17,50,10,089,39*40
$GLGSV,3,1,09,67,20,035,39,68,65,071,27,69,49,184,33,73,12,300,35*62
$GLGSV,3,2,09,79,27,182,35,80,42,247,21,81,04,075,35,82,09,031,38*64
$GLGSV,3,3,09,83,04,344,31*52
$GNGLL,0419.72637,S,05539.92445,E,080803.00,A,A*66
$GNRMC,080804.00,A,0419.72636,S,05539.92446,E,0.014,,030625,,,A*7D
$GNVTG,,T,,M,0.014,N,0.027,K,A*3D
$GNGGA,080804.00,0419.72636,S,05539.92446,E,1,12,0.58,10.6,M,-47.6,M,,*47
$GNGSA,A,3,25,23,12,15,29,18,24,10,28,32,26,,1.15,0.58,1.00*1E
$GNGSA,A,3,79,80,67,68,82,69,73,,,,,,1.15,0.58,1.00*1D
$GPGSV,5,1,17,10,47,253,28,12,26,154,33,15,33,059,33,18,17,349,39*73
$GPGSV,5,2,17,23,57,329,37,24,15,128,42,25,55,180,37,26,15,306,37*73
$GPGSV,5,3,17,28,14,236,34,29,45,038,38,31,02,259,,32,23,202,38*79
$GPGSV,5,4,17,36,52,277,,40,85,352,33,41,58,082,,49,32,274,*7C
$GPGSV,5,5,17,50,10,089,39*40
$GLGSV,3,1,09,67,20,035,39,68,65,071,27,69,49,184,33,73,12,300,35*62
$GLGSV,3,2,09,79,27,182,35,80,42,247,20,81,04,075,35,82,09,031,38*65
$GLGSV,3,3,09,83,04,344,31*52
$GNGLL,0419.72636,S,05539.92446,E,080804.00,A,A*63
$GNRMC,080805.00,A,0419.72635,S,05539.92447,E,0.011,,030625,,,A*7B
$GNVTG,,T,,M,0.011,N,0.020,K,A*3F
$GNGGA,080805.00,0419.72635,S,05539.92447,E,1,12,0.58,10.6,M,-47.6,M,,*44
$GNGSA,A,3,25,23,12,15,29,18,24,10,28,32,26,,1.15,0.58,1.00*1E
$GNGSA,A,3,79,80,67,68,82,69,73,,,,,,1.15,0.58,1.00*1D
$GPGSV,5,1,17,10,47,253,28,12,26,154,33,15,33,059,33,18,17,349,39*73
$GPGSV,5,2,17,23,57,329,37,24,15,128,42,25,55,180,37,26,15,306,37*73
$GPGSV,5,3,17,28,14,236,33,29,45,038,38,31,02,259,,32,23,202,38*7E
$GPGSV,5,4,17,36,52,277,,40,85,352,34,41,58,082,,49,32,274,*7B
$GPGSV,5,5,17,50,10,089,38*41
$GLGSV,3,1,09,67,20,035,38,68,65,071,27,69,49,184,33,73,12,300,35*63
$GLGSV,3,2,09,79,27,182,34,80,42,247,19,81,04,075,35,82,09,031,38*6E
$GLGSV,3,3,09,83,04,344,31*52
$GNGLL,0419.72635,S,05539.92447,E,080805.00,A,A*60
$GNRMC,080806.00,A,0419.72634,S,05539.92447,E,0.009,,030625,,,A*70
$GNVTG,,T,,M,0.009,N,0.016,K,A*33
$GNGGA,080806.00,0419.72634,S,05539.92447,E,1,12,0.58,10.7,M,-47.6,M,,*47
$GNGSA,A,3,25,23,12,15,29,18,24,10,28,32,26,,1.15,0.58,1.00*1E
$GNGSA,A,3,79,80,67,68,82,69,73,,,,,,1.15,0.58,1.00*1D
$GPGSV,5,1,17,10,47,253,27,12,26,154,33,15,33,059,33,18,17,349,39*7C
$GPGSV,5,2,17,23,57,329,36,24,15,128,42,25,55,180,37,26,15,306,36*73
$GPGSV,5,3,17,28,14,236,33,29,45,038,38,31,02,259,,32,23,202,37*71
$GPGSV,5,4,17,36,52,277,,40,85,352,33,41,58,082,,49,32,274,*7C
$GPGSV,5,5,17,50,10,089,38*41
$GLGSV,3,1,09,67,20,035,39,68,65,071,27,69,49,184,33,73,12,300,35*62
$GLGSV,3,2,09,79,27,182,34,80,42,247,19,81,04,075,35,82,09,031,38*6E
$GLGSV,3,3,09,83,04,344,31*52
$GNGLL,0419.72634,S,05539.92447,E,080806.00,A,A*62
$GNRMC,080807.00,A,0419.72634,S,05539.92448,E,0.008,,030625,,,A*7F
$GNVTG,,T,,M,0.008,N,0.015,K,A*31
$GNGGA,080807.00,0419.72634,S,05539.92448,E,1,12,0.58,10.7,M,-47.6,M,,*49
$GNGSA,A,3,25,23,12,15,29,18,24,10,28,32,26,,1.15,0.58,1.00*1E
$GNGSA,A,3,79,80,67,68,82,69,73,,,,,,1.15,0.58,1.00*1D
$GPGSV,5,1,17,10,47,253,27,12,26,154,33,15,33,059,33,18,17,349,38*7D
$GPGSV,5,2,17,23,57,329,36,24,15,128,42,25,55,180,36,26,15,306,36*72
$GPGSV,5,3,17,28,14,236,33,29,45,038,37,31,02,259,,32,23,202,37*7E
$GPGSV,5,4,17,36,52,277,,40,85,352,33,41,58,082,,49,32,274,*7C
$GPGSV,5,5,17,50,10,089,37*4E
$GLGSV,3,1,09,67,20,035,38,68,65,071,27,69,49,184,33,73,12,300,35*63
$GLGSV,3,2,09,79,27,182,34,80,42,247,19,81,04,075,34,82,09,031,38*6F
$GLGSV,3,3,09,83,04,344,31*52
$GNGLL,0419.72634,S,05539.92448,E,080807.00,A,A*6C
$GNRMC,080808.00,A,0419.72633,S,05539.92448,E,0.026,,030625,,,A*7B
$GNVTG,,T,,M,0.026,N,0.049,K,A*34
$GNGGA,080808.00,0419.72633,S,05539.92448,E,1,12,0.58,10.7,M,-47.6,M,,*41
$GNGSA,A,3,25,23,12,15,29,18,24,10,28,32,26,,1.15,0.58,1.00*1E
$GNGSA,A,3,79,80,67,68,82,69,73,,,,,,1.15,0.58,1.00*1D
$GPGSV,5,1,17,10,47,253,26,12,26,154,32,15,33,059,32,18,17,349,38*7C
$GPGSV,5,2,17,23,57,329,36,24,15,128,42,25,55,180,36,26,15,306,36*72
$GPGSV,5,3,17,28,14,236,33,29,45,038,37,31,02,259,,32,23,202,37*7E
$GPGSV,5,4,17,36,52,277,,40,85,352,33,41,58,082,,49,32,274,*7C
$GPGSV,5,5,17,50,10,089,37*4E
$GLGSV,3,1,09,67,20,035,39,68,65,071,27,69,49,184,34,73,12,300,35*65
$GLGSV,3,2,09,79,27,182,34,80,42,247,19,81,04,075,33,82,09,031,38*68
$GLGSV,3,3,09,83,04,344,31*52
$GNGLL,0419.72633,S,05539.92448,E,080808.00,A,A*64
$GNRMC,080809.00,A,0419.72633,S,05539.92449,E,0.019,,030625,,,A*77
$GNVTG,,T,,M,0.019,N,0.035,K,A*33
$GNGGA,080809.00,0419.72633,S,05539.92449,E,1,12,0.58,10.7,M,-47.6,M,,*41
$GNGSA,A,3,25,23,12,15,29,18,24,10,28,32,26,,1.15,0.58,1.00*1E
$GNGSA,A,3,79,80,67,68,82,69,73,,,,,,1.15,0.58,1.00*1D
$GPGSV,5,1,17,10,47,253,26,12,26,154,33,15,33,059,32,18,17,349,38*7D
$GPGSV,5,2,17,23,57,329,36,24,15,128,42,25,55,180,37,26,15,306,36*73
$GPGSV,5,3,17,28,14,236,33,29,45,038,37,31,02,259,,32,23,202,37*7E
$GPGSV,5,4,17,36,52,277,,40,85,352,33,41,58,082,,49,32,274,*7C
$GPGSV,5,5,17,50,10,089,37*4E
$GLGSV,3,1,09,67,20,035,39,68,65,071,27,69,49,184,33,73,12,300,35*62
$GLGSV,3,2,09,79,27,182,35,80,42,247,20,81,04,075,34,82,09,031,38*64
$GLGSV,3,3,09,83,04,344,32*51
$GNGLL,0419.72633,S,05539.92449,E,080809.00,A,A*64
$GNRMC,080810.00,A,0419.72632,S,05539.92450,E,0.002,,030625,,,A*7C
$GNVTG,,T,,M,0.002,N,0.004,K,A*3B
$GNGGA,080810.00,0419.72632,S,05539.92450,E,1,12,0.58,10.7,M,-47.6,M,,*40
$GNGSA,A,3,25,23,12,15,29,18,24,10,28,32,26,,1.15,0.58,1.00*1E
$GNGSA,A,3,79,80,67,68,82,69,73,,,,,,1.15,0.58,1.00*1D
$GPGSV,5,1,17,10,47,253,27,12,26,154,34,15,33,059,34,18,17,349,40*72
$GPGSV,5,2,17,23,57,329,37,24,15,128,43,25,55,180,37,26,15,306,36*73
$GPGSV,5,3,17,28,14,236,33,29,45,038,38,31,02,259,,32,23,202,38*7E
$GPGSV,5,4,17,36,52,277,,40,85,352,34,41,58,082,,49,32,274,*7B
$GPGSV,5,5,17,50,10,089,37*4E
$GLGSV,3,1,09,67,20,035,38,68,65,071,27,69,49,184,33,73,12,300,35*63
$GLGSV,3,2,09,79,27,182,34,80,42,247,21,81,04,075,33,82,09,031,38*63
$GLGSV,3,3,09,83,04,344,30*53
$GNGLL,0419.72632,S,05539.92450,E,080810.00,A,A*65
$GNRMC,080811.00,A,0419.72631,S,05539.92450,E,0.009,,030625,,,A*75
$GNVTG,,T,,M,0.009,N,0.016,K,A*33
$GNGGA,080811.00,0419.72631,S,05539.92450,E,1,12,0.58,10.7,M,-47.6,M,,*42
$GNGSA,A,3,25,23,12,15,29,18,24,10,28,32,26,,1.15,0.58,1.00*1E
$GNGSA,A,3,79,80,67,68,82,69,73,,,,,,1.15,0.58,1.00*1D
$GPGSV,5,1,17,10,47,253,27,12,26,154,33,15,33,059,34,18,17,349,39*7B
$GPGSV,5,2,17,23,57,329,37,24,15,128,42,25,55,180,36,26,15,306,36*73
$GPGSV,5,3,17,28,14,236,33,29,45,038,39,31,02,259,,32,23,202,38*7F
$GPGSV,5,4,17,36,52,277,,40,85,352,34,41,58,082,,49,32,274,*7B
$GPGSV,5,5,17,50,10,089,37*4E
$GLGSV,3,1,09,67,20,035,38,68,65,071,28,69,49,184,33,73,12,300,35*6C
$GLGSV,3,2,09,79,27,182,34,80,42,247,22,81,04,075,33,82,09,031,38*60
$GLGSV,3,3,09,83,04,344,30*53
$GNGLL,0419.72631,S,05539.92450,E,080811.00,A,A*67
$GNRMC,080812.00,A,0419.72630,S,05539.92451,E,0.014,,030625,,,A*7A
$GNVTG,,T,,M,0.014,N,0.025,K,A*3F
$GNGGA,080812.00,0419.72630,S,05539.92451,E,1,12,0.58,10.7,M,-47.6,M,,*41
$GNGSA,A,3,25,23,12,15,29,18,24,10,28,32,26,,1.15,0.58,1.00*1E
$GNGSA,A,3,79,80,67,68,82,69,73,,,,,,1.15,0.58,1.00*1D
$GPGSV,5,1,17,10,47,253,28,12,26,154,33,15,33,059,34,18,17,349,40*7A
$GPGSV,5,2,17,23,57,329,36,24,15,128,43,25,55,180,37,26,15,306,39*7D
$GPGSV,5,3,17,28,14,236,33,29,45,038,38,31,02,259,,32,23,202,37*71
$GPGSV,5,4,17,36,52,277,,40,85,352,34,41,58,082,,49,32,274,*7B
$GPGSV,5,5,17,50,10,089,38*41
$GLGSV,3,1,09,67,20,035,39,68,65,071,28,69,49,184,34,73,12,300,36*69
$GLGSV,3,2,09,79,27,182,34,80,42,247,24,81,04,075,33,82,09,031,36*68
$GLGSV,3,3,09,83,04,344,30*53
$GNGLL,0419.72630,S,05539.92451,E,080812.00,A,A*64
$GNRMC,080813.00,A,0419.72629,S,05539.92452,E,0.024,,030625,,,A*73
$GNVTG,,T,,M,0.024,N,0.044,K,A*3B
$GNGGA,080813.00,0419.72629,S,05539.92452,E,1,12,0.58,10.6,M,-47.6,M,,*4A
$GNGSA,A,3,25,23,12,15,29,18,24,10,28,32,26,,1.15,0.58,1.00*1E
$GNGSA,A,3,79,80,67,68,82,69,73,,,,,,1.15,0.58,1.00*1D
$GPGSV,5,1,17,10,47,253,27,12,26,154,33,15,33,059,33,18,17,349,41*73
$GPGSV,5,2,17,23,57,329,36,24,15,128,43,25,55,180,37,26,15,306,38*7C
$GPGSV,5,3,17,28,14,236,34,29,45,038,38,31,02,259,,32,23,202,36*77
$GPGSV,5,4,17,36,52,277,,40,85,352,34,41,58,082,,49,32,274,*7B
$GPGSV,5,5,17,50,10,089,38*41
$GLGSV,3,1,09,67,20,035,39,68,65,071,29,69,49,184,33,73,12,300,36*6F
$GLGSV,3,2,09,79,27,182,34,80,42,247,22,81,04,075,33,82,09,031,37*6F
$GLGSV,3,3,09,83,04,344,32*51
$GNGLL,0419.72629,S,05539.92452,E,080813.00,A,A*6E
$GNRMC,080814.00,A,0419.72629,S,05539.92452,E,0.011,,030625,,,A*72
$GNVTG,,T,,M,0.011,N,0.020,K,A*3F
$GNGGA,080814.00,0419.72629,S,05539.92452,E,1,12,0.58,10.6,M,-47.6,M,,*4D
$GNGSA,A,3,25,23,12,15,29,18,24,10,28,32,26,,1.15,0.58,1.00*1E
$GNGSA,A,3,79,80,67,68,82,69,73,,,,,,1.15,0.58,1.00*1D
$GPGSV,5,1,17,10,47,253,26,12,26,154,33,15,33,059,33,18,17,349,41*72
$GPGSV,5,2,17,23,57,329,36,24,15,128,43,25,55,180,37,26,15,306,39*7D
$GPGSV,5,3,17,28,14,236,34,29,45,038,38,31,02,259,,32,23,202,36*77
$GPGSV,5,4,17,36,52,277,,40,85,352,34,41,58,082,,49,32,274,*7B
$GPGSV,5,5,17,50,10,089,37*4E
$GLGSV,3,1,09,67,20,035,39,68,65,071,30,69,49,184,32,73,12,300,37*67
$GLGSV,3,2,09,79,27,182,34,80,42,247,20,81,04,075,33,82,09,031,37*6D
$GLGSV,3,3,09,83,04,344,33*50
$GNGLL,0419.72629,S,05539.92452,E,080814.00,A,A*69
$GNRMC,080815.00,A,0419.72628,S,05539.92453,E,0.018,,030625,,,A*7A
$GNVTG,,T,,M,0.018,N,0.033,K,A*34
$GNGGA,080815.00,0419.72628,S,05539.92453,E,1,12,0.58,10.6,M,-47.6,M,,*4C
$GNGSA,A,3,25,23,12,15,29,18,24,10,28,32,26,,1.15,0.58,1.00*1E
$GNGSA,A,3,79,80,67,68,82,69,73,,,,,,1.15,0.58,1.00*1D
$GPGSV,5,1,17,10,47,253,26,12,26,154,32,15,33,059,33,18,17,349,41*73
$GPGSV,5,2,17,23,57,329,36,24,15,128,43,25,55,180,37,26,15,306,39*7D
$GPGSV,5,3,17,28,14,236,35,29,45,038,38,31,02,259,,32,23,202,37*77
$GPGSV,5,4,17,36,52,277,,40,85,352,34,41,58,082,,49,32,274,*7B
$GPGSV,5,5,17,50,10,089,37*4E
$GLGSV,3,1,09,67,19,035,39,68,65,071,29,69,49,184,32,73,12,300,37*65
$GLGSV,3,2,09,79,27,182,34,80,42,247,18,81,04,075,34,82,09,031,37*61
$GLGSV,3,3,09,83,04,344,33*50
$GNGLL,0419.72628,S,05539.92453,E,080815.00,A,A*68
$GNRMC,080816.00,A,0419.72627,S,05539.92454,E,0.020,,030625,,,A*7A
$GNVTG,,T,,M,0.020,N,0.037,K,A*3B
$GNGGA,080816.00,0419.72627,S,05539.92454,E,1,12,0.58,10.5,M,-47.6,M,,*44
$GNGSA,A,3,25,23,12,15,29,18,24,10,28,32,26,,1.15,0.58,1.00*1E
$GNGSA,A,3,79,80,67,68,82,69,73,,,,,,1.15,0.58,1.00*1D
$GPGSV,5,1,17,10,47,253,27,12,26,154,32,15,33,059,34,18,17,349,41*75
$GPGSV,5,2,17,23,57,329,36,24,15,128,43,25,55,180,37,26,15,306,39*7D
$GPGSV,5,3,17,28,14,236,35,29,45,038,38,31,02,259,,32,23,202,37*77
$GPGSV,5,4,17,36,52,277,,40,85,352,34,41,58,082,,49,32,274,*7B
$GPGSV,5,5,17,50,10,089,37*4E
$GLGSV,3,1,09,67,19,035,39,68,65,069,29,69,49,184,32,73,12,300,37*6C
$GLGSV,3,2,09,79,27,182,34,80,42,247,18,81,04,075,33,82,09,031,37*66
$GLGSV,3,3,09,83,04,344,32*51
$GNGLL,0419.72627,S,05539.92454,E,080816.00,A,A*63
$GNRMC,080817.00,A,0419.72626,S,05539.92455,E,0.002,,030625,,,A*7B
$GNVTG,,T,,M,0.002,N,0.004,K,A*3B
$GNGGA,080817.00,0419.72626,S,05539.92455,E,1,12,0.58,10.5,M,-47.6,M,,*45
$GNGSA,A,3,25,23,12,15,29,18,24,10,28,32,26,,1.15,0.58,1.00*1E
$GNGSA,A,3,79,80,67,68,82,69,73,,,,,,1.15,0.58,1.00*1D
$GPGSV,5,1,17,10,47,253,27,12,26,154,32,15,33,059,34,18,17,349,41*75
$GPGSV,5,2,17,23,57,329,36,24,15,128,42,25,55,180,38,26,15,306,39*73
$GPGSV,5,3,17,28,14,236,34,29,45,038,39,31,02,259,,32,23,202,37*77
$GPGSV,5,4,17,36,52,277,,40,85,352,34,41,58,082,,49,32,274,*7B
$GPGSV,5,5,17,50,10,089,37*4E
$GLGSV,3,1,09,67,19,035,39,68,65,069,30,69,49,184,32,73,12,300,37*64
$GLGSV,3,2,09,79,27,182,34,80,42,247,19,81,04,075,32,82,09,031,37*66
$GLGSV,3,3,09,83,04,344,31*52
$GNGLL,0419.72626,S,05539.92455,E,080817.00,A,A*62
$GNRMC,080818.00,A,0419.72625,S,05539.92455,E,0.000,,030625,,,A*75
$GNVTG,,T,,M,0.000,N,0.001,K,A*3C
$GNGGA,080818.00,0419.72625,S,05539.92455,E,1,12,0.58,10.5,M,-47.6,M,,*49
$GNGSA,A,3,25,23,12,15,29,18,24,10,28,32,26,,1.15,0.58,1.00*1E
$GNGSA,A,3,79,80,67,68,82,69,73,,,,,,1.15,0.58,1.00*1D
$GPGSV,5,1,17,10,47,253,29,12,26,154,33,15,33,059,34,18,17,349,40*7B
$GPGSV,5,2,17,23,57,329,36,24,15,128,42,25,55,180,38,26,15,306,39*73
$GPGSV,5,3,17,28,14,236,34,29,45,038,38,31,02,259,,32,23,202,37*76
$GPGSV,5,4,17,36,52,277,,40,85,352,34,41,58,082,,49,32,274,*7B
$GPGSV,5,5,17,50,10,089,37*4E
$GLGSV,3,1,09,67,19,035,38,68,65,069,29,69,49,184,33,73,12,300,38*63
$GLGSV,3,2,09,79,27,182,34,80,42,247,19,81,04,075,32,82,09,031,36*67
$GLGSV,3,3,09,83,04,344,31*52
$GNGLL,0419.72625,S,05539.92455,E,080818.00,A,A*6E
$GNRMC,080819.00,A,0419.72624,S,05539.92456,E,0.019,,030625,,,A*7E
$GNVTG,,T,,M,0.019,N,0.036,K,A*30
$GNGGA,080819.00,0419.72624,S,05539.92456,E,1,12,0.58,10.5,M,-47.6,M,,*4A
$GNGSA,A,3,25,23,12,15,29,18,24,10,28,32,26,,1.15,0.58,1.00*1E
$GNGSA,A,3,79,80,67,68,82,69,73,,,,,,1.15,0.58,1.00*1D
$GPGSV,5,1,17,10,47,253,29,12,26,154,33,15,33,059,34,18,17,349,39*75
$GPGSV,5,2,17,23,57,329,36,24,15,128,42,25,55,180,38,26,15,306,39*73
$GPGSV,5,3,17,28,14,236,34,29,45,038,39,31,02,259,,32,23,202,37*77
$GPGSV,5,4,17,36,52,277,,40,85,352,33,41,58,082,,49,32,274,*7C
$GPGSV,5,5,17,50,10,089,37*4E
$GLGSV,3,1,09,67,19,035,38,68,65,069,29,69,49,184,34,73,12,300,38*64
$GLGSV,3,2,09,79,27,182,34,80,42,247,20,81,04,075,31,82,09,031,36*6E
$GLGSV,3,3,09,83,04,344,32*51
$GNGLL,0419.72624,S,05539.92456,E,080819.00,A,A*6D
$GNRMC,080820.00,A,0419.72623,S,05539.92457,E,0.065,,030625,,,A*79
$GNVTG,,T,,M,0.065,N,0.121,K,A*3C
$GNGGA,080820.00,0419.72623,S,05539.92457,E,1,12,0.58,10.5,M,-47.6,M,,*46
$GNGSA,A,3,25,23,12,15,29,18,24,10,28,32,26,,1.15,0.58,1.00*1E
$GNGSA,A,3,79,80,67,68,82,69,73,,,,,,1.15,0.58,1.00*1D
$GPGSV,5,1,17,10,47,253,22,12,26,154,29,15,33,059,33,18,17,349,38*73
$GPGSV,5,2,17,23,57,329,33,24,15,128,42,25,55,180,32,26,15,306,36*73
$GPGSV,5,3,17,28,14,236,29,29,45,038,36,31,02,259,,32,23,202,37*74
$GPGSV,5,4,17,36,52,277,,40,85,352,33,41,58,082,,49,32,274,*7C
$GPGSV,5,5,17,50,10,089,37*4E
$GLGSV,3,1,09,67,19,035,38,68,65,069,28,69,49,184,23,73,12,300,34*6F
$GLGSV,3,2,09,79,27,182,30,80,42,247,21,81,04,075,31,82,09,031,39*64
$GLGSV,3,3,09,83,04,344,27*55
$GNGLL,0419.72623,S,05539.92457,E,080820.00,A,A*61
